#------------------------------------------------------------------------------
# Created by    : vladimir.rabinovich
# Created on    : 09/19/2023 17:20:52
#------------------------------------------------------------------------------
~Version Information Section
VERS.           2.0     :   CWLS log ASCII Standard - VERSION 2.0
WRAP.           NO      :   One line per depth step
~Well Information Section
#MNEM       .UNIT                                         VALUE :DESCRIPTION
#------------------------------------------------------------------------------
STRT        .FT                                            1025 :START DEPTH
STOP        .FT                                            8930 :STOP DEPTH
STEP        .FT                                             0.5 :STEP      
NULL        .                                           -999.25 :NULL      
COMP        .                                     MEREDITH & CO :COMPANY   
WELL        .                                 BROUSSARD JR ETAL :WELL      
FLD         .                                           WILDCAT :FIELD     
LOC         .                                                   :LOCATION  
CNTY        .                                         JEFFERSON :LOCATION  
STAT        .                                             TEXAS :STATE     
CTRY        .                                     UNITED STATES :COUNTRY   
SRVC        .                                                   :SERVICE COMPANY
DATE        .                             9/13/2023 11:19:11 AM :LOG DATE  
API         .                                    42245021860000 :API NUMBER
UWI         .                                    42245021860000 :UNIQUE WELL ID
XCOORD      .                                  1217776.66937412 :SURFACE X 
YCOORD      .                                  10884677.7702762 :SURFACE Y 
LAT         .                                        29.9846645 :LATITUDE  
LON         .                                       -94.3353628 :LONGITUDE 
ELEV        .FT                                              34 :ELEVATION VALUE
ELEV_TYPE   .                                                DF :ELEVATION REFERENCE TYPE
~Curve Information Section
#MNEM       .UNIT                                      API CODE :CURVE DESCRIPTION
#------------------------------------------------------------------------------
DEPT        .FT                                                 :DEPTH     
ASN         .OHMM                                               :          
LAT         .OHMM                                               :          
LN          .OHMM                                               :          
SP          .MV                                                 :          
SP_NORM     .MV                                                 :SP Normalized
VSH_SP      .V/V                                                :Volume of Shale from SP
~A        DEPTH            ASN            LAT             LN             SP        SP_NORM         VSH_SP
# ...
      7333.0000         0.7491         0.3929         0.5179       -73.5714       -39.0035      0.6345817
      7333.5000         0.8393         0.3929         0.5179       -70.7143       -36.1464      0.6620538
      7334.0000         0.9286          0.375         0.5179       -76.0714       -41.5035      0.6105433
      7334.5000         1.0179          0.375         0.5357       -92.8571       -58.2892      0.4491423
      7335.0000         1.0643          0.375         0.5357       -90.7143       -56.1464      0.4697461
      7335.5000         1.1143          0.375         0.5536       -85.7143       -51.1464      0.5178231
      7336.0000         1.1357          0.375         0.5536       -81.0714       -46.5035      0.5624663
      7336.5000         1.1679         0.3929         0.5714       -76.0714       -41.5035      0.6105433
      7337.0000         1.1679         0.3929         0.5893       -75.3571       -40.7892      0.6174116
      7337.5000         1.1429         0.4107         0.5893       -74.6429        -40.075      0.6242789
      7338.0000         1.1071         0.4107         0.5893       -73.9286      -39.36069      0.6311471
      7338.5000         1.0107         0.4107         0.5893          -72.5       -37.9321      0.6448837
      7339.0000         0.8857         0.4107         0.5893       -71.4286      -36.86069      0.6551856
      7339.5000         0.7818         0.4107         0.5893       -68.5714       -34.0035      0.6826586
      7340.0000         0.6945         0.4107         0.5893       -56.7273       -22.1594      0.7965443
      7340.5000         0.5644         0.4464          0.608       -38.2143      -3.646397      0.9745539
      7341.0000         0.5502         0.4643         0.6089       -32.1429       2.425003              1
      7341.5000         0.5647         0.4821         0.6098       -31.4286       3.139301              1
      7342.0000         0.5756         0.4821         0.6285       -30.7143       3.853601              1
      7342.5000         0.5865         0.4821         0.6294            -30       4.567902              1
      7343.0000         0.6011         0.4821         0.6302       -29.2857       5.282202              1
      7343.5000         0.6121         0.4821          0.649       -28.5714       5.996502              1
      7344.0000         0.6339         0.4821         0.6677       -29.6429       4.925001              1
      7344.5000         0.6521         0.4643         0.6864       -30.3571       4.210802              1
      7345.0000         0.6775         0.4464         0.7051       -31.4286       3.139301              1
      7345.5000         0.6992         0.4464         0.7239       -32.1429       2.425003              1
      7346.0000         0.7173         0.4286         0.7247          -32.5       2.067902              1
      7346.5000         0.7281         0.4107         0.7435       -33.2143       1.353603              1
      7347.0000          0.739         0.3929         0.7443       -33.5714      0.9965019              1
      7347.5000         0.7498         0.3929         0.7631       -33.5714      0.9965019              1
      7348.0000         0.7534         0.3929         0.7639       -33.2143       1.353603              1
      7348.5000         0.7463         0.3929         0.7648       -33.2143       1.353603              1
      7349.0000         0.7284         0.3929         0.7657       -33.2143       1.353603              1
      7349.5000         0.6963         0.3929         0.7487       -32.8571         1.7108              1
      7350.0000          0.675         0.3929         0.7317       -31.0714       3.496502              1
      7350.5000         0.6608          0.375         0.7321       -31.0674       3.500502              1
      7351.0000         0.6358         0.3929         0.7321       -32.1323         2.4356              1
      7351.5000         0.6286         0.3929         0.7321       -32.8412         1.7267              1
      7352.0000         0.6287          0.375         0.7321        -33.193       1.374901              1
      7352.5000         0.6323          0.375         0.7321       -33.1869       1.381001              1
      7353.0000         0.6359         0.3929         0.7321       -32.8219       1.746002              1
      7353.5000         0.6431         0.3929         0.7321       -32.4562       2.111702              1
      7354.0000         0.6539         0.3929         0.7321       -32.0899       2.478001              1
      7354.5000         0.6648         0.4107           0.75       -31.7229       2.845001              1
      7355.0000         0.6721         0.4286           0.75       -31.7154       2.852501              1
      7355.5000         0.6757         0.4286           0.75       -31.3475       3.220402              1
      7356.0000         0.6794         0.4464           0.75       -31.3396       3.228302              1
      7356.5000         0.6831         0.4464         0.7679        -31.693       2.874901              1
      7357.0000         0.6904         0.4464         0.7679       -31.6855       2.882402              1
      7357.5000         0.7014         0.4464         0.7857       -31.3161       3.251802              1
      7358.0000         0.7159         0.4464         0.7857       -30.9461       3.621801              1
      7358.5000         0.7342         0.4464         0.8036       -30.9379       3.630001              1
      7359.0000         0.7597         0.4643         0.8036       -30.5669       4.001001              1
      7359.5000         0.7926         0.4821         0.7857       -30.1952       4.372702              1
      7360.0000         0.8069         0.5179         0.7679       -30.1863       4.381601              1
      7360.5000         0.8386         0.5714         0.7679       -29.4545       5.113401              1
      7361.0000         0.8526         0.6071           0.75       -29.4545       5.113401              1
      7361.5000         0.8526         0.6607           0.75       -30.5455       4.022402              1
      7362.0000          0.807         0.7143           0.75       -32.3636         2.2043              1
      7362.5000         0.7673           0.75           0.75       -33.8182      0.7497025              1
      7363.0000         0.7418           0.75           0.75       -34.9091      -0.341198              1
      7363.5000         0.7418         0.7321         0.7679            -36      -1.432098      0.9958452
      7364.0000         0.7527         0.7143         0.7679            -36      -1.432098      0.9958452
      7364.5000         0.7564         0.6786         0.7679            -36      -1.432098      0.9958452
      7365.0000         0.7564         0.6607         0.7679            -36      -1.432098      0.9958452
      7365.5000           0.72         0.6429         0.7679       -36.3636        -1.7957       0.992349
      7366.0000         0.7091         0.6429         0.7679       -36.7273      -2.159397       0.988852
      7366.5000         0.6982         0.6607         0.7679       -37.0909      -2.522999      0.9853558
      7367.0000         0.6909         0.6786           0.75       -37.4545      -2.886597      0.9818596
      7367.5000         0.6836         0.6964         0.7143       -37.4545      -2.886597      0.9818596
      7368.0000         0.6764         0.7143         0.7143       -37.4545      -2.886597      0.9818596
      7368.5000         0.6691         0.7321         0.7143       -37.0909      -2.522999      0.9853558
      7369.0000         0.6727         0.7679         0.6786       -37.0909      -2.522999      0.9853558
      7369.5000         0.6836         0.7857         0.6429       -37.0909      -2.522999      0.9853558
      7370.0000         0.6945         0.8036          0.625       -36.3636        -1.7957       0.992349
      7370.5000         0.7091         0.8036         0.5536            -36      -1.432098      0.9958452
