#------------------------------------------------------------------------------
# Created by    : vladimir.rabinovich
# Created on    : 09/19/2023 17:22:03
#------------------------------------------------------------------------------
~Version Information Section
VERS.           2.0     :   CWLS log ASCII Standard - VERSION 2.0
WRAP.           NO      :   One line per depth step
~Well Information Section
#MNEM       .UNIT                                         VALUE :DESCRIPTION
#------------------------------------------------------------------------------
STRT        .FT                                             959 :START DEPTH
STOP        .FT                                            9240 :STOP DEPTH
STEP        .FT                                             0.5 :STEP      
NULL        .                                           -999.25 :NULL      
COMP        .                                  SAMEDAN OIL CORP :COMPANY   
WELL        .                                            WILBER :WELL      
FLD         .                                     HAMSHIRE WEST :FIELD     
LOC         .                                                   :LOCATION  
CNTY        .                                         JEFFERSON :LOCATION  
STAT        .                                             TEXAS :STATE     
CTRY        .                                     UNITED STATES :COUNTRY   
SRVC        .                                                   :SERVICE COMPANY
DATE        .                             9/13/2023 11:18:46 AM :LOG DATE  
API         .                                    42245321080000 :API NUMBER
UWI         .                                    42245321080000 :UNIQUE WELL ID
XCOORD      .                                  1220512.54732583 :SURFACE X 
YCOORD      .                                  10829820.5318697 :SURFACE Y 
LAT         .                                        29.8338887 :LATITUDE  
LON         .                                       -94.3247224 :LONGITUDE 
ELEV        .FT                                              24 :ELEVATION VALUE
ELEV_TYPE   .                                                KB :ELEVATION REFERENCE TYPE
~Curve Information Section
#MNEM       .UNIT                                      API CODE :CURVE DESCRIPTION
#------------------------------------------------------------------------------
DEPT        .FT                                                 :DEPTH     
CALI        .IN                                                 :          
DPSS        .%                                                  :          
DRHO        .G/CM3                                              :          
GR          .GAPI                                               :          
GR_NORM     .GAPI                                               :GammaRay Normalized
ILD         .OHMM                                               :          
ILM         .OHMM                                               :          
NPSS        .%                                                  :Neutron Porosity Sandstone
SGRD        .OHMM                                               :          
SP          .MV                                                 :          
SP_NORM     .MV                                                 :SP Normalized
TENS        .LB                                                 :          
VSH_GR      .V/V                                                :Volume of Shale from GR
VSH_SP      .V/V                                                :Volume of Shale from SP
~A        DEPTH           CALI           DPSS           DRHO             GR        GR_NORM            ILD            ILM           NPSS           SGRD             SP        SP_NORM           TENS         VSH_GR         VSH_SP
# ...
      8105.0000         12.372        18.8048         0.1725        43.5078       32.58187         1.6604         1.7074          25.08         2.5415       -96.3146      -12.69514       4318.334              0      0.8172634
      8105.5000        12.3917        16.4192         0.1985        43.2085       32.28053         1.6072         1.7476          24.06         2.8386       -94.9294      -11.32886       4298.587              0      0.8386116
      8106.0000        12.3915        15.5849         0.1714        41.7139        30.7839          1.485         1.7722        22.6279         3.1852       -92.7462      -9.164566       4338.568              0      0.8724287
      8106.5000        12.3913        21.4957         0.1264          39.62       28.68796         1.3657         1.6682         22.092         3.0278       -90.1622      -6.599472       4338.737              0      0.9125082
      8107.0000         12.451          27.06         0.1223        41.8601       30.92603         1.2444         1.4374          25.02          2.427       -89.5693      -6.025482       4338.907              0      0.9214768
      8107.5000        12.5107          31.26         0.1443        54.6797        43.7436         1.1551         1.2329          29.76         1.4175       -89.3742      -5.849289        4279.24      0.2285871      0.9242299
      8108.0000        12.4906          31.62         0.1602        68.4996       57.56147         1.0975         1.0924          33.96          0.852       -88.7803      -5.274292        4279.38      0.5225845      0.9332142
      8108.5000        12.5104          30.36         0.1552          82.35       71.40983         1.0476         0.9958        37.6771         0.7059       -88.3855      -4.898399       4279.521      0.8172304      0.9390875
      8109.0000        12.5103          28.08         0.1401          86.55        75.6078         0.9833         0.9958        39.7754         0.8142       -87.7905      -4.322311       4279.661       0.906549      0.9480889
      8109.5000        12.5102          25.32         0.1341          80.85       69.90576         0.9153         1.0141        38.1584         1.1129       -87.3947      -3.945419       4279.801       0.785229      0.9539778
      8110.0000        12.5101        22.8116          0.154        71.9703       61.02403         0.8601          0.975          34.02         1.4441       -87.3985      -3.968124       4279.942       0.596256      0.9536231
      8110.5000        12.5095        23.1102         0.1739         67.413        56.4647         0.8523         0.9308        31.8005         1.5483       -86.6178      -3.206337       4280.507      0.4992489       0.965526
      8111.0000        12.5486        25.4435         0.1558        70.2708       59.32047         0.8638         0.9112        33.5427          1.144       -86.2475      -2.854942       4281.371      0.5600099      0.9710165
      8111.5000        12.5477        26.5244         0.1316        74.6389       63.68653         0.8754         0.9071         37.326         0.9663       -85.8772      -2.503548       4362.127      0.6529049      0.9765071
      8112.0000        12.5468        25.5079         0.1255        77.7698        66.8154         0.8712         0.9069        39.6043         0.9031       -86.3069      -2.952164       4362.867      0.7194766      0.9694974
      8112.5000        12.5459        24.0135         0.1383        80.2975       69.34106           0.84         0.9029        39.1865         0.9578       -87.1366      -3.800766       4363.688      0.7732142       0.956238
      8113.0000        12.4852        23.4804         0.1362        84.4752       73.51673         0.8136         0.8669         38.051         0.9739       -87.1663      -3.849373       4344.565      0.8620581      0.9554785
      8113.5000        12.4245         23.662          0.122         88.203        77.2425         0.7842         0.8321        37.3354         0.9375        -86.396      -3.097984       4345.395      0.9413298       0.967219
      8114.0000        12.3838        23.7244         0.1089        89.8323       78.86977         0.7627         0.8169        37.5168         0.9062       -85.6257      -2.346596       4326.299      0.9759524      0.9789594
      8114.5000         12.383        23.7273         0.1007         90.553       79.58843         0.7696         0.8131        38.1763         0.8942       -85.4554      -2.195198       4327.138      0.9912432       0.981325
      8115.0000         12.422        23.5511         0.0966        91.8655        80.8989         0.7801         0.8166        38.2976         0.9058       -85.0851      -1.843803       4288.166              1      0.9868156
      8115.5000        12.3814        23.0759         0.0905        90.3581       79.38947         0.7908         0.8201        38.0011          0.921       -84.7178      -1.495415       4289.022      0.9870099      0.9922591
      8116.0000        12.4004        22.4212         0.0943        87.9394       76.96873         0.8015         0.8311        37.1082         0.9325       -84.7475      -1.544022       4269.993       0.935505      0.9914997
      8116.5000        12.4195        21.3475         0.1011        85.9671        74.9944         0.8197         0.8734        36.8125         0.9684       -84.1772       -0.99263       4290.732      0.8934979              1
      8117.0000        12.4187        20.2727          0.109        84.5948       73.62007         0.8459         0.8932        36.6959         1.0346       -84.2069      -1.041237       4291.586      0.8642569      0.9993557
      8117.5000        12.4575        19.9148         0.1078        85.7725       74.79573         0.9048         0.9125        35.6813         1.0938       -84.4366      -1.289848       4292.438      0.8892708      0.9954711
      8118.0000        12.4567        20.2151         0.1027        86.0502        75.0714         0.9637         0.9357        34.5353         1.0734       -83.8663     -0.7384567       4293.291      0.8951362              1
      8118.5000        12.4558        20.5756         0.1045         82.878       71.89716         1.0387         0.9965        34.2351         1.0339        -83.496     -0.3870621       4294.142      0.8275992              1
      8119.0000        12.4749        20.6368         0.1064        77.1557       66.17284         1.1136         1.0981         33.753         1.1292       -83.7257     -0.6356735       4275.167       0.705805              1
      8119.5000        12.4939        20.1585         0.1142        74.7332        63.7483         1.1993         1.2105        32.1197         1.2741       -85.1554      -2.084282       4295.842      0.6542191      0.9830581
      8120.0000        12.5326        19.1398         0.1251        71.2602       60.27327         1.2857         1.3345        29.4652         1.4851       -85.9851      -2.932884        4296.69      0.5802823      0.9697987
      8120.5000        12.5321        18.3617         0.1421        63.1545       52.16553         1.3848         1.4918        26.8523         1.7074         -85.39      -2.356697       4336.733      0.4077772      0.9788016
      8121.0000        12.5716        17.8858         0.1541        58.9621        47.9711         1.4372         1.4917        25.0702          1.909         -85.97      -2.955605       4376.534      0.3185341      0.9694437
      8121.5000        12.6509        18.1875         0.1672        59.2697       48.27666         1.4437         1.4916        24.8922         1.9179         -86.55      -3.554512       4416.375      0.3250354      0.9600857
      8122.0000        12.6508        19.0888         0.1643        63.3321       52.33704         1.4369         1.4639        25.9044         1.7231         -86.53      -3.553413        4416.58      0.4114263      0.9601029
      8122.5000        12.6309        19.9293         0.1395        71.0085        60.0114         1.4036         1.4102        28.1083         1.5335         -86.91      -3.952332       4416.786      0.5747106      0.9538698
