#------------------------------------------------------------------------------
# Created by    : vladimir.rabinovich
# Created on    : 09/19/2023 17:19:40
#------------------------------------------------------------------------------
~Version Information Section
VERS.           2.0     :   CWLS log ASCII Standard - VERSION 2.0
WRAP.           NO      :   One line per depth step
~Well Information Section
#MNEM       .UNIT                                         VALUE :DESCRIPTION
#------------------------------------------------------------------------------
STRT        .FT                                            1208 :START DEPTH
STOP        .FT                                            8860 :STOP DEPTH
STEP        .FT                                             0.5 :STEP      
NULL        .                                           -999.25 :NULL      
COMP        .                             WEAVER EXPLORATION CO :COMPANY   
WELL        .                                       BEAVERS W H :WELL      
FLD         .                                           WILDCAT :FIELD     
LOC         .                                                   :LOCATION  
CNTY        .                                         JEFFERSON :LOCATION  
STAT        .                                             TEXAS :STATE     
CTRY        .                                     UNITED STATES :COUNTRY   
SRVC        .                                                   :SERVICE COMPANY
DATE        .                             9/13/2023 11:18:46 AM :LOG DATE  
API         .                                    42245314920000 :API NUMBER
UWI         .                                    42245314920000 :UNIQUE WELL ID
XCOORD      .                                  1212655.17721247 :SURFACE X 
YCOORD      .                                  10886677.7304034 :SURFACE Y 
LAT         .                                        29.9899994 :LATITUDE  
LON         .                                       -94.3516153 :LONGITUDE 
ELEV        .FT                                            37.2 :ELEVATION VALUE
ELEV_TYPE   .                                                KB :ELEVATION REFERENCE TYPE
~Curve Information Section
#MNEM       .UNIT                                      API CODE :CURVE DESCRIPTION
#------------------------------------------------------------------------------
DEPT        .FT                                                 :DEPTH     
ALL         .OHMM                                               :          
CILD        .MMHO/M                                             :          
ILD         .OHMM                                               :          
SP          .MV                                                 :          
SP_NORM     .MV                                                 :SP Normalized
VSH_SP      .V/V                                                :Volume of Shale from SP
~A        DEPTH            ALL           CILD            ILD             SP        SP_NORM         VSH_SP
# ...
      4742.0000         1.1653            800         1.1387       151.7709      -5.071457      0.9449803
      4742.5000         1.1653       840.3017         1.1026       151.7857      -4.978745      0.9462332
      4743.0000         1.1653       856.4069         1.0666       151.8005      -4.886017      0.9474863
      4743.5000         1.1245       888.5907         1.0345       152.2175      -4.391113      0.9541742
      4744.0000         1.1143        920.739          1.014        152.433      -4.097702      0.9581392
      4744.5000         1.0918       956.8733         1.0245       152.4475      -4.005295      0.9593879
      4745.0000         1.0694       988.9486          1.025       152.8636      -3.511276      0.9660639
      4745.5000         1.0469       1004.973         1.0255       153.0785       -3.21846      0.9700208
      4746.0000         1.0265       1036.995         1.0159       153.2932      -2.925858      0.9739749
      4746.5000         1.0143       1072.996         0.9863       153.5008       -2.64035      0.9778331
      4747.0000         0.9941       1104.946         0.9569       153.5146      -2.548615      0.9790727
      4747.5000         0.9724        1136.86         0.9174       153.9293         -2.056      0.9857298
      4748.0000         0.9508       1168.741         0.8879       153.9429      -1.964493      0.9869663
      4748.5000         0.9292       1188.672         0.8584       153.9565      -1.872986      0.9882029
      4749.0000         0.9077       1208.569         0.8189       153.9701      -1.781479      0.9894395
      4749.5000         0.8979       1248.756         0.8094       153.7837      -1.889954      0.9879736
      4750.0000         0.8764       1288.889         0.7899       153.3984      -2.197342      0.9838197
      4750.5000          0.855       1333.333         0.7704       153.0082      -2.509628      0.9795996
      4751.0000         0.8551       1345.454         0.7509        152.618      -2.821915      0.9753795
      4751.5000         0.8532       1341.414         0.7513       152.2278      -3.134201      0.9711595
      4752.0000         0.8513       1313.131         0.7518       151.6377      -3.646393      0.9642379
      4752.5000         0.8868        1296.97         0.7723       151.2475      -3.958679      0.9600179
      4753.0000         0.9104       1276.768         0.7928       150.8574      -4.270859      0.9557992
      4753.5000         0.9281       1260.606         0.8133       150.4672       -4.58316      0.9515789
      4754.0000          0.938       1232.323          0.844       150.0771       -4.89534      0.9473603
      4754.5000         0.9538       1212.121         0.8445       149.6869      -5.207611      0.9431404
      4755.0000         0.9539       1195.981          0.845       149.2968      -5.519806      0.9389216
      4755.5000          0.954       1183.913         0.8454       148.9067      -5.832001      0.9347027
      4756.0000          0.958       1183.905         0.8459       148.5166       -6.14418      0.9304841
      4756.5000          0.964       1183.898         0.8464       148.3264       -6.25647      0.9289666
      4757.0000         0.9719       1175.836         0.8469       149.9398      -4.565155      0.9518222
      4757.5000         0.9799        1167.76         0.8474       149.9494      -4.477646      0.9530048
      4758.0000         0.9878       1155.651         0.8579       149.9591       -4.39003      0.9541888
      4758.5000         0.9957       1143.531         0.8684       149.9687      -4.302505      0.9553716
      4759.0000         1.0059       1135.435         0.8788       149.5786        -4.6147      0.9511527
      4759.5000         1.0081       1111.166         0.8893       149.5882      -4.527191      0.9523352
      4760.0000         1.0122       1095.008         0.9098       149.5979      -4.439575      0.9535192
      4760.5000         1.0123       1078.711         0.9203       150.6069      -3.352661      0.9682073
      4761.0000         0.9982       1054.295         0.9308        152.815       -1.06665      0.9990993
      4761.5000         0.9787       1038.036         0.9515       152.8296     -0.9741364              1
      4762.0000         0.9651       1017.762          0.962       153.0392      -0.686615              1
      4762.5000         0.9652       1017.652         0.9625        153.049     -0.5989075              1
      4763.0000         0.9672       1017.543         0.9629       153.0587     -0.5112915              1
      4763.5000         0.9713       1045.606         0.9534       153.0685      -0.423584              1
      4764.0000         0.9753       1069.684         0.9339       152.8784     -0.5357666              1
      4764.5000         0.9793       1089.653         0.9044       152.6883     -0.6479645              1
      4765.0000         0.9853       1210.096         0.8649       152.2983     -0.9600525              1
      4765.5000         0.9677        1270.57         0.8255       152.1082      -1.072235      0.9990239
      4766.0000         0.9482       1391.519          0.776       151.7183      -1.384201      0.9948081
      4766.5000         0.9307       1451.994         0.7265       150.5289      -2.685593      0.9772217
      4767.0000         0.9112       1572.943          0.687       150.1389      -3.236984      0.9697705
      4767.5000         0.9015       1641.494         0.6375       149.5491      -3.988174      0.9596193
      4768.0000         0.9172       1673.599         0.6078       148.1599      -5.538773      0.9386652
      4768.5000         0.9389       1705.704         0.5885       147.5652      -6.294861      0.9284478
      4769.0000          0.939       1749.924          0.579       146.7755      -7.245956      0.9155952
      4769.5000         0.9371       1741.646         0.5695       145.9859      -8.196945       0.902744
      4770.0000         0.9274       1717.172           0.57       145.1963      -9.147934      0.8898928
      4770.5000         0.9216       1692.929         0.5804       144.4064      -10.09923      0.8770375
      4771.0000         0.9413       1676.768         0.5809       140.8185      -13.84853      0.8263713
      4771.5000         0.9944       1668.687         0.5914        137.202      -17.62642      0.7753187
      4772.0000          1.033       1652.525         0.5919       135.1877      -19.80211      0.7459174
      4772.5000         1.0882       1636.364         0.6023       134.9955       -20.1557      0.7411392
      4773.0000         1.1761       1632.323         0.6028       134.1975       -21.1151      0.7281744
      4773.5000         1.1762       1624.242         0.6033       133.8034      -21.67058      0.7206678
      4774.0000         1.1763       1620.202         0.6038       133.4092      -22.22618      0.7131597
      4774.5000         1.1397       1612.121         0.6045       133.8276      -21.96916       0.716633
      4775.0000         1.1071        1604.04          0.605        136.462      -19.49615       0.750052
      4775.5000          1.044        1595.96         0.6054       139.2982      -16.82135       0.786198
      4776.0000         1.0134       1587.879         0.5959       143.3171      -12.96385      0.8383263
      4776.5000         0.9523       1559.596         0.5964       145.9252      -10.51714        0.87139
      4777.0000         0.9209       1527.273         0.5969       150.1373      -6.466431      0.9261293
      4777.5000         0.8779       1494.949         0.6473       151.9459      -4.819214       0.948389
      4778.0000         0.8545       1446.465         0.6978       152.7551      -4.171417       0.957143
      4778.5000          0.831       1414.141         0.7285        153.969      -3.118912       0.971366
      4779.0000         0.8351       1385.859         0.7489       154.7783      -2.470993      0.9801217
      4779.5000         0.8646       1313.131         0.7694       154.5881      -2.822586      0.9753705
