#------------------------------------------------------------------------------
# Created by    : vladimir.rabinovich
# Created on    : 09/19/2023 17:19:40
#------------------------------------------------------------------------------
~Version Information Section
VERS.           2.0     :   CWLS log ASCII Standard - VERSION 2.0
WRAP.           NO      :   One line per depth step
~Well Information Section
#MNEM       .UNIT                                         VALUE :DESCRIPTION
#------------------------------------------------------------------------------
STRT        .FT                                            1208 :START DEPTH
STOP        .FT                                            8860 :STOP DEPTH
STEP        .FT                                             0.5 :STEP      
NULL        .                                           -999.25 :NULL      
COMP        .                             WEAVER EXPLORATION CO :COMPANY   
WELL        .                                       BEAVERS W H :WELL      
FLD         .                                           WILDCAT :FIELD     
LOC         .                                                   :LOCATION  
CNTY        .                                         JEFFERSON :LOCATION  
STAT        .                                             TEXAS :STATE     
CTRY        .                                     UNITED STATES :COUNTRY   
SRVC        .                                                   :SERVICE COMPANY
DATE        .                             9/13/2023 11:18:46 AM :LOG DATE  
API         .                                    42245314920000 :API NUMBER
UWI         .                                    42245314920000 :UNIQUE WELL ID
XCOORD      .                                  1212655.17721247 :SURFACE X 
YCOORD      .                                  10886677.7304034 :SURFACE Y 
LAT         .                                        29.9899994 :LATITUDE  
LON         .                                       -94.3516153 :LONGITUDE 
ELEV        .FT                                            37.2 :ELEVATION VALUE
ELEV_TYPE   .                                                KB :ELEVATION REFERENCE TYPE
~Curve Information Section
#MNEM       .UNIT                                      API CODE :CURVE DESCRIPTION
#------------------------------------------------------------------------------
DEPT        .FT                                                 :DEPTH     
ALL         .OHMM                                               :          
CILD        .MMHO/M                                             :          
ILD         .OHMM                                               :          
SP          .MV                                                 :          
SP_NORM     .MV                                                 :SP Normalized
VSH_SP      .V/V                                                :Volume of Shale from SP
~A        DEPTH            ALL           CILD            ILD             SP        SP_NORM         VSH_SP
# ...
      7782.0000           0.61       1858.586         0.5354       153.3333       2.258682              1
      7782.5000           0.63       1789.899         0.5354        152.549       1.486923              1
      7783.0000           0.65       1721.212         0.5354       151.9608      0.9112854              1
      7783.5000          0.704       1616.162         0.5657       149.4118      -1.625153       0.991552
      7784.0000          0.788           1544         0.6566        147.451       -3.57341      0.9652242
      7784.5000          0.844           1440         0.7172       145.8824      -5.129456      0.9441965
      7785.0000            0.9           1408         0.7172       144.1176      -6.881699      0.9205176
      7785.5000           0.99           1376         0.7071       142.3529       -8.63385      0.8968399
      7786.0000         1.0204           1452         0.6869       140.5882        -10.386      0.8731622
      7786.5000          0.966           1544         0.6667        139.596      -11.36565      0.8599237
      7787.0000          0.878       1737.374         0.6465       141.7647      -9.184402      0.8893999
      7787.5000          0.834       1931.313         0.6263       146.0784      -4.858139       0.947863
      7788.0000          0.746       1967.677         0.6162       148.2353       -2.68869      0.9771799
      7788.5000          0.628       2003.884         0.5758       149.0196       -1.89183      0.9879482
      7789.0000           0.63       2003.884         0.5354       149.6078      -1.291077      0.9960665
      7789.5000          0.666       1991.919         0.4949            150     -0.8863373              1
      7790.0000          0.702       1939.406         0.5151            150     -0.8737793              1
      7790.5000           0.72       1882.712          0.586        150.024     -0.8372192              1
      7791.0000         0.7141       1830.105         0.6669       150.0481     -0.8005829              1
      7791.5000         0.6821       1773.511          0.657       150.0723     -0.7638245              1
      7792.0000         0.6581       1757.296         0.6572       150.0966     -0.7269592              1
      7792.5000         0.6501       1696.731         0.6574        150.121     -0.6900177              1
      7793.0000         0.6341       1716.826         0.6475       150.1456     -0.6528625              1
      7793.5000            0.6       1793.266         0.6275       150.3696     -0.4163055              1
      7794.0000          0.612       1801.222         0.6176       150.3949     -0.3784637              1
      7794.5000         0.6402       1801.125         0.5877       150.4203     -0.3404999              1
      7795.0000         0.6703       1801.029         0.5879       150.4459     -0.3023376              1
      7795.5000         0.7388       1796.915         0.5781       150.2701     -0.4656067              1
      7796.0000         0.7449       1772.723         0.5783       149.8917     -0.8314514              1
      7796.5000         0.7449       1732.494         0.5885        149.309      -1.401581      0.9945732
      7797.0000         0.7108       1676.233         0.6289       148.7234       -1.97464      0.9868292
      7797.5000         0.7048       1640.104         0.6491       147.9315      -2.753983      0.9762976
      7798.0000         0.7008           1600         0.6493       147.9513      -2.721634      0.9767347
      7798.5000         0.6988       1583.866         0.6494       147.9711      -2.689285      0.9771718
      7799.0000         0.6989       1591.929         0.6496       148.1959       -2.45192      0.9803795
      7799.5000         0.6989       1624.017         0.6498       148.4218       -2.21347      0.9836017
      7800.0000          0.703       1676.064           0.65       148.6489      -1.973831      0.9868401
      7800.5000         0.7151       1675.906           0.64       149.2837      -1.334869      0.9962374
      7801.0000         0.7252       1671.745           0.64        149.289      -1.331848      0.9962714
      7801.5000         0.7291       1619.439           0.64       149.2943      -1.328827      0.9963053
      7802.0000         0.7673       1575.024           0.65       149.2996       -1.32579      0.9963394
      7802.5000         0.8116       1530.513           0.68       149.3049      -1.322784      0.9963732
      7803.0000         0.8175       1486.043            0.7       149.1047      -1.525253      0.9940983
      7803.5000         0.8334       1445.641           0.73       148.6992      -1.933029      0.9895165
      7804.0000         0.8414       1401.251           0.75       148.7048      -1.929703      0.9895539
      7804.5000         0.8674       1336.756           0.78       148.5051      -2.131699      0.9872843
      7805.0000         0.8673       1316.589           0.78       148.1005      -2.538574      0.9827126
      7805.5000         0.8673       1328.586           0.78       148.1064      -2.534943      0.9827535
      7806.0000         0.8632       1344.587           0.77       148.1123      -2.531326      0.9827941
      7806.5000         0.8591       1352.544           0.76       147.9133      -2.732605      0.9805325
      7807.0000          0.859       1368.517           0.75       147.7146      -2.933578      0.9782744
      7807.5000          0.859       1392.494           0.74        147.516      -3.134445      0.9760175
      7808.0000         0.8609       1412.439           0.73       147.5253      -3.127441      0.9760962
      7808.5000         0.8629        1436.37           0.72       147.7358       -2.91922      0.9784358
      7809.0000         0.8628       1456.272           0.71       148.1504      -2.506882      0.9830688
      7809.5000         0.8627       1480.157            0.7       148.3604      -2.299164      0.9854026
      7810.0000         0.8627           1504           0.69       148.7755      -1.886353       0.990041
      7810.5000          0.901           1524           0.68       149.1837      -1.480423       0.994602
      7811.0000          0.899           1548           0.67       149.3878      -1.278595      0.9968697
      7811.5000         0.8909           1568           0.66       149.7959     -0.8727875              1
      7812.0000         0.8808           1592           0.65       150.2041     -0.4668579              1
      7812.5000         0.8667       1612.121           0.64       150.2041     -0.4691315              1
      7813.0000         0.8485       1628.283           0.64       150.2041      -0.471405              1
      7813.5000         0.8424       1644.444           0.63       150.2041     -0.4736938              1
      7814.0000         0.8364       1660.606           0.62       150.2041     -0.4759674              1
      7814.5000         0.8323       1676.768           0.61       150.2041      -0.478241              1
      7815.0000         0.8303       1692.929            0.6       150.2041     -0.4805145              1
      7815.5000         0.8242       1709.091            0.6       150.2041     -0.4828033              1
      7816.0000         0.8081       1725.252            0.6       150.2041     -0.4850769              1
      7816.5000          0.804       1741.414            0.6       150.4082     -0.2832489              1
      7817.0000          0.802       1741.414            0.6       150.8163      0.1225586              1
      7817.5000            0.8       1741.414            0.6       151.6327      0.9366913              1
      7818.0000          0.798       1725.252            0.6       151.6327      0.9344177              1
      7818.5000          0.794       1684.849           0.61       150.4082     -0.2923584              1
      7819.0000          0.798       1664.646           0.62       149.1837       -1.51915      0.9941669
      7819.5000         0.8646           1600           0.66       148.1633      -2.541824      0.9826761
