#------------------------------------------------------------------------------
# Created by    : vladimir.rabinovich
# Created on    : 09/19/2023 17:20:52
#------------------------------------------------------------------------------
~Version Information Section
VERS.           2.0     :   CWLS log ASCII Standard - VERSION 2.0
WRAP.           NO      :   One line per depth step
~Well Information Section
#MNEM       .UNIT                                         VALUE :DESCRIPTION
#------------------------------------------------------------------------------
STRT        .FT                                            1025 :START DEPTH
STOP        .FT                                            8930 :STOP DEPTH
STEP        .FT                                             0.5 :STEP      
NULL        .                                           -999.25 :NULL      
COMP        .                                     MEREDITH & CO :COMPANY   
WELL        .                                 BROUSSARD JR ETAL :WELL      
FLD         .                                           WILDCAT :FIELD     
LOC         .                                                   :LOCATION  
CNTY        .                                         JEFFERSON :LOCATION  
STAT        .                                             TEXAS :STATE     
CTRY        .                                     UNITED STATES :COUNTRY   
SRVC        .                                                   :SERVICE COMPANY
DATE        .                             9/13/2023 11:19:11 AM :LOG DATE  
API         .                                    42245021860000 :API NUMBER
UWI         .                                    42245021860000 :UNIQUE WELL ID
XCOORD      .                                  1217776.66937412 :SURFACE X 
YCOORD      .                                  10884677.7702762 :SURFACE Y 
LAT         .                                        29.9846645 :LATITUDE  
LON         .                                       -94.3353628 :LONGITUDE 
ELEV        .FT                                              34 :ELEVATION VALUE
ELEV_TYPE   .                                                DF :ELEVATION REFERENCE TYPE
~Curve Information Section
#MNEM       .UNIT                                      API CODE :CURVE DESCRIPTION
#------------------------------------------------------------------------------
DEPT        .FT                                                 :DEPTH     
ASN         .OHMM                                               :          
LAT         .OHMM                                               :          
LN          .OHMM                                               :          
SP          .MV                                                 :          
SP_NORM     .MV                                                 :SP Normalized
VSH_SP      .V/V                                                :Volume of Shale from SP
~A        DEPTH            ASN            LAT             LN             SP        SP_NORM         VSH_SP
# ...
      8359.0000         0.7127         0.5714         0.7679        -34.386      -4.008524      0.9661964
      8359.5000         0.7273         0.5714         0.7857       -33.6842      -3.301317      0.9741425
      8360.0000         0.7382         0.5714         0.7857       -32.9825       -2.59421      0.9820876
      8360.5000         0.7382         0.5714         0.7857       -32.9825      -2.588804      0.9821483
      8361.0000         0.7382         0.5714         0.7857       -32.6316        -2.2325      0.9861517
      8361.5000         0.7382         0.5893         0.7857       -32.6316      -2.227095      0.9862124
      8362.0000         0.7382         0.5893         0.8036       -32.6316      -2.221689      0.9862732
      8362.5000         0.7418         0.5893         0.8036       -32.2807      -1.865385      0.9902766
      8363.0000         0.7491         0.5893         0.8036       -32.2807       -1.85998      0.9903373
      8363.5000           0.76         0.5893         0.8036       -31.5789      -1.152773      0.9982834
      8364.0000         0.7745         0.5893         0.8036       -31.2281     -0.7965679              1
      8364.5000         0.7855         0.5893         0.8036       -30.8772     -0.4402618              1
      8365.0000         0.7855         0.5893         0.8036       -30.1754       0.266943              1
      8365.5000         0.7891         0.5893         0.8214       -29.8246       0.623148              1
      8366.0000         0.7891         0.6071         0.8214       -29.4737       0.979454              1
      8366.5000         0.7891          0.625         0.8214       -29.4737      0.9848595              1
      8367.0000         0.7891         0.6429         0.8393       -29.4737      0.9902649              1
      8367.5000         0.7891         0.6607         0.8393       -29.4737      0.9956703              1
      8368.0000         0.7927         0.7143         0.8393       -29.8246       0.650177              1
      8368.5000          0.825         0.8036         0.8393       -30.1754      0.3047829              1
      8369.0000         0.8786          0.875         0.7679       -30.5263    -0.04071236              1
      8369.5000         0.8714         0.9286         0.7143       -30.5263    -0.03530693              1
      8370.0000          0.825              1         0.6964       -30.5263     -0.0299015              1
      8370.5000         0.7782         1.0357         0.6964       -30.8772     -0.3753948              1
      8371.0000         0.7273              1         0.6964       -31.2281       -0.72089              1
      8371.5000           0.68         0.9464         0.6964       -31.5789      -1.066284      0.9992552
      8372.0000         0.6473         0.8929         0.6964       -31.5789      -1.060879       0.999316
      8372.5000         0.6327         0.8393         0.6964       -31.9298      -1.406374       0.995434
      8373.0000         0.6145         0.7857         0.6964       -32.2807      -1.751869      0.9915521
      8373.5000         0.6145         0.7321         0.6964       -31.9298      -1.395563      0.9955555
      8374.0000         0.6145         0.7143         0.6964       -31.9298      -1.390158      0.9956162
      8374.5000         0.6145         0.6964         0.6964       -31.9298      -1.384752      0.9956769
      8375.0000         0.6182         0.6964         0.6964       -32.2807      -1.730247      0.9917949
      8375.5000         0.6182         0.6786         0.6607       -32.2807      -1.724842      0.9918557
      8376.0000         0.6109         0.6607         0.6607       -32.6316      -2.070335      0.9879737
      8376.5000         0.6036         0.6607         0.6429       -32.9825      -2.415829      0.9840918
      8377.0000            0.6         0.6607         0.6429       -33.6842      -3.112125      0.9762682
      8377.5000         0.5929         0.6607         0.6607       -34.0351      -3.457619      0.9723863
      8378.0000         0.5821         0.6607         0.6786       -34.7368      -4.153915      0.9645628
      8378.5000         0.6255         0.6429         0.6964       -35.4386      -4.850307      0.9567381
      8379.0000         0.6727         0.5893         0.7321       -42.8571       -12.2634      0.8734449
      8379.5000         0.7309         0.5179           0.75       -47.1429       -16.5438      0.8253506
      8380.0000            0.9         0.4464         0.7857       -51.4286      -20.82409      0.7772574
      8380.5000         1.0327          0.375         0.8214       -90.7143      -60.10439      0.3359057
      8381.0000         1.0255         0.3214         0.8214       -89.6429      -59.02758      0.3480047
      8381.5000         0.9714         0.2857         0.8214       -85.7143      -55.09358       0.392207
      8382.0000         0.9143         0.2857         0.8214       -81.4286      -50.80247      0.4404217
      8382.5000           0.85         0.2857         0.8214       -73.4545      -42.82296      0.5300791
      8383.0000         0.8571         0.2857         0.8214       -61.8182      -31.18126      0.6608847
      8383.5000         0.8679         0.3214         0.8214       -56.0714      -25.42905      0.7255163
      8384.0000          0.875         0.3214         0.8214       -50.3571      -19.70935      0.7897826
      8384.5000         0.8786         0.3571         0.8393       -50.3571      -19.70394      0.7898433
      8385.0000         0.8786         0.3571         0.8393       -51.4286      -20.77004      0.7778648
      8385.5000         0.8679         0.3929         0.8393       -54.6429      -23.97893      0.7418098
      8386.0000         0.8536         0.4107         0.8393       -57.1429      -26.47352      0.7137806
      8386.5000           0.85         0.4286         0.8393       -56.0714      -25.39662      0.7258807
      8387.0000         0.8536         0.4464         0.8393       -48.5714      -17.89121      0.8102111
      8387.5000         0.8571         0.4821         0.8393       -43.9286      -13.24301      0.8624381
      8388.0000           0.85         0.5179         0.8393       -43.2143       -12.5233      0.8705247
      8388.5000         0.8429         0.5536         0.8393       -41.7857       -11.0893      0.8866371
      8389.0000         0.8321         0.5893         0.8393       -40.3571      -9.655294      0.9027495
      8389.5000         0.8286         0.6071         0.8393       -39.2982      -8.590986       0.914708
      8390.0000         0.8214         0.6429         0.8393       -38.2456      -7.532984      0.9265957
      8390.5000         0.8071         0.6433         0.8219       -37.5416      -6.823576      0.9345666
      8391.0000         0.7891         0.6799         0.8228       -36.4817      -5.758272      0.9465362
      8391.5000         0.7746         0.6987         0.7879       -36.4754      -5.746565      0.9466678
      8392.0000         0.7565         0.7174         0.7888       -35.7628      -5.028559      0.9547353
      8392.5000         0.7384         0.7183         0.7719       -35.7551      -5.015455      0.9548825
      8393.0000          0.724         0.7371         0.7728       -35.0386       -4.29355      0.9629938
      8393.5000         0.7205         0.7379         0.7737       -35.0296      -4.279142      0.9631557
      8394.0000         0.7278         0.7388         0.7924       -35.0205      -4.264639      0.9633186
      8394.5000         0.7531         0.7397         0.7933       -35.3677      -4.606432      0.9594783
      8395.0000          0.782         0.7228         0.8299       -36.0732      -5.306528      0.9516121
      8395.5000         0.8071         0.7058         0.8308       -36.7813      -6.009222      0.9437166
      8396.0000         0.8357         0.6888         0.8317       -36.7754      -5.997915      0.9438437
      8396.5000         0.8357         0.6719         0.8326       -36.0515       -5.26861      0.9520381
