#------------------------------------------------------------------------------
# Created by    : vladimir.rabinovich
# Created on    : 09/19/2023 17:20:50
#------------------------------------------------------------------------------
~Version Information Section
VERS.           2.0     :   CWLS log ASCII Standard - VERSION 2.0
WRAP.           NO      :   One line per depth step
~Well Information Section
#MNEM       .UNIT                                         VALUE :DESCRIPTION
#------------------------------------------------------------------------------
STRT        .FT                                            1769 :START DEPTH
STOP        .FT                                           14822 :STOP DEPTH
STEP        .FT                                             0.5 :STEP      
NULL        .                                           -999.25 :NULL      
COMP        .                                      SHELL OIL CO :COMPANY   
WELL        .                                 MCFADDEN CEE CRSS :WELL      
FLD         .                                           WILDCAT :FIELD     
LOC         .                                                   :LOCATION  
CNTY        .                                         JEFFERSON :LOCATION  
STAT        .                                             TEXAS :STATE     
CTRY        .                                     UNITED STATES :COUNTRY   
SRVC        .                                                   :SERVICE COMPANY
DATE        .                             9/13/2023 11:19:11 AM :LOG DATE  
API         .                                    42245030100000 :API NUMBER
UWI         .                                    42245030100000 :UNIQUE WELL ID
XCOORD      .                                  1300794.63996209 :SURFACE X 
YCOORD      .                                  10796706.8159759 :SURFACE Y 
LAT         .                                        29.7451097 :LATITUDE  
LON         .                                       -94.0705183 :LONGITUDE 
ELEV        .FT                                            17.6 :ELEVATION VALUE
ELEV_TYPE   .                                                KB :ELEVATION REFERENCE TYPE
~Curve Information Section
#MNEM       .UNIT                                      API CODE :CURVE DESCRIPTION
#------------------------------------------------------------------------------
DEPT        .FT                                                 :DEPTH     
ASN         .OHMM                                               :          
DT          .US/F                                               :          
ILD         .OHMM                                               :          
SP          .MV                                                 :          
SP_NORM     .MV                                                 :SP Normalized
VSH_SP      .V/V                                                :Volume of Shale from SP
~A        DEPTH            ASN             DT            ILD             SP        SP_NORM         VSH_SP
# ...
     12181.0000         0.4872       140.1191         0.4731       -40.0951       1.880207              1
     12181.5000         0.4918       142.3511         0.4738       -40.0878       1.887508              1
     12182.0000          0.497       143.3716         0.4745       -40.0804       1.894909              1
     12182.5000         0.5021       141.0568         0.4752       -40.0732       1.902107              1
     12183.0000         0.5041       138.5825         0.4758       -40.0659       1.909409              1
     12183.5000         0.5046       136.1082         0.4765       -40.0585       1.916809              1
     12184.0000         0.5041       133.3778         0.4771       -40.0513       1.924007              1
     12184.5000         0.5035       134.5052         0.4778       -40.0497       1.925606              1
     12185.0000         0.5007       135.7628         0.4785       -40.0481       1.927208              1
     12185.5000          0.497       137.0204         0.4791       -40.0465       1.928806              1
     12186.0000         0.4932       137.5115         0.4785       -40.0449       1.930408              1
     12186.5000         0.4897       135.8618         0.4769       -40.0433       1.932007              1
     12187.0000         0.4883       134.7088         0.4752       -40.0417       1.933609              1
     12187.5000         0.4869       136.8864         0.4735       -40.0402       1.935108              1
     12188.0000         0.4882       137.3251         0.4719       -40.0386       1.936707              1
     12188.5000         0.4898       137.4823         0.4702        -40.037       1.938309              1
     12189.0000         0.4904       137.8665         0.4686       -40.0354       1.939907              1
     12189.5000         0.4898       138.4084         0.4664       -40.0338       1.941509              1
     12190.0000         0.4892       139.7971         0.4638       -40.0322       1.943108              1
     12190.5000         0.4873       138.8724         0.4611       -40.0306       1.944706              1
     12191.0000         0.4853       138.4971         0.4585       -40.0291       1.946209              1
     12191.5000         0.4832       138.2519         0.4558       -40.0275       1.947807              1
     12192.0000         0.4811       137.7484         0.4532       -40.0259       1.949406              1
     12192.5000         0.4816       137.6623         0.4506       -40.0243       1.951008              1
     12193.0000         0.4833        138.946         0.4485       -40.0227       1.952606              1
     12193.5000         0.4851       139.2573          0.451       -40.0211       1.954208              1
     12194.0000          0.488       139.3345         0.4535       -40.0195       1.955807              1
     12194.5000         0.4922       139.6438          0.456       -40.0179       1.957409              1
     12195.0000         0.4965       140.1857         0.4586       -40.0163       1.959007              1
     12195.5000         0.5041       136.6996         0.4626       -40.0147       1.960606              1
     12196.0000         0.5156       136.5297         0.4703       -40.0131       1.962208              1
     12196.5000         0.5221       135.8468          0.478       -40.0115       1.963806              1
     12197.0000          0.528       137.4105         0.4856       -40.0099       1.965408              1
     12197.5000         0.5351       139.2178         0.4933       -40.0084       1.966908              1
     12198.0000         0.5455        140.958         0.5004       -40.0051       1.970207              1
     12198.5000         0.5567       139.6407         0.5023       -39.9977       1.977608              1
     12199.0000         0.5698       139.6329         0.5042       -39.9903       1.985008              1
     12199.5000          0.586       136.8514         0.5061       -39.9828       1.992508              1
     12200.0000         0.5862       135.9216          0.508       -39.9754       1.999908              1
     12200.5000         0.5714       134.5673         0.5055        -39.968       2.007309              1
     12201.0000         0.5565       134.9913         0.5021       -39.9606       2.014706              1
     12201.5000         0.5421       136.1644         0.4988       -39.9531       2.022209              1
     12202.0000         0.5279        136.772         0.4954       -39.9457       2.029606              1
     12202.5000         0.5173       136.2587          0.492       -39.9383       2.037006              1
     12203.0000         0.5095       135.7255         0.4886       -39.9308       2.044506              1
     12203.5000         0.5016       135.1924         0.4838       -39.9234       2.051907              1
     12204.0000         0.4963       137.3127         0.4791       -39.9297       2.045609              1
     12204.5000         0.4917       136.5855         0.4743       -39.9385       2.036808              1
     12205.0000         0.4872       137.4241         0.4695       -39.9472       2.028107              1
     12205.5000         0.4827       139.1826         0.4647       -39.9559       2.019409              1
     12206.0000         0.4804       139.2439         0.4599       -39.9647       2.010609              1
     12206.5000          0.479       136.3026         0.4551       -39.9734       2.001907              1
     12207.0000         0.4776       133.3613         0.4503       -39.9821       1.993206              1
     12207.5000          0.481       130.4201         0.4447       -39.9908       1.984509              1
     12208.0000         0.4849        130.822         0.4387       -39.9996       1.975708              1
     12208.5000         0.4895       132.9752         0.4328       -39.9957       1.979607              1
     12209.0000         0.5009       135.1283         0.4268       -39.9875       1.987808              1
     12209.5000         0.4965       137.2535         0.4208       -39.9793       1.996006              1
     12210.0000         0.4917       139.0896         0.4149       -39.9711       2.004208              1
     12210.5000         0.4864       138.3094         0.4094       -39.9629       2.012409              1
     12211.0000          0.481       136.3846         0.4087       -39.9547       2.020607              1
     12211.5000         0.4758       134.9057          0.408       -39.9465       2.028809              1
     12212.0000         0.4731       135.8935         0.4074       -39.9384       2.036907              1
     12212.5000         0.4704       137.1512         0.4067       -39.9302       2.045109              1
     12213.0000         0.4677       137.8621          0.406       -39.9212       2.054108              1
     12213.5000         0.4661       139.0094         0.4087       -39.8961       2.079208              1
     12214.0000         0.4648       141.2763         0.4155        -39.871       2.104309              1
     12214.5000          0.465       140.4029         0.4223       -39.8459       2.129406              1
     12215.0000         0.4678       138.3954         0.4291       -39.8209       2.154408              1
     12215.5000         0.4726       136.0644          0.436       -39.7958       2.179508              1
     12216.0000         0.4809       135.5798         0.4428       -39.7707       2.204609              1
     12216.5000         0.4891       136.1755         0.4506       -39.7455       2.229809              1
     12217.0000         0.4966       138.6718         0.4591       -39.7205       2.254807              1
     12217.5000          0.504       138.4118         0.4676       -39.6954       2.279907              1
     12218.0000         0.5108       136.8528          0.476        -39.675       2.300308              1
     12218.5000         0.5177       135.2939         0.4824       -39.6586       2.316708              1
