#------------------------------------------------------------------------------
# Created by    : vladimir.rabinovich
# Created on    : 09/19/2023 17:20:50
#------------------------------------------------------------------------------
~Version Information Section
VERS.           2.0     :   CWLS log ASCII Standard - VERSION 2.0
WRAP.           NO      :   One line per depth step
~Well Information Section
#MNEM       .UNIT                                         VALUE :DESCRIPTION
#------------------------------------------------------------------------------
STRT        .FT                                            1769 :START DEPTH
STOP        .FT                                           14822 :STOP DEPTH
STEP        .FT                                             0.5 :STEP      
NULL        .                                           -999.25 :NULL      
COMP        .                                      SHELL OIL CO :COMPANY   
WELL        .                                 MCFADDEN CEE CRSS :WELL      
FLD         .                                           WILDCAT :FIELD     
LOC         .                                                   :LOCATION  
CNTY        .                                         JEFFERSON :LOCATION  
STAT        .                                             TEXAS :STATE     
CTRY        .                                     UNITED STATES :COUNTRY   
SRVC        .                                                   :SERVICE COMPANY
DATE        .                             9/13/2023 11:19:11 AM :LOG DATE  
API         .                                    42245030100000 :API NUMBER
UWI         .                                    42245030100000 :UNIQUE WELL ID
XCOORD      .                                  1300794.63996209 :SURFACE X 
YCOORD      .                                  10796706.8159759 :SURFACE Y 
LAT         .                                        29.7451097 :LATITUDE  
LON         .                                       -94.0705183 :LONGITUDE 
ELEV        .FT                                            17.6 :ELEVATION VALUE
ELEV_TYPE   .                                                KB :ELEVATION REFERENCE TYPE
~Curve Information Section
#MNEM       .UNIT                                      API CODE :CURVE DESCRIPTION
#------------------------------------------------------------------------------
DEPT        .FT                                                 :DEPTH     
ASN         .OHMM                                               :          
DT          .US/F                                               :          
ILD         .OHMM                                               :          
SP          .MV                                                 :          
SP_NORM     .MV                                                 :SP Normalized
VSH_SP      .V/V                                                :Volume of Shale from SP
~A        DEPTH            ASN             DT            ILD             SP        SP_NORM         VSH_SP
# ...
     13055.0000         0.6623       128.3809         0.4469       -43.1316      -1.156292      0.9968104
     13055.5000         0.6687       130.4663         0.4478       -43.1367      -1.161392      0.9967063
     13056.0000          0.675       132.5517         0.4487       -43.1417      -1.166393      0.9966042
     13056.5000         0.6764       132.3823         0.4495       -43.1466      -1.171291      0.9965042
     13057.0000         0.6775       129.8487         0.4536       -43.1302      -1.154892      0.9968389
     13057.5000         0.6805       130.4023         0.4594       -43.1138      -1.138493      0.9971736
     13058.0000         0.6841       131.5539         0.4651       -43.0974      -1.122093      0.9975083
     13058.5000         0.6878       132.4371         0.4709        -43.081      -1.105694       0.997843
     13059.0000         0.6914       137.5332         0.4779       -43.0646      -1.089294      0.9981776
     13059.5000         0.6979       138.5791         0.4862       -43.0482      -1.072891      0.9985124
     13060.0000         0.7065       135.0704         0.4944       -43.0319      -1.056591      0.9988451
     13060.5000          0.715       131.5617          0.503       -43.0154      -1.040092      0.9991818
     13061.0000         0.7203       130.1858         0.5138        -42.999      -1.023693      0.9995165
     13061.5000          0.721       132.7969         0.5246       -42.9827      -1.007393      0.9998491
     13062.0000         0.7245       131.4847         0.5346       -42.9662     -0.9908943              1
     13062.5000         0.7366       130.2218         0.5438       -42.9498     -0.9744911              1
     13063.0000         0.7503       133.2634         0.5511       -42.9335     -0.9581909              1
     13063.5000         0.7667       133.8947         0.5546       -42.9171     -0.9417915              1
     13064.0000         0.7851       135.5882         0.5579       -42.8777     -0.9023933              1
     13064.5000         0.7972       135.9759         0.5559       -42.8332     -0.8578911              1
     13065.0000         0.7948       134.3104         0.5533       -42.7888     -0.8134918              1
     13065.5000         0.7899       131.3745         0.5507       -42.7443     -0.7689934              1
     13066.0000         0.7844       128.4386         0.5451       -42.6997     -0.7243919              1
     13066.5000         0.7788       125.5027         0.5392       -42.6553     -0.6799927              1
     13067.0000         0.7969       123.0428         0.5403       -42.6108     -0.6354942              1
     13067.5000         0.8036       128.4374         0.5419       -42.5662     -0.5908928              1
     13068.0000          0.783       133.0795         0.5458       -42.5218     -0.5464935              1
     13068.5000         0.7674       134.3544         0.5542       -42.4772     -0.5018921              1
     13069.0000         0.7615       129.1451         0.5625       -42.4327     -0.4573936              1
     13069.5000         0.7766       123.9357         0.5786       -42.3883     -0.4129944              1
     13070.0000          0.804       118.7264         0.5951       -42.3504     -0.3750916              1
     13070.5000         0.8096        113.517         0.5982       -42.3213      -0.345993              1
     13071.0000         0.8148       116.4683         0.5972       -42.2923     -0.3169937              1
     13071.5000         0.8148       127.2675         0.5962       -42.2632     -0.2878914              1
     13072.0000         0.8149       130.7614         0.5953       -42.2342     -0.2588921              1
     13072.5000         0.8131       126.7768         0.5815       -42.2051     -0.2297935              1
     13073.0000         0.8048       122.7921         0.5674       -42.1761     -0.2007942              1
     13073.5000         0.7863       124.2283         0.5533       -42.1471     -0.1717911              1
     13074.0000         0.7576       128.2653         0.5392        -42.118     -0.1426926              1
     13074.5000         0.7473       128.8295         0.5295        -42.089     -0.1136932              1
     13075.0000         0.7381       119.3965         0.5211       -42.0599    -0.08459091              1
     13075.5000         0.7308       118.0751         0.5126       -42.0493    -0.07399368              1
     13076.0000         0.7386       121.1515         0.5275       -42.0497    -0.07439423              1
     13076.5000         0.7552       124.2278         0.5429       -42.0501    -0.07479095              1
     13077.0000         0.7718       127.3042          0.568       -42.0505     -0.0751915              1
     13077.5000         0.7991       125.7058         0.6084       -42.0509    -0.07559204              1
     13078.0000         0.8276       121.2318          0.654       -42.0513    -0.07599258              1
     13078.5000         0.8595       116.7578         0.7072       -42.0517    -0.07639313              1
     13079.0000         0.8794       112.2838         0.7324       -42.0521    -0.07679367              1
     13079.5000         0.8979       108.6487         0.7513       -42.0525    -0.07719421              1
     13080.0000         0.9161       119.9186         0.7504       -42.0811      -0.105793              1
     13080.5000         0.9354       129.4092         0.7495       -42.1155     -0.1401939              1
     13081.0000         0.9562       131.9656         0.7487         -42.15     -0.1746941              1
     13081.5000         0.9719       132.1984         0.7478       -42.1843      -0.208992              1
     13082.0000         0.9798       130.4175         0.7372       -42.2188     -0.2434921              1
     13082.5000         0.9831       129.2707          0.725       -42.2532     -0.2778931              1
     13083.0000         0.9768       128.2497         0.7141       -42.2877     -0.3123932              1
     13083.5000         0.9705       126.7807         0.7068       -42.2847      -0.309391              1
     13084.0000         0.9642       124.7651         0.6994       -42.2737     -0.2983932              1
     13084.5000         0.9581       123.1909         0.6927       -42.2628     -0.2874908              1
     13085.0000         0.9548       119.8858         0.6943       -42.2518     -0.2764931              1
     13085.5000         0.9516       115.8764         0.6959       -42.2408     -0.2654915              1
     13086.0000         0.9484       111.4443            0.7       -42.2299     -0.2545929              1
     13086.5000         0.9556       112.9255         0.7067        -42.219     -0.2436943              1
     13087.0000         0.9652       113.6917         0.7148       -42.2777     -0.3023911              1
     13087.5000         0.9823        113.847         0.7367       -42.3511     -0.3757935              1
     13088.0000         1.0015       114.0026         0.7586       -42.4247     -0.4493942              1
     13088.5000         1.0252       114.1699         0.7804       -42.4981     -0.5227928              1
     13089.0000         1.0553       115.1655         0.8022       -42.5717     -0.5963936              1
     13089.5000         1.0859       115.7172         0.8292       -42.6453     -0.6699944              1
     13090.0000         1.1093       115.9412         0.8611       -42.7187     -0.7433929              1
     13090.5000         1.1301       117.0452         0.8956       -42.7883     -0.8129921              1
     13091.0000         1.1525       117.4041         0.9127       -42.8439     -0.8685913              1
     13091.5000         1.1185        117.182         0.9088       -42.8995     -0.9241943              1
     13092.0000         1.0797       117.1051         0.8783       -42.9551     -0.9797935              1
     13092.5000         1.0559       117.1064         0.8447       -43.0106      -1.035294      0.9992797
