#------------------------------------------------------------------------------
# Created by    : vladimir.rabinovich
# Created on    : 09/19/2023 17:19:39
#------------------------------------------------------------------------------
~Version Information Section
VERS.           2.0     :   CWLS log ASCII Standard - VERSION 2.0
WRAP.           NO      :   One line per depth step
~Well Information Section
#MNEM       .UNIT                                         VALUE :DESCRIPTION
#------------------------------------------------------------------------------
STRT        .FT                                            1969 :START DEPTH
STOP        .FT                                            7841 :STOP DEPTH
STEP        .FT                                             0.5 :STEP      
NULL        .                                           -999.25 :NULL      
COMP        .                           NEWFIELD EXPLORATION CO :COMPANY   
WELL        .                                   PHELAN GAS UNIT :WELL      
FLD         .                                          BINDWEED :FIELD     
LOC         .                                                   :LOCATION  
CNTY        .                                         JEFFERSON :LOCATION  
STAT        .                                             TEXAS :STATE     
CTRY        .                                     UNITED STATES :COUNTRY   
SRVC        .                                                   :SERVICE COMPANY
DATE        .                             9/13/2023 11:18:46 AM :LOG DATE  
API         .                                    42245322670000 :API NUMBER
UWI         .                                    42245322670000 :UNIQUE WELL ID
XCOORD      .                                  1272550.81244857 :SURFACE X 
YCOORD      .                                  10898469.5255822 :SURFACE Y 
LAT         .                                        30.0242363 :LATITUDE  
LON         .                                        -94.162774 :LONGITUDE 
ELEV        .FT                                              24 :ELEVATION VALUE
ELEV_TYPE   .                                                KB :ELEVATION REFERENCE TYPE
~Curve Information Section
#MNEM       .UNIT                                      API CODE :CURVE DESCRIPTION
#------------------------------------------------------------------------------
DEPT        .FT                                                 :DEPTH     
AHT20       .OHMM                                               :          
AHT30       .OHMM                                               :          
AHT60       .OHMM                                               :          
AHT90       .OHMM                                               :          
DCAL        .IN                                                 :          
DPHZSS      .V/V                                                :          
DT          .US/FT                                              :          
GR_NORM     .GAPI                                               :GammaRay Normalized
GRR         .GAPI                                               :          
HDRA        .G/CM3                                              :          
NPORSS      .V/V                                                :          
SP          .MV                                                 :          
SP_NORM     .MV                                                 :SP Normalized
TENR        .LB                                                 :          
VSH_GR      .V/V                                                :Volume of Shale from GR
VSH_SP      .V/V                                                :Volume of Shale from SP
~A        DEPTH          AHT20          AHT30          AHT60          AHT90           DCAL         DPHZSS             DT        GR_NORM            GRR           HDRA         NPORSS             SP        SP_NORM           TENR         VSH_GR         VSH_SP
# ...
      4001.0000         0.3817         0.3561         0.3307         0.3276         4.3331         0.3516          143.2       33.46346        50.9909         -0.012         0.3834       -81.5874       -67.9968         2312.8    0.009860749     0.02945878
      4001.5000         0.3799         0.3528         0.3186         0.3157         4.4785         0.3535          142.5       34.23877        51.4647        -0.0048         0.3859        -80.536      -66.92797       2311.779     0.02635688      0.0451769
      4002.0000         0.3869         0.3384          0.307         0.3042         4.3119         0.3535          140.7        35.2677        52.0931        -0.0067         0.3781       -79.4922      -65.86674       2310.758     0.04824894     0.06078327
      4002.5000         0.3941         0.3446         0.3201         0.3127         3.3786         0.3469          137.8       37.81493         53.647        -0.0006         0.3715       -78.4575       -64.8146       2309.738      0.1024452     0.07625591
      4003.0000         0.4358         0.3727         0.3446         0.3336         2.2913         0.3337          136.4       40.11231        55.0486         0.0025         0.3716       -78.0297      -64.36937       2308.717      0.1513257     0.08280339
      4003.5000         0.4732         0.3957         0.3625         0.3542            1.6         0.3241          138.4       39.63362         54.758         0.0096         0.3794       -80.4149      -66.73714       2307.696      0.1411408     0.04798328
      4004.0000         0.4842         0.3938         0.3558         0.3429         2.3883         0.3512          141.2       37.38269        53.3871         0.0136          0.395       -81.4135      -67.71829       2306.676     0.09324865     0.03355452
      4004.5000         0.4603          0.376         0.3275         0.3244         3.5922         0.3765          144.1       35.12964        52.0149         0.0087         0.4113        -83.029      -69.31636       2305.655     0.04531154     0.01005352
      4005.0000         0.4336         0.3574         0.3156         0.3127         4.6634         0.3993          145.9       33.12316         50.793         0.0049         0.4125       -83.0019      -69.27183       2304.634    0.002620453     0.01070842
      4005.5000         0.4027         0.3524         0.3042         0.3014         5.6368         0.3861          146.5       31.36636        49.7233          0.003         0.4011       -81.5306       -67.7831       2303.511              0     0.03260152
      4006.0000         0.4045         0.3524         0.3014         0.2986         5.5324         0.3675            146       30.11416        48.9612         0.0021         0.4071       -81.0889      -67.32396        2302.49              0     0.03935354
      4006.5000         0.4177         0.3539         0.2986         0.2959         4.5175         0.3598          145.1       28.86116        48.1986         0.0022         0.4192       -81.4704      -67.68803        2301.47              0     0.03399961
      4007.0000         0.4215         0.3555         0.2959         0.2932         3.4951         0.3598          143.5       29.38613        48.5198         0.0023         0.4198       -81.8554      -68.05559       2300.449              0      0.0285943
      4007.5000         0.4137         0.3555         0.2945         0.2918         3.0485          0.358          140.8       31.44154        49.7739         0.0014          0.415       -82.2413      -68.42406       2299.428              0     0.02317563
      4008.0000          0.406         0.3506         0.2945         0.2918         3.4563         0.3538            139       33.24594         50.875        -0.0015         0.4085       -82.2132      -68.37852       2298.408    0.005232709     0.02384522
      4008.5000         0.4078         0.3505         0.2972         0.2945         4.3305         0.3496          141.7       35.31168        52.1354        -0.0014         0.4019       -81.3519      -67.49979       2297.387      0.0491846     0.03676785
      4009.0000         0.4154         0.3553         0.3028            0.3         4.9084         0.3557       150.3123        36.8682        53.0854        -0.0013         0.4019       -80.9072      -67.03766       2296.366     0.08230209     0.04356384
      4009.5000         0.4153         0.3569         0.3112         0.3083         5.4444         0.4092       153.6412       38.68376        54.1933        -0.0022         0.4466         -79.65      -65.76302       2295.345      0.1209311     0.06230848
      4010.0000         0.4171         0.3635         0.3169          0.314         6.9205         0.4522       161.9005       40.24686        55.1473        -0.0021         0.4986        -78.444      -64.53958       2294.325      0.1541884     0.08030027
      4010.5000          0.421         0.3684         0.3183         0.3155         8.4848         0.4975          166.9       42.56652        56.5625        -0.0021          0.549       -76.8627      -62.94085       2292.282      0.2035431       0.103811
      4011.0000         0.4229         0.3752         0.3213         0.3183         9.7576         0.5301          163.8        40.2577        55.1563        -0.0023         0.5784       -76.0784      -62.13911       2289.479      0.1544191      0.1156013
      4011.5000         0.4269         0.3701         0.3242         0.3213         9.6768         0.5202       157.7778        37.1798        53.2813         0.0006         0.5658       -75.2941      -61.33738       2286.684     0.08893187      0.1273915
      4012.0000         0.4269         0.3651         0.3242         0.3213         8.9899         0.4596       151.1111       37.17785        53.2813         0.0005         0.5045       -74.5098      -60.53565       2284.152      0.0888904      0.1391816
      4012.5000         0.4132         0.3585          0.314         0.3112            7.5         0.4068          143.4       38.20119        53.9063          0.013         0.4293       -74.1176      -60.12601       2281.374      0.1106637      0.1452057
      4013.0000         0.3964         0.3536         0.3041         0.3014           6.22          0.366          142.7       43.32582        57.0313          0.006         0.3918       -73.3333      -59.32428       2278.605      0.2196982      0.1569959
      4013.5000         0.3804         0.3472         0.3083         0.3055           6.44         0.3624          142.9       47.68137        59.6875        -0.0061         0.4068       -71.9608      -57.93435       2275.844      0.3123696      0.1774361
      4014.0000         0.3839         0.3472         0.3126         0.3097           6.88         0.3642            143       50.84575        61.6176        -0.0124         0.4158       -70.9804      -56.93651       2273.092      0.3796968      0.1921102
      4014.5000         0.3946         0.3552         0.3227         0.3198           6.86           0.36          141.9       54.22142        63.6765        -0.0105         0.4092       -70.1961      -56.13477       2270.349      0.4515197      0.2039004
      4015.0000         0.4075         0.3634         0.3378         0.3347         5.6701         0.3461          140.6       55.18442        64.2647        -0.0086         0.3918            -70      -55.92124       2267.614      0.4720089      0.2070406
      4015.5000          0.421         0.3684         0.3425         0.3394         4.5361         0.3376            140       54.45867        63.8235        -0.0067           0.39       -71.1765      -57.08031       2265.135      0.4565674      0.1899955
      4016.0000         0.4171         0.3701         0.3409         0.3378         4.4948         0.3376          139.5        52.0442        62.3529        -0.0048         0.4032       -72.1569      -58.04327       2262.416      0.4051957      0.1758343
      4016.5000         0.4075         0.3701         0.3394         0.3363         4.4948         0.3418            139       47.92604        59.8438        -0.0019         0.4134       -73.1373      -59.00624       2259.706      0.3175753       0.161673
