#------------------------------------------------------------------------------
# Created by    : vladimir.rabinovich
# Created on    : 09/19/2023 17:20:52
#------------------------------------------------------------------------------
~Version Information Section
VERS.           2.0     :   CWLS log ASCII Standard - VERSION 2.0
WRAP.           NO      :   One line per depth step
~Well Information Section
#MNEM       .UNIT                                         VALUE :DESCRIPTION
#------------------------------------------------------------------------------
STRT        .FT                                            1017 :START DEPTH
STOP        .FT                                            8855 :STOP DEPTH
STEP        .FT                                             0.5 :STEP      
NULL        .                                           -999.25 :NULL      
COMP        .                               MEREDITH & CO ET AL :COMPANY   
WELL        .                               BROUSSARD J JR ETAL :WELL      
FLD         .                                           WILDCAT :FIELD     
LOC         .                                                   :LOCATION  
CNTY        .                                         JEFFERSON :LOCATION  
STAT        .                                             TEXAS :STATE     
CTRY        .                                     UNITED STATES :COUNTRY   
SRVC        .                                                   :SERVICE COMPANY
DATE        .                             9/13/2023 11:19:11 AM :LOG DATE  
API         .                                    42245021880000 :API NUMBER
UWI         .                                    42245021880000 :UNIQUE WELL ID
XCOORD      .                                  1215343.11980964 :SURFACE X 
YCOORD      .                                  10882366.7587642 :SURFACE Y 
LAT         .                                        29.9782309 :LATITUDE  
LON         .                                       -94.3429645 :LONGITUDE 
ELEV        .FT                                              36 :ELEVATION VALUE
ELEV_TYPE   .                                                DF :ELEVATION REFERENCE TYPE
~Curve Information Section
#MNEM       .UNIT                                      API CODE :CURVE DESCRIPTION
#------------------------------------------------------------------------------
DEPT        .FT                                                 :DEPTH     
ASN         .OHMM                                               :          
LAT         .OHMM                                               :          
LN          .OHMM                                               :          
SP          .MV                                                 :          
SP_NORM     .MV                                                 :SP Normalized
VSH_SP      .V/V                                                :Volume of Shale from SP
~A        DEPTH            ASN            LAT             LN             SP        SP_NORM         VSH_SP
# ...
      2043.0000          1.205         1.0435         0.7349       -71.6795      -12.42024      0.8203407
      2043.5000         1.1555          1.058         0.7199         -73.43      -14.17074      0.7901596
      2044.0000         1.1032         1.0725         0.7046        -77.505      -18.24574       0.719901
      2044.5000         1.0364         1.0725         0.6893       -81.8636      -22.60434      0.6447527
      2045.0000         0.9665         1.0435         0.6888       -89.9943      -30.73504      0.5045682
      2045.5000         0.9196         0.9855         0.6735       -99.2841      -40.02485      0.3443992
      2046.0000         0.8787         0.8841         0.6582      -109.1534      -49.89414       0.174239
      2046.5000         0.8437         0.7826         0.6284      -116.9943      -57.73504     0.03905099
      2047.0000         0.8233         0.6812         0.6134      -121.6964      -62.43715              0
      2047.5000         0.7884         0.6087         0.5981       -116.733      -57.47374     0.04355615
      2048.0000         0.7884         0.5652         0.5973      -109.5057      -50.24644      0.1681648
      2048.5000         0.8378         0.5652         0.5822       -103.142      -43.88274      0.2778838
      2049.0000         0.8958         0.5652         0.5814      -100.5455      -41.28624       0.322651
      2049.5000         0.9886         0.5507         0.5661       -97.0852      -37.82594      0.3823114
      2050.0000         1.0609         0.5072         0.5653       -96.8068      -37.54754      0.3871113
      2050.5000         1.1332         0.4775         0.5648       -97.6959      -38.43664       0.371782
      2051.0000         1.2142         0.4324         0.5784        -110.46      -51.20074      0.1517114
      2051.5000         1.2141         0.4018         0.5779      -110.1815      -50.92225       0.156513
      2052.0000         1.1937         0.3568          0.577      -111.6471      -52.38784      0.1312441
      2052.5000         1.1761         0.3412         0.5762       -112.823      -53.56374        0.11097
      2053.0000         1.1702         0.3251         0.5901       -113.124      -53.86474      0.1057803
      2053.5000         1.1845         0.2945         0.5893        -114.01      -54.75074     0.09050442
      2054.0000         1.2192         0.2935         0.5743      -114.3166      -55.05734      0.0852183
      2054.5000          1.248         0.3208         0.5734      -114.9073      -55.64804     0.07503372
      2055.0000         1.2971         0.3482         0.5581      -115.7933      -56.53404     0.05975796
      2055.5000         1.3462         0.3616         0.5575      -115.8045      -56.54524     0.05956485
      2056.0000         1.3577         0.3889         0.5422      -115.8212      -56.56194     0.05927691
      2056.5000          1.288         0.3873         0.5417      -115.2586      -55.99934     0.06897689
      2057.0000         1.2067         0.4002         0.5408      -114.6903      -55.43104     0.07877515
      2057.5000         1.1022         0.3991           0.54      -113.2586      -53.99934      0.1034597
      2058.0000         1.0209         0.3975         0.5539      -112.4007      -53.14145      0.1182509
      2058.5000         0.9829         0.4104         0.5531      -111.5484      -52.28914      0.1329458
      2059.0000         0.9534         0.4238         0.5525      -110.9802      -51.72094      0.1427424
      2059.5000         0.9972         0.4512         0.5517       -110.128      -50.86874      0.1574355
      2060.0000         0.9707         0.4785         0.5508      -108.9804      -49.72114      0.1772217
      2060.5000         0.9381          0.492         0.5499      -106.1029      -46.84364      0.2268338
      2061.0000         0.9084         0.5193         0.5337       -103.821      -44.56174      0.2661769
      2061.5000         0.8698         0.5612         0.5326      -100.9482      -41.68894       0.315708
      2062.0000         0.8372         0.5746         0.5309       -95.3175      -36.05824       0.412789
      2062.5000         0.8457         0.5874         0.5292       -94.2121      -34.95284      0.4318476
      2063.0000          0.863         0.5858         0.5281       -92.2723      -33.01304      0.4652924
      2063.5000         0.8745         0.5848         0.5554       -92.8697      -33.61044      0.4549924
      2064.0000         0.8712         0.5832         0.5543       -94.8653      -35.60604      0.4205854
      2064.5000         0.8151         0.5526         0.5526       -97.4245      -38.16524      0.3764614
      2065.0000         0.7769          0.522          0.551      -101.7324      -42.47314      0.3021872
      2065.5000         0.7709         0.5209         0.5499      -104.6522      -45.39294      0.2518459
      2066.0000         0.8054         0.5483         0.5482      -109.0324      -49.77314      0.1763251
      2066.5000         0.8316         0.5756         0.5471      -109.3568      -50.09754      0.1707321
      2067.0000          0.893         0.6035         0.5454      -105.6132      -46.35394      0.2352769
      2067.5000         0.9368         0.6454         0.5292      -100.1307      -40.87144      0.3298028
      2068.0000         1.0041         0.6583         0.5281        -92.271      -33.01175      0.4653147
      2068.5000         1.0734         0.6572          0.512       -83.5707      -24.31144        0.61532
      2069.0000         1.1398         0.6411         0.5109       -83.3118      -24.05254      0.6197838
      2069.5000         1.1395          0.625         0.5092       -84.1912      -24.93194      0.6046217
      2070.0000         1.1334         0.5944          0.522       -89.0028      -29.74354      0.5216631
      2070.5000         1.1477         0.5793         0.5358       -96.3485      -37.08924       0.395013
      2071.0000         1.1881          0.564         0.5495       -96.9275      -37.66824      0.3850304
      2071.5000         1.1967         0.5342         0.5776       -93.5576      -34.29834       0.443132
      2072.0000          1.214         0.5189         0.5916       -96.3902      -37.13094      0.3942941
      2072.5000         1.2254         0.5039         0.6197      -100.0678      -40.80854      0.3308872
      2073.0000         1.1963         0.4597         0.6337       -102.711      -43.45174      0.2853148
      2073.5000         1.1005         0.4009         0.6618      -106.8293      -47.57004      0.2143096
      2074.0000         0.8753         0.3566           0.69      -110.0814      -50.82214       0.158239
      2074.5000         0.8693         0.3271         0.7039      -108.9293      -49.67004      0.1781028
      2075.0000         0.8545         0.2828         0.7176      -105.4328      -46.17354      0.2383872
      2075.5000         0.8749         0.2675         0.7315      -100.1581      -40.89884      0.3293304
      2076.0000         0.8983         0.2815         0.7307       -97.0683      -37.80904      0.3826028
      2076.5000         0.9511         0.3097         0.7299       -95.6703      -36.41105      0.4067061
      2077.0000         1.0009         0.3524         0.7148       -93.9958      -34.73654      0.4355769
      2077.5000         1.0761         0.3805         0.6995       -92.0396      -32.78034      0.4693045
      2078.0000          1.105         0.3945         0.6842       -89.2332      -29.97394      0.5176907
      2078.5000         1.1251         0.4227         0.6836       -82.4883      -23.22904      0.6339821
      2079.0000         1.0931         0.4509         0.6683       -75.4892      -16.22994      0.7546563
      2079.5000         1.1509         0.4648         0.6675       -75.2018      -15.94254      0.7596114
      2080.0000         1.2725          0.522         0.6524       -78.2034      -18.94414      0.7078596
      2080.5000         1.3909         0.5342         0.6645        -82.839      -23.57974      0.6279355
