#------------------------------------------------------------------------------
# Created by    : vladimir.rabinovich
# Created on    : 09/19/2023 17:20:52
#------------------------------------------------------------------------------
~Version Information Section
VERS.           2.0     :   CWLS log ASCII Standard - VERSION 2.0
WRAP.           NO      :   One line per depth step
~Well Information Section
#MNEM       .UNIT                                         VALUE :DESCRIPTION
#------------------------------------------------------------------------------
STRT        .FT                                             722 :START DEPTH
STOP        .FT                                            8710 :STOP DEPTH
STEP        .FT                                             0.5 :STEP      
NULL        .                                           -999.25 :NULL      
COMP        .                              BRUNER ARNOLD H & CO :COMPANY   
WELL        .                                              WEIR :WELL      
FLD         .                                           WILDCAT :FIELD     
LOC         .                                                   :LOCATION  
CNTY        .                                         JEFFERSON :LOCATION  
STAT        .                                             TEXAS :STATE     
CTRY        .                                     UNITED STATES :COUNTRY   
SRVC        .                                                   :SERVICE COMPANY
DATE        .                             9/13/2023 11:19:11 AM :LOG DATE  
API         .                                    42245021890000 :API NUMBER
UWI         .                                    42245021890000 :UNIQUE WELL ID
XCOORD      .                                  1215604.35578741 :SURFACE X 
YCOORD      .                                  10884998.9913957 :SURFACE Y 
LAT         .                                        29.9854781 :LATITUDE  
LON         .                                       -94.3422367 :LONGITUDE 
ELEV        .FT                                              36 :ELEVATION VALUE
ELEV_TYPE   .                                                DF :ELEVATION REFERENCE TYPE
~Curve Information Section
#MNEM       .UNIT                                      API CODE :CURVE DESCRIPTION
#------------------------------------------------------------------------------
DEPT        .FT                                                 :DEPTH     
ASN         .OHMM                                               :          
LAT         .OHMM                                               :          
LN          .OHMM                                               :          
SP          .MV                                                 :          
SP_NORM     .MV                                                 :SP Normalized
VSH_SP      .V/V                                                :Volume of Shale from SP
~A        DEPTH            ASN            LAT             LN             SP        SP_NORM         VSH_SP
# ...
      8132.0000         1.0138         0.6316         0.7544       -86.1017       -16.9659      0.7949877
      8132.5000         0.9119         0.6491         0.7544       -82.7119       -13.5761      0.8414233
      8133.0000         0.8441         0.6842         0.7368       -78.9474        -9.8116      0.8929918
      8133.5000         0.8339         0.7193         0.7193       -75.4386      -6.302795      0.9410576
      8134.0000         0.8305         0.7544         0.6842       -71.2281        -2.0923      0.9987356
      8134.5000         0.8305         0.7895         0.6842       -71.2281        -2.0923      0.9987356
      8135.0000          0.861         0.8246         0.6491       -72.6316      -3.495796      0.9795097
      8135.5000         0.9356         0.8246         0.6491       -74.7368      -5.600998      0.9506713
      8136.0000          0.939         0.7895         0.6667       -76.8421      -7.706299      0.9218315
      8136.5000          0.939         0.7719         0.6842       -77.8947      -8.758896      0.9074124
      8137.0000         0.9051         0.7368         0.7193       -77.8947      -8.758896      0.9074124
      8137.5000         0.9254         0.7193         0.7368       -76.4912        -7.3554      0.9266384
      8138.0000         0.9492         0.7193         0.7544       -74.7368      -5.600998      0.9506713
      8138.5000         0.9695         0.6842         0.7719       -73.3333      -4.197495      0.9698973
      8139.0000         0.9932         0.6667         0.7719       -72.9825      -3.846695      0.9747028
      8139.5000         1.0034         0.6667         0.7719        -74.386      -5.250198      0.9554768
      8140.0000         1.0276         0.6491         0.7544       -81.3559       -12.2201      0.8599986
      8140.5000         1.0345         0.6491         0.7544       -81.3475       -12.2117      0.8601137
      8141.0000         1.0414         0.6667         0.7368       -80.9915       -11.8557      0.8649905
      8141.5000         1.0448         0.7018         0.7193       -79.9561       -10.8203       0.879174
      8142.0000         1.0448         0.7544         0.6842       -79.2368        -10.101      0.8890274
      8142.5000         1.0069          0.807         0.6491        -77.114      -7.978195      0.9181069
      8143.0000         0.9797         0.8772          0.614       -76.0439      -6.908096      0.9327658
      8143.5000         0.9458         0.9649         0.5965       -74.2719      -5.136093      0.9570398
      8144.0000          0.922          1.069         0.5789          -72.5      -3.364197      0.9813124
      8144.5000         0.9017         1.1552         0.5614       -71.0789        -1.9431              1
      8145.0000          0.878         1.2241         0.5263       -69.6579     -0.5220947              1
      8145.5000         0.8576         1.2586         0.5263       -68.5877      0.5481033              1
      8146.0000         0.8373         1.2759         0.5088       -67.5175       1.618301              1
      8146.5000         0.8102         1.2759         0.4912       -67.1491       1.986702              1
      8147.0000         0.7891         1.2586         0.4912       -66.4298       2.706001              1
      8147.5000         0.7636         1.2414         0.4912       -66.4123       2.723503              1
      8148.0000         0.7382         1.2241         0.4912       -66.3947       2.741104              1
      8148.5000           0.72         1.1552         0.5088       -66.0263       3.109505              1
      8149.0000         0.7164         1.0345         0.5263       -66.0088       3.127007              1
      8149.5000         0.7164         0.9649         0.5439       -65.9912         3.1446              1
      8150.0000         0.7382         0.8947         0.5614       -65.9737       3.162102              1
      8150.5000         0.7381         0.8421         0.5965       -65.9711       3.164703              1
      8151.0000         0.8167         0.7719          0.614       -65.9835       3.152306              1
      8151.5000           0.82         0.7368          0.614        -66.346       2.789803              1
      8152.0000         0.8266         0.7018          0.614        -66.358       2.777802              1
      8152.5000         0.8367         0.6842          0.614         -66.37         2.7658              1
      8153.0000         0.8536         0.6491          0.614        -66.382       2.753799              1
      8153.5000         0.8739          0.614         0.6316        -66.394       2.741806              1
      8154.0000         0.8942          0.614         0.6491       -66.4059       2.729904              1
      8154.5000         0.9624         0.5789         0.7018       -66.4179       2.717903              1
      8155.0000         1.0207         0.5439         0.7193       -70.9536      -1.817795              1
      8155.5000         1.0966         0.5088         0.7544       -78.6096      -9.473793      0.8976192
      8156.0000         1.1931         0.4912          0.807       -86.4407      -17.30489      0.7903439
      8156.5000         1.2877         0.4561         0.8596       -94.2373      -25.10149      0.6835412
      8157.0000          1.386         0.4386         0.8947       -101.808       -32.6722      0.5798329
      8157.5000          1.393         0.4035         0.8947      -106.8762      -37.74039      0.5104055
      8158.0000            1.4          0.386         0.8947      -106.8826       -37.7468      0.5103179
      8158.5000         1.2386         0.3684         0.8596      -106.5264      -37.39059      0.5151973
      8159.0000         1.1828         0.3684         0.8421      -105.4438        -36.308      0.5300274
      8159.5000          1.131          0.386         0.8246      -102.1797       -33.0439      0.5747411
      8160.0000         1.0759          0.386         0.7895       -97.2881       -28.1523      0.6417493
      8160.5000         0.9966         0.4035         0.7368       -94.2373      -25.10149      0.6835412
      8161.0000         0.9483         0.4211         0.6842       -89.1525      -20.01669       0.753196
      8161.5000         0.8966         0.4561         0.6491       -85.7627       -16.6269      0.7996315
      8162.0000         0.8483         0.4912          0.614       -83.7288      -14.59299      0.8274933
      8162.5000         0.7964         0.5263         0.5789       -82.3729       -13.2371      0.8460671
      8163.0000         0.7455         0.5614         0.5439       -81.0169       -11.8811      0.8646425
      8163.5000         0.6909          0.614         0.5263       -78.2759      -9.140099      0.9021904
      8164.0000           0.64         0.6842         0.5088       -75.8621      -6.726295      0.9352562
      8164.5000         0.6255         0.7368         0.4912       -73.4483        -4.3125      0.9683219
      8165.0000         0.6255         0.7895         0.4737        -72.069      -2.933197      0.9872165
      8165.5000         0.6691         0.8421         0.4561            -70     -0.8641968              1
      8166.0000         0.6764         0.8947         0.4386       -67.5862       1.549606              1
      8166.5000         0.6873         0.9298         0.4386       -67.2414       1.884148              1
      8167.0000         0.6982         0.9474         0.4386       -67.2414       1.872963              1
      8167.5000         0.6909         0.9649         0.4386       -67.2414       1.861778              1
      8168.0000         0.6618              1         0.4211       -67.2414       1.850586              1
      8168.5000         0.6255              1         0.4211       -66.8966       2.184204              1
      8169.0000         0.6036         1.0172         0.4211       -66.8966       2.173019              1
      8169.5000         0.5967         1.0345         0.4035       -66.8966       2.161835              1
