#------------------------------------------------------------------------------
# Created by    : vladimir.rabinovich
# Created on    : 09/19/2023 17:22:03
#------------------------------------------------------------------------------
~Version Information Section
VERS.           2.0     :   CWLS log ASCII Standard - VERSION 2.0
WRAP.           NO      :   One line per depth step
~Well Information Section
#MNEM       .UNIT                                         VALUE :DESCRIPTION
#------------------------------------------------------------------------------
STRT        .FT                                             959 :START DEPTH
STOP        .FT                                            9240 :STOP DEPTH
STEP        .FT                                             0.5 :STEP      
NULL        .                                           -999.25 :NULL      
COMP        .                                  SAMEDAN OIL CORP :COMPANY   
WELL        .                                            WILBER :WELL      
FLD         .                                     HAMSHIRE WEST :FIELD     
LOC         .                                                   :LOCATION  
CNTY        .                                         JEFFERSON :LOCATION  
STAT        .                                             TEXAS :STATE     
CTRY        .                                     UNITED STATES :COUNTRY   
SRVC        .                                                   :SERVICE COMPANY
DATE        .                             9/13/2023 11:18:46 AM :LOG DATE  
API         .                                    42245321080000 :API NUMBER
UWI         .                                    42245321080000 :UNIQUE WELL ID
XCOORD      .                                  1220512.54732583 :SURFACE X 
YCOORD      .                                  10829820.5318697 :SURFACE Y 
LAT         .                                        29.8338887 :LATITUDE  
LON         .                                       -94.3247224 :LONGITUDE 
ELEV        .FT                                              24 :ELEVATION VALUE
ELEV_TYPE   .                                                KB :ELEVATION REFERENCE TYPE
~Curve Information Section
#MNEM       .UNIT                                      API CODE :CURVE DESCRIPTION
#------------------------------------------------------------------------------
DEPT        .FT                                                 :DEPTH     
CALI        .IN                                                 :          
DPSS        .%                                                  :          
DRHO        .G/CM3                                              :          
GR          .GAPI                                               :          
GR_NORM     .GAPI                                               :GammaRay Normalized
ILD         .OHMM                                               :          
ILM         .OHMM                                               :          
NPSS        .%                                                  :Neutron Porosity Sandstone
SGRD        .OHMM                                               :          
SP          .MV                                                 :          
SP_NORM     .MV                                                 :SP Normalized
TENS        .LB                                                 :          
VSH_GR      .V/V                                                :Volume of Shale from GR
VSH_SP      .V/V                                                :Volume of Shale from SP
~A        DEPTH           CALI           DPSS           DRHO             GR        GR_NORM            ILD            ILM           NPSS           SGRD             SP        SP_NORM           TENS         VSH_GR         VSH_SP
# ...
      4289.0000        13.8759        -999.25        -999.25        75.3373        77.4136          1.069         0.9638        -999.25         0.8267       -94.7502      -3.392174       2785.814      0.9449703      0.9653308
      4289.5000        13.8735        -999.25        -999.25        72.3214       73.30495         1.1093         1.0101        -999.25         0.9082       -94.1701      -2.812073       2808.198      0.8575522      0.9737381
      4290.0000        13.8711        -999.25        -999.25        70.8068       71.24193         1.1511          1.068        -999.25         0.9711         -93.59      -2.231972       2830.559      0.8136581      0.9821453
      4290.5000        13.8686        -999.25        -999.25         70.488       70.80828         1.2001         1.1239        -999.25         0.9914       -93.6137      -2.255676       2833.544      0.8044315      0.9818018
      4291.0000         13.866        -999.25        -999.25        71.0657       71.59618          1.251         1.1662        -999.25         0.9993       -93.4368      -2.078773       2876.506      0.8211952      0.9843656
      4291.5000        13.8635        -999.25        -999.25        73.1429       74.42725         1.2859         1.1821        -999.25         1.0035       -94.2587      -2.900673       2939.334      0.8814309       0.972454
      4292.0000        13.8809        -999.25        -999.25        78.3701       81.55046         1.2852         1.1814        -999.25         0.9943       -93.8819      -2.523872       2922.891              1      0.9779149
      4292.5000        13.8584        -999.25        -999.25        86.7476       92.96617         1.2431         1.1428        -999.25         0.9489       -93.7051      -2.347076       2886.925              1      0.9804772
      4293.0000        13.8559        -999.25        -999.25        87.0254       93.34544         1.2025         1.1106        -999.25         0.8936       -94.7251      -3.367073        2870.44              1      0.9656946
      4293.5000        13.8534        -999.25        -999.25        83.1033       88.00201         1.1632         1.0844        -999.25         0.8492       -94.7473      -3.389275       2853.938              1      0.9653729
      4294.0000        13.8508        -999.25        -999.25        78.2791       81.42941         1.1251         1.0539        -999.25         0.8256       -96.3657      -5.007675       2857.293              1      0.9419178
      4294.5000        13.8085        -999.25        -999.25         77.507       80.37811         1.0884         1.0291        -999.25         0.8251       -96.9845      -5.626472       2860.651              1      0.9329497
      4295.0000        13.7463        -999.25        -999.25        81.2345       85.45783         1.0578         1.0049        -999.25         0.8246       -98.5979      -7.239876       2903.797              1       0.909567
      4295.5000        13.6839        -999.25        -999.25        81.0623       85.22395         1.0282         0.9748        -999.25         0.8165       -98.2203      -6.862274       2927.423              1      0.9150395
      4296.0000        13.6814        -999.25        -999.25        76.3905         78.859         0.9952         0.9421        -999.25         0.7973       -98.2408      -6.882774       2910.908      0.9757234      0.9147424
      4296.5000        13.6591        -999.25        -999.25        69.0175       68.81348         0.9658         0.9105        -999.25          0.768       -96.4726      -5.114578       2914.299      0.7619889      0.9403684
      4297.0000        13.6766        -999.25        -999.25        67.9455       67.35354         0.9373         0.8779        -999.25         0.7397        -95.302      -3.943977       2937.626      0.7309263      0.9573337
      4297.5000        13.6741        -999.25        -999.25         74.522       76.31525         0.9135         0.8492        -999.25         0.7124       -95.1253      -3.767273       2921.091      0.9216012      0.9598946
      4298.0000        13.6518        -999.25        -999.25        80.1992       84.05161         0.8893         0.8409        -999.25         0.6739       -95.7448      -4.386772       2864.637              1      0.9509163
      4298.5000        13.6098        -999.25        -999.25         79.577       83.20456         0.8602         0.8403        -999.25         0.6261       -95.9648      -4.606773        2848.05              1      0.9477279
      4299.0000        13.4686        -999.25        -999.25        79.5548       83.17504         0.8242         0.8398        -999.25         0.5898       -98.5635      -7.205475        2811.81              1      0.9100656
      4299.5000         13.387        -999.25        -999.25        79.5326       83.14553         0.7898         0.8393        -999.25         0.5869       -101.969      -10.61098       2855.128              1      0.8607105
      4300.0000        13.3649        -999.25        -999.25        75.1611       77.18978         0.7265         0.8388        -999.25         0.6251      -106.9884      -15.63038       2898.488      0.9402081      0.7879655
      4300.5000         13.343        -999.25        -999.25        67.4914       66.73997         0.6568         0.8036        -999.25         0.6967      -114.6118      -23.25378       2920.582      0.7178717      0.6774815
      4301.0000        13.3411        -999.25        -999.25        60.4265       57.11423         0.5914         0.7461        -999.25         0.8991       -123.031      -31.67297       2901.527      0.5130687      0.5554641
      4301.5000        13.2994        -999.25        -999.25        55.0545       49.79522         0.5321         0.7024        -999.25         1.0904      -130.4511      -39.09307       2902.577       0.357345      0.4479265
      4302.0000        13.2975        -999.25        -999.25        53.8481       48.15213         0.4762         0.6212        -999.25         1.2356      -136.4715      -45.11347       2903.521      0.3223858      0.3606743
      4302.5000        13.2162        -999.25        -999.25        58.4434       54.41433         0.4358         0.5641        -999.25         1.2875      -139.0901      -47.73208       2944.569       0.455624      0.3227235
      4303.0000        13.1944        -999.25        -999.25        60.0672       56.62761         0.4083         0.5167        -999.25         1.2688      -140.7109      -49.35288       2945.514      0.5027151      0.2992336
      4303.5000        13.1727        -999.25        -999.25        56.1775       51.32834         0.3969         0.4955        -999.25         1.2679      -142.1316      -50.77358       2906.565      0.3899647      0.2786437
      4304.0000        13.1706        -999.25        -999.25        52.4334       46.22746          0.406         0.4861        -999.25         1.2611      -141.7505      -50.39248       2867.511      0.2814352       0.284167
      4304.5000        13.1687        -999.25        -999.25        50.6263       43.76588         0.4289         0.4857        -999.25         1.2256      -138.3718      -47.01377        2868.56      0.2290614      0.3331338
      4305.0000        13.1666        -999.25        -999.25         54.933       49.63482         0.4679         0.5107        -999.25         1.1368      -131.1911      -39.83308       2869.505      0.3539324      0.4372018
      4305.5000        13.1252        -999.25        -999.25        62.2418       59.59436         0.5295         0.5597        -999.25         1.0066      -123.4102      -32.05218       2870.554      0.5658374      0.5499684
      4306.0000        13.1231        -999.25        -999.25        69.1266       68.97617          0.594         0.6189        -999.25         0.9048      -112.4753      -21.11728       2871.604      0.7654505      0.7084453
      4306.5000        13.1608        -999.25        -999.25        72.7119       73.86215         0.6562         0.6743        -999.25         0.7881      -103.5543      -12.19627       2872.548      0.8694075      0.8377352
