#------------------------------------------------------------------------------
# Created by    : vladimir.rabinovich
# Created on    : 09/19/2023 17:22:46
#------------------------------------------------------------------------------
~Version Information Section
VERS.           2.0     :   CWLS log ASCII Standard - VERSION 2.0
WRAP.           NO      :   One line per depth step
~Well Information Section
#MNEM       .UNIT                                         VALUE :DESCRIPTION
#------------------------------------------------------------------------------
STRT        .FT                                             992 :START DEPTH
STOP        .FT                                            8489 :STOP DEPTH
STEP        .FT                                             0.5 :STEP      
NULL        .                                           -999.25 :NULL      
COMP        .                                       GAELIC CORP :COMPANY   
WELL        .                                     PHELAN MICKEY :WELL      
FLD         .                                           WILDCAT :FIELD     
LOC         .                                                   :LOCATION  
CNTY        .                                         JEFFERSON :LOCATION  
STAT        .                                             TEXAS :STATE     
CTRY        .                                     UNITED STATES :COUNTRY   
SRVC        .                                                   :SERVICE COMPANY
DATE        .                             9/13/2023 11:18:46 AM :LOG DATE  
API         .                                    42245313790000 :API NUMBER
UWI         .                                    42245313790000 :UNIQUE WELL ID
XCOORD      .                                  1260103.88271883 :SURFACE X 
YCOORD      .                                     10773431.3746 :SURFACE Y 
LAT         .                                         29.679995 :LATITUDE  
LON         .                                       -94.1979967 :LONGITUDE 
ELEV        .FT                                              19 :ELEVATION VALUE
ELEV_TYPE   .                                                KB :ELEVATION REFERENCE TYPE
~Curve Information Section
#MNEM       .UNIT                                      API CODE :CURVE DESCRIPTION
#------------------------------------------------------------------------------
DEPT        .FT                                                 :DEPTH     
DPSS        .V/V                                                :          
DRHO        .G/CM3                                              :          
DT          .US/FT                                              :          
GR_NORM     .GAPI                                               :GammaRay Normalized
GRN         .GAPI                                               :          
ILD         .OHMM                                               :          
NPSS        .V/V                                                :Neutron Porosity Sandstone
RHOB        .G/CM3                                              :          
SFL         .OHMM                                               :          
SP          .MV                                                 :          
SP_NORM     .MV                                                 :SP Normalized
TENN        .LB                                                 :          
VSH_GR      .V/V                                                :Volume of Shale from GR
VSH_SP      .V/V                                                :Volume of Shale from SP
~A        DEPTH           DPSS           DRHO             DT        GR_NORM            GRN            ILD           NPSS           RHOB            SFL             SP        SP_NORM           TENN         VSH_GR         VSH_SP
# ...
      7454.0000         0.2835          0.029       116.9624       72.88976             66         0.5428         0.4812         2.1931          0.794        -1.5842       6.068309       3143.254      0.8487183              1
      7454.5000         0.2521          0.022       114.0574       78.79332           69.6         0.6055         0.4692         2.2371         0.8876        -1.7822       5.902334       3153.627       0.974326              1
      7455.0000         0.2178         0.0295       109.8532       84.69689           73.2         0.6731         0.4506         2.2871         0.8673        -1.9802       5.736358       3154.038              1              1
      7455.5000         0.2007         0.0335       104.3768       85.92503          73.95         0.7484         0.4357         2.3158         0.8634        -2.9703       4.778282       3154.448              1              1
      7456.0000         0.1922          0.036       100.9942       84.69243           73.2         0.8322         0.4167         2.3306         0.8674        -3.9604       3.820207       3154.899              1              1
      7456.5000         0.1892         0.0355           99.2       80.99904          70.95         0.8517         0.3917         2.3375         0.9659        -4.7525       3.060132       3155.309              1              1
      7457.0000         0.1876         0.0335           98.1       76.32137           68.1         0.8479         0.3794         2.3385         1.0645        -5.5446       2.300056       3155.718      0.9217314              1
      7457.5000          0.194           0.03           98.2       72.13586          65.55          0.848         0.3785         2.3311          1.156        -6.1386       1.738081       3156.127       0.832678              1
      7458.0000         0.2024          0.032           98.6       70.90324           64.8         0.8442         0.3756         2.3178         1.1404        -6.5347       1.374005       3156.576      0.8064519              1
      7458.5000         0.2208         0.0565           98.6       69.91669           64.2         0.8253         0.3687         2.2767         1.0364        -7.1287      0.8120303       3186.737      0.7854616              1
      7459.0000         0.2581         0.0705       101.2887       68.19193          63.15         0.8069         0.3693         2.2129          0.913        -8.3168     -0.3440456       3216.868      0.7487645              1
      7459.5000         0.3231          0.058       105.1523       69.91219           64.2         0.7924         0.3986         2.1123         0.7924        -9.3069      -1.302121       3217.247      0.7853658      0.9966054
      7460.0000         0.3493          0.035       106.5363       75.07754          67.35         0.7431         0.4152         2.0722         0.7397        -10.495      -2.458197       3187.955      0.8952668      0.9836158
      7460.5000          0.324          0.017       106.9307       79.98943        70.3455         0.6935         0.4182         2.0985          0.687       -12.2772      -4.208372       3158.416      0.9997752      0.9639509
      7461.0000         0.2835         0.0195       106.0396       81.94364        71.5381         0.6258         0.4152         2.1807         0.6681       -15.2475      -7.146647       3148.515              1      0.9309366
      7461.5000         0.2522         0.0275       103.9604       79.96051        70.3306         0.5553          0.409         2.2356         0.6496       -19.0099      -10.87702       3148.515      0.9991598      0.8890222
      7462.0000         0.2412          0.027       103.7624       77.48519        68.8231         0.4977         0.4022         2.2505         0.6649          -24.2       -16.0351       3138.614      0.9464934      0.8310663
      7462.5000         0.2445         0.0195       105.0495       77.22475        68.6657         0.4493         0.3873         2.2465         0.6935          -30.2      -22.00307       3128.713      0.9409522      0.7640104
      7463.0000         0.2492         0.0145       106.0396        79.4249        70.0082         0.4113         0.3753         2.2401         0.7263            -35      -26.77105       3138.614      0.9877638      0.7104377
      7463.5000          0.251         0.0145       106.6337       79.16428        69.8507         0.3804         0.3705         2.2361         0.7675          -39.8      -31.53902       3158.416      0.9822186      0.6568649
      7464.0000         0.2522         0.0145       107.1287       75.70482        67.7433         0.3568          0.378         2.2342         0.8447       -43.5644       -35.2714       3158.416      0.9086131      0.6149281
      7464.5000         0.2563         0.0105       107.6238       71.99916        65.4858         0.3317         0.3888         2.2277         0.9442       -46.9307      -38.60567       3158.416      0.8297694      0.5774643
      7465.0000         0.2641          0.005       107.9208        71.4926        65.1784         0.3112         0.3927         2.2163         1.0092        -50.099      -41.74195       3158.416      0.8189915      0.5422252
      7465.5000         0.2676          0.008       108.4158       73.69274        66.5209         0.2972         0.3849         2.2084         1.0467       -52.6733      -44.28423       3158.416       0.865803      0.5136604
      7466.0000          0.267          0.015       109.1089        75.6468        67.7134         0.2839         0.3741         2.2084         1.0659       -54.6535       -46.2324       3148.515      0.9073787      0.4917707
      7466.5000         0.2676          0.016       109.3069       76.12457         68.006         0.2723         0.3687         2.2069         1.1055       -54.6535      -46.20038       3148.515      0.9175439      0.4921306
      7467.0000         0.2715         0.0115       109.2079       74.63358        67.0985         0.2661         0.3696          2.202         1.0806       -52.6733      -44.18816       3128.713      0.8858209      0.5147398
      7467.5000         0.2706          0.007       109.1089       73.37802         66.341         0.2649         0.3726         2.2015         0.9717       -51.8812      -43.36403       3108.911      0.8591068      0.5239997
      7468.0000         0.2658          0.007       108.1188        73.0969        66.1836         0.2637         0.3717         2.2079         0.7746       -54.6535       -46.1043       3108.911      0.8531256      0.4932101
      7468.5000         0.2635          0.007       107.5248       73.55383        66.4761         0.2601         0.3648         2.2149         0.7196          -61.4      -52.81878       3108.911      0.8628473      0.4177665
      7469.0000         0.2679         0.0065       107.0297       72.78056        66.0187         0.2518         0.3541         2.2074          0.757          -71.6      -62.98676       3108.911      0.8463948      0.3035196
      7469.5000         0.2772          0.001       106.4356       69.30028        63.9112         0.2405         0.3446         2.1926         1.1466          -79.2      -70.55473       3108.911      0.7723463      0.2184862
      7470.0000          0.288        -0.0015       106.6337       64.34354        60.9037         0.2265         0.3368         2.1728         1.7284          -82.8      -74.12271       3108.911      0.6668838      0.1783965
      7470.5000         0.2961         -0.001       107.4228       60.90149        58.8195         0.2114         0.3315         2.1564          1.834       -84.5986      -75.88928       3109.198      0.5936487      0.1585474
      7471.0000         0.2997         -0.004       108.4081       58.93916        57.6373         0.2028         0.3353          2.152         1.4142       -83.1975      -74.45616       3119.586       0.551897      0.1746499
      7471.5000         0.2982         -0.009       109.1953       59.87004        58.2187         0.2019         0.3416          2.153              1            -78      -69.22663       3139.875      0.5717031      0.2334086
