#------------------------------------------------------------------------------
# Created by    : vladimir.rabinovich
# Created on    : 09/19/2023 17:20:52
#------------------------------------------------------------------------------
~Version Information Section
VERS.           2.0     :   CWLS log ASCII Standard - VERSION 2.0
WRAP.           NO      :   One line per depth step
~Well Information Section
#MNEM       .UNIT                                         VALUE :DESCRIPTION
#------------------------------------------------------------------------------
STRT        .FT                                            1558 :START DEPTH
STOP        .FT                                           11266 :STOP DEPTH
STEP        .FT                                             0.5 :STEP      
NULL        .                                           -999.25 :NULL      
COMP        .                               MEREDITH & CO ET AL :COMPANY   
WELL        .                                 GRINNELL TEXAS CO :WELL      
FLD         .                                           WILDCAT :FIELD     
LOC         .                                                   :LOCATION  
CNTY        .                                         JEFFERSON :LOCATION  
STAT        .                                             TEXAS :STATE     
CTRY        .                                     UNITED STATES :COUNTRY   
SRVC        .                                                   :SERVICE COMPANY
DATE        .                             9/13/2023 11:19:11 AM :LOG DATE  
API         .                                    42245015300000 :API NUMBER
UWI         .                                    42245015300000 :UNIQUE WELL ID
XCOORD      .                                  1358778.50439977 :SURFACE X 
YCOORD      .                                  10877447.4356243 :SURFACE Y 
LAT         .                                        29.9685419 :LATITUDE  
LON         .                                       -93.8897358 :LONGITUDE 
ELEV        .FT                                              14 :ELEVATION VALUE
ELEV_TYPE   .                                                DF :ELEVATION REFERENCE TYPE
~Curve Information Section
#MNEM       .UNIT                                      API CODE :CURVE DESCRIPTION
#------------------------------------------------------------------------------
DEPT        .FT                                                 :DEPTH     
ASN         .OHMM                                               :          
LN          .OHMM                                               :          
SP          .MV                                                 :          
SP_NORM     .MV                                                 :SP Normalized
VSH_SP      .V/V                                                :Volume of Shale from SP
~A        DEPTH            ASN             LN             SP        SP_NORM         VSH_SP
# ...
      2834.0000         0.9297         0.5379        -59.964       -32.8035      0.5030702
      2834.5000          0.962         0.5425        -62.813       -35.6525      0.4585546
      2835.0000          0.992         0.5471       -64.5433       -37.3828      0.4315187
      2835.5000         1.0216         0.5517       -64.3586       -37.1981      0.4344046
      2836.0000         0.9875         0.5563        -63.983      -36.82251      0.4402733
      2836.5000         0.9001         0.5609       -62.9872      -35.82671      0.4558327
      2837.0000         0.8296         0.5656       -61.7319       -34.5714      0.4754468
      2837.5000           0.79         0.5702        -60.336      -33.17551      0.4972577
      2838.0000         0.7805         0.5748       -58.8784      -31.71791      0.5200328
      2838.5000         0.7974         0.5794       -57.0655        -29.905      0.5483593
      2839.0000         0.8193         0.5825       -54.6805      -27.52001      0.5856249
      2839.5000         0.8413         0.5815       -47.1464      -19.98591      0.7033452
      2840.0000         0.8632         0.5804       -41.6579      -14.49741       0.789103
      2840.5000         0.8852         0.5793       -45.7908       -18.6303      0.7245265
      2841.0000         0.9053         0.5783       -52.8378      -25.67731      0.6144171
      2841.5000         0.9193         0.5772       -59.6599       -32.4994      0.5078218
      2842.0000         0.9333         0.5761       -65.3556      -38.19511      0.4188265
      2842.5000         0.9474         0.5751       -69.2416      -42.08111      0.3581077
      2843.0000         0.9394          0.574       -72.0145      -44.85401      0.3147811
      2843.5000         0.8891         0.5729       -73.5892      -46.42871      0.2901764
      2844.0000         0.8388         0.5704       -73.5977      -46.43721      0.2900436
      2844.5000         0.7885         0.5613       -73.6062      -46.44571      0.2899108
      2845.0000         0.7422         0.5522       -73.2214      -46.06091      0.2959234
      2845.5000         0.6999         0.5431       -70.1388      -42.97831      0.3440889
      2846.0000         0.6576          0.534       -66.6803      -39.51981       0.398128
      2846.5000         0.6203         0.5249       -61.7297      -34.56921      0.4754812
      2847.0000         0.5902         0.5158       -56.1993      -29.03881      0.5618936
      2847.5000         0.5594         0.5067       -51.4579      -24.29741       0.635978
      2848.0000          0.619         0.4987       -46.6064      -19.44591      0.7117827
      2848.5000          0.692         0.4984       -41.9246       -14.7641      0.7849358
      2849.0000         0.7538          0.498        -38.681      -11.52051      0.8356171
      2849.5000         0.8144         0.4976       -36.1738      -9.013308      0.8747921
      2850.0000          0.875         0.4973       -41.1421      -13.98161      0.7971624
      2850.5000         0.9341         0.4969       -45.4514      -18.29091      0.7298295
      2851.0000         0.9606         0.4965        -50.649       -23.4885      0.6486171
      2851.5000         0.9871         0.4962       -59.3667      -32.20621       0.512403
      2852.0000         1.0131         0.4958       -64.2954      -37.13491       0.435392
      2852.5000         1.0387          0.498       -68.0646      -40.90411      0.3764983
      2853.0000         1.0643         0.5032       -71.1395      -43.97901      0.3284529
      2853.5000         1.0899         0.5085       -73.0737      -45.91321      0.2982311
      2854.0000         1.1275         0.5137       -75.1544      -47.99391      0.2657201
      2854.5000         1.0988          0.519       -76.9174       -49.7569      0.2381734
      2855.0000         1.0694         0.5242       -72.8831      -45.72261      0.3012092
      2855.5000          1.045         0.5255       -70.3085      -43.14801      0.3414373
      2856.0000         1.0267         0.5108       -68.2432      -41.08271      0.3737077
      2856.5000         1.0083         0.4961       -66.6489      -39.48841      0.3986186
      2857.0000           0.99         0.4815       -64.9996      -37.83911      0.4243889
      2857.5000         0.9683         0.4668       -63.1558      -35.99531      0.4531983
      2858.0000         0.9381         0.4625       -60.7642      -33.60371      0.4905671
      2858.5000          0.908         0.4611       -57.5604       -30.3999      0.5406265
      2859.0000         0.8783         0.4598       -54.4138      -27.25331      0.5897921
      2859.5000         0.8831         0.4584       -51.3532      -24.19271       0.637614
      2860.0000         0.9137          0.457       -53.1816       -26.0211      0.6090452
      2860.5000         0.9443         0.4557       -58.6283      -31.46781      0.5239406
      2861.0000         0.9675         0.4543       -63.8788      -36.71831      0.4419014
      2861.5000         0.9897         0.4548       -68.6531      -41.49261       0.367303
      2862.0000         1.0118         0.4559       -72.9028      -45.74231      0.3009014
      2862.5000         1.0339         0.4571       -75.4884      -48.32791      0.2605014
      2863.0000         1.0561         0.4583       -77.7688      -50.60831      0.2248702
      2863.5000          1.075         0.4595       -79.1998      -52.03931      0.2025108
      2864.0000         1.0831         0.4607       -80.0765      -52.91601      0.1888124
      2864.5000          1.049         0.4618       -80.6737      -53.51321      0.1794811
      2865.0000         1.0148          0.463       -78.6935        -51.533      0.2104218
      2865.5000         0.9807         0.4642       -76.6027      -49.44221      0.2430905
      2866.0000         0.9588         0.4586       -74.7004      -47.53991      0.2728139
      2866.5000         0.9464         0.4492       -72.8726       -45.7121      0.3013734
      2867.0000          0.934         0.4399       -71.7111      -44.55061      0.3195218
      2867.5000         0.9254         0.4305       -71.2546      -44.09411      0.3266546
      2868.0000          0.923         0.4212       -74.3754       -47.2149      0.2778921
      2868.5000         0.9206         0.4118       -78.1534       -50.9929      0.2188609
      2869.0000         0.8708         0.4025        -80.739      -53.57851      0.1784608
      2869.5000         0.8169         0.3941       -83.7632      -56.60271      0.1312077
      2870.0000         0.7552         0.3864       -87.0233      -59.86281     0.08026862
      2870.5000         0.6936         0.3787       -89.3041      -62.14361     0.04463112
      2871.0000         0.6616         0.3709       -90.6399      -63.47941     0.02375925
      2871.5000         0.6382         0.3632       -90.6797      -63.51921     0.02313733
      2872.0000         0.6216         0.3555       -90.6575      -63.49701     0.02348423
      2872.5000         0.6094         0.3478       -90.6353      -63.47481     0.02383113
      2873.0000         0.5973         0.3401        -90.613      -63.45251     0.02417958
      2873.5000         0.5851         0.3443       -90.5088       -63.3483     0.02580774
      2874.0000         0.5678         0.3492       -90.2532       -63.0927     0.02980149
      2874.5000         0.5437         0.3541       -89.9974      -62.83691     0.03379834
      2875.0000         0.5192         0.3589       -89.7289      -62.56841     0.03799367
      2875.5000         0.4936         0.3638       -89.3854      -62.22491     0.04336083
      2876.0000         0.5143         0.3686       -89.0417      -61.88121     0.04873109
      2876.5000         0.5288         0.3735       -88.5795      -61.41901     0.05595303
      2877.0000         0.5433         0.3783        -88.076       -60.9155     0.06382024
      2877.5000         0.5579         0.3786       -86.2826      -59.12211     0.09184206
