#------------------------------------------------------------------------------
# Created by    : vladimir.rabinovich
# Created on    : 09/19/2023 17:20:51
#------------------------------------------------------------------------------
~Version Information Section
VERS.           2.0     :   CWLS log ASCII Standard - VERSION 2.0
WRAP.           NO      :   One line per depth step
~Well Information Section
#MNEM       .UNIT                                         VALUE :DESCRIPTION
#------------------------------------------------------------------------------
STRT        .FT                                            1818 :START DEPTH
STOP        .FT                                            9030 :STOP DEPTH
STEP        .FT                                             0.5 :STEP      
NULL        .                                           -999.25 :NULL      
COMP        .                               CONCHO PETROLEUM CO :COMPANY   
WELL        .                                  J E BROUSSARD JR :WELL      
FLD         .                                           WILDCAT :FIELD     
LOC         .                                                   :LOCATION  
CNTY        .                                         JEFFERSON :LOCATION  
STAT        .                                             TEXAS :STATE     
CTRY        .                                     UNITED STATES :COUNTRY   
SRVC        .                                                   :SERVICE COMPANY
DATE        .                             9/13/2023 11:19:11 AM :LOG DATE  
API         .                                    42245021900000 :API NUMBER
UWI         .                                    42245021900000 :UNIQUE WELL ID
XCOORD      .                                  1213918.99973078 :SURFACE X 
YCOORD      .                                  10884047.8383225 :SURFACE Y 
LAT         .                                         29.982808 :LATITUDE  
LON         .                                       -94.3475252 :LONGITUDE 
ELEV        .FT                                              35 :ELEVATION VALUE
ELEV_TYPE   .                                                GL :ELEVATION REFERENCE TYPE
~Curve Information Section
#MNEM       .UNIT                                      API CODE :CURVE DESCRIPTION
#------------------------------------------------------------------------------
DEPT        .FT                                                 :DEPTH     
ASN         .OHMM                                               :          
LAT         .OHMM                                               :          
LN          .OHMM                                               :          
SP          .MV                                                 :          
SP_NORM     .MV                                                 :SP Normalized
VSH_SP      .V/V                                                :Volume of Shale from SP
~A        DEPTH            ASN            LAT             LN             SP        SP_NORM         VSH_SP
# ...
      4212.0000          1.041         1.5055         1.0874       -61.8563      -4.689339      0.9532995
      4212.5000         1.0336         1.5046         1.1048       -63.6591      -6.500862      0.9303688
      4213.0000         1.0333         1.4862         1.1222       -64.3909      -7.241386      0.9209951
      4213.5000         1.0365         1.4502         1.1744       -64.4087       -7.26791      0.9206594
      4214.0000         1.0468         1.3968         1.2266       -63.7126      -6.580536      0.9293603
      4214.5000         1.0571         1.3257         1.2786       -63.0165      -5.893158      0.9380613
      4215.0000         1.0922         1.2372         1.3305       -61.9634      -4.848785      0.9512812
      4215.5000         1.1556         1.1486         1.3824       -60.9103      -3.804405      0.9645012
      4216.0000         1.2223         1.0951         1.4168       -59.8621      -2.764927      0.9776592
      4216.5000         1.2845         1.0592         1.3817       -59.5259      -2.437454      0.9818044
      4217.0000         1.3501         1.0758         1.3294       -58.5086      -1.428875      0.9945712
      4217.5000         1.4123         1.1276         1.2771       -57.4914     -0.4204025              1
      4218.0000         1.4472         1.2144         1.2077       -56.4741      0.5881767              1
      4218.5000           1.51         1.2836         1.1556       -55.4569       1.596649              1
      4219.0000         1.5798         1.4055         1.1209       -55.4741       1.570728              1
      4219.5000         1.5514         1.6326         1.1208       -55.8362       1.199902              1
      4220.0000         1.4879         1.6317         1.1207       -57.5776     -0.5502205              1
      4220.5000          1.428         1.5432         1.1203       -59.6552      -2.636547      0.9792842
      4221.0000         1.3376         1.4722         1.1195       -61.0714       -4.06147      0.9612472
      4221.5000         1.2754         1.3836         1.1187       -62.8571      -5.855892       0.938533
      4222.0000         1.2166         1.3126         1.1353       -64.6429      -7.650414      0.9158176
      4222.5000         1.1528          1.224         1.1345       -66.0714      -9.087643      0.8976248
      4223.0000         1.1204          1.153         1.1338          -67.5      -10.52496      0.8794308
      4223.5000         1.0917         1.0995          1.133       -68.9286      -11.96228      0.8612369
      4224.0000         1.0629         1.0986         1.1496       -69.2857      -12.32811      0.8566062
      4224.5000         1.0342         1.1153         1.1489       -69.2857      -12.33683      0.8564958
      4225.0000         1.0054          1.132         1.1481       -68.9286      -11.98846      0.8609056
      4225.5000         0.9913         1.1662         1.1474       -68.2143      -11.28289      0.8698369
      4226.0000         0.9911         1.1653         1.1467       -67.8571      -10.93441       0.874248
      4226.5000         0.9944         1.1644         1.1459          -67.5      -10.58603      0.8786578
      4227.0000         0.9942         1.1109         1.1452       -67.8571      -10.95186      0.8740271
      4227.5000          1.001          1.075         1.1444       -67.8571      -10.96058      0.8739167
      4228.0000         1.0115         1.0215         1.1437          -67.5       -10.6122      0.8783265
      4228.5000         1.0185         0.9858         1.1429       -66.7857      -9.906624      0.8872579
      4229.0000          1.029         0.9504         1.1422       -66.0714      -9.201054      0.8961892
      4229.5000         1.0396         0.9841         1.1064       -64.6429      -7.781273      0.9141611
      4230.0000         1.0537         1.0355         1.0881       -63.9286      -7.075699      0.9230924
      4230.5000         1.0535         1.1047         1.0701       -63.2307      -6.386524      0.9318162
      4231.0000         1.0354         1.1563          1.035       -62.5346      -5.699146      0.9405171
      4231.5000         1.0174         1.2078         1.0175       -61.8385      -5.011772      0.9492181
      4232.0000         1.0207         1.2591         0.9825       -61.4993      -4.681293      0.9534013
      4232.5000         1.0348         1.3279         0.9649       -61.1602      -4.350918      0.9575833
      4233.0000         1.0523         1.3267         0.9298       -60.4641      -3.663544      0.9662843
      4233.5000         1.0805         1.3256         0.9298       -59.7759       -2.98407      0.9748852
      4234.0000         1.0803          1.307         0.9298       -59.4397       -2.65659      0.9790305
      4234.5000           1.08         1.2711         0.9298       -58.7672      -1.992813      0.9874327
      4235.0000         1.0798         1.2178         0.9298       -58.0948      -1.329136      0.9958337
      4235.5000         1.0689         1.2167         0.9474       -57.4224     -0.6654625              1
      4236.0000         1.0369         1.1983         0.9474       -57.0948     -0.3465843              1
      4236.5000          1.019         1.1973         0.9474       -56.4224      0.3170891              1
      4237.0000         1.0082         1.1789         0.9474       -56.7845    -0.05373383              1
      4237.5000         0.9975         1.1606         0.9649       -57.4914     -0.7693596              1
      4238.0000         0.9904         1.1423         0.9649       -58.5431      -1.829781      0.9894965
      4238.5000         0.9799         1.0722         0.9649       -64.5872      -7.882603      0.9128785
      4239.0000         0.9728         1.0022         0.9649       -69.9598      -13.26393      0.8447604
      4239.5000         0.9692         0.9323         0.9649       -79.6162      -22.92906       0.722417
      4240.0000         0.9759         0.8625         0.9649       -83.0962      -26.41778       0.678256
      4240.5000         0.9862         0.7931         0.9469       -87.5895       -30.9198      0.6212683
      4241.0000         1.0773         0.7241         0.8759       -88.2866      -31.62562      0.6123339
      4241.5000         1.1793         0.6552         0.8224        -89.676      -33.02375      0.5946361
      4242.0000         1.2524         0.6552         0.7689       -91.4137      -34.77017      0.5725295
      4242.5000         1.3284         0.7069         0.6978       -91.7698      -35.13499      0.5679114
      4243.0000         1.4046         0.8103         0.6443       -92.1265      -35.50042      0.5632858
      4243.5000         1.4438         0.9138         0.6083       -91.7902      -35.17284      0.5674323
      4244.0000          1.529              1         0.5724       -90.7592      -34.15057      0.5803725
      4244.5000         1.5787         1.1042         0.5539       -89.7264       -33.1265      0.5933355
      4245.0000         1.5894         1.2086         0.5355       -88.6919      -32.10072        0.60632
      4245.5000         1.5682         1.2784         0.5171       -89.0474      -32.46494      0.6017096
      4246.0000         1.5258         1.2961         0.5162       -90.1001      -33.52636      0.5882739
      4246.5000         1.4481         1.2615         0.5154       -93.9434      -37.37838      0.5395141
      4247.0000         1.3576          1.157         0.5145       -97.4444      -40.88811      0.4950872
      4247.5000         1.2956         1.0698         0.5311       -99.5548      -43.00724      0.4682628
      4248.0000         1.2337              1         0.5303        -104.14      -47.60116      0.4101119
      4248.5000         1.1709          0.931         0.5469      -106.2627      -49.73259      0.3831318
      4249.0000         1.1105         0.8103         0.5461      -108.3856       -51.8642      0.3561493
      4249.5000         1.0464         0.7414         0.5452      -110.5085      -53.99583      0.3291667
