#------------------------------------------------------------------------------
# Created by    : vladimir.rabinovich
# Created on    : 09/19/2023 17:20:52
#------------------------------------------------------------------------------
~Version Information Section
VERS.           2.0     :   CWLS log ASCII Standard - VERSION 2.0
WRAP.           NO      :   One line per depth step
~Well Information Section
#MNEM       .UNIT                                         VALUE :DESCRIPTION
#------------------------------------------------------------------------------
STRT        .FT                                            1025 :START DEPTH
STOP        .FT                                            8930 :STOP DEPTH
STEP        .FT                                             0.5 :STEP      
NULL        .                                           -999.25 :NULL      
COMP        .                                     MEREDITH & CO :COMPANY   
WELL        .                                 BROUSSARD JR ETAL :WELL      
FLD         .                                           WILDCAT :FIELD     
LOC         .                                                   :LOCATION  
CNTY        .                                         JEFFERSON :LOCATION  
STAT        .                                             TEXAS :STATE     
CTRY        .                                     UNITED STATES :COUNTRY   
SRVC        .                                                   :SERVICE COMPANY
DATE        .                             9/13/2023 11:19:11 AM :LOG DATE  
API         .                                    42245021860000 :API NUMBER
UWI         .                                    42245021860000 :UNIQUE WELL ID
XCOORD      .                                  1217776.66937412 :SURFACE X 
YCOORD      .                                  10884677.7702762 :SURFACE Y 
LAT         .                                        29.9846645 :LATITUDE  
LON         .                                       -94.3353628 :LONGITUDE 
ELEV        .FT                                              34 :ELEVATION VALUE
ELEV_TYPE   .                                                DF :ELEVATION REFERENCE TYPE
~Curve Information Section
#MNEM       .UNIT                                      API CODE :CURVE DESCRIPTION
#------------------------------------------------------------------------------
DEPT        .FT                                                 :DEPTH     
ASN         .OHMM                                               :          
LAT         .OHMM                                               :          
LN          .OHMM                                               :          
SP          .MV                                                 :          
SP_NORM     .MV                                                 :SP Normalized
VSH_SP      .V/V                                                :Volume of Shale from SP
~A        DEPTH            ASN            LAT             LN             SP        SP_NORM         VSH_SP
# ...
      2583.0000         1.3481         1.0357          0.625       -97.1429      -40.25462      0.5589368
      2583.5000         1.3815         1.0179         0.5893       -98.5714      -41.67104       0.543022
      2584.0000         1.3444         1.0179         0.5536      -100.3571      -43.44466      0.5230938
      2584.5000         1.3037         1.0357            0.5      -101.4286      -44.50407      0.5111902
      2585.0000         1.2778         1.0536         0.4821         -102.5      -45.56339      0.4992878
      2585.5000         1.2778         1.0893         0.4464         -102.5      -45.55131      0.4994235
      2586.0000         1.4036          1.125         0.4286         -102.5      -45.53922      0.4995593
      2586.5000         1.4582         1.1429         0.4464      -103.9286      -46.95574      0.4836434
      2587.0000         1.4545         1.1429         0.4464      -107.8571      -50.87216      0.4396387
      2587.5000         1.3333         1.0893         0.4643      -111.7857      -54.78867      0.3956329
      2588.0000         1.1579         1.0357         0.4643      -115.7143       -58.7052       0.351627
      2588.5000         1.0596         0.9444         0.4643      -119.6429      -62.62171      0.3076213
      2589.0000         0.7273         0.8519         0.4643      -125.4545      -68.42123      0.2424581
      2589.5000         0.7164         0.7593         0.4643           -128      -70.95464      0.2139928
      2590.0000         0.7127         0.6481         0.4643      -128.7273      -71.66986      0.2059566
      2590.5000         0.7526         0.6296          0.464      -129.4749      -72.40538      0.1976923
      2591.0000         0.7924         0.6667         0.4457      -129.8645       -72.7829      0.1934506
      2591.5000         0.8066         0.6852         0.4273      -129.8908       -72.7971       0.193291
      2592.0000         0.7884         0.7037         0.4268      -129.9171      -72.81133      0.1931312
      2592.5000         0.7774         0.7037         0.4083      -129.9433      -72.82545      0.1929725
      2593.0000         0.7519         0.6852         0.3899      -129.9695      -72.83956      0.1928139
      2593.5000         0.7012         0.6667         0.3893      -130.7311      -73.58908      0.1843923
      2594.0000         0.6686         0.6296         0.3708      -131.1175      -73.96339      0.1801866
      2594.5000         0.6433         0.6111         0.3522      -131.1426      -73.97641      0.1800403
      2595.0000         0.6324         0.5741         0.3516      -131.1677      -73.98943      0.1798941
      2595.5000         0.6252         0.5741         0.3511      -130.1128      -72.92244      0.1918827
      2596.0000         0.6432         0.5741         0.3505       -126.542      -69.33957      0.2321397
      2596.5000         0.6503         0.5926         0.3499      -122.2587      -65.04418      0.2804025
      2597.0000         0.7006         0.6296         0.3493      -119.7763       -62.5497      0.3084303
      2597.5000         0.7507         0.6296         0.3487      -119.4489      -62.21022      0.3122448
      2598.0000         0.8007         0.6296         0.3481      -122.3555      -65.10474      0.2797221
      2598.5000         0.8296         0.6111         0.3475      -128.4767      -71.21385      0.2110803
      2599.0000         0.8331         0.5556         0.3469      -132.0826      -74.80766      0.1707004
      2599.5000          0.833         0.5185         0.3463      -134.2523      -76.96529      0.1464575
      2600.0000         0.8219         0.4815         0.3458      -136.0611        -78.762      0.1262697
      2600.5000           0.75         0.4265         0.3455      -137.1429      -79.83172      0.1142504
      2601.0000           0.75          0.409         0.3455      -136.4286      -79.10535      0.1224118
      2601.5000           0.75         0.4286         0.3455           -135      -77.66466      0.1385994
      2602.0000         0.8145         0.4296         0.3455      -133.5714      -76.22397      0.1547869
      2602.5000           0.88         0.4307         0.3455      -131.7857      -74.42619      0.1749866
      2603.0000         0.9491         0.4317         0.3455      -132.8571       -75.4855      0.1630842
      2603.5000          1.014         0.4328         0.3455      -134.2857      -76.90203      0.1471682
      2604.0000         1.0526         0.4338         0.3455      -136.0714      -78.67564        0.12724
      2604.5000         1.0561         0.4348         0.3455      -137.1429      -79.73506      0.1153364
      2605.0000         1.0632         0.4359         0.3273      -137.1429      -79.72298      0.1154722
      2605.5000         1.0737          0.455         0.3273      -136.0714      -78.63939      0.1276473
      2606.0000         1.1684          0.456         0.3273      -135.3571      -77.91301      0.1358089
      2606.5000         1.2444         0.4751         0.3273      -133.5714      -76.11522      0.1560088
      2607.0000         1.3259         0.5122         0.3273      -135.3571      -77.88885      0.1360804
      2607.5000         1.4036         0.5131         0.3273         -137.5      -80.01966      0.1121386
      2608.0000         1.4836          0.532         0.3273      -139.2857      -81.79329     0.09221023
      2608.5000           1.56         0.5328         0.3273      -141.4545         -83.95     0.06797756
      2609.0000            1.6         0.5157         0.3273      -142.1818      -84.66521      0.0599415
      2609.5000         1.6429         0.4987         0.3273      -142.9091      -85.38043     0.05190526
      2610.0000         1.6536         0.4817         0.3273      -143.2727      -85.73195     0.04795563
      2610.5000         1.7143         0.4821         0.3273      -143.2727      -85.71987     0.04809133
      2611.0000         1.8073         0.4821         0.3273      -143.2727      -85.70779     0.04822712
      2611.5000         1.8691         0.4821         0.3273      -143.6364       -86.0594     0.04427638
      2612.0000         1.9236         0.4643         0.3273      -144.3636      -86.77452     0.03624134
      2612.5000         1.9236         0.4286         0.3273      -144.7273      -87.12613     0.03229068
      2613.0000         1.8582         0.4107         0.3273      -145.0909      -87.47765     0.02834106
      2613.5000         1.7786         0.3929         0.3091      -145.4545      -87.82916     0.02439143
      2614.0000         1.7357          0.375         0.3091      -145.8182      -88.18079      0.0204406
      2614.5000          1.725          0.375         0.3091      -146.1818       -88.5323     0.01649106
      2615.0000         1.7286         0.3571         0.3091      -146.1818      -88.52022     0.01662677
      2615.5000         1.7429         0.3571         0.3091      -146.9091      -89.23544    0.008590527
      2616.0000         1.7893         0.3571         0.3091      -147.6364      -89.95065   0.0005544598
      2616.5000         1.8145         0.3571         0.3091      -147.6364      -89.93857   0.0006902459
      2617.0000           1.84         0.3571         0.3091           -148      -90.29008              0
      2617.5000         1.8655         0.3571         0.3091      -148.3636       -90.6416              0
      2618.0000           1.88          0.375         0.3091      -148.7273      -90.99322              0
      2618.5000         1.8764          0.375         0.3091      -148.7273      -90.98113              0
      2619.0000         1.8036          0.375         0.3091      -148.7273      -90.96906              0
      2619.5000         1.7571         0.3571         0.3091      -148.3636      -90.59328              0
      2620.0000         1.6929         0.3571         0.3091      -148.3636      -90.58119              0
      2620.5000         1.5964         0.3214         0.3091           -148      -90.20551              0
