#------------------------------------------------------------------------------
# Created by    : vladimir.rabinovich
# Created on    : 09/19/2023 17:22:46
#------------------------------------------------------------------------------
~Version Information Section
VERS.           2.0     :   CWLS log ASCII Standard - VERSION 2.0
WRAP.           NO      :   One line per depth step
~Well Information Section
#MNEM       .UNIT                                         VALUE :DESCRIPTION
#------------------------------------------------------------------------------
STRT        .FT                                             992 :START DEPTH
STOP        .FT                                            8489 :STOP DEPTH
STEP        .FT                                             0.5 :STEP      
NULL        .                                           -999.25 :NULL      
COMP        .                                       GAELIC CORP :COMPANY   
WELL        .                                     PHELAN MICKEY :WELL      
FLD         .                                           WILDCAT :FIELD     
LOC         .                                                   :LOCATION  
CNTY        .                                         JEFFERSON :LOCATION  
STAT        .                                             TEXAS :STATE     
CTRY        .                                     UNITED STATES :COUNTRY   
SRVC        .                                                   :SERVICE COMPANY
DATE        .                             9/13/2023 11:18:46 AM :LOG DATE  
API         .                                    42245313790000 :API NUMBER
UWI         .                                    42245313790000 :UNIQUE WELL ID
XCOORD      .                                  1260103.88271883 :SURFACE X 
YCOORD      .                                     10773431.3746 :SURFACE Y 
LAT         .                                         29.679995 :LATITUDE  
LON         .                                       -94.1979967 :LONGITUDE 
ELEV        .FT                                              19 :ELEVATION VALUE
ELEV_TYPE   .                                                KB :ELEVATION REFERENCE TYPE
~Curve Information Section
#MNEM       .UNIT                                      API CODE :CURVE DESCRIPTION
#------------------------------------------------------------------------------
DEPT        .FT                                                 :DEPTH     
DPSS        .V/V                                                :          
DRHO        .G/CM3                                              :          
DT          .US/FT                                              :          
GR_NORM     .GAPI                                               :GammaRay Normalized
GRN         .GAPI                                               :          
ILD         .OHMM                                               :          
NPSS        .V/V                                                :Neutron Porosity Sandstone
RHOB        .G/CM3                                              :          
SFL         .OHMM                                               :          
SP          .MV                                                 :          
SP_NORM     .MV                                                 :SP Normalized
TENN        .LB                                                 :          
VSH_GR      .V/V                                                :Volume of Shale from GR
VSH_SP      .V/V                                                :Volume of Shale from SP
~A        DEPTH           DPSS           DRHO             DT        GR_NORM            GRN            ILD           NPSS           RHOB            SFL             SP        SP_NORM           TENN         VSH_GR         VSH_SP
# ...
      8462.0000         0.2188          0.078        -999.25        -999.25        -999.25         0.6351         0.4625         2.2875         0.7897           -3.4       1.538271       3277.716        -999.25              1
      8462.5000         0.2167          0.077        -999.25        -999.25        -999.25         0.6294         0.4801         2.2944         0.7648           -3.2       1.738271       3297.696        -999.25              1
      8463.0000         0.2176           0.08        -999.25        -999.25        -999.25         0.6121         0.4801         2.2899         0.7306           -3.2       1.738271       3297.853        -999.25              1
      8463.5000         0.2221         0.0845        -999.25        -999.25        -999.25         0.6094         0.4725         2.2809         0.7174           -3.4       1.538271       3297.996        -999.25              1
      8464.0000         0.2283         0.0855        -999.25        -999.25        -999.25         0.6039         0.4493         2.2714         0.7209           -3.6       1.338272       3298.139        -999.25              1
      8464.5000          0.234         0.0865        -999.25        -999.25        -999.25         0.5984         0.4295         2.2623         0.7344           -3.6       1.338272       3318.183        -999.25              1
      8465.0000         0.2373          0.092        -999.25        -999.25        -999.25         0.5986         0.4158         2.2593         0.7414           -3.6       1.338272       3338.232        -999.25              1
      8465.5000         0.2349         0.0995        -999.25        -999.25        -999.25         0.6043         0.3955         2.2622         0.7484           -3.4       1.538271       3338.395        -999.25              1
      8466.0000         0.2328         0.1079        -999.25        -999.25        -999.25         0.6101         0.3801         2.2657         0.7555           -3.2       1.738271       3328.617        -999.25              1
      8466.5000         0.2319         0.1149        -999.25        -999.25        -999.25          0.616         0.3712         2.2666         0.7697           -3.2       1.738271       3308.849        -999.25              1
      8467.0000         0.2328         0.1168        -999.25        -999.25        -999.25         0.6248         0.3673         2.2655         0.7988           -3.4       1.538271       3308.998        -999.25              1
      8467.5000         0.2358         0.1153        -999.25        -999.25        -999.25         0.6308         0.3676          2.261          0.799             -4      0.9382715       3299.189        -999.25              1
      8468.0000         0.2424          0.096        -999.25        -999.25        -999.25         0.6369         0.3674         2.2508         0.7562           -5.4     -0.4617286       3299.334        -999.25              1
      8468.5000         0.2505          0.065        -999.25        -999.25        -999.25          0.643         0.3674         2.2359         0.7027           -7.2      -2.261728       3299.479        -999.25       0.987868
      8469.0000          0.252          0.054        -999.25        -999.25        -999.25         0.6492         0.3674          2.233         0.8833           -9.8      -4.861729       3299.638        -999.25       0.962868
      8469.5000         0.2379          0.049        -999.25        -999.25        -999.25         0.6494         0.3674         2.2477          1.135          -11.4      -6.461728       3299.782        -999.25      0.9474834
      8470.0000         0.2282         0.0715        -999.25        -999.25        -999.25         0.6495         0.3674         2.2728         1.2429          -10.4      -5.461728       3309.925        -999.25      0.9570988
      8470.5000        -999.25         0.1015        -999.25        -999.25        -999.25         0.6494        -999.25        -999.25         1.2038           -8.4      -3.461728           3310        -999.25      0.9763296
      8471.0000        -999.25         0.1138        -999.25        -999.25        -999.25          0.646        -999.25        -999.25         1.1188           -5.6     -0.6617284           3310        -999.25              1
      8471.5000        -999.25         0.1197        -999.25        -999.25        -999.25         0.6456        -999.25        -999.25         1.0931             -4      0.9382715           3310        -999.25              1
      8472.0000        -999.25         0.1172        -999.25        -999.25        -999.25         0.6452        -999.25        -999.25         1.0924           -3.8       1.138272           3310        -999.25              1
      8472.5000        -999.25         0.0829        -999.25        -999.25        -999.25         0.6479        -999.25        -999.25         1.0918           -3.8       1.138272           3310        -999.25              1
      8473.0000        -999.25         0.0669        -999.25        -999.25        -999.25         0.6505        -999.25        -999.25         1.0911           -3.6       1.338272           3310        -999.25              1
      8473.5000        -999.25         0.0628        -999.25        -999.25        -999.25         0.6501        -999.25        -999.25         1.0904             -3       1.938272           3310        -999.25              1
      8474.0000        -999.25         0.0758        -999.25        -999.25        -999.25         0.6497        -999.25        -999.25         1.0897           -2.6       2.338272           3310        -999.25              1
      8474.5000        -999.25         0.0833        -999.25        -999.25        -999.25         0.6464        -999.25        -999.25          1.089        -999.25        -999.25           3310        -999.25        -999.25
      8475.0000        -999.25         0.0778        -999.25        -999.25        -999.25          0.646        -999.25        -999.25         1.0884        -999.25        -999.25           3300        -999.25        -999.25
      8475.5000        -999.25         0.0727        -999.25        -999.25        -999.25         0.6427        -999.25        -999.25         1.0877        -999.25        -999.25           3300        -999.25        -999.25
      8476.0000        -999.25         0.0702        -999.25        -999.25        -999.25         0.6423        -999.25        -999.25         1.0869        -999.25        -999.25           3300        -999.25        -999.25
      8476.5000        -999.25         0.0707        -999.25        -999.25        -999.25          0.642        -999.25        -999.25         1.0863        -999.25        -999.25           3290        -999.25        -999.25
      8477.0000        -999.25         0.0702        -999.25        -999.25        -999.25         0.6387        -999.25        -999.25         1.0856        -999.25        -999.25           3280        -999.25        -999.25
      8477.5000        -999.25         0.0711        -999.25        -999.25        -999.25         0.6383        -999.25        -999.25         1.0849        -999.25        -999.25           3300        -999.25        -999.25
      8478.0000        -999.25         0.0766        -999.25        -999.25        -999.25          0.638        -999.25        -999.25         1.0843        -999.25        -999.25           3320        -999.25        -999.25
      8478.5000        -999.25         0.0856        -999.25        -999.25        -999.25         0.6376        -999.25        -999.25         1.0835        -999.25        -999.25           3320        -999.25        -999.25
      8479.0000        -999.25         0.0976        -999.25        -999.25        -999.25         0.6373        -999.25        -999.25         1.0828        -999.25        -999.25           3320        -999.25        -999.25
      8479.5000        -999.25         0.1089        -999.25        -999.25        -999.25         0.6369        -999.25        -999.25         1.0822        -999.25        -999.25           3300        -999.25        -999.25
