#------------------------------------------------------------------------------
# Created by    : vladimir.rabinovich
# Created on    : 09/19/2023 17:20:52
#------------------------------------------------------------------------------
~Version Information Section
VERS.           2.0     :   CWLS log ASCII Standard - VERSION 2.0
WRAP.           NO      :   One line per depth step
~Well Information Section
#MNEM       .UNIT                                         VALUE :DESCRIPTION
#------------------------------------------------------------------------------
STRT        .FT                                            1025 :START DEPTH
STOP        .FT                                            8930 :STOP DEPTH
STEP        .FT                                             0.5 :STEP      
NULL        .                                           -999.25 :NULL      
COMP        .                                     MEREDITH & CO :COMPANY   
WELL        .                                 BROUSSARD JR ETAL :WELL      
FLD         .                                           WILDCAT :FIELD     
LOC         .                                                   :LOCATION  
CNTY        .                                         JEFFERSON :LOCATION  
STAT        .                                             TEXAS :STATE     
CTRY        .                                     UNITED STATES :COUNTRY   
SRVC        .                                                   :SERVICE COMPANY
DATE        .                             9/13/2023 11:19:11 AM :LOG DATE  
API         .                                    42245021860000 :API NUMBER
UWI         .                                    42245021860000 :UNIQUE WELL ID
XCOORD      .                                  1217776.66937412 :SURFACE X 
YCOORD      .                                  10884677.7702762 :SURFACE Y 
LAT         .                                        29.9846645 :LATITUDE  
LON         .                                       -94.3353628 :LONGITUDE 
ELEV        .FT                                              34 :ELEVATION VALUE
ELEV_TYPE   .                                                DF :ELEVATION REFERENCE TYPE
~Curve Information Section
#MNEM       .UNIT                                      API CODE :CURVE DESCRIPTION
#------------------------------------------------------------------------------
DEPT        .FT                                                 :DEPTH     
ASN         .OHMM                                               :          
LAT         .OHMM                                               :          
LN          .OHMM                                               :          
SP          .MV                                                 :          
SP_NORM     .MV                                                 :SP Normalized
VSH_SP      .V/V                                                :Volume of Shale from SP
~A        DEPTH            ASN            LAT             LN             SP        SP_NORM         VSH_SP
# ...
      2089.0000         0.8327         0.9107         0.7321       -74.5455      -10.05665      0.8776129
      2089.5000         0.8473         0.9107         0.7321       -75.2727      -10.78751      0.8677363
      2090.0000         0.8691         0.9107         0.7321       -76.7273      -12.24578        0.84803
      2090.5000         0.9054         0.9286         0.7143       -79.6364      -15.15855      0.8086683
      2091.0000         0.9053         0.9286         0.7143       -80.3571      -15.88292      0.7988794
      2091.5000         0.8979         0.9464         0.7143       -79.2727      -14.80219       0.813484
      2092.0000          0.858         0.9464         0.6964       -77.0909      -12.62405      0.8429183
      2092.5000         0.8181         0.9643         0.6607       -74.9091      -10.44592      0.8723524
      2093.0000           0.75         0.9821         0.6429       -73.4545      -8.994987      0.8919596
      2093.5000         0.7071         0.9821          0.625       -72.7273      -8.271461       0.901737
      2094.0000         0.6679              1         0.5893       -72.7273      -8.275124      0.9016875
      2094.5000         0.6643         1.0179         0.5893       -72.7273      -8.278793      0.9016379
      2095.0000          0.675         1.0179         0.5893       -75.2727      -10.82786      0.8671911
      2095.5000         0.7929              1         0.5714       -78.1818      -13.74063      0.8278293
      2096.0000         0.8324         0.9821         0.5536       -83.9286       -19.4911      0.7501203
      2096.5000         0.9078         0.9464         0.5536       -88.2143      -23.78046      0.6921559
      2097.0000         1.0047         0.9107         0.5536       -97.1429      -32.71273      0.5714496
      2097.5000         1.0227         0.8571         0.5536      -111.0714      -46.64491       0.383177
      2098.0000         1.0551         0.8036         0.5714      -121.4545      -57.03167      0.2428153
      2098.5000         1.0731         0.7321         0.5893      -130.9091      -66.48994      0.1150009
      2099.0000         1.0621         0.6429          0.625      -134.5455         -70.13     0.06581075
      2099.5000         1.0584         0.5893         0.6607           -136      -71.58817     0.04610577
      2100.0000         1.0582         0.5179         0.6964      -137.4545      -73.04634      0.0264008
      2100.5000         1.1163         0.4638         0.6964       -137.834      -73.42951     0.02122281
      2101.0000         1.1453          0.427         0.6964         -135.3      -70.89918     0.05541652
      2101.5000         1.1088          0.426         0.6964      -128.0217      -63.62454      0.1537224
      2102.0000          1.058         0.4609         0.6607      -110.3571      -45.96362      0.3923836
      2102.5000         1.0036          0.514          0.625           -105      -40.61018      0.4647273
      2103.0000         1.0036         0.5491         0.6071       -95.3571      -30.97095      0.5949872
      2103.5000         1.0904         0.5845         0.5714       -96.0714      -31.68892      0.5852849
      2104.0000         1.3748         0.6199         0.5536       -99.6429      -35.26408      0.5369719
      2104.5000          1.418         0.6374         0.5536      -103.9286      -39.55345      0.4790074
      2105.0000         1.5046         0.6185         0.6071      -109.2857      -44.91422      0.4065647
      2105.5000         1.5873         0.6178          0.625      -114.6429      -50.27509      0.3341205
      2106.0000          1.669         0.5807         0.6607           -120      -55.63586      0.2616776
      2106.5000         1.7225         0.5434         0.6786      -126.6231      -62.26263      0.1721267
      2107.0000         1.6548         0.4876         0.6786      -127.3656       -63.0088      0.1620433
      2107.5000         1.5687         0.4684         0.6964      -127.7409      -63.38776      0.1569222
      2108.0000         1.4574         0.4674         0.7143       -120.738      -56.38853      0.2515064
      2108.5000          1.226          0.448         0.7143      -117.8571       -53.5113      0.2903878
      2109.0000         1.0716         0.4654         0.7143      -109.2857      -44.94357       0.406168
      2109.5000         0.8429         0.4829         0.7321      -101.0714      -36.73293      0.5171225
      2110.0000         0.7643         0.5005         0.7321          -92.5       -28.1652      0.6329027
      2110.5000         0.7643         0.5556           0.75       -72.1429      -7.811768      0.9079491
      2111.0000         0.7643         0.6111         0.7857       -68.2143      -3.886841      0.9609886
      2111.5000         0.7893         0.6296         0.8036       -66.4286      -2.104797      0.9850703
      2112.0000         0.8107         0.6667         0.8571            -65     -0.6798706              1
      2112.5000         0.8357         0.6852          0.875       -64.6429     -0.3264389              1
      2113.0000         0.8643         0.7222         0.9107       -64.6429     -0.3301086              1
      2113.5000         0.8893         0.7222         0.9107       -64.2857     0.02342224              1
      2114.0000         0.9143         0.7593         0.9286       -63.5714      0.7340584              1
      2114.5000         0.9393         0.7963         0.9464       -62.8571       1.444687              1
      2115.0000         0.9643         0.8148         0.9643       -61.7857       2.512417              1
      2115.5000         0.9964         0.8704         0.9821       -61.4286       2.865849              1
      2116.0000         1.0214         0.9074              1       -61.0714       3.219387              1
      2116.5000         1.0393         0.9259              1       -60.7143       3.572819              1
      2117.0000         1.0464         0.9444         1.0179       -60.3571       3.926346              1
      2117.5000           1.05         0.9444         1.0357       -60.7143       3.565479              1
      2118.0000         1.0321         0.9259         1.0536       -61.4286       2.847507              1
      2118.5000         1.0179         0.9074         1.0714       -61.4286       2.843845              1
      2119.0000         1.0036         0.8704         1.0714       -61.7857       2.483074              1
      2119.5000         0.9893         0.8333         1.0893       -62.1429       2.122208              1
      2120.0000          0.975         0.7778         1.0893          -62.5       1.761436              1
      2120.5000         0.9607         0.7593         1.0893       -63.2143       1.043476              1
      2121.0000         0.9464         0.7222         1.0714       -63.9286      0.3255043              1
      2121.5000         0.9357         0.7222         1.0714       -64.6429     -0.3924637              1
      2122.0000         0.9286         0.7222         1.0714       -65.3571      -1.110336       0.998509
      2122.5000          0.925         0.7407         1.0536       -66.0714        -1.8283      0.9888067
      2123.0000         0.9179         0.7593         1.0357       -66.4286      -2.189163      0.9839302
      2123.5000         0.9107         0.7963         1.0357       -67.1429      -2.907135      0.9742279
      2124.0000         0.8964         0.8333         1.0179          -67.5      -3.267906      0.9693526
      2124.5000         0.8821         0.8704              1       -67.8571      -3.628677      0.9644774
      2125.0000         0.8607         0.9074         0.9821       -68.5714      -4.346642      0.9547751
      2125.5000         0.8464         0.9074         0.9821       -68.5714      -4.350311      0.9547255
      2126.0000         0.8393         0.9074              1       -67.8571      -3.639679      0.9643286
      2126.5000           0.85         0.9074         1.0179       -67.1429      -2.929146      0.9739305
