#------------------------------------------------------------------------------
# Created by    : vladimir.rabinovich
# Created on    : 09/19/2023 17:20:52
#------------------------------------------------------------------------------
~Version Information Section
VERS.           2.0     :   CWLS log ASCII Standard - VERSION 2.0
WRAP.           NO      :   One line per depth step
~Well Information Section
#MNEM       .UNIT                                         VALUE :DESCRIPTION
#------------------------------------------------------------------------------
STRT        .FT                                             722 :START DEPTH
STOP        .FT                                            8710 :STOP DEPTH
STEP        .FT                                             0.5 :STEP      
NULL        .                                           -999.25 :NULL      
COMP        .                              BRUNER ARNOLD H & CO :COMPANY   
WELL        .                                              WEIR :WELL      
FLD         .                                           WILDCAT :FIELD     
LOC         .                                                   :LOCATION  
CNTY        .                                         JEFFERSON :LOCATION  
STAT        .                                             TEXAS :STATE     
CTRY        .                                     UNITED STATES :COUNTRY   
SRVC        .                                                   :SERVICE COMPANY
DATE        .                             9/13/2023 11:19:11 AM :LOG DATE  
API         .                                    42245021890000 :API NUMBER
UWI         .                                    42245021890000 :UNIQUE WELL ID
XCOORD      .                                  1215604.35578741 :SURFACE X 
YCOORD      .                                  10884998.9913957 :SURFACE Y 
LAT         .                                        29.9854781 :LATITUDE  
LON         .                                       -94.3422367 :LONGITUDE 
ELEV        .FT                                              36 :ELEVATION VALUE
ELEV_TYPE   .                                                DF :ELEVATION REFERENCE TYPE
~Curve Information Section
#MNEM       .UNIT                                      API CODE :CURVE DESCRIPTION
#------------------------------------------------------------------------------
DEPT        .FT                                                 :DEPTH     
ASN         .OHMM                                               :          
LAT         .OHMM                                               :          
LN          .OHMM                                               :          
SP          .MV                                                 :          
SP_NORM     .MV                                                 :SP Normalized
VSH_SP      .V/V                                                :Volume of Shale from SP
~A        DEPTH            ASN            LAT             LN             SP        SP_NORM         VSH_SP
# ...
      7068.0000         0.8821         0.5978         0.5439       -70.8772       1.874977              1
      7068.5000         0.8925         0.5968         0.5439       -70.8772       1.872658              1
      7069.0000         0.9064         0.5957         0.5789       -70.8772       1.870331              1
      7069.5000         0.9169         0.5947         0.5965       -71.5789       1.166298              1
      7070.0000         0.9275         0.5768         0.6316       -71.9298      0.8130798              1
      7070.5000         0.9276         0.5763         0.6491       -74.0351      -1.294548              1
      7071.0000         0.9138         0.5593         0.6667       -74.7368      -1.998573              1
      7071.5000         1.0068         0.5424         0.6667       -75.7895      -3.053589      0.9892491
      7072.0000         1.0068         0.5254         0.6491        -77.193      -4.459419      0.9749039
      7072.5000         0.9586         0.4915          0.614       -79.2982      -6.566948      0.9533985
      7073.0000         0.9414         0.4746         0.5789       -81.3559      -8.626968      0.9323779
      7073.5000         0.9138         0.4576         0.5614       -83.0508      -10.32419      0.9150593
      7074.0000         0.8724         0.4407         0.5439       -86.1017      -13.37742      0.8839039
      7074.5000         0.7564         0.4407         0.5088       -87.7966      -15.07464      0.8665853
      7075.0000         0.7564         0.4407         0.4912       -89.8305      -17.11086      0.8458076
      7075.5000           0.76         0.4237         0.4737       -92.8814      -20.16409      0.8146521
      7076.0000           0.76         0.4237         0.4561       -96.9492      -24.23422      0.7731202
      7076.5000           0.76         0.4237         0.4561      -101.0714      -28.35874      0.7310333
      7077.0000         0.7127         0.4237         0.4737      -104.2857      -31.57536      0.6982106
      7077.5000         0.6836         0.4237         0.4912         -107.5      -34.79199      0.6653878
      7078.0000         0.6182         0.4237         0.4912      -110.7143      -38.00861      0.6325651
      7078.5000         0.5864         0.4237         0.4912      -104.6429      -31.93954      0.6944945
      7079.0000         0.5966         0.4068         0.5088       -98.6441      -25.94306      0.7556831
      7079.5000         0.6182         0.4068         0.4737       -92.5424      -19.84368      0.8179216
      7080.0000         0.8207         0.3898         0.4737       -97.6271      -24.93071      0.7660131
      7080.5000         0.8207         0.3729         0.4912      -116.0714      -43.37734      0.5777822
      7081.0000         0.7891         0.3729         0.5439      -126.7857      -54.09396       0.468429
      7081.5000         0.7236         0.3559         0.5789      -127.1429      -54.45348      0.4647604
      7082.0000         0.6873         0.3729         0.5614      -118.5714      -45.88432      0.5522009
      7082.5000         0.7055         0.3898         0.5263      -109.6429      -36.95813      0.6432844
      7083.0000         0.7273         0.4237         0.4912      -100.7143      -28.03186      0.7343688
      7083.5000           0.76         0.4407         0.4386       -92.2034      -19.52328       0.821191
      7084.0000         0.7927         0.4746         0.4211       -83.7288      -11.05101      0.9076428
      7084.5000         0.8207         0.5085         0.4211       -77.8947      -5.219231      0.9671507
      7085.0000         0.8034         0.5424         0.4211       -76.4912      -3.818062      0.9814484
      7085.5000         0.7818         0.5763         0.4035       -75.7895      -3.118683      0.9885849
      7086.0000           0.76         0.6102         0.4561       -75.4386      -2.770103      0.9921418
      7086.5000         0.7382         0.6441         0.4561       -73.3333     -0.6671295              1
      7087.0000         0.7345          0.678         0.4737       -72.6316     0.03224182              1
      7087.5000         0.7564         0.7119         0.4912       -72.6316     0.02992249              1
      7088.0000         0.7891         0.7119         0.5263       -72.6316     0.02759552              1
      7088.5000         0.8241         0.7288         0.5965        -74.386      -1.729134              1
      7089.0000         0.8552         0.7288         0.6316       -75.4386       -2.78405      0.9919995
      7089.5000         0.9897         0.7119         0.6491       -76.4912      -3.838982      0.9812349
      7090.0000         1.0102          0.678         0.6842       -78.5965      -5.946602      0.9597285
      7090.5000         1.0406         0.6446         0.7377       -81.6949      -9.047325      0.9280885
      7091.0000         1.0813         0.6117         0.7912       -84.7458      -12.10055      0.8969332
      7091.5000         1.1051         0.5617         0.8271       -85.0847      -12.44178      0.8934512
      7092.0000         1.1051         0.5286         0.8455       -86.1017      -13.46111        0.88305
      7092.5000         1.1051         0.4953         0.8288       -86.7797      -14.14143      0.8761079
      7093.0000         1.1017          0.479         0.8122       -87.1186      -14.48265       0.872626
      7093.5000         1.1017         0.4799         0.7955       -87.4576      -14.82398       0.869143
      7094.0000         1.0983         0.4979         0.7437       -87.4576       -14.8263      0.8691193
      7094.5000         1.0776         0.5331          0.727       -87.4576      -14.82863      0.8690956
      7095.0000         1.0535         0.5685         0.6928       -86.1017      -13.47505      0.8829076
      7095.5000         1.0292         0.6212          0.641       -81.3559      -8.731575      0.9313105
      7096.0000         1.0084         0.6569         0.6243        -74.386         -1.764              1
      7096.5000         0.9739         0.6926         0.5901       -74.0351      -1.415428              1
      7097.0000         0.9738         0.7112         0.5734       -75.4386      -2.821243      0.9916199
      7097.5000         1.0078         0.7298         0.5742       -77.5439      -4.928871      0.9701136
      7098.0000         1.0252         0.7311         0.5576       -79.2982      -6.685501      0.9521888
      7098.5000          1.025         0.7323         0.5409       -78.2456      -5.635216      0.9629059
      7099.0000         1.0214         0.7336         0.5242       -75.7895      -3.181442      0.9879445
      7099.5000         0.9527         0.7174         0.5075       -76.8421      -4.236374      0.9771799
      7100.0000         0.9051         0.6836         0.4908       -77.5439      -4.940498      0.9699949
      7100.5000         0.8779         0.6662         0.4737       -78.5965      -5.995415      0.9592305
      7101.0000         0.8778         0.6478         0.4561       -79.2982      -6.699448      0.9520465
      7101.5000         0.8879         0.6118         0.4386       -81.6949      -9.098473      0.9275666
      7102.0000         0.9014         0.5759         0.4386       -85.0847      -12.49059      0.8929532
      7102.5000         0.9149          0.575         0.4561       -88.4746      -15.88282      0.8583386
      7103.0000         0.9353          0.539         0.4561       -91.8644      -19.27495       0.823725
      7103.5000         0.9761         0.5031         0.4737      -102.1557      -29.56857      0.7186881
      7104.0000         1.0174         0.4671         0.4737       -111.866      -39.28119      0.6195797
      7104.5000         1.0627         0.4311         0.4737      -124.4375      -51.85502      0.4912753
      7105.0000           1.08         0.3952         0.4737      -136.5982      -64.01804      0.3671628
      7105.5000         0.9555         0.3417         0.4561      -161.4286      -88.85077      0.1137677
