#------------------------------------------------------------------------------
# Created by    : vladimir.rabinovich
# Created on    : 09/19/2023 17:22:41
#------------------------------------------------------------------------------
~Version Information Section
VERS.           2.0     :   CWLS log ASCII Standard - VERSION 2.0
WRAP.           NO      :   One line per depth step
~Well Information Section
#MNEM       .UNIT                                         VALUE :DESCRIPTION
#------------------------------------------------------------------------------
STRT        .FT                                             190 :START DEPTH
STOP        .FT                                            7751 :STOP DEPTH
STEP        .FT                                             0.5 :STEP      
NULL        .                                           -999.25 :NULL      
COMP        .                       GOLDEN TRIANGLE STORAGE LLC :COMPANY   
WELL        .                         GOLDEN TRIANGLE STORAGE 2 :WELL      
FLD         .                                        SPINDLETOP :FIELD     
LOC         .                                                   :LOCATION  
CNTY        .                                         JEFFERSON :LOCATION  
STAT        .                                             TEXAS :STATE     
CTRY        .                                     UNITED STATES :COUNTRY   
SRVC        .                                                   :SERVICE COMPANY
DATE        .                             9/13/2023 11:18:46 AM :LOG DATE  
API         .                                    42245325580000 :API NUMBER
UWI         .                                    42245325580000 :UNIQUE WELL ID
XCOORD      .                                  1288599.33875083 :SURFACE X 
YCOORD      .                                  10896379.1240251 :SURFACE Y 
LAT         .                                        30.0189256 :LATITUDE  
LON         .                                       -94.1119908 :LONGITUDE 
ELEV        .FT                                            12.2 :ELEVATION VALUE
ELEV_TYPE   .                                                GL :ELEVATION REFERENCE TYPE
~Curve Information Section
#MNEM       .UNIT                                      API CODE :CURVE DESCRIPTION
#------------------------------------------------------------------------------
DEPT        .FT                                                 :DEPTH     
DCAL        .IN                                                 :          
DPSS        .V/V                                                :          
DRHO        .G/CM3                                              :          
GR          .GAPI                                               :          
GR_NORM     .GAPI                                               :GammaRay Normalized
ILD         .OHMM                                               :          
ILM         .OHMM                                               :          
NPSS        .V/V                                                :Neutron Porosity Sandstone
SFL         .OHMM                                               :          
SP          .MV                                                 :          
SP_NORM     .MV                                                 :SP Normalized
TENS        .LB                                                 :          
VSH_GR      .V/V                                                :Volume of Shale from GR
VSH_SP      .V/V                                                :Volume of Shale from SP
~A        DEPTH           DCAL           DPSS           DRHO             GR        GR_NORM            ILD            ILM           NPSS            SFL             SP        SP_NORM           TENS         VSH_GR         VSH_SP
# ...
      7228.0000         0.5306          0.264          0.146        76.5306       68.16339         0.5421         0.7578         0.4359         1.1067            -60      -21.69335           3240      0.7481573      0.7380589
      7228.5000         0.6531         0.2556           0.16        78.0612       69.99065         0.5523         0.7717         0.4531         1.0667            -58      -19.70294           3280       0.787035      0.7632539
      7229.0000         0.8163         0.2448          0.136        80.2041       72.55509         0.5576         0.7858         0.4604         0.9824          -55.2      -16.91254           3240      0.8415977      0.7985755
      7229.5000         0.8571         0.2352          0.102        82.9592       75.85659         0.5628         0.7788         0.4653         0.9236          -53.6      -15.32213           3280      0.9118423      0.8187072
      7230.0000         0.7755         0.2316         0.0755         85.102       78.42091         0.5629         0.7789         0.4616         0.9239          -54.4      -16.13173           3240      0.9664024      0.8084591
      7230.5000         0.5306          0.246         0.0551         85.102       78.40607         0.5578         0.7584          0.458            0.9            -58      -19.74132           3240      0.9660865      0.7627681
      7231.0000         0.3673         0.2664         0.0531        82.6531       75.44555         0.5281            0.7         0.4506         0.8569          -65.2      -26.95091           3240      0.9030968      0.6715074
      7231.5000         0.2857         0.2916         0.0612        78.9796       71.01066         0.4817         0.6176          0.442         0.8159            -74      -35.76051           3240      0.8087374      0.5599936
      7232.0000         0.2041          0.322         0.0714           74.4       65.48483         0.4309         0.5527         0.4298         0.7789          -79.6       -41.3701           3280      0.6911666       0.488986
      7232.5000         0.1224         0.3208         0.0816           72.3       62.94439         0.3894         0.4817         0.4152         0.7319            -74       -35.7797           3240      0.6371146      0.5597507
      7233.0000         0.0816         0.3086         0.0816           74.1       65.09943         0.3656         0.4642          0.396         0.7254          -66.4       -28.1893           3240      0.6829665      0.6558317
      7233.5000         0.0816         0.2736         0.0735        76.2245       67.64516         0.3824         0.4773         0.3732         0.7859          -60.8      -22.59889           3280      0.7371312      0.7265964
      7234.0000         0.1224           0.24         0.0592         77.449       69.10732          0.419         0.5428         0.3441         1.0281          -57.2      -19.00848           3280      0.7682407      0.7720445
      7234.5000         0.1224         0.2064          0.049         77.449       69.09521         0.4862         0.6481         0.3196         1.3195          -54.4      -16.21808           3280      0.7679833      0.8073661
      7235.0000         0.1633         0.1714         0.0449        78.3673       70.18871         0.5629         0.8239         0.3024         1.6935          -52.4      -14.22767           3240      0.7912492      0.8325611
      7235.5000         0.1224         0.1653          0.049        80.8163       73.12514         0.6296         0.9159         0.3049         1.6472          -50.8      -12.63726           3240      0.8537263      0.8526928
      7236.0000         0.0816         0.1956          0.051        83.8776       76.79875         0.6357         0.8653         0.3343         1.2368          -50.8      -12.64686           3240      0.9318883      0.8525714
      7236.5000         0.0408         0.2244         0.0531        86.6327       80.10371         0.5838            0.8         0.3539         0.9404          -53.2      -15.05645           3240              1      0.8220702
      7237.0000         0.0408         0.2424          0.049        86.3265       79.72295         0.5281          0.745         0.3636         0.8485          -58.4      -20.26605           3240      0.9941052      0.7561259
      7237.5000         0.0408          0.234         0.0388        83.5714       76.39378         0.5046         0.7319         0.3588         0.9404          -63.2      -25.07565           3280       0.923272       0.695245
      7238.0000        -0.0408         0.2172         0.0204        80.2041       72.32754         0.5233         0.7584         0.3453         1.0867          -63.6      -25.48524           3280      0.8367561      0.6900603
      7238.5000        -0.0408          0.228         0.0122        78.6735       70.47263         0.5378         0.7789         0.3343         1.2716          -65.6      -27.49483           3240      0.7972899      0.6646224
      7239.0000        -0.1224         0.2544         0.0122        78.6735       70.46052         0.5428         0.7859         0.3343         1.3692            -66      -27.90443           3240      0.7970323      0.6594377
      7239.5000        -0.2449         0.2808         0.0184        82.9592       75.60827         0.5233         0.7652         0.3636         1.0473          -61.2      -23.11402           3240      0.9065589      0.7200757
      7240.0000        -0.4082         0.2808         0.0388        88.4694       82.23029         0.4908         0.6933         0.3924         0.8159          -54.8      -16.72361           3240              1      0.8009669
      7240.5000        -0.4067         0.2724         0.0592             93        87.6729         0.4599         0.6607         0.4261         0.6296          -54.4      -16.33321           3240              1      0.8059087
      7241.0000        -0.3228         0.2676         0.0918        89.6939       83.68034          0.439         0.6357         0.4481         0.6296          -62.8      -24.74281           3240              1      0.6994582
      7241.5000        -0.1983         0.2772           0.13        80.8163       72.97985         0.4269         0.6236         0.4615         0.7789            -78       -39.9524           3240      0.8506351      0.5069317
      7242.0000        -0.1961         0.2988          0.162           69.3       59.10244         0.4075            0.6           0.47         0.9404       -91.4286      -53.39059           3240       0.555371       0.336828
      7242.5000        -0.1939         0.3341          0.176           59.4       47.17101         0.3756         0.5428         0.4688         1.0971         -101.6      -63.57159           3280      0.3015108      0.2079546
      7243.0000         0.4171         0.3633          0.152           53.4       39.93507         0.3224         0.4642         0.4553         1.1282           -110      -71.98119           3280      0.1475547       0.101504
      7243.5000         1.1485         0.3753          0.122           51.6       37.75581         0.2835         0.3894         0.4468         1.0871         -113.6      -75.59077           3240      0.1011874     0.05581298
      7244.0000         1.0684         0.3522          0.104           51.6        37.7437          0.258         0.3495         0.4467         1.0188         -115.6      -77.60037           3280      0.1009298     0.03037503
      7244.5000         0.9884         0.3328          0.098           51.3        37.3704         0.2415         0.3282         0.4516         0.9826         -116.8      -78.80997           3280     0.09298731     0.01506371
      7245.0000         0.9085          0.317          0.104             51       36.99711          0.237         0.3224           0.46         0.9655         -117.6      -79.61956           3240     0.08504486    0.004815693
      7245.5000         0.8695         0.3206          0.118           50.1       35.90142          0.237         0.3195         0.4697         0.9404         -117.2      -79.22916           3240     0.06173243    0.009757513
