#------------------------------------------------------------------------------
# Created by    : vladimir.rabinovich
# Created on    : 09/19/2023 17:20:52
#------------------------------------------------------------------------------
~Version Information Section
VERS.           2.0     :   CWLS log ASCII Standard - VERSION 2.0
WRAP.           NO      :   One line per depth step
~Well Information Section
#MNEM       .UNIT                                         VALUE :DESCRIPTION
#------------------------------------------------------------------------------
STRT        .FT                                            1558 :START DEPTH
STOP        .FT                                           11266 :STOP DEPTH
STEP        .FT                                             0.5 :STEP      
NULL        .                                           -999.25 :NULL      
COMP        .                               MEREDITH & CO ET AL :COMPANY   
WELL        .                                 GRINNELL TEXAS CO :WELL      
FLD         .                                           WILDCAT :FIELD     
LOC         .                                                   :LOCATION  
CNTY        .                                         JEFFERSON :LOCATION  
STAT        .                                             TEXAS :STATE     
CTRY        .                                     UNITED STATES :COUNTRY   
SRVC        .                                                   :SERVICE COMPANY
DATE        .                             9/13/2023 11:19:11 AM :LOG DATE  
API         .                                    42245015300000 :API NUMBER
UWI         .                                    42245015300000 :UNIQUE WELL ID
XCOORD      .                                  1358778.50439977 :SURFACE X 
YCOORD      .                                  10877447.4356243 :SURFACE Y 
LAT         .                                        29.9685419 :LATITUDE  
LON         .                                       -93.8897358 :LONGITUDE 
ELEV        .FT                                              14 :ELEVATION VALUE
ELEV_TYPE   .                                                DF :ELEVATION REFERENCE TYPE
~Curve Information Section
#MNEM       .UNIT                                      API CODE :CURVE DESCRIPTION
#------------------------------------------------------------------------------
DEPT        .FT                                                 :DEPTH     
ASN         .OHMM                                               :          
LN          .OHMM                                               :          
SP          .MV                                                 :          
SP_NORM     .MV                                                 :SP Normalized
VSH_SP      .V/V                                                :Volume of Shale from SP
~A        DEPTH            ASN             LN             SP        SP_NORM         VSH_SP
# ...
      9302.0000         0.7774         0.7871        -2.1914      -3.084356      0.9765803
      9302.5000         0.7704         0.7788        -1.9728      -2.924087       0.978381
      9303.0000         0.7633         0.7705        -1.7542      -2.763817      0.9801818
      9303.5000         0.7562         0.7622        -1.5356      -2.603548      0.9819826
      9304.0000         0.7492          0.755         -1.317      -2.443278      0.9837834
      9304.5000         0.7446         0.7491        -1.0984      -2.283009      0.9855842
      9305.0000         0.7446         0.7433        -0.8606      -2.103539      0.9876007
      9305.5000         0.7446         0.7374        -0.5726       -1.87387      0.9901813
      9306.0000         0.7446         0.7423        -0.2846        -1.6442      0.9927618
      9306.5000         0.7446         0.7494         0.0039      -1.414031       0.995348
      9307.0000         0.7446         0.7565         0.2919      -1.184361      0.9979285
      9307.5000         0.7446         0.7637         0.5798     -0.9547919              1
      9308.0000         0.7531         0.7708         0.8678     -0.7251225              1
      9308.5000          0.777         0.7779         1.1564      -0.494853              1
      9309.0000          0.801          0.785         1.4443     -0.2652835              1
      9309.5000          0.825         0.7951         1.7323    -0.03561401              1
      9310.0000          0.849         0.8057         2.0203      0.1940553              1
      9310.5000         0.8651         0.8164         2.1831      0.2985249              1
      9311.0000         0.8752          0.827         2.2187      0.2757943              1
      9311.5000         0.8852         0.8377         2.2543      0.2530639              1
      9312.0000         0.8953         0.8483         2.2899      0.2303333              1
      9312.5000         0.8958          0.859         2.2202      0.1023028              1
      9313.0000         0.8935         0.8696         2.0442     -0.1320279              1
      9313.5000         0.8913         0.8803         1.8686     -0.3659583              1
      9314.0000          0.889          0.891         1.6927     -0.6001889              1
      9314.5000         0.8868         0.9029          1.517     -0.8342197              1
      9315.0000         0.9165         0.9151         1.3411       -1.06845      0.9992309
      9315.5000         0.9555         0.9272          0.114      -2.353881      0.9847879
      9316.0000          1.015         0.9394        -9.7972      -12.21305      0.8740107
      9316.5000         1.1424         0.9516       -14.9863       -17.3477       0.816318
      9317.0000         1.3503         0.9638       -18.5984      -20.90534      0.7763445
      9317.5000         1.5354         0.9759       -17.9817      -20.23419      0.7838855
      9318.0000         1.5924         0.9892        -14.559      -16.75703      0.8229547
      9318.5000         1.1382         1.0027       -10.8368      -12.98037       0.865389
      9319.0000         1.0262         1.0163        -7.1146      -9.203717      0.9078234
      9319.5000         0.9766         1.0298        -3.3923      -5.426961      0.9502589
      9320.0000         1.0253         1.0369        -1.2956      -3.275806      0.9744291
      9320.5000         1.0971         1.0405         -5.542       -7.46775      0.9273286
      9321.0000         1.1641         1.0441         -8.533      -10.40429      0.8943338
      9321.5000         1.2281         1.0477       -11.3125      -13.12934      0.8637153
      9322.0000         1.3234         1.0252       -13.0547      -14.81708      0.8447519
      9322.5000         1.3777         0.9882       -11.1517      -12.85963      0.8667458
      9323.0000         1.3704         0.9513        -9.5814      -11.23487      0.8850014
      9323.5000         1.3125         0.9143        -8.4295      -10.02851       0.898556
      9324.0000         1.2547          0.878        -7.2753       -8.81986      0.9121364
      9324.5000         1.1968         0.8427        -6.1234      -7.613504      0.9256909
      9325.0000          1.139         0.8074        -4.9693      -6.404948      0.9392703
      9325.5000         1.0156         0.7721        -3.8152      -5.196393      0.9528495
      9326.0000         0.8847         0.7368        -2.6633      -3.990037      0.9664041
      9326.5000         0.8749         0.7015        -1.5092      -2.781481      0.9799834
      9327.0000         0.8651         0.6836         -0.773      -1.990825      0.9888671
      9327.5000         0.8553         0.6692        -0.4674      -1.630769      0.9929127
      9328.0000          0.806         0.6548        -0.1624      -1.271314      0.9969515
      9328.5000         0.7504         0.6405         0.1432     -0.9112579              1
      9329.0000         0.7377         0.6261         0.4488     -0.5512022              1
      9329.5000         0.7251         0.6193         0.7538     -0.1917464              1
      9330.0000         0.7125          0.623         1.0594      0.1683093              1
      9330.5000          0.705         0.6266         1.3651      0.5284652              1
      9331.0000         0.7019         0.6302         1.6701      0.8879209              1
      9331.5000         0.6987         0.6339         1.7216      0.9938767              1
      9332.0000         0.6956         0.6375         1.6716      0.9983323              1
      9332.5000         0.6924         0.6411         1.6216       1.002788              1
      9333.0000         0.6892         0.6448         1.5461      0.9817439              1
      9333.5000         0.6861         0.6484         1.4465      0.9365996              1
      9334.0000         0.6829          0.652         1.1844      0.7289554              1
      9334.5000          0.698         0.6557         0.9223      0.5213111              1
      9335.0000         0.7143         0.6593         0.6602      0.3136669              1
      9335.5000         0.7306         0.6624         0.3976      0.1055226              1
      9336.0000         0.7469         0.6652         0.1355     -0.1021216              1
      9336.5000         0.7632          0.668        -0.1266     -0.3097658              1
      9337.0000         0.7732         0.6709        -0.3887     -0.5174101              1
      9337.5000         0.7781         0.6737        -0.6513     -0.7255543              1
      9338.0000         0.7829         0.6765        -0.9134     -0.9331986              1
      9338.5000         0.7878         0.6793        -1.1755      -1.190912      0.9978549
      9339.0000         0.7927         0.6821        -1.4376      -1.477229      0.9946378
      9339.5000         0.7975         0.6849        -1.7019      -1.765746      0.9913961
      9340.0000         0.8024         0.6877        -1.9695      -2.057563      0.9881173
      9340.5000         0.8024         0.6875        -2.2371       -2.34938      0.9848384
      9341.0000         0.7986         0.6832        -2.5053      -2.641798      0.9815528
      9341.5000         0.7948         0.6789        -2.7394      -2.900114      0.9786504
      9342.0000          0.791         0.6746        -2.6708      -2.855731      0.9791491
      9342.5000         0.7871         0.6703        -2.6022      -2.811348      0.9796478
      9343.0000         0.7833         0.6659        -2.5335      -2.766865      0.9801476
      9343.5000         0.7795         0.6616         -2.465      -2.722582      0.9806451
      9344.0000         0.7757         0.6573        -2.3963        -2.6781       0.981145
      9344.5000         0.7719          0.653        -2.3276      -2.633616      0.9816447
      9345.0000         0.7681         0.6487         -2.259      -2.589233      0.9821435
      9345.5000         0.7641         0.6444        -2.1903       -2.54475      0.9826432
