#------------------------------------------------------------------------------
# Created by    : vladimir.rabinovich
# Created on    : 09/19/2023 17:20:52
#------------------------------------------------------------------------------
~Version Information Section
VERS.           2.0     :   CWLS log ASCII Standard - VERSION 2.0
WRAP.           NO      :   One line per depth step
~Well Information Section
#MNEM       .UNIT                                         VALUE :DESCRIPTION
#------------------------------------------------------------------------------
STRT        .FT                                             722 :START DEPTH
STOP        .FT                                            8710 :STOP DEPTH
STEP        .FT                                             0.5 :STEP      
NULL        .                                           -999.25 :NULL      
COMP        .                              BRUNER ARNOLD H & CO :COMPANY   
WELL        .                                              WEIR :WELL      
FLD         .                                           WILDCAT :FIELD     
LOC         .                                                   :LOCATION  
CNTY        .                                         JEFFERSON :LOCATION  
STAT        .                                             TEXAS :STATE     
CTRY        .                                     UNITED STATES :COUNTRY   
SRVC        .                                                   :SERVICE COMPANY
DATE        .                             9/13/2023 11:19:11 AM :LOG DATE  
API         .                                    42245021890000 :API NUMBER
UWI         .                                    42245021890000 :UNIQUE WELL ID
XCOORD      .                                  1215604.35578741 :SURFACE X 
YCOORD      .                                  10884998.9913957 :SURFACE Y 
LAT         .                                        29.9854781 :LATITUDE  
LON         .                                       -94.3422367 :LONGITUDE 
ELEV        .FT                                              36 :ELEVATION VALUE
ELEV_TYPE   .                                                DF :ELEVATION REFERENCE TYPE
~Curve Information Section
#MNEM       .UNIT                                      API CODE :CURVE DESCRIPTION
#------------------------------------------------------------------------------
DEPT        .FT                                                 :DEPTH     
ASN         .OHMM                                               :          
LAT         .OHMM                                               :          
LN          .OHMM                                               :          
SP          .MV                                                 :          
SP_NORM     .MV                                                 :SP Normalized
VSH_SP      .V/V                                                :Volume of Shale from SP
~A        DEPTH            ASN            LAT             LN             SP        SP_NORM         VSH_SP
# ...
      2318.0000         1.2982              1         0.8182       -82.7119      -2.941422      0.9837686
      2318.5000         1.3228              1         0.8364       -84.4068      -4.640976      0.9544659
      2319.0000         1.3509              1         0.8364       -86.1017       -6.34053      0.9251633
      2319.5000         1.4036         0.9818         0.8364       -88.1356      -8.379082      0.8900158
      2320.0000         1.4571         0.9818         0.8182       -91.5254      -11.77354      0.8314906
      2320.5000         1.5107         0.9455         0.8182       -93.8983       -14.1511      0.7904983
      2321.0000         1.5679         0.9091            0.8       -96.6102      -16.86765      0.7436612
      2321.5000         1.6211         0.9091         0.7818       -98.9831      -19.24521      0.7026688
      2322.0000         1.6561         0.8727         0.7818      -101.8182      -22.08496      0.6537076
      2322.5000         1.6737         0.8727         0.7818      -103.6364      -23.90782      0.6222789
      2323.0000         1.6842         0.8545         0.7818      -106.1818      -26.45788      0.5783125
      2323.5000         1.7053         0.7636         0.7818      -108.7273      -29.00803      0.5343443
      2324.0000         1.8034         0.7091         0.7818      -112.3636      -32.64899      0.4715692
      2324.5000         1.7333         0.6727         0.7818           -116      -36.29004      0.4087924
      2325.0000         1.6807         0.6364         0.7818      -119.6364       -39.9311      0.3460155
      2325.5000         1.6421         0.5818         0.7818      -121.4035      -41.70286       0.315468
      2326.0000         1.5786         0.5455         0.7818      -121.4035      -41.70751      0.3153877
      2326.5000         1.5429         0.5273         0.7818           -120      -40.30866      0.3395058
      2327.0000         1.5357         0.5091         0.7818      -114.5455      -34.85883      0.4334685
      2327.5000         1.5214         0.5091            0.8           -112      -32.31798      0.4772762
      2328.0000         1.4893         0.5091         0.8182           -108      -28.32263      0.5461615
      2328.5000         1.4357         0.5091         0.8182      -104.3636      -24.69089      0.6087778
      2329.0000         1.3789         0.5273         0.8364      -101.4545      -21.78644      0.6588545
      2329.5000         1.3263         0.5273         0.8545           -100       -20.3366      0.6838517
      2330.0000         1.2737         0.5273         0.8909       -96.9492      -17.29046      0.7363714
      2330.5000         1.2386         0.5455         0.9273       -94.2373      -14.58321      0.7830482
      2331.0000         1.2281         0.5636         0.9636       -91.1864      -11.53696      0.8355696
      2331.5000          1.214         0.5818              1       -86.7797      -7.134918       0.911467
      2332.0000          1.207         0.5818         1.0333       -81.3559      -1.715782              1
      2332.5000         1.1966            0.6           1.05        -80.678      -1.042534              1
      2333.0000         1.1864         0.6182         1.0667       -78.9474      0.6834106              1
      2333.5000         1.1729         0.6545         1.0667       -77.8947       1.731461              1
      2334.0000         1.1559         0.6909         1.0667        -77.193       2.428505              1
      2334.5000         1.1424         0.7273         1.0667        -77.193       2.423843              1
      2335.0000         1.1288         0.7636         1.0667        -77.193       2.419189              1
      2335.5000         1.1254         0.7818         1.0667        -77.193       2.414536              1
      2336.0000         1.1153         0.8364         1.0667       -77.5439       2.058983              1
      2336.5000         1.1051         0.8727         1.0667       -77.8947       1.703522              1
      2337.0000         1.0949         0.9091         1.0667       -78.2456       1.347969              1
      2337.5000         1.0814         0.9091         1.0667       -78.9474        0.64151              1
      2338.0000          1.078         0.9273         1.0667       -79.2982      0.2860565              1
      2338.5000          1.078         0.9455         1.0833            -80     -0.4203949              1
      2339.0000          1.078         0.9455         1.0833        -80.339     -0.7640533              1
      2339.5000         1.0814         0.9455         1.0833        -80.678      -1.107712              1
      2340.0000         1.1051         0.9455         1.0833       -81.3559      -1.790268              1
      2340.5000         1.1254         0.9455          1.083       -81.7115       -2.15052      0.9974048
      2341.0000         1.1458         0.9455         1.0822        -82.406       -2.84967      0.9853505
      2341.5000         1.1695         0.9636         1.0814       -90.8971      -11.34544      0.8388718
      2342.0000         1.2561         0.9636         1.0807       -95.9983      -16.45129      0.7508399
      2342.5000         1.3298         0.9636         1.0799      -101.5359      -21.99354      0.6552838
      2343.0000         1.4071         0.9455         1.0121       -106.977      -27.43929      0.5613915
      2343.5000         1.4929         0.9455         1.0113       -108.434      -28.90096      0.5361905
      2344.0000         1.5036         0.9455         1.0105      -108.0832      -28.55481      0.5421585
      2344.5000         1.5143         0.9636         1.0097      -107.3724      -27.84866      0.5543334
      2345.0000         1.5214         0.9818         1.0088      -105.9419      -26.42282      0.5789169
      2345.5000          1.525              1          1.008       -99.5039      -19.98947      0.6898367
      2346.0000           1.55         1.0348         0.9898       -95.1137      -15.60394      0.7654494
      2346.5000         1.6246         1.1046         0.9889       -94.4523      -14.94719      0.7767726
      2347.0000         1.6596          1.157          0.988       -93.7908      -14.29034      0.7880975
      2347.5000         1.7053         1.2095         1.0046       -93.1294       -13.6336      0.7994207
      2348.0000         1.7263         1.2796         0.9863       -93.1459      -13.65475      0.7990561
      2348.5000         1.7474         1.3323         0.9678       -93.1625      -13.67601      0.7986895
      2349.0000         1.7684         1.4026         0.9141        -93.179      -13.69717      0.7983247
      2349.5000         1.7895         1.4555         0.8254       -97.6023      -18.12512      0.7219806
      2350.0000         1.7965         1.5085         0.7019      -107.4945      -28.02197      0.5513453
      2350.5000         1.7228         1.5783         0.6491       -117.508      -38.04013      0.3786184
      2351.0000         1.6105         1.6119          0.614      -127.3949      -47.93169      0.2080744
      2351.5000         1.4389         1.6455         0.5965      -142.1194      -62.66084              0
      2352.0000         1.3224         1.6266         0.5965      -144.2052       -64.7513              0
      2352.5000         1.1627         1.4679         0.5965      -145.2565      -65.80725              0
      2353.0000         1.1017         1.3619         0.5965      -144.5837      -65.13911              0
      2353.5000         1.0542         1.2211         0.6316      -141.1522      -61.71227              0
      2354.0000         1.0237         1.0632         0.6316      -138.0323      -58.59702     0.02418926
      2354.5000         1.0102         0.9014         0.6316      -138.0495      -58.61887     0.02381252
      2355.0000         0.9965          0.755         0.6316      -138.0667      -58.64072     0.02343579
      2355.5000         0.9825         0.5177         0.6316      -138.7853      -59.36398     0.01096581
