#------------------------------------------------------------------------------
# Created by    : vladimir.rabinovich
# Created on    : 09/19/2023 17:19:40
#------------------------------------------------------------------------------
~Version Information Section
VERS.           2.0     :   CWLS log ASCII Standard - VERSION 2.0
WRAP.           NO      :   One line per depth step
~Well Information Section
#MNEM       .UNIT                                         VALUE :DESCRIPTION
#------------------------------------------------------------------------------
STRT        .FT                                            1208 :START DEPTH
STOP        .FT                                            8860 :STOP DEPTH
STEP        .FT                                             0.5 :STEP      
NULL        .                                           -999.25 :NULL      
COMP        .                             WEAVER EXPLORATION CO :COMPANY   
WELL        .                                       BEAVERS W H :WELL      
FLD         .                                           WILDCAT :FIELD     
LOC         .                                                   :LOCATION  
CNTY        .                                         JEFFERSON :LOCATION  
STAT        .                                             TEXAS :STATE     
CTRY        .                                     UNITED STATES :COUNTRY   
SRVC        .                                                   :SERVICE COMPANY
DATE        .                             9/13/2023 11:18:46 AM :LOG DATE  
API         .                                    42245314920000 :API NUMBER
UWI         .                                    42245314920000 :UNIQUE WELL ID
XCOORD      .                                  1212655.17721247 :SURFACE X 
YCOORD      .                                  10886677.7304034 :SURFACE Y 
LAT         .                                        29.9899994 :LATITUDE  
LON         .                                       -94.3516153 :LONGITUDE 
ELEV        .FT                                            37.2 :ELEVATION VALUE
ELEV_TYPE   .                                                KB :ELEVATION REFERENCE TYPE
~Curve Information Section
#MNEM       .UNIT                                      API CODE :CURVE DESCRIPTION
#------------------------------------------------------------------------------
DEPT        .FT                                                 :DEPTH     
ALL         .OHMM                                               :          
CILD        .MMHO/M                                             :          
ILD         .OHMM                                               :          
SP          .MV                                                 :          
SP_NORM     .MV                                                 :SP Normalized
VSH_SP      .V/V                                                :Volume of Shale from SP
~A        DEPTH            ALL           CILD            ILD             SP        SP_NORM         VSH_SP
# ...
      2728.0000         1.6182       1026.753         0.9978        140.202      -4.087341       0.942827
      2728.5000         1.6848       965.9456         1.0884        140.404      -3.922058      0.9458878
      2729.0000         1.7535       868.7642         1.2092        140.404      -3.958801      0.9452074
      2729.5000          1.798       808.0866         1.2996       141.8182      -2.581345      0.9707158
      2730.0000         2.0406       727.2727         1.3999       143.2308       -1.20549      0.9961946
      2730.5000         2.0409       686.8687         1.5302       143.2404      -1.232635       0.995692
      2731.0000         2.0817       646.4646         1.6306       141.8365      -2.673264      0.9690136
      2731.5000         2.1325       626.2626         1.6209       139.0192      -5.527313      0.9161609
      2732.0000         2.1834       626.2626         1.6111       138.0192      -6.564056      0.8969619
      2732.5000         2.2341        630.303         1.5713       136.8173      -7.802689      0.8740243
      2733.0000         2.2345       654.5455         1.5415       135.8173      -8.839417      0.8548256
      2733.5000         2.2248       670.7071         1.5017       134.6154      -10.07806      0.8318877
      2734.0000          2.205       682.8283         1.4517       133.4135      -11.31671      0.8089498
      2734.5000         2.1252       694.9495         1.3917       134.6346      -10.13235      0.8308823
      2735.0000         2.0151       711.1111         1.3718       137.0673      -7.736389      0.8752521
      2735.5000         1.9208       723.2323         1.3619          139.5      -5.340424      0.9196218
      2736.0000         1.8475       735.3535          1.352       141.9375      -2.939667      0.9640803
      2736.5000         1.7739       747.4747         1.3421       142.9567      -1.957214      0.9822738
      2737.0000         1.7378       755.5556         1.3323        143.976     -0.9746552              1
      2737.5000         1.6617       767.6768         1.3325       144.7933     -0.1940765              1
      2738.0000         1.6577       783.8384         1.3125       145.4135      0.3893738              1
      2738.5000         1.6558       783.8384         1.2925       145.8269       0.766037              1
      2739.0000         1.6498       783.8384         1.2623       146.2404       1.142792              1
      2739.5000         1.6439       787.8788         1.2423       146.0481      0.9137421              1
      2740.0000          1.612       795.9596         1.2322       145.6546      0.4835205              1
      2740.5000          1.612       824.2304         1.2326       145.2578     0.04997253              1
      2741.0000          1.618       848.4367         1.2229       144.8614     -0.3831635              1
      2741.5000          1.632       840.3447         1.2333       144.4653     -0.8160095              1
      2742.0000          1.654       832.2604         1.2337       144.4728     -0.8452454              1
      2742.5000          1.696       824.1838         1.2542       144.8833     -0.4714813              1
      2743.0000          1.718       816.1149          1.285       145.4983       0.106781              1
      2743.5000          1.728       787.7969         1.3055       145.9078       0.479538              1
      2744.0000          1.728       779.6421          1.336       146.3169      0.8518982              1
      2744.5000          1.724       742.9188         1.3664       146.9267       1.424957              1
      2745.0000          1.718       730.6211         1.3969        146.933       1.394516              1
      2745.5000           1.71       718.2998         1.4273       146.9393       1.364075              1
      2746.0000           1.71       705.9548         1.4577       147.1464       1.534424              1
      2746.5000          1.718       693.5861         1.4881       147.1526       1.503906              1
      2747.0000           1.73       681.1934         1.4985       146.7576       1.072159              1
      2747.5000          1.754       668.7767         1.5088        146.363      0.6408234              1
      2748.0000          1.774       656.3359          1.509       145.9687      0.2097778              1
      2748.5000          1.796       643.7936         1.5192       145.7751    -0.02055359              1
      2749.0000          1.816       643.6392         1.5095       145.1849     -0.6474915              1
      2749.5000         1.7779       647.6024         1.4697       144.7918      -1.077347      0.9985676
      2750.0000          1.768       651.5817           1.44          144.6      -1.305878      0.9943356
      2750.5000         1.7441       663.7596         1.4102          144.8      -1.142624      0.9973588
      2751.0000         1.7202       700.6732         1.3703          145.6     -0.3793488              1
      2751.5000         1.6983       725.2181         1.3705          145.8      -0.216095              1
      2752.0000         1.6744       733.2723         1.3506          145.6     -0.4528351              1
      2752.5000         1.6605       745.4488         1.3508            145      -1.089584       0.998341
      2753.0000         1.6486        757.625          1.351          144.4      -1.726318      0.9865497
      2753.5000         1.6387       773.8277         1.3311          143.8      -2.363052      0.9747583
      2754.0000         1.6288       786.0032         1.3112            143      -3.199799       0.959263
      2754.5000         1.6169       794.0562         1.2812          142.4      -3.836548      0.9474713
      2755.0000          1.611       806.0741         1.2612          142.4      -3.873291      0.9467909
      2755.5000         1.5932       817.9506         1.2312          142.4      -3.910019      0.9461108
      2756.0000         1.5736       825.8166         1.2112          142.4      -3.946762      0.9454303
      2756.5000         1.5638       837.7143         1.2113          142.4      -3.983505      0.9447499
      2757.0000         1.5639       845.5974         1.2115          143.2      -3.220245      0.9588844
      2757.5000         1.5758         841.32         1.2116          144.4      -2.056976      0.9804264
      2758.0000         1.5858       837.1213         1.2117          145.2      -1.293716      0.9945608
      2758.5000         1.6017       836.9515         1.2118            146     -0.5304565              1
      2759.0000         1.6178       832.7467         1.2119          146.4     -0.1672058              1
      2759.5000         1.6419        828.538         1.2221          146.4      -0.203949              1
      2760.0000          1.638       824.2424         1.2323          146.4     -0.2406769              1
      2760.5000         1.5842        820.202         1.2424          145.6      -1.077408      0.9985665
      2761.0000         1.5842       824.2424         1.2525          145.4      -1.314163      0.9941822
      2761.5000         1.5921       832.3232         1.2525          145.2      -1.550903      0.9897981
      2762.0000          1.612       844.4444         1.2323            145      -1.787628      0.9854143
      2762.5000           1.61       852.5253         1.2121          144.6      -2.224365      0.9773266
      2763.0000           1.61       864.6465         1.1919          144.2      -2.661118      0.9692386
      2763.5000          1.612       872.7273         1.1717            144      -2.897858      0.9648545
      2764.0000          1.614       880.8081         1.1515            144      -2.934601       0.964174
      2764.5000           1.62       880.8081         1.1515          143.8      -3.171326      0.9597903
      2765.0000          1.632       880.8081         1.1515          143.6      -3.408066      0.9554062
      2765.5000          1.644       876.7677         1.1515          143.6      -3.444809      0.9547257
