#------------------------------------------------------------------------------
# Created by    : vladimir.rabinovich
# Created on    : 09/19/2023 17:20:51
#------------------------------------------------------------------------------
~Version Information Section
VERS.           2.0     :   CWLS log ASCII Standard - VERSION 2.0
WRAP.           NO      :   One line per depth step
~Well Information Section
#MNEM       .UNIT                                         VALUE :DESCRIPTION
#------------------------------------------------------------------------------
STRT        .FT                                            1028 :START DEPTH
STOP        .FT                                            9325 :STOP DEPTH
STEP        .FT                                             0.5 :STEP      
NULL        .                                           -999.25 :NULL      
COMP        .                     HUNT LAMAR TRUST ESTATE ET AL :COMPANY   
WELL        .                                   BROUSSARD TRUST :WELL      
FLD         .                                           WILDCAT :FIELD     
LOC         .                                                   :LOCATION  
CNTY        .                                         JEFFERSON :LOCATION  
STAT        .                                             TEXAS :STATE     
CTRY        .                                     UNITED STATES :COUNTRY   
SRVC        .                                                   :SERVICE COMPANY
DATE        .                             9/13/2023 11:19:11 AM :LOG DATE  
API         .                                    42245021920000 :API NUMBER
UWI         .                                    42245021920000 :UNIQUE WELL ID
XCOORD      .                                  1218474.36862613 :SURFACE X 
YCOORD      .                                   10882715.986693 :SURFACE Y 
LAT         .                                        29.9792918 :LATITUDE  
LON         .                                       -94.3330868 :LONGITUDE 
ELEV        .FT                                              36 :ELEVATION VALUE
ELEV_TYPE   .                                                DF :ELEVATION REFERENCE TYPE
~Curve Information Section
#MNEM       .UNIT                                      API CODE :CURVE DESCRIPTION
#------------------------------------------------------------------------------
DEPT        .FT                                                 :DEPTH     
ASN         .OHMM                                               :          
LAT         .OHMM                                               :          
LN          .OHMM                                               :          
SP          .MV                                                 :          
SP_NORM     .MV                                                 :SP Normalized
VSH_SP      .V/V                                                :Volume of Shale from SP
~A        DEPTH            ASN            LAT             LN             SP        SP_NORM         VSH_SP
      1028.0000          0.125         0.1232         0.0625         -28.75     -0.3071271              1
      1028.5000         0.1607         0.1236           0.25       -50.7826       1.785494              1
      1029.0000         0.4286         0.1241         0.5714       -61.8051         2.4488              1
      1029.5000          0.875         0.1245         0.9196        -72.987       2.418033              1
      1030.0000         1.9819          0.125         1.4641        -80.708       2.466309              1
      1030.5000         2.6164         0.1161         2.2325       -84.4248     -0.4138366              1
      1031.0000          2.956         0.1161         2.9382       -88.3186       2.267143              1
      1031.5000         3.4573         0.1161         3.1767       -89.0265       2.331528              1
      1032.0000         3.5807         0.1161         3.2911       -89.7345       1.623528              1
      1032.5000         3.6512         0.1071         3.3792       -90.2655       1.092522              1
      1033.0000         3.7218         0.1071         3.4673       -90.9735      0.3845215              1
      1033.5000         3.7924         0.1071         3.5732       -91.5044     -0.1463776              1
      1034.0000          3.863         0.1071          3.635       -92.2124     -0.8543777              1
      1034.5000         3.9073         0.1071         3.6968       -92.9204      -1.562378              1
      1035.0000         3.9603         0.1071         3.7587       -93.2743      -1.916275              1
      1035.5000         4.0047         0.1071         3.8205       -93.6283      -2.270279      0.9819814
      1036.0000         4.0592         0.1071         3.8823       -94.1593      -2.801277      0.9465815
      1036.5000         4.1137         0.1071         3.9441       -94.5133      -3.155273      0.9229818
      1037.0000         4.1322         0.1071         3.9445       -94.8673      -3.509277      0.8993815
      1037.5000         4.1687         0.1071         3.9713       -95.2212      -3.863174      0.8757884
      1038.0000         4.2232         0.1071          4.025       -95.3982      -4.040176      0.8639882
      1038.5000         4.3137         0.1071         4.0705       -95.9292      -4.571175      0.8285884
      1039.0000         4.4043         0.1161          4.116       -96.6372      -5.279175      0.7813883
      1039.5000         4.4137         0.1161         4.1615       -97.3451      -5.987076      0.7341949
      1040.0000         4.5403          0.116          4.207       -98.7608      -7.402779      0.6398147
      1040.5000         4.6128         0.1165         4.2613       -99.1237      -7.765678      0.6156214
      1041.0000          4.622         0.1169         4.3065       -99.4866      -8.128578      0.5914281
      1041.5000         4.5682         0.1174         4.3518       -99.8495      -8.491478      0.5672348
      1042.0000         4.4963         0.1178          4.397       -99.8584      -8.500374      0.5666417
      1042.5000         4.4243         0.1183         4.4424      -100.2203      -8.862274       0.542515
      1043.0000         4.4155         0.1187         4.4696      -100.5887      -9.230675       0.517955
      1043.5000         4.4066         0.1192         4.4699      -100.9567      -9.598679      0.4934214
      1044.0000         4.4068         0.1196         4.4882      -101.3245      -9.966476      0.4689016
      1044.5000         4.4341           0.12         4.5426      -101.6919      -10.33388      0.4444081
      1045.0000         4.8415         0.1205         4.5791      -102.4178      -11.05978      0.3960149
      1045.5000         4.8237         0.1299         4.6156      -102.4257      -11.06767      0.3954885
      1046.0000         4.7969         0.1392         4.6521      -102.7922      -11.43417      0.3710551
      1046.5000         4.7792         0.1575         4.6977      -103.1583      -11.80028      0.3466482
      1047.0000         4.7433         0.3633         4.7342      -103.1658      -11.80778      0.3461482
      1047.5000         4.6983         0.4708         4.7708      -103.5315      -12.17348      0.3217682
      1048.0000         4.6532         0.5784         4.8075      -103.5389      -12.18088      0.3212748
      1048.5000         4.6082         0.7128         4.8351       -103.904      -12.54597       0.296935
      1049.0000         4.5812         1.3025         4.8445      -104.2688      -12.91077       0.272615
      1049.5000         4.5815         1.7316          4.854      -104.4546      -13.09657      0.2602285
      1050.0000         4.8273         2.2124         4.8545      -104.6471      -13.28908      0.2473948
      1050.5000         4.8909         2.4161         4.8455      -104.6361      -13.27808      0.2481283
      1051.0000         4.9455         2.6199         4.8455      -104.8035      -13.44547      0.2369685
      1051.5000         5.0446          2.948         4.8455      -104.9707      -13.61268      0.2258214
      1052.0000          5.125          3.091         4.8455      -105.1379      -13.77988      0.2146749
      1052.5000         5.1518         3.1807         4.8455      -105.1267      -13.76868      0.2154215
      1053.0000         5.1518         3.2972         4.8455      -105.2935      -13.93548      0.2043014
      1053.5000         5.0893         3.4315         4.8455      -105.4603      -14.10227      0.1931819
      1054.0000         5.0625         3.6374         4.8455      -105.6269      -14.26888       0.182075
      1054.5000              5         3.8342         4.8364      -105.6155      -14.25748      0.1828349
      1055.0000         4.9273         3.7811         4.8364      -105.4263      -14.06828      0.1954483
      1055.5000         4.9091          3.728         4.8364      -105.0597      -13.70168      0.2198883
      1056.0000         4.9455         3.6749         4.8364      -104.3382      -12.98018      0.2679881
      1056.5000         5.0893         3.6218         4.8273      -103.6173      -12.25928      0.3160482
      1057.0000           5.25         3.6847         4.8273       -102.897      -11.53898      0.3640681
      1057.5000         5.4018         3.8191         4.8273      -102.1773      -10.81927      0.4120483
      1058.0000         5.5536         3.9534         4.8182      -101.4583      -10.10027      0.4599818
      1058.5000         5.7411         4.1582         4.8182      -101.2716      -9.913574      0.4724284
      1059.0000         5.7589         4.3091         4.8455       -102.325      -10.96697      0.4022018
      1059.5000         5.7768         4.2297         4.8545      -103.2004      -11.84238      0.3438416
      1060.0000         5.7768          4.115         4.8909      -104.4282      -13.07018      0.2619883
      1060.5000         5.7768         4.0619         4.9091      -104.7733      -13.41528      0.2389816
      1061.0000         5.7857         3.9464         4.9273      -105.1183      -13.76028      0.2159815
      1061.5000         5.7946         3.8304         4.9636      -105.4634      -14.10538      0.1929749
      1062.0000         5.7946         3.7589         4.9909      -105.4545      -14.09647      0.1935684
      1062.5000         5.7946         3.7589         5.0357      -105.7996      -14.44157      0.1705617
      1063.0000         5.7946         3.7679         5.0625      -105.9677      -14.60967      0.1593552
      1063.5000         5.7768         3.8393         5.0714      -106.1358      -14.77778      0.1481481
      1064.0000         5.6875         3.9911         5.0625       -106.127      -14.76897       0.148735
      1064.5000         5.5625         4.0708         5.0446       -106.472      -15.11398       0.125735
      1065.0000         5.5179         4.0796         5.0268      -106.6401      -15.28207      0.1145284
      1065.5000         5.5179         4.0708              5      -106.6313      -15.27328      0.1151148
