#------------------------------------------------------------------------------
# Created by    : vladimir.rabinovich
# Created on    : 09/19/2023 17:22:41
#------------------------------------------------------------------------------
~Version Information Section
VERS.           2.0     :   CWLS log ASCII Standard - VERSION 2.0
WRAP.           NO      :   One line per depth step
~Well Information Section
#MNEM       .UNIT                                         VALUE :DESCRIPTION
#------------------------------------------------------------------------------
STRT        .FT                                             190 :START DEPTH
STOP        .FT                                            7751 :STOP DEPTH
STEP        .FT                                             0.5 :STEP      
NULL        .                                           -999.25 :NULL      
COMP        .                       GOLDEN TRIANGLE STORAGE LLC :COMPANY   
WELL        .                         GOLDEN TRIANGLE STORAGE 2 :WELL      
FLD         .                                        SPINDLETOP :FIELD     
LOC         .                                                   :LOCATION  
CNTY        .                                         JEFFERSON :LOCATION  
STAT        .                                             TEXAS :STATE     
CTRY        .                                     UNITED STATES :COUNTRY   
SRVC        .                                                   :SERVICE COMPANY
DATE        .                             9/13/2023 11:18:46 AM :LOG DATE  
API         .                                    42245325580000 :API NUMBER
UWI         .                                    42245325580000 :UNIQUE WELL ID
XCOORD      .                                  1288599.33875083 :SURFACE X 
YCOORD      .                                  10896379.1240251 :SURFACE Y 
LAT         .                                        30.0189256 :LATITUDE  
LON         .                                       -94.1119908 :LONGITUDE 
ELEV        .FT                                            12.2 :ELEVATION VALUE
ELEV_TYPE   .                                                GL :ELEVATION REFERENCE TYPE
~Curve Information Section
#MNEM       .UNIT                                      API CODE :CURVE DESCRIPTION
#------------------------------------------------------------------------------
DEPT        .FT                                                 :DEPTH     
DCAL        .IN                                                 :          
DPSS        .V/V                                                :          
DRHO        .G/CM3                                              :          
GR          .GAPI                                               :          
GR_NORM     .GAPI                                               :GammaRay Normalized
ILD         .OHMM                                               :          
ILM         .OHMM                                               :          
NPSS        .V/V                                                :Neutron Porosity Sandstone
SFL         .OHMM                                               :          
SP          .MV                                                 :          
SP_NORM     .MV                                                 :SP Normalized
TENS        .LB                                                 :          
VSH_GR      .V/V                                                :Volume of Shale from GR
VSH_SP      .V/V                                                :Volume of Shale from SP
~A        DEPTH           DCAL           DPSS           DRHO             GR        GR_NORM            ILD            ILM           NPSS            SFL             SP        SP_NORM           TENS         VSH_GR         VSH_SP
# ...
      2710.0000           0.72         0.2328         0.0837           69.6       76.61644         0.7125              1         0.4164         1.1173            -62      -5.453224         1480.8      0.9280093      0.9383353
      2710.5000           0.72         0.2328         0.0898           67.2       72.42387         0.7063         1.0093         0.4104         1.1277          -62.4       -5.84832           1480      0.8388057        0.93128
      2711.0000           0.76         0.2388         0.0878           67.2       72.41982            0.7         1.0093         0.4056         1.1701          -63.6      -7.043407           1480      0.8387195      0.9099392
      2711.5000            0.8         0.2436         0.0816           67.8       73.46291         0.6933         1.0093         0.4056          1.192            -64      -7.438503           1480       0.860913      0.9028839
      2712.0000           0.84          0.246         0.0796           68.4       74.50602         0.6866         1.0093         0.4092         1.1701            -64      -7.433598           1480      0.8831068      0.9029714
      2712.5000           0.88          0.246         0.0816           68.1       73.97838         0.6735          0.974         0.4116          1.107          -63.6       -7.02869           1480      0.8718804       0.910202
      2713.0000           0.88         0.2448         0.0939           66.9       71.88009         0.6543         0.9487         0.4128         1.0281          -64.4      -7.823784           1480      0.8272359      0.8960038
      2713.5000           0.88         0.2448            0.1           65.1       68.73466         0.6419          0.924         0.4116         0.9913          -66.8      -10.21888           1480      0.7603118      0.8532343
      2714.0000           0.88          0.246            0.1             63       65.06564         0.6357         0.9159         0.4104         0.9913          -70.8      -14.21397           1480      0.6822476      0.7818933
      2714.5000           0.88         0.2508         0.0939           60.3       60.34952         0.6236            0.9         0.4116              1          -75.6      -19.00906           1480      0.5819046      0.6962667
      2715.0000           0.88          0.258         0.0837           58.5        57.2041         0.6058         0.8739         0.4164         1.0093          -78.8      -22.20416           1480      0.5149808      0.6392115
      2715.5000           0.96         0.2688         0.0755           60.3       60.34145         0.5629         0.8079         0.4237         1.0093       -80.8163      -24.21555           1480      0.5817329      0.6032938
      2716.0000              1         0.2784         0.0714           62.7       64.52592         0.5329         0.7652         0.4298         1.0187       -83.2653      -26.65964           1480      0.6707642      0.5596493
      2716.5000              1         0.2892         0.0633           63.3       65.56899         0.4954         0.7126         0.4359         1.0473       -85.7143      -29.10374           1480      0.6929573      0.5160046
      2717.0000           0.96         0.3012         0.0633           61.8       62.94712         0.4685         0.6801         0.4408         1.0767       -87.3469      -30.73143           1480      0.6371728      0.4869387
      2717.5000              1         0.3132         0.0714           58.5       57.18386         0.4514         0.6543         0.4433         1.1381       -88.1633      -31.54292           1480      0.5145501      0.4724478
      2718.0000           1.04         0.3216         0.0837           55.5       51.94417         0.4472         0.6481         0.4396          1.192       -88.1633      -31.53802           1480      0.4030675      0.4725354
      2718.5000           0.68         0.3204         0.0878           55.8       52.46368         0.4514         0.6607         0.4347         1.2368       -86.5306      -29.90041           1480      0.4141209      0.5017783
      2719.0000          -0.12         0.3132         0.0755           57.6       55.60103         0.4599         0.6735          0.431         1.2483       -85.3061      -28.67101           1480       0.480873      0.5237321
      2719.5000          -0.16         0.3036         0.0551           60.6       60.83265         0.4642         0.6866         0.4249         1.2255       -84.4898       -27.8498           1480      0.5921839      0.5383965
      2720.0000          -0.16         0.2952         0.0408             63       65.01712         0.4685            0.7         0.4224          1.192       -85.7143      -29.06939           1480      0.6812153       0.516618
      2720.5000           -0.2         0.2916         0.0388           65.1       68.67802         0.4685         0.6933         0.4237         1.1594       -88.5714      -31.92159         1478.8      0.7591069      0.4656859
      2721.0000          -0.12         0.2916         0.0388           65.1         68.674         0.4556         0.6801         0.4322         1.1173       -91.8367      -35.18198         1476.8      0.7590212      0.4074647
      2721.5000          -0.04         0.2976         0.0449           64.2       67.09925          0.439         0.6357         0.4408         1.0767       -96.3265      -39.66687         1474.8       0.725516      0.3273773
      2722.0000           0.12          0.306          0.049           62.7       64.47739         0.4152         0.5892         0.4518         1.0377         -101.6      -44.93546         1472.8      0.6697316      0.2332953
      2722.5000           0.32         0.3252         0.0531             60       59.76127         0.3756         0.5281         0.4592              1         -106.8      -50.13056         1470.8      0.5693887      0.1405257
      2723.0000           0.96          0.354         0.0571           55.8       52.42731         0.3402         0.4862         0.4665          0.974         -111.6      -54.92565         1468.8      0.4133471     0.05489908
      2723.5000           1.88         0.3804         0.0673           49.2       40.90482          0.311          0.439         0.4714         0.9322         -114.4      -57.72075         1466.8      0.1681877    0.004986695
      2724.0000           2.56         0.4224         0.0755           46.8       36.71225         0.2944         0.4113         0.4763            0.9         -115.6      -58.91584         1464.8     0.07898404              0
      2724.5000           3.16         0.4494            0.1             45       33.56683         0.2808         0.3929         0.4763         0.9079         -116.4      -59.71093         1462.8     0.01206012              0
      2725.0000           3.64         0.4727          0.106           44.4       32.51566         0.2756         0.3824         0.4763         0.9404         -117.6      -60.90602         1460.8              0              0
      2725.5000           3.88         0.4702           0.11           42.9       29.89379         0.2704         0.3756           0.48         1.0187         -118.8      -62.10112         1458.8              0              0
      2726.0000         4.2857         0.4531          0.114           42.3        28.8426         0.2654         0.3689         0.4836         1.0867         -118.8      -62.09621         1456.8              0              0
      2726.5000         4.5714         0.4249           0.12           42.6       29.36213         0.2629         0.3689         0.4884         1.1487         -119.2       -62.4913         1454.8              0              0
      2727.0000         4.9388         0.4164          0.124           44.1        31.9759         0.2604         0.3722         0.5028          1.192         -119.6       -62.8864         1452.8              0              0
      2727.5000         5.3061         0.4212          0.124           44.1       31.97186         0.2629          0.379         0.5136         1.2142           -120      -63.28149         1450.8              0              0
