#------------------------------------------------------------------------------
# Created by    : vladimir.rabinovich
# Created on    : 09/19/2023 17:20:52
#------------------------------------------------------------------------------
~Version Information Section
VERS.           2.0     :   CWLS log ASCII Standard - VERSION 2.0
WRAP.           NO      :   One line per depth step
~Well Information Section
#MNEM       .UNIT                                         VALUE :DESCRIPTION
#------------------------------------------------------------------------------
STRT        .FT                                            1025 :START DEPTH
STOP        .FT                                            8930 :STOP DEPTH
STEP        .FT                                             0.5 :STEP      
NULL        .                                           -999.25 :NULL      
COMP        .                                     MEREDITH & CO :COMPANY   
WELL        .                                 BROUSSARD JR ETAL :WELL      
FLD         .                                           WILDCAT :FIELD     
LOC         .                                                   :LOCATION  
CNTY        .                                         JEFFERSON :LOCATION  
STAT        .                                             TEXAS :STATE     
CTRY        .                                     UNITED STATES :COUNTRY   
SRVC        .                                                   :SERVICE COMPANY
DATE        .                             9/13/2023 11:19:11 AM :LOG DATE  
API         .                                    42245021860000 :API NUMBER
UWI         .                                    42245021860000 :UNIQUE WELL ID
XCOORD      .                                  1217776.66937412 :SURFACE X 
YCOORD      .                                  10884677.7702762 :SURFACE Y 
LAT         .                                        29.9846645 :LATITUDE  
LON         .                                       -94.3353628 :LONGITUDE 
ELEV        .FT                                              34 :ELEVATION VALUE
ELEV_TYPE   .                                                DF :ELEVATION REFERENCE TYPE
~Curve Information Section
#MNEM       .UNIT                                      API CODE :CURVE DESCRIPTION
#------------------------------------------------------------------------------
DEPT        .FT                                                 :DEPTH     
ASN         .OHMM                                               :          
LAT         .OHMM                                               :          
LN          .OHMM                                               :          
SP          .MV                                                 :          
SP_NORM     .MV                                                 :SP Normalized
VSH_SP      .V/V                                                :Volume of Shale from SP
~A        DEPTH            ASN            LAT             LN             SP        SP_NORM         VSH_SP
# ...
      5737.0000         0.6945          0.625         0.8214       -36.5517       2.954472              1
      5737.5000         0.7055          0.625         0.8214       -35.8621       3.644073              1
      5738.0000         0.7127          0.625         0.8214       -35.1724       4.333771              1
      5738.5000         0.7164          0.625         0.8214       -34.8276       4.678574              1
      5739.0000           0.72         0.6429         0.8214       -34.4828       5.023373              1
      5739.5000           0.72         0.6607         0.8036       -34.4828       5.023373              1
      5740.0000         0.7236         0.6786         0.8036       -34.8276       4.678574              1
      5740.5000           0.72         0.6964         0.7857       -34.8358       4.670372              1
      5741.0000         0.7127         0.7143         0.7679       -34.8488       4.657372              1
      5741.5000         0.6982           0.75         0.7679       -35.2074       4.298771              1
      5742.0000         0.6727         0.8036         0.7321       -35.2208       4.285374              1
      5742.5000           0.64         0.8393         0.6964       -35.5804       3.925774              1
      5743.0000         0.6073         0.9107         0.6964       -35.5942       3.911972              1
      5743.5000         0.5714         0.9821         0.6607       -35.2612       4.244972              1
      5744.0000         0.5357         1.0179         0.6429       -35.2747       4.231472              1
      5744.5000         0.5143         1.0714          0.625       -34.9408       4.565372              1
      5745.0000         0.5214          1.125          0.625        -34.954       4.552174              1
      5745.5000         0.5429         1.1429          0.625       -35.3153       4.190872              1
      5746.0000         0.5607          1.125          0.625       -36.0256       3.480572              1
      5746.5000         0.5821         1.0714          0.625       -36.3885       3.117672              1
      5747.0000         0.5857         1.0357          0.625       -36.4031       3.103073              1
      5747.5000         0.5857         0.9821         0.6071       -36.4177        3.08847              1
      5748.0000         0.5679         0.9643         0.5714       -36.0828        3.42337              1
      5748.5000         0.5429         0.9286         0.5357       -36.0971       3.409073              1
      5749.0000         0.5143         0.9286         0.5357       -36.1115       3.394672              1
      5749.5000         0.4893         0.8929         0.5357        -36.827       2.679173              1
      5750.0000          0.475          0.875         0.5357       -38.2456       1.260571              1
      5750.5000         0.4749         0.8393         0.5357       -46.0971      -6.590927      0.9462411
      5751.0000          0.482         0.8036         0.5536       -56.1055      -16.59933      0.8500065
      5751.5000         0.4962         0.7321         0.5714        -66.576      -27.06982      0.7493286
      5752.0000          0.514         0.6429         0.5714       -84.4127      -44.90652      0.5778219
      5752.5000          0.539         0.5714         0.5714       -92.1168      -52.61063       0.503744
      5753.0000          0.539            0.5         0.5714       -92.0946      -52.58842      0.5039575
      5753.5000          0.485         0.4464         0.5714        -75.664      -36.15783       0.661944
      5754.0000         0.4669         0.4464         0.5714       -66.6366      -27.13042      0.7487459
      5754.5000          0.456         0.4821         0.5536       -64.8444      -25.33823      0.7659786
      5755.0000         0.4451         0.5179         0.5179       -62.6949      -23.18873      0.7866468
      5755.5000         0.3837         0.5893            0.5        -50.285      -10.77883      0.9059728
      5756.0000         0.4051         0.6429         0.4643       -42.8952      -3.389027      0.9770286
      5756.5000         0.4411         0.6786         0.4464        -36.541       2.965172              1
      5757.0000         0.4445         0.7143         0.4464       -37.6387       1.867474              1
      5757.5000         0.4408         0.7143         0.4464       -38.7383      0.7678719              1
      5758.0000         0.4225         0.6964         0.4464       -41.6184      -2.112228      0.9893055
      5758.5000         0.4043         0.6786         0.4821       -43.4097      -3.903526      0.9720815
      5759.0000         0.3897         0.6429         0.4821       -44.8469      -5.340729      0.9582622
      5759.5000         0.3752         0.5893            0.5       -45.9306      -6.424427      0.9478421
      5760.0000         0.3751         0.5357         0.5357       -47.0125      -7.506329      0.9374391
      5760.5000           0.44         0.4821         0.5714       -70.7143      -31.20813      0.7095372
      5761.0000         0.5055         0.4286         0.6071       -73.5714      -34.06523      0.6820651
      5761.5000         0.5418          0.375          0.625       -76.0714      -36.56523      0.6580266
      5762.0000         0.5636         0.3214         0.6607       -61.7857      -22.27953      0.7953891
      5762.5000         0.5964         0.2857         0.6786       -40.3509     -0.8447266              1
      5763.0000         0.6071           0.25         0.7143       -43.1579       -3.65173      0.9745026
      5763.5000          0.625           0.25         0.7321       -44.5614      -5.055229      0.9610074
      5764.0000         0.6429         0.2679         0.7321       -47.0175       -7.51133       0.937391
      5764.5000         0.6536         0.2679         0.7321       -49.1228      -9.616627      0.9171478
      5765.0000         0.6571         0.2857         0.7321       -50.1754      -10.66923      0.9070266
      5765.5000         0.6536         0.3036         0.7321       -50.1754      -10.66923      0.9070266
      5766.0000           0.65         0.3214         0.7321       -49.1228      -9.616627      0.9171478
      5766.5000         0.6357         0.3214         0.7143       -48.4211      -8.914928      0.9238949
      5767.0000         0.6214         0.3393         0.6964       -47.0175       -7.51133       0.937391
      5767.5000         0.6036         0.3571         0.6786        -45.614      -6.107826      0.9508863
      5768.0000         0.5745          0.375         0.6607       -44.2105      -4.704327      0.9643815
      5768.5000         0.5564         0.3929         0.6429       -42.4561      -2.949928      0.9812507
      5769.0000         0.5345         0.4286          0.625       -41.0526      -1.546429      0.9947459
      5769.5000         0.5164         0.4643         0.6071       -39.6303     -0.1241264              1
      5770.0000         0.4909            0.5         0.5893       -39.2599       0.246273              1
      5770.5000         0.4727         0.5357         0.5536       -37.7778       1.728371              1
      5771.0000         0.4545         0.5536         0.5179       -36.6667       2.839474              1
      5771.5000         0.4473         0.5714            0.5       -35.1852       4.320972              1
      5772.0000         0.4473         0.5893         0.4821       -34.4444       5.061771              1
      5772.5000         0.4509         0.5893         0.4821       -34.0741       5.432072              1
      5773.0000         0.4582         0.6071         0.4821       -33.7037       5.802471              1
      5773.5000         0.4655         0.6071         0.4821       -34.8148       4.691372              1
      5774.0000         0.4691         0.6071         0.4821        -37.037       2.469173              1
      5774.5000           0.48         0.5893         0.4821       -43.5088      -4.002628      0.9711286
