#------------------------------------------------------------------------------
# Created by    : vladimir.rabinovich
# Created on    : 09/19/2023 17:20:51
#------------------------------------------------------------------------------
~Version Information Section
VERS.           2.0     :   CWLS log ASCII Standard - VERSION 2.0
WRAP.           NO      :   One line per depth step
~Well Information Section
#MNEM       .UNIT                                         VALUE :DESCRIPTION
#------------------------------------------------------------------------------
STRT        .FT                                            1818 :START DEPTH
STOP        .FT                                            9030 :STOP DEPTH
STEP        .FT                                             0.5 :STEP      
NULL        .                                           -999.25 :NULL      
COMP        .                               CONCHO PETROLEUM CO :COMPANY   
WELL        .                                  J E BROUSSARD JR :WELL      
FLD         .                                           WILDCAT :FIELD     
LOC         .                                                   :LOCATION  
CNTY        .                                         JEFFERSON :LOCATION  
STAT        .                                             TEXAS :STATE     
CTRY        .                                     UNITED STATES :COUNTRY   
SRVC        .                                                   :SERVICE COMPANY
DATE        .                             9/13/2023 11:19:11 AM :LOG DATE  
API         .                                    42245021900000 :API NUMBER
UWI         .                                    42245021900000 :UNIQUE WELL ID
XCOORD      .                                  1213918.99973078 :SURFACE X 
YCOORD      .                                  10884047.8383225 :SURFACE Y 
LAT         .                                         29.982808 :LATITUDE  
LON         .                                       -94.3475252 :LONGITUDE 
ELEV        .FT                                              35 :ELEVATION VALUE
ELEV_TYPE   .                                                GL :ELEVATION REFERENCE TYPE
~Curve Information Section
#MNEM       .UNIT                                      API CODE :CURVE DESCRIPTION
#------------------------------------------------------------------------------
DEPT        .FT                                                 :DEPTH     
ASN         .OHMM                                               :          
LAT         .OHMM                                               :          
LN          .OHMM                                               :          
SP          .MV                                                 :          
SP_NORM     .MV                                                 :SP Normalized
VSH_SP      .V/V                                                :Volume of Shale from SP
~A        DEPTH            ASN            LAT             LN             SP        SP_NORM         VSH_SP
      1818.0000        -0.0877              0              0       -35.5156     -0.9476967              1
      1818.5000        -0.0877              0              0       -35.4985     -0.9305992              1
      1819.0000        -0.0877              0              0       -35.4814     -0.9134979              1
      1819.5000        -0.0877              0              0       -37.2187     -0.8105927              1
      1820.0000         0.0175              0              0       -40.7146      -2.047001      0.9806111
      1820.5000         0.3684              0              0        -45.711      -4.783909      0.9299276
      1821.0000         0.5965              0              0       -52.8363      -9.649719        0.83982
      1821.5000         0.8246              0              0       -53.8933      -8.447224      0.8620884
      1822.0000         1.2456              0         0.0702       -54.5925      -6.886932      0.8909827
      1822.5000         1.3333              0         0.1754       -55.2905      -5.325443      0.9198992
      1823.0000         1.4386              0         0.2807       -55.9872      -3.762653      0.9488397
      1823.5000         1.5263              0          0.386       -56.6827      -2.198658      0.9778026
      1824.0000          1.614              0         0.5789       -57.3769     -0.6333656              1
      1824.5000         1.7018              0         0.8947       -58.0699      0.9331245              1
      1825.0000         1.7368              0         1.3509       -58.0539       1.250885              1
      1825.5000         1.7544              0         1.6667       -58.3915      0.9646416              1
      1826.0000          1.807              0         1.9649       -58.7284      0.6790886              1
      1826.5000         1.8421              0              2       -58.7119      0.7469444              1
      1827.0000         1.8421              0              2       -58.6954      0.8147964              1
      1827.5000         1.8421              0              2        -58.679      0.8825455              1
      1828.0000         1.8596              0              2       -59.0145      0.5984001              1
      1828.5000         1.8596              0         2.0172       -59.3494      0.3148537              1
      1829.0000         1.8596              0         2.0172       -59.3324      0.3832016              1
      1829.5000         1.8596              0         2.0172       -59.6665      0.1004562              1
      1830.0000         1.8421              0              2            -60     -0.1816902              1
      1830.5000         1.8597              0              2       -59.9829     -0.1132393              1
      1831.0000         1.8774              0              2       -59.9658    -0.04478836              1
      1831.5000         1.8775              0         1.9825       -69.7643      -9.791931      0.8371865
      1832.0000         1.8776              0         1.9825       -68.6556      -8.631886      0.8586688
      1832.5000         1.8427              0         1.9651       -67.5468      -7.471729      0.8801532
      1833.0000         1.7905              0         1.9651       -66.0746      -5.948181       0.908367
      1833.5000         1.7383          0.006         1.9826        -64.966      -4.788231      0.9298476
      1834.0000         1.7037         0.0069              2       -63.8574      -3.628273      0.9513283
      1834.5000          1.704         0.0078         2.0174       -62.3853      -2.104824      0.9795403
      1835.0000         1.7216         0.0086         2.0348       -61.2769     -0.9450722              1
      1835.5000          1.774         0.0095         2.0522        -60.532      -0.148819              1
      1836.0000         1.8958         0.0103         2.0697       -60.8778     -0.4432678              1
      1836.5000         2.2092         0.0112         2.0697       -61.5871      -1.101215      0.9981256
      1837.0000         2.4537         0.0121         2.0175       -65.2046      -4.667358      0.9320859
      1837.5000         2.7334         0.0474              2       -68.8219      -8.233311      0.8660498
      1838.0000         2.9786         0.0483         1.9481       -73.1661      -12.52616      0.7865527
      1838.5000         3.2218         0.0491         1.9135       -77.1466       -16.4553      0.7137907
      1839.0000         3.4644           0.05         1.8618       -80.3729      -19.63026      0.6549953
      1839.5000         3.7065         0.0508         1.8101       -81.7203       -20.9263      0.6309944
      1840.0000         3.9483         0.2759         1.8965       -87.8051      -26.95975      0.5192639
      1840.5000         3.6212         0.7241         2.0359          -90.5       -29.6033      0.4703093
      1841.0000         3.4663         1.4211         2.1242       -94.5508      -33.60274      0.3962455
      1841.5000         2.9475         1.6667         2.1949       -96.5678      -35.56839      0.3598446
      1842.0000         2.8427         1.6316         2.2481       -97.9068      -36.85604      0.3359993
      1842.5000         2.7555         1.5439         2.2312       -98.9068      -37.80469      0.3184317
      1843.0000          2.651         1.4737         2.1621        -100.25      -39.09654      0.2945085
      1843.5000         2.5641         1.4386          2.093      -101.6121      -40.40728      0.2702355
      1844.0000         2.4773          1.386         2.0066      -102.6293      -41.37313      0.2523493
      1844.5000         2.3733         1.3333          1.938      -103.3017      -41.99418      0.2408485
      1845.0000         2.2869         1.3158         1.8518       -104.319      -42.96013      0.2229606
      1845.5000         2.1833         1.2632          1.783      -105.3362      -43.92597      0.2050746
      1846.0000         2.1145         1.2105         1.7317      -106.0086      -44.54702      0.1935736
      1846.5000         2.0458         1.1754         1.6974      -107.3707      -45.85777      0.1693006
      1847.0000         1.9772         1.1579         1.6631      -108.0431      -46.47882      0.1577997
      1847.5000         1.9256         1.1053         1.6288      -108.7155      -47.09987      0.1462987
      1848.0000         1.8565         1.0351         1.5943      -109.0431      -47.37611      0.1411831
      1848.5000         1.7872         0.9483         1.5599      -109.7155      -47.99716      0.1296822
      1849.0000         1.7354         0.8621         1.5253      -110.3879      -48.61821      0.1181812
      1849.5000         1.6659         0.7759         1.4907      -111.0603      -49.23926      0.1066803
      1850.0000         1.7579         0.6897          1.456      -111.3879      -49.51551      0.1015647
      1850.5000         1.7124         0.6388          1.439       -112.069      -50.14526     0.08990267
      1851.0000         1.6671         0.5879          1.422       -112.069       -50.0939     0.09085365
      1851.5000         1.6255          0.537         1.4225      -112.4138      -50.38735     0.08541941
      1852.0000         1.5589         0.4862          1.423      -112.4138        -50.336     0.08637033
      1852.5000         1.5202         0.4353         1.4236      -112.4138      -50.28465     0.08732132
      1853.0000          1.485         0.4362         1.4241      -112.4138       -50.2333      0.0882723
      1853.5000         1.4426         0.4198         1.4243       -112.069      -49.83714     0.09560847
      1854.0000         1.4178         0.4206         1.4249       -112.069      -49.78579     0.09655946
      1854.5000         1.3929         0.4215         1.3906      -111.7241      -49.38954      0.1038974
      1855.0000         1.3717         0.4396         1.3911      -111.3793      -48.99339      0.1112335
      1855.5000          1.354         0.4404         1.3743      -110.6897      -48.25243       0.124955
