#------------------------------------------------------------------------------
# Created by    : vladimir.rabinovich
# Created on    : 09/19/2023 17:20:52
#------------------------------------------------------------------------------
~Version Information Section
VERS.           2.0     :   CWLS log ASCII Standard - VERSION 2.0
WRAP.           NO      :   One line per depth step
~Well Information Section
#MNEM       .UNIT                                         VALUE :DESCRIPTION
#------------------------------------------------------------------------------
STRT        .FT                                            1017 :START DEPTH
STOP        .FT                                            8855 :STOP DEPTH
STEP        .FT                                             0.5 :STEP      
NULL        .                                           -999.25 :NULL      
COMP        .                               MEREDITH & CO ET AL :COMPANY   
WELL        .                               BROUSSARD J JR ETAL :WELL      
FLD         .                                           WILDCAT :FIELD     
LOC         .                                                   :LOCATION  
CNTY        .                                         JEFFERSON :LOCATION  
STAT        .                                             TEXAS :STATE     
CTRY        .                                     UNITED STATES :COUNTRY   
SRVC        .                                                   :SERVICE COMPANY
DATE        .                             9/13/2023 11:19:11 AM :LOG DATE  
API         .                                    42245021880000 :API NUMBER
UWI         .                                    42245021880000 :UNIQUE WELL ID
XCOORD      .                                  1215343.11980964 :SURFACE X 
YCOORD      .                                  10882366.7587642 :SURFACE Y 
LAT         .                                        29.9782309 :LATITUDE  
LON         .                                       -94.3429645 :LONGITUDE 
ELEV        .FT                                              36 :ELEVATION VALUE
ELEV_TYPE   .                                                DF :ELEVATION REFERENCE TYPE
~Curve Information Section
#MNEM       .UNIT                                      API CODE :CURVE DESCRIPTION
#------------------------------------------------------------------------------
DEPT        .FT                                                 :DEPTH     
ASN         .OHMM                                               :          
LAT         .OHMM                                               :          
LN          .OHMM                                               :          
SP          .MV                                                 :          
SP_NORM     .MV                                                 :SP Normalized
VSH_SP      .V/V                                                :Volume of Shale from SP
~A        DEPTH            ASN            LAT             LN             SP        SP_NORM         VSH_SP
# ...
      6223.0000         0.6725         0.6232         0.6269        -52.142      -10.16669      0.9016061
      6223.5000         0.6609         0.5507         0.6269       -66.4378      -24.46249      0.7293676
      6224.0000         0.6406         0.4638         0.6567       -76.9598      -34.98449      0.6025965
      6224.5000         0.6174         0.3768         0.6418       -87.1209       -45.1456      0.4801736
      6225.0000         0.6029         0.3188         0.6418      -100.1507       -58.1754       0.323188
      6225.5000         0.5884         0.4203         0.6119        -92.595      -50.61969      0.4142206
      6226.0000         0.5826         0.4493         0.5821       -85.6248      -43.64949      0.4981989
      6226.5000         0.5739         0.4783         0.5672       -78.6484      -36.67309      0.5822519
      6227.0000         0.5681         0.5507         0.5373       -69.8996      -27.92429      0.6876591
      6227.5000         0.5652         0.5797         0.5075        -57.949      -15.97369      0.8316423
      6228.0000         0.5768         0.6377         0.4925       -50.0322      -8.056892      0.9270254
      6228.5000         0.5971         0.6522         0.4925       -42.6878     -0.7124939              1
      6229.0000         0.6087         0.6667         0.4776       -40.3288       1.646507              1
      6229.5000          0.629         0.6812         0.4776       -44.7194      -2.744091       0.991035
      6230.0000         0.6377         0.6955         0.4924       -47.6507      -5.675392      0.9557182
      6230.5000         0.5856         0.6818         0.5228       -54.9887      -13.01339      0.8673085
      6231.0000         0.5307         0.6389         0.5833       -56.7421      -14.76679      0.8461832
      6231.5000         0.5192         0.5963         0.5693       -50.8428      -8.867493      0.9172591
      6232.0000         0.5368         0.5823         0.5251       -44.6493      -2.673992      0.9918796
      6232.5000         0.5543         0.5831         0.4662       -40.2262       1.749107              1
      6233.0000         0.5805         0.5985         0.4671       -39.6297       2.345608              1
      6233.5000          0.601         0.6135         0.4676        -40.198       1.777306              1
      6234.0000         0.6069         0.6433         0.4685       -42.2398      -0.264492              1
      6234.5000           0.61         0.6729          0.469       -43.9876      -2.012291      0.9998519
      6235.0000         0.6101         0.7027         0.4699       -43.9762      -2.000893      0.9999893
      6235.5000         0.6102          0.747         0.4707       -42.7828     -0.8074913              1
      6236.0000         0.6017          0.762         0.4713       -42.1833     -0.2079926              1
      6236.5000         0.6019         0.7628         0.4721       -41.5781      0.3972092              1
      6237.0000         0.6078         0.7637          0.473       -41.5611      0.4142075              1
      6237.5000         0.6224         0.7642         0.4735       -41.5498      0.4255066              1
      6238.0000         0.6255         0.7506         0.4744       -41.5328      0.4425087              1
      6238.5000          0.614         0.7511         0.4752       -41.5215      0.4538078              1
      6239.0000         0.6026          0.752         0.4609       -41.5045      0.4708061              1
      6239.5000         0.5911         0.7528         0.4319       -41.7817      0.1936073              1
      6240.0000         0.5826         0.7533         0.4179       -41.7704      0.2049065              1
      6240.5000          0.571         0.7246          0.403       -42.3516     -0.3762932              1
      6241.0000         0.5652         0.7101         0.3731       -43.5253      -1.549992              1
      6241.5000         0.5536         0.6667         0.3582       -44.6962      -2.720894      0.9913145
      6242.0000         0.5449         0.6232         0.3433       -45.5735      -3.598194      0.9807447
      6242.5000         0.5275         0.5507         0.3433       -47.3271      -5.351791       0.959617
      6243.0000         0.5101         0.5072         0.3284       -49.3732      -7.397892      0.9349651
      6243.5000         0.4754         0.4638         0.3433       -54.9254      -12.95009      0.8680712
      6244.0000         0.4493         0.4928         0.3582       -59.8889      -17.91359        0.80827
      6244.5000         0.4203         0.6087         0.3881       -67.9919      -26.01659      0.7106435
      6245.0000         0.4087         0.6087          0.403       -81.3098      -39.33449      0.5501869
      6245.5000         0.3914         0.4203         0.4328       -94.6276      -52.65229      0.3897314
      6246.0000         0.3743         0.3768         0.4328      -105.6274       -63.6521      0.2572037
      6246.5000           0.34         0.2899         0.4328      -112.5703      -70.59499      0.1735544
      6247.0000         0.3229         0.2174         0.4328       -120.962      -78.98669     0.07244947
      6247.5000         0.3114         0.1014         0.4328       -121.814       -79.8387     0.06218434
      6248.0000            0.3          0.087          0.403      -120.0637      -78.08839     0.08327236
      6248.5000            0.3          0.087          0.403      -116.8589      -74.88359      0.1218845
      6249.0000            0.3         0.1014         0.3881      -116.5575       -74.5822      0.1255157
      6249.5000            0.3         0.1449         0.3881      -120.3072      -78.33189     0.08033863
      6250.0000         0.2943         0.2464         0.3879      -123.1884      -81.21309     0.04562543
      6250.5000         0.2915         0.2175         0.3885      -120.8696      -78.89429     0.07356281
      6251.0000         0.2916         0.1886         0.3745      -121.7391      -79.76379     0.06308682
      6251.5000         0.2945         0.1743         0.3751      -122.6087      -80.63339     0.05260973
      6252.0000         0.2946         0.1744         0.3611      -123.1884      -81.21309     0.04562543
      6252.5000         0.2946         0.1745         0.3617       -124.058      -82.08269     0.03514834
      6253.0000         0.2919         0.1601         0.3626      -124.6377       -82.6624     0.02816386
      6253.5000         0.2863         0.1602         0.3632      -125.2174       -83.2421     0.02117957
      6254.0000          0.275         0.1603         0.3641      -125.5072      -83.53189     0.01768806
      6254.5000         0.2722         0.1604         0.3647       -126.087      -84.11169     0.01070248
      6255.0000         0.2638         0.1605         0.3656      -124.6377       -82.6624     0.02816386
      6255.5000         0.2611         0.1753         0.3662      -122.3188      -80.34349     0.05610252
      6256.0000          0.264           0.19         0.3671      -121.4493        -79.474     0.06657833
      6256.5000         0.2669         0.1902         0.3677      -119.4203      -77.44499     0.09102419
      6257.0000         0.2783         0.2049         0.3685      -118.5507      -76.57539      0.1015013
      6257.5000         0.2897         0.2344         0.3691      -117.3913      -75.41599      0.1154701
      6258.0000         0.3124         0.2492           0.37      -116.5217      -74.54639      0.1259471
      6258.5000         0.3238         0.2934         0.3557      -115.0725       -73.0972      0.1434072
      6259.0000         0.3407         0.3376         0.3566      -113.0435      -71.06819      0.1678531
      6259.5000         0.3521         0.4261         0.3274      -108.9855      -67.01019      0.2167447
      6260.0000         0.3351         0.4852         0.3134      -102.8986      -60.92329      0.2900808
      6260.5000         0.3184         0.5738         0.3134       -96.5217      -54.54639       0.366911
