#------------------------------------------------------------------------------
# Created by    : vladimir.rabinovich
# Created on    : 09/19/2023 17:22:46
#------------------------------------------------------------------------------
~Version Information Section
VERS.           2.0     :   CWLS log ASCII Standard - VERSION 2.0
WRAP.           NO      :   One line per depth step
~Well Information Section
#MNEM       .UNIT                                         VALUE :DESCRIPTION
#------------------------------------------------------------------------------
STRT        .FT                                             992 :START DEPTH
STOP        .FT                                            8489 :STOP DEPTH
STEP        .FT                                             0.5 :STEP      
NULL        .                                           -999.25 :NULL      
COMP        .                                       GAELIC CORP :COMPANY   
WELL        .                                     PHELAN MICKEY :WELL      
FLD         .                                           WILDCAT :FIELD     
LOC         .                                                   :LOCATION  
CNTY        .                                         JEFFERSON :LOCATION  
STAT        .                                             TEXAS :STATE     
CTRY        .                                     UNITED STATES :COUNTRY   
SRVC        .                                                   :SERVICE COMPANY
DATE        .                             9/13/2023 11:18:46 AM :LOG DATE  
API         .                                    42245313790000 :API NUMBER
UWI         .                                    42245313790000 :UNIQUE WELL ID
XCOORD      .                                  1260103.88271883 :SURFACE X 
YCOORD      .                                     10773431.3746 :SURFACE Y 
LAT         .                                         29.679995 :LATITUDE  
LON         .                                       -94.1979967 :LONGITUDE 
ELEV        .FT                                              19 :ELEVATION VALUE
ELEV_TYPE   .                                                KB :ELEVATION REFERENCE TYPE
~Curve Information Section
#MNEM       .UNIT                                      API CODE :CURVE DESCRIPTION
#------------------------------------------------------------------------------
DEPT        .FT                                                 :DEPTH     
DPSS        .V/V                                                :          
DRHO        .G/CM3                                              :          
DT          .US/FT                                              :          
GR_NORM     .GAPI                                               :GammaRay Normalized
GRN         .GAPI                                               :          
ILD         .OHMM                                               :          
NPSS        .V/V                                                :Neutron Porosity Sandstone
RHOB        .G/CM3                                              :          
SFL         .OHMM                                               :          
SP          .MV                                                 :          
SP_NORM     .MV                                                 :SP Normalized
TENN        .LB                                                 :          
VSH_GR      .V/V                                                :Volume of Shale from GR
VSH_SP      .V/V                                                :Volume of Shale from SP
~A        DEPTH           DPSS           DRHO             DT        GR_NORM            GRN            ILD           NPSS           RHOB            SFL             SP        SP_NORM           TENN         VSH_GR         VSH_SP
# ...
      5438.0000         0.2151         0.0379        120.297       76.18681        75.1193         1.0878         0.4086         2.2936         1.0878        -0.9485       9.043197        2396.04      0.9188684              1
      5438.5000         0.2172         0.0454       122.2772       70.02905         69.331         1.0579         0.4314         2.2911         1.0433        -1.7511       8.223767       2386.139       0.787852              1
      5439.0000         0.2172         0.0539       121.3861        66.2449        65.7739          1.024         0.4533         2.2916         1.0052         -3.346       6.612038       2386.139      0.7073382              1
      5439.5000         0.2166         0.0584          118.4       64.04075         63.702         0.9912         0.4568         2.2916         0.9643        -5.5338       4.407409       2386.139      0.6604415              1
      5440.0000         0.2172         0.0559          114.1       64.52245        64.1548         0.9597         0.4344         2.2906         0.9641        -7.5221       2.402279        2396.04      0.6706905              1
      5440.5000         0.2151          0.052          110.5       66.42873        65.9467         0.9293         0.4149         2.2946          0.964        -8.3191       1.588449       2405.784      0.7112495              1
      5441.0000          0.207         0.0395       108.0823       68.33692        67.7404         0.9125         0.4089         2.3147         1.0186        -8.1251       1.765621       2405.495      0.7518494              1
      5441.5000          0.189         0.0395       106.2675       69.45606        68.7924         0.9125         0.3984          2.338         1.0767         -7.336       2.539269       2405.176      0.7756609              1
      5442.0000         0.1741         0.0475       105.6644       70.10149        69.3991         0.9125         0.3849         2.3638         1.1645        -6.9429       2.924284       2404.886      0.7893935              1
      5442.5000         0.1653         0.0565       108.5891       70.74745        70.0063         0.9166         0.3811         2.3834         1.1807        -6.5494         3.3097       2404.596      0.8031372              1
      5443.0000         0.1674         0.0619          113.8        70.4449        69.7219         0.9293         0.3975         2.3677         1.0139        -6.5527       3.298315       2404.305         0.7967              1
      5443.5000         0.1821         0.0589          115.6       69.18958        68.5419         0.9336         0.4292         2.3416         0.8557        -6.9532       2.889731       2404.014       0.769991              1
      5444.0000         0.2004         0.0405            115       68.25021        67.6589         0.9251          0.457         2.3216         0.8836        -7.7517       2.083147       2403.723      0.7500045              1
      5444.5000         0.1995         0.0231       109.8994       67.78596        67.2225         0.9125         0.4358         2.3257         0.9909        -7.9544       1.872361       2403.402      0.7401269              1
      5445.0000         0.1917         0.0261       109.4974       66.84511        66.3381         0.9041         0.4046         2.3347         1.1324        -7.9583       1.860377       2403.111      0.7201087              1
      5445.5000         0.1956         0.0356          113.1       66.38075        65.9016         0.8917         0.3834         2.3353         1.1324        -7.9623       1.848293       2402.819      0.7102288              1
      5446.0000         0.2184         0.0356       121.9916       67.98064        67.4055         0.9041         0.4471         2.2743         0.9379        -7.9662       1.836308       2402.526       0.744269              1
      5446.5000         0.2488         0.0296       130.1627       71.33096        70.5548         0.9293         0.4927         2.2281         0.7548        -7.5717       2.222723       2402.233      0.8155524              1
      5447.0000         0.2584         0.0242       132.8675       74.20734        73.2586         0.9552         0.5294         2.2217         0.7075        -7.3761       2.410239       2401.941       0.876752              1
      5447.5000         0.2593         0.0227        133.573       74.69947        73.7212         0.9818         0.5326         2.2217         0.7305        -6.9809       2.797354       2391.645      0.8872228              1
      5448.0000         0.2479         0.0252        132.278       73.12362        72.2399         0.9818         0.5079           2.24         0.7898        -7.1839       2.586269       2401.324       0.853694              1
      5448.5000         0.2353         0.0336       130.4826       73.45638        72.5527         0.9509          0.483           2.26          0.871        -8.3854       1.376685       2411.013      0.8607741              1
      5449.0000         0.2308         0.0406       129.1886       74.74575        73.7647         0.9251         0.4699         2.2716         0.8916       -11.3858      -1.631801       2420.712      0.8882074      0.9924785
      5449.5000         0.2272         0.0401       127.5943       76.83543         75.729         0.8709         0.4583         2.2772         0.8916       -17.1871      -7.441184       2410.435      0.9326686      0.9233192
      5450.0000         0.2293         0.0327       124.5989       78.76617        77.5439         0.7747         0.4512         2.2702         0.8586       -26.7298      -16.99197       2400.147      0.9737484      0.8096194
      5450.5000         0.2394         0.0287       120.9027       79.09181          77.85         0.6781         0.4404          2.254         0.8307        -37.034      -27.30425       2399.883      0.9806768      0.6868541
      5451.0000         0.2511         0.0238       118.5079       75.26266        74.2506         0.5863         0.4314         2.2317         0.7927        -45.811      -36.08934        2409.68      0.8992056      0.5822698
      5451.5000          0.267         0.0213       116.7129       71.75692        70.9552         0.5183         0.4236          2.209         0.7501       -53.0091      -43.29552       2419.467      0.8246153      0.4964818
      5452.0000         0.2793         0.0188       115.9178        68.5733        67.9626         0.4575         0.4194         2.1858         0.6478       -58.0036      -48.29811       2429.245      0.7568788      0.4369273
      5452.5000         0.2874         0.0124       116.7227       65.23362        64.8233         0.3585          0.411         2.1755         0.6245       -61.9846      -52.28719       2419.037      0.6858217      0.3894382
      5453.0000          0.291         0.0054       117.2275       61.41979        61.2383         0.2972         0.3944         2.1716         0.7263       -67.1482      -57.45888       2418.833      0.6046764      0.3278705
      5453.5000         0.2883         0.0094       117.4329       57.93532        57.9629         0.2472         0.3743         2.1756         0.7398        -73.708      -64.02676       2418.629      0.5305387      0.2496814
      5454.0000         0.2871         0.0327       118.9378       53.18447        53.4971         0.2244         0.3686           2.18         0.6271       -78.4849      -68.81174       2418.425      0.4294568      0.1927173
      5454.5000         0.3099          0.055        120.142       47.63564        48.2812         0.2056         0.3827         2.1278         0.4614       -82.2755      -72.61043       2418.221      0.3113967      0.1474949
      5455.0000          0.356         0.0535       121.9383       43.19213        44.1043         0.1973          0.428         1.9933         0.3378       -85.2707      -75.61372       2417.998      0.2168539      0.1117415
      5455.5000         0.3982         0.0262        124.131       40.81149        41.8665         0.1875         0.4504         1.9794         0.3287       -86.6705       -77.0216       2417.794       0.166202     0.09498097
