#------------------------------------------------------------------------------
# Created by    : vladimir.rabinovich
# Created on    : 09/19/2023 17:20:51
#------------------------------------------------------------------------------
~Version Information Section
VERS.           2.0     :   CWLS log ASCII Standard - VERSION 2.0
WRAP.           NO      :   One line per depth step
~Well Information Section
#MNEM       .UNIT                                         VALUE :DESCRIPTION
#------------------------------------------------------------------------------
STRT        .FT                                            1818 :START DEPTH
STOP        .FT                                            9030 :STOP DEPTH
STEP        .FT                                             0.5 :STEP      
NULL        .                                           -999.25 :NULL      
COMP        .                               CONCHO PETROLEUM CO :COMPANY   
WELL        .                                  J E BROUSSARD JR :WELL      
FLD         .                                           WILDCAT :FIELD     
LOC         .                                                   :LOCATION  
CNTY        .                                         JEFFERSON :LOCATION  
STAT        .                                             TEXAS :STATE     
CTRY        .                                     UNITED STATES :COUNTRY   
SRVC        .                                                   :SERVICE COMPANY
DATE        .                             9/13/2023 11:19:11 AM :LOG DATE  
API         .                                    42245021900000 :API NUMBER
UWI         .                                    42245021900000 :UNIQUE WELL ID
XCOORD      .                                  1213918.99973078 :SURFACE X 
YCOORD      .                                  10884047.8383225 :SURFACE Y 
LAT         .                                         29.982808 :LATITUDE  
LON         .                                       -94.3475252 :LONGITUDE 
ELEV        .FT                                              35 :ELEVATION VALUE
ELEV_TYPE   .                                                GL :ELEVATION REFERENCE TYPE
~Curve Information Section
#MNEM       .UNIT                                      API CODE :CURVE DESCRIPTION
#------------------------------------------------------------------------------
DEPT        .FT                                                 :DEPTH     
ASN         .OHMM                                               :          
LAT         .OHMM                                               :          
LN          .OHMM                                               :          
SP          .MV                                                 :          
SP_NORM     .MV                                                 :SP Normalized
VSH_SP      .V/V                                                :Volume of Shale from SP
~A        DEPTH            ASN            LAT             LN             SP        SP_NORM         VSH_SP
# ...
      5162.0000         1.0034         0.8475         0.9123       -55.7895      -1.494411      0.9944448
      5162.5000         1.0238         0.9153         0.9474       -56.4912      -2.198883      0.9865294
      5163.0000         1.0443         0.9831         0.9649       -56.8421      -2.552551      0.9825556
      5163.5000         1.0409         1.0893         0.9649        -57.193      -2.906227      0.9785817
      5164.0000         1.0273         1.2143         0.9649       -58.2456      -3.961601      0.9667236
      5164.5000         1.0171         1.2143         0.9649       -59.2982      -5.016968      0.9548655
      5165.0000         1.0068         1.2143         0.9474       -60.3571      -6.078644      0.9429366
      5165.5000         0.9825         1.1964         0.9474       -61.4286      -7.152912      0.9308662
      5166.0000         0.9614         1.1786         0.9123          -62.5      -8.227085      0.9187968
      5166.5000         0.9333         1.1429         0.9123       -62.1429      -7.872757       0.922778
      5167.0000         0.9053          1.125         0.9298       -62.1429      -7.875526      0.9227469
      5167.5000         0.8807         1.1071         0.9123       -61.4286      -7.164001      0.9307415
      5168.0000         0.8561         1.1071         0.9298       -59.2982      -5.036369      0.9546475
      5168.5000         0.8351         1.0893         0.9649        -57.193      -2.933945      0.9782703
      5169.0000         0.8211         1.0714         0.9825       -55.4386      -1.182312      0.9979516
      5169.5000          0.814         1.0357         1.0175       -53.3333      0.9202118              1
      5170.0000         0.8105              1         1.0526       -51.5789       2.671841              1
      5170.5000          0.807         0.9661         1.0702       -51.9298       2.318172              1
      5171.0000         0.8175         0.9322         1.0702       -51.9298       2.315399              1
      5171.5000         0.8316         0.8983         1.0702       -52.6316       1.610828              1
      5172.0000         0.8526         0.8644         1.0526       -52.9825       1.257156              1
      5172.5000         0.8877         0.8814         1.0351       -53.6842       0.552681              1
      5173.0000         0.9298         0.8983         1.0175       -54.0351      0.1990128              1
      5173.5000         0.9439         0.9661              1       -55.4386       -1.20726      0.9976712
      5174.0000         0.9614         1.0357         0.9825       -56.4912       -2.26263      0.9858131
      5174.5000         0.9649         1.0893         0.9649       -57.8947      -3.668903      0.9700123
      5175.0000         0.9789         1.1429         0.9474       -58.9474      -4.724373      0.9581531
      5175.5000         0.9789         1.1964         0.9298            -60      -5.779747       0.946295
      5176.0000         0.9789         1.2321         0.9123       -61.4286      -7.211121      0.9302121
      5176.5000         0.9719         1.2143         0.8772          -62.5       -8.28529      0.9181428
      5177.0000         0.9614         1.2143         0.8596       -64.2857      -10.07376      0.8980476
      5177.5000         0.9509         1.1964         0.8596       -66.4286      -12.21943       0.873939
      5178.0000         0.9333         1.1786         0.8596       -68.2143      -14.00791      0.8538437
      5178.5000         0.9263         1.1786         0.8421       -68.9286      -14.72498      0.8457868
      5179.0000         0.9228         1.2143         0.8421       -69.2857      -15.08485      0.8417433
      5179.5000         0.9158         1.2321         0.8246       -69.2857      -15.08762      0.8417121
      5180.0000         0.9123         1.2321         0.8246       -68.2143      -14.01899      0.8537192
      5180.5000         0.9088          1.232         0.8246       -67.8571      -13.66457      0.8577015
      5181.0000         0.9018          1.214          0.807          -67.5      -13.31023      0.8616828
      5181.5000         0.8947          1.196          0.807       -67.1429      -12.95591       0.865664
      5182.0000         0.8807          1.178         0.7895       -66.7857      -12.60148      0.8696463
      5182.5000         0.8667         1.1423         0.7895       -66.7857      -12.60425      0.8696152
      5183.0000         0.8526         1.1244         0.7895       -66.4286      -12.24992      0.8735964
      5183.5000         0.8421         1.0888         0.7895       -66.0714       -11.8955      0.8775787
      5184.0000         0.8386         1.0355         0.7719       -65.7143      -11.54117      0.8815599
      5184.5000         0.8281         1.0177         0.7544       -65.3571      -11.18674      0.8855422
      5185.0000         0.8175              1         0.7544       -65.3571      -11.18951      0.8855111
      5185.5000          0.814              1         0.7368       -65.3571      -11.19228        0.88548
      5186.0000         0.8105              1         0.7193       -65.3571      -11.19505      0.8854488
      5186.5000          0.807         0.9831         0.7193       -65.3571      -11.19783      0.8854177
      5187.0000          0.807         0.9831         0.7018            -65      -10.84349      0.8893989
      5187.5000         0.8035         0.9661         0.6842       -64.6429      -10.48917      0.8933802
      5188.0000         0.7695         0.9661         0.6842       -64.6429      -10.49194       0.893349
      5188.5000         0.7492         0.9661         0.6667       -64.6429      -10.49471      0.8933179
      5189.0000          0.739         0.9661         0.6491       -64.2857      -10.14028      0.8973002
      5189.5000         0.7424         0.9661         0.6491       -62.8571      -8.714455      0.9133207
      5190.0000         0.7525         0.9831         0.6491       -61.4286      -7.288727      0.9293401
      5190.5000         0.7695         0.9831          0.649       -60.3573        -6.2202       0.941346
      5191.0000         0.7831              1         0.6487       -60.3576       -6.22327      0.9413116
      5191.5000         0.7966              1         0.6659        -61.074      -6.942444       0.933231
      5192.0000         0.8105              1         0.6656       -62.1499      -8.021111      0.9211111
      5192.5000         0.8246         1.0175         0.6653       -63.2279      -9.101887      0.9089676
      5193.0000         0.8246         1.0175         0.6651        -63.949       -9.82576      0.9008341
      5193.5000         0.8105         1.0351         0.6648       -62.5154      -8.394928      0.9169109
      5194.0000         0.7966         1.0526         0.6645        -61.079        -6.9613      0.9330191
      5194.5000         0.7864         1.0351         0.6642       -59.6519      -5.536972      0.9490228
      5195.0000         0.7864         1.0175         0.6639       -58.2609      -4.148743      0.9646209
      5195.5000         0.7932         0.9831         0.6636       -58.2617      -4.152313      0.9645808
      5196.0000          0.807         0.9492         0.6633       -61.4435      -7.336887       0.928799
      5196.5000         0.8246         0.9153          0.663       -64.6958      -10.59196      0.8922251
      5197.0000         0.8211         0.8814         0.6449        -65.785      -11.68393      0.8799558
      5197.5000         0.7932         0.8305         0.6268       -63.2571      -9.158802      0.9083281
      5198.0000         0.7661         0.8305         0.6087       -60.7245      -6.628971      0.9367532
      5198.5000          0.739         0.8475         0.5906        -61.813      -7.720245      0.9244916
      5199.0000         0.7356         0.8644         0.5724       -66.8959      -12.80592      0.8673493
      5199.5000         0.7559         0.9153         0.5542       -71.9885      -17.90129      0.8100979
