#------------------------------------------------------------------------------
# Created by    : vladimir.rabinovich
# Created on    : 09/19/2023 17:20:52
#------------------------------------------------------------------------------
~Version Information Section
VERS.           2.0     :   CWLS log ASCII Standard - VERSION 2.0
WRAP.           NO      :   One line per depth step
~Well Information Section
#MNEM       .UNIT                                         VALUE :DESCRIPTION
#------------------------------------------------------------------------------
STRT        .FT                                             722 :START DEPTH
STOP        .FT                                            8710 :STOP DEPTH
STEP        .FT                                             0.5 :STEP      
NULL        .                                           -999.25 :NULL      
COMP        .                              BRUNER ARNOLD H & CO :COMPANY   
WELL        .                                              WEIR :WELL      
FLD         .                                           WILDCAT :FIELD     
LOC         .                                                   :LOCATION  
CNTY        .                                         JEFFERSON :LOCATION  
STAT        .                                             TEXAS :STATE     
CTRY        .                                     UNITED STATES :COUNTRY   
SRVC        .                                                   :SERVICE COMPANY
DATE        .                             9/13/2023 11:19:11 AM :LOG DATE  
API         .                                    42245021890000 :API NUMBER
UWI         .                                    42245021890000 :UNIQUE WELL ID
XCOORD      .                                  1215604.35578741 :SURFACE X 
YCOORD      .                                  10884998.9913957 :SURFACE Y 
LAT         .                                        29.9854781 :LATITUDE  
LON         .                                       -94.3422367 :LONGITUDE 
ELEV        .FT                                              36 :ELEVATION VALUE
ELEV_TYPE   .                                                DF :ELEVATION REFERENCE TYPE
~Curve Information Section
#MNEM       .UNIT                                      API CODE :CURVE DESCRIPTION
#------------------------------------------------------------------------------
DEPT        .FT                                                 :DEPTH     
ASN         .OHMM                                               :          
LAT         .OHMM                                               :          
LN          .OHMM                                               :          
SP          .MV                                                 :          
SP_NORM     .MV                                                 :SP Normalized
VSH_SP      .V/V                                                :Volume of Shale from SP
~A        DEPTH            ASN            LAT             LN             SP        SP_NORM         VSH_SP
# ...
      1786.0000         1.7164         0.8246         0.7193      -135.7895      -51.06552      0.1078996
      1786.5000         1.7564         0.8596         0.7193       -134.386      -49.66667      0.1333332
      1787.0000         1.7527         0.8947         0.6842      -132.9825      -48.26783      0.1587667
      1787.5000         1.7127         0.9649         0.6842      -131.9298      -47.21978      0.1778222
      1788.0000         1.6691         1.0172         0.6667      -131.5789      -46.87354      0.1841174
      1788.5000         1.6255          1.069         0.6491      -131.2281       -46.5274       0.190411
      1789.0000         1.5793          1.069         0.6491      -131.2281      -46.53205      0.1903263
      1789.5000         1.5724          1.069         0.6491      -131.5789      -46.88751      0.1838634
      1790.0000         1.6255          1.069         0.6491      -132.2807      -47.59396      0.1710188
      1790.5000         1.6654          1.069         0.6487      -133.3393      -48.65721      0.1516871
      1791.0000         1.7017          1.069         0.6478      -134.0541      -49.37666      0.1386061
      1791.5000         1.7342         1.0517         0.6469      -135.1217      -50.44893      0.1191104
      1792.0000         1.7558         1.0517         0.6461      -136.1913      -51.52319     0.09957844
      1792.5000         1.7738         1.0517         0.6452      -136.9106      -52.24714     0.08641566
      1793.0000         1.8891         1.0517         0.6268      -137.6311       -52.9723     0.07323095
      1793.5000              2         1.0345         0.6083      -139.0588      -54.40466     0.04718808
      1794.0000         2.0505         1.0345         0.6075      -139.4293      -54.77982     0.04036699
      1794.5000         2.0841         1.0345          0.589      -140.1541      -55.50926     0.02710433
      1795.0000         2.1176          1.069         0.5706      -140.5129      -55.87271     0.02049616
      1795.5000         2.1176          1.069         0.5697      -140.8755      -56.23997     0.01381864
      1796.0000         2.1007         1.0862         0.5689      -140.8932      -56.26233      0.0134122
      1796.5000         2.0671         1.0862          0.568      -140.9108      -56.28458     0.01300756
      1797.0000         2.0335         1.0862         0.5671      -140.9285      -56.30694     0.01260112
      1797.5000         1.9686          1.069         0.5662      -140.9462      -56.32929     0.01219469
      1798.0000         1.9021         0.9123         0.5654      -140.9638      -56.35155     0.01178991
      1798.5000         1.8355         0.8772         0.5645      -140.9815      -56.37391     0.01138347
      1799.0000         1.8039         0.8246         0.5636      -140.9992      -56.39627      0.0109769
      1799.5000         1.7716         0.7018         0.5627      -141.3617      -56.76341    0.004301591
      1800.0000         1.7393         0.5789         0.5618      -141.3793      -56.78568    0.003896817
      1800.5000         1.7107         0.5789         0.5621      -141.3793      -56.79033      0.0038122
      1801.0000         1.6821         0.5789         0.5628      -141.3793      -56.79498    0.003727583
      1801.5000         1.6536         0.5789         0.5635      -141.3793      -56.79964    0.003642828
      1802.0000          1.625         0.5789         0.5642      -141.0345       -56.4595    0.009827354
      1802.5000         1.5965         0.5789          0.565      -141.0345      -56.46415    0.009742737
      1803.0000         1.5474         0.5789         0.5657      -141.0345       -56.4688     0.00965812
      1803.5000         1.5333         0.5789         0.5664      -141.0345      -56.47346    0.009573365
      1804.0000         1.4982         0.5789         0.5674      -140.6897      -56.13332     0.01575789
      1804.5000         1.4561         0.5789         0.5681      -140.3448      -55.79308     0.02194408
      1805.0000         1.4246         0.5789         0.5688      -139.6429      -55.09583     0.03462136
      1805.5000         1.4105         0.5789         0.5695      -138.9286      -54.38618     0.04752392
      1806.0000         1.3966         0.5965         0.5702      -137.8571      -53.31934     0.06692103
      1806.5000         1.3828         0.5965         0.5709      -136.7857       -52.2526     0.08631633
      1807.0000         1.3621         0.5965         0.5719      -136.0714      -51.54295     0.09921917
      1807.5000         1.3379         0.5965         0.5726      -136.0714       -51.5476     0.09913455
      1808.0000         1.3207         0.5965         0.5732      -136.7857      -52.26656     0.08606248
      1808.5000         1.3069         0.5965         0.5739      -137.8571      -53.34262      0.0664978
      1809.0000         1.2897         0.5789         0.5916      -138.9286      -54.41878     0.04693132
      1809.5000         1.2759         0.5789         0.5923      -139.6429      -55.13773     0.03385953
      1810.0000         1.2621         0.5789         0.5759           -140      -55.49948     0.02728216
      1810.5000         1.2517         0.5614         0.5763      -137.8571      -53.36124      0.0661592
      1811.0000         1.2517         0.5789         0.5593      -135.7143      -51.22309      0.1050347
      1811.5000         1.2655         0.5965         0.5593      -133.5714      -49.08485      0.1439119
      1812.0000         1.3483          0.614         0.5424      -131.7857      -47.30381      0.1762944
      1812.5000         1.4491         0.6667         0.5424      -130.7143      -46.23705      0.1956899
      1813.0000         1.5123         0.7018         0.5254      -131.0714      -46.59882      0.1891124
      1813.5000         1.6143         0.7193         0.5254      -132.1429      -47.67497      0.1695459
      1814.0000         1.6786         0.7368         0.5424      -133.9286      -49.46533       0.136994
      1814.5000         1.7393         0.7544         0.5424      -134.6429      -50.18428      0.1239222
      1815.0000         1.7786         0.7368         0.5763           -135      -50.54604      0.1173448
      1815.5000         1.8035         0.7193         0.5763           -135       -50.5507        0.11726
      1816.0000         1.8035         0.6842         0.5932      -135.7143      -51.26965      0.1041883
      1816.5000         1.7607         0.6316         0.6102      -136.4286      -51.98861      0.0911162
      1817.0000         1.7321         0.5965         0.6102      -136.7857      -52.35036     0.08453882
      1817.5000         1.6964         0.5614         0.6102      -136.7857      -52.35502     0.08445421
      1818.0000         1.6571         0.5439         0.6102      -136.0714      -51.64537      0.0973569
      1818.5000         1.6286         0.5088         0.6102      -135.3571      -50.93573      0.1102595
      1819.0000          1.593         0.5088         0.6102      -133.9286      -49.51189      0.1361475
      1819.5000          1.586         0.4912         0.6271         -132.5      -48.08794      0.1620375
      1820.0000            1.6         0.4737         0.6271      -131.4286       -47.0212      0.1814327
      1820.5000         1.6571         0.5088         0.6282      -131.4286      -47.02586      0.1813481
      1821.0000         1.6893         0.5088         0.6462         -132.5      -48.10191      0.1617835
      1821.5000         1.7214         0.5088         0.6473      -132.8571      -48.46366      0.1552062
      1822.0000         1.7536         0.5088         0.6484      -133.2143      -48.82551      0.1486271
      1822.5000         1.7929         0.5088         0.6494      -133.5714      -49.18727      0.1420496
      1823.0000            1.8         0.4912         0.6676      -133.9286      -49.54913      0.1354703
      1823.5000           1.75         0.4912         0.6859      -134.2857      -49.91089      0.1288929
