#------------------------------------------------------------------------------
# Created by    : vladimir.rabinovich
# Created on    : 09/19/2023 17:20:52
#------------------------------------------------------------------------------
~Version Information Section
VERS.           2.0     :   CWLS log ASCII Standard - VERSION 2.0
WRAP.           NO      :   One line per depth step
~Well Information Section
#MNEM       .UNIT                                         VALUE :DESCRIPTION
#------------------------------------------------------------------------------
STRT        .FT                                            1025 :START DEPTH
STOP        .FT                                            8930 :STOP DEPTH
STEP        .FT                                             0.5 :STEP      
NULL        .                                           -999.25 :NULL      
COMP        .                                     MEREDITH & CO :COMPANY   
WELL        .                                 BROUSSARD JR ETAL :WELL      
FLD         .                                           WILDCAT :FIELD     
LOC         .                                                   :LOCATION  
CNTY        .                                         JEFFERSON :LOCATION  
STAT        .                                             TEXAS :STATE     
CTRY        .                                     UNITED STATES :COUNTRY   
SRVC        .                                                   :SERVICE COMPANY
DATE        .                             9/13/2023 11:19:11 AM :LOG DATE  
API         .                                    42245021860000 :API NUMBER
UWI         .                                    42245021860000 :UNIQUE WELL ID
XCOORD      .                                  1217776.66937412 :SURFACE X 
YCOORD      .                                  10884677.7702762 :SURFACE Y 
LAT         .                                        29.9846645 :LATITUDE  
LON         .                                       -94.3353628 :LONGITUDE 
ELEV        .FT                                              34 :ELEVATION VALUE
ELEV_TYPE   .                                                DF :ELEVATION REFERENCE TYPE
~Curve Information Section
#MNEM       .UNIT                                      API CODE :CURVE DESCRIPTION
#------------------------------------------------------------------------------
DEPT        .FT                                                 :DEPTH     
ASN         .OHMM                                               :          
LAT         .OHMM                                               :          
LN          .OHMM                                               :          
SP          .MV                                                 :          
SP_NORM     .MV                                                 :SP Normalized
VSH_SP      .V/V                                                :Volume of Shale from SP
~A        DEPTH            ASN            LAT             LN             SP        SP_NORM         VSH_SP
# ...
      8891.0000         1.5238         0.7692         1.3041       -33.6657      -3.843657      0.9712762
      8891.5000         1.5383         0.7879         1.3044       -33.6406      -3.834032      0.9713734
      8892.0000         1.5565         0.8246         1.2867       -33.6155      -3.824411      0.9714706
      8892.5000         1.5566         0.8254          1.287       -33.9578      -4.182188      0.9678567
      8893.0000         1.5313         0.8621         1.2872       -33.9322      -4.172064      0.9679589
      8893.5000         1.5096         0.8808         1.2695       -33.9067      -4.162039      0.9680602
      8894.0000         1.4664         0.8996         1.2518       -33.8813      -4.152117      0.9681605
      8894.5000         1.4196         0.9183          1.252        -33.856      -4.142288      0.9682597
      8895.0000         1.3117         0.9192         1.2342       -33.4668      -3.768566      0.9720347
      8895.5000         1.2433         0.9201         1.2164       -32.3524      -2.669643      0.9831349
      8896.0000         1.2072          0.921         1.1985       -31.6047      -1.937418      0.9905311
      8896.5000         1.1605         0.9219         1.1806       -31.5837      -1.931894      0.9905869
      8897.0000          1.103         0.9228         1.1808       -31.2014      -1.565071      0.9942922
      8897.5000         1.0421         0.9237         1.1629       -30.8206      -1.190971       0.998071
      8898.0000         0.9742         0.9246         1.1449        -30.441     -0.8113708              1
      8898.5000         0.9494         0.9254          1.145       -29.7035    -0.07387161              1
      8899.0000         0.9388         0.9085         1.1451       -28.9686      0.6610298              1
      8899.5000         0.9426         0.9094         1.1453       -28.9526      0.6770287              1
      8900.0000         0.9678         0.9103         1.1454        -29.294      0.3356285              1
      8900.5000         1.0536          0.875         1.1455       -30.3491      -0.719471              1
      8901.0000         1.1107          0.875         1.1455       -30.6988       -1.06917      0.9993013
      8901.5000          1.125          0.875         1.1455       -30.6911       -1.06147      0.9993791
      8902.0000         1.1607         0.8929         1.1818       -30.6833      -1.053671      0.9994579
      8902.5000         1.1857         0.9107            1.2       -30.6756      -1.045971      0.9995356
      8903.0000         1.2252         0.9107            1.2       -30.3088     -0.6791706              1
      8903.5000         1.2647         0.9107            1.2       -30.3008     -0.6711712              1
      8904.0000         1.3219         0.9286            1.2       -31.3676       -1.73797      0.9925458
      8904.5000         1.3217         0.9464         1.1636       -32.4404       -2.81077      0.9817094
      8905.0000         1.3215         0.9643         1.1273       -33.1546      -3.524969      0.9744952
      8905.5000         1.1929         0.9821         1.1273       -33.5094       -3.87977      0.9709114
      8906.0000         1.1143         1.0179         1.1091       -33.1431      -3.513472      0.9746114
      8906.5000         1.0464         1.0536         1.1091       -32.7761      -3.146471      0.9783185
      8907.0000          0.975         1.0893         1.0909       -32.4054       -2.77577      0.9820629
      8907.5000         0.9464         1.1071         1.0727        -32.399      -2.769369      0.9821276
      8908.0000         0.9214         1.1071         1.0727       -32.0303      -2.400671      0.9858518
      8908.5000         0.9036         1.1071         1.0545        -31.661       -2.03137      0.9895821
      8909.0000         0.8929         1.1071         1.0364       -31.2911       -1.66147      0.9933185
      8909.5000         0.9179         1.0893         1.0364       -30.5574     -0.9277706              1
      8910.0000         0.9429         1.0714         1.0182       -29.8225     -0.1928711              1
      8910.5000         0.8786         1.0714              1       -29.0909      0.5387287              1
      8911.0000         0.8464         1.0714         0.9821       -28.7273      0.9023285              1
      8911.5000         0.8143         1.0714         0.9643       -28.3636       1.266029              1
      8912.0000         0.7964         1.0893         0.9643       -28.3636       1.266029              1
      8912.5000         0.8036         1.0893         0.9643       -28.3636       1.266029              1
      8913.0000         0.8571         1.0536         0.9643            -28       1.629629              1
      8913.5000         0.9286         1.0179         0.9643            -28       1.629629              1
      8914.0000         1.0143              1         0.9821       -28.3636       1.266029              1
      8914.5000         1.0571              1         0.9821       -28.7273      0.9023285              1
      8915.0000         1.1714         0.9821              1       -29.0909      0.5387287              1
      8915.5000         1.1464         0.9821         1.0182       -29.0909      0.5387287              1
      8916.0000         1.1321         0.9643         1.0364       -29.4545      0.1751289              1
      8916.5000         1.1179         0.9643         1.0364       -29.8182       -0.18857              1
      8917.0000         1.1107         0.9643         1.0364       -29.8182       -0.18857              1
      8917.5000         1.1036         0.9643         1.0364       -30.1818     -0.5521717              1
      8918.0000         1.0857         0.9464         1.0364       -30.5455     -0.9158707              1
      8918.5000         1.0536         0.9286         1.0364       -30.5455     -0.9158707              1
      8919.0000         1.0071         0.9286         1.0364       -30.5455     -0.9158707              1
      8919.5000         1.0071         0.9286         1.0364       -30.5455     -0.9158707              1
      8920.0000          1.025         0.9286         1.0364       -30.5455     -0.9158707              1
      8920.5000         1.1929         0.9286         1.0363       -30.9188      -1.289171      0.9970791
      8921.0000         1.1964         0.9286         1.0363       -30.5642     -0.9345703              1
      8921.5000         1.1536         0.9286         1.0363       -30.5736     -0.9439716              1
      8922.0000         1.1107         0.9286         1.0362        -30.583      -0.953371              1
      8922.5000         1.0679         0.9286         1.0362       -30.5924     -0.9627705              1
      8923.0000         1.0429         0.9286         1.0362       -30.2363     -0.6066704              1
      8923.5000         1.0321         0.9286         1.0361       -29.8795     -0.2498703              1
      8924.0000         1.0179         0.9286         1.0361       -29.8883     -0.2586708              1
      8924.5000         1.0036         0.9286         1.0361       -29.8972     -0.2675705              1
      8925.0000         1.0036         0.9286         1.0361        -29.906      -0.276371              1
      8925.5000              1         0.9286          1.018       -29.9149     -0.2852707              1
      8926.0000              1         0.9286          1.018       -29.9238     -0.2941704              1
      8926.5000         0.9964         0.9286          1.018       -29.9327     -0.3030701              1
      8927.0000         0.9964         0.9286          1.018       -29.9416     -0.3119717              1
      8927.5000         0.9964         0.9286         1.0179       -29.9506     -0.3209705              1
      8928.0000         0.9964         0.9286         1.0179       -30.3284     -0.6987705              1
      8928.5000         0.9964         0.9286         1.0179       -30.3377     -0.7080708              1
