#------------------------------------------------------------------------------
# Created by    : vladimir.rabinovich
# Created on    : 09/19/2023 17:19:40
#------------------------------------------------------------------------------
~Version Information Section
VERS.           2.0     :   CWLS log ASCII Standard - VERSION 2.0
WRAP.           NO      :   One line per depth step
~Well Information Section
#MNEM       .UNIT                                         VALUE :DESCRIPTION
#------------------------------------------------------------------------------
STRT        .FT                                            1208 :START DEPTH
STOP        .FT                                            8860 :STOP DEPTH
STEP        .FT                                             0.5 :STEP      
NULL        .                                           -999.25 :NULL      
COMP        .                             WEAVER EXPLORATION CO :COMPANY   
WELL        .                                       BEAVERS W H :WELL      
FLD         .                                           WILDCAT :FIELD     
LOC         .                                                   :LOCATION  
CNTY        .                                         JEFFERSON :LOCATION  
STAT        .                                             TEXAS :STATE     
CTRY        .                                     UNITED STATES :COUNTRY   
SRVC        .                                                   :SERVICE COMPANY
DATE        .                             9/13/2023 11:18:46 AM :LOG DATE  
API         .                                    42245314920000 :API NUMBER
UWI         .                                    42245314920000 :UNIQUE WELL ID
XCOORD      .                                  1212655.17721247 :SURFACE X 
YCOORD      .                                  10886677.7304034 :SURFACE Y 
LAT         .                                        29.9899994 :LATITUDE  
LON         .                                       -94.3516153 :LONGITUDE 
ELEV        .FT                                            37.2 :ELEVATION VALUE
ELEV_TYPE   .                                                KB :ELEVATION REFERENCE TYPE
~Curve Information Section
#MNEM       .UNIT                                      API CODE :CURVE DESCRIPTION
#------------------------------------------------------------------------------
DEPT        .FT                                                 :DEPTH     
ALL         .OHMM                                               :          
CILD        .MMHO/M                                             :          
ILD         .OHMM                                               :          
SP          .MV                                                 :          
SP_NORM     .MV                                                 :SP Normalized
VSH_SP      .V/V                                                :Volume of Shale from SP
~A        DEPTH            ALL           CILD            ILD             SP        SP_NORM         VSH_SP
# ...
      6262.0000         2.0423        383.081         2.4664       139.6384      -8.165787       0.903165
      6262.5000         2.2245       374.8137          2.356         140.25       -7.56691       0.911258
      6263.0000         2.5888       366.5465         2.3464       140.6635      -7.166138      0.9166738
      6263.5000         2.5892       358.2793         2.3469       140.4712       -7.37117      0.9139031
      6264.0000         2.7614       357.9909          2.307        139.875      -7.980103      0.9056743
      6264.5000         2.4993       442.5962         2.0348       139.4861      -8.381729      0.9002469
      6265.0000         2.2271       523.2692         1.9649        138.896      -8.984558      0.8921006
      6265.5000         1.9554       688.6538         1.2554       138.7057      -9.187592      0.8893569
      6266.0000         0.8799       773.3654          0.986       139.7192      -8.186829      0.9028807
      6266.5000         0.8799       853.4856         0.9164       140.5337       -7.38504      0.9137157
      6267.0000         0.8799       1081.228         0.8369       140.5433      -7.388168      0.9136734
      6267.5000         0.8799       1310.096         0.7574       140.5529      -7.391312      0.9136309
      6268.0000         0.8799       1540.192         0.6979       140.5625       -7.39444      0.9135886
      6268.5000         0.8799       1612.532         0.6484       140.3702      -7.599472      0.9108179
      6269.0000         0.8799       1770.648         0.5989       140.1779      -7.804489      0.9080474
      6269.5000         0.8799       1770.554         0.5594       139.9856      -8.009537      0.9052765
      6270.0000          0.878       1770.366         0.5699       141.2115      -6.796356      0.9216709
      6270.5000         0.8681       1754.345         0.5803       142.4327      -5.587891      0.9380015
      6271.0000         0.8622       1730.312         0.6008       143.6538      -4.379517      0.9543309
      6271.5000         0.8603        1714.29         0.6113       144.2692       -3.77684      0.9624751
      6272.0000         0.8584       1698.267          0.602       144.0769      -3.981873      0.9597044
      6272.5000         0.8545        1690.16         0.5924       143.6827      -4.388809      0.9542053
      6273.0000         0.8506       1689.968         0.5829       143.4904      -4.593826      0.9514348
      6273.5000         0.8407       1705.607         0.5834       143.2981      -4.798859      0.9486641
      6274.0000         0.8328       1725.205         0.5839       143.3125      -4.797195      0.9486865
      6274.5000         0.8189       1744.803         0.5843       143.1202      -5.002228      0.9459158
      6275.0000          0.811       1764.402         0.5848       143.5337       -4.60144      0.9513319
      6275.5000         0.7931       1776.085         0.5853       143.9471      -4.200775      0.9567463
      6276.0000         0.7912        1783.81          0.586       144.1587      -4.001907      0.9594337
      6276.5000         0.7773       1791.535         0.5864       144.3702      -3.803146      0.9621196
      6277.0000         0.7594       1795.303         0.5869       144.7837      -3.402359      0.9675357
      6277.5000         0.7415        1799.07         0.5874        145.399      -2.799789      0.9756785
      6278.0000         0.7236       1802.838         0.5878       146.2212      -1.990326      0.9866172
      6278.5000         0.7037       1806.605         0.5883       147.0385       -1.18576      0.9974898
      6279.0000         0.6998       1806.415         0.5888       147.6538     -0.5831909              1
      6279.5000         0.6919       1814.141         0.5893       148.0673     -0.1824036              1
      6280.0000          0.686       1817.908           0.58       148.0769     -0.1855469              1
      6280.5000         0.6861       1829.595         0.5804       147.8846     -0.3905792              1
      6281.0000         0.6842       1841.282         0.5809       147.8942     -0.3937073              1
      6281.5000         0.6803       1852.969         0.5714       147.7067     -0.5939331              1
      6282.0000         0.6804       1860.603         0.5719       147.3125       -1.00087      0.9999883
      6282.5000         0.6745       1864.373         0.5723       147.3221      -1.003998       0.999946
      6283.0000         0.6726       1868.143         0.5628       147.3317      -1.007126      0.9999037
      6283.5000         0.6667       1863.996         0.5633       147.3413      -1.010254      0.9998614
      6284.0000         0.6668       1847.974         0.5638       147.7548     -0.6094818              1
      6284.5000         0.6669       1831.951         0.5743       147.9663     -0.4107208              1
      6285.0000          0.663       1815.928          0.585       148.5817      0.1919556              1
      6285.5000         0.6631       1787.936         0.5854       148.7933      0.3908386              1
      6286.0000         0.6512       1771.913         0.5859       149.4135      0.9983063              1
      6286.5000         0.6473       1755.891         0.5864        149.625       1.197067              1
      6287.0000         0.6474        1735.91         0.5869       149.8365       1.395844              1
      6287.5000         0.6475       1739.679         0.5873       150.0481       1.594711              1
      6288.0000         0.6456       1751.367         0.5878       150.0577       1.591583              1
      6288.5000         0.6457       1767.012         0.5883       150.0673       1.588455              1
      6289.0000         0.6458       1782.658         0.5888       150.0769       1.585327              1
      6289.5000         0.6459       1774.552         0.5895       150.0865       1.582199              1
      6290.0000          0.658       1758.435           0.59       150.0986       1.581573              1
      6290.5000         0.6801       1746.371         0.5904       150.1058       1.576035              1
      6291.0000         0.7042       1734.307         0.6009       150.1106         1.5681              1
      6291.5000         0.6963       1726.202         0.6014       150.1154       1.560181              1
      6292.0000         0.6804       1714.138         0.6119       150.1202       1.552246              1
      6292.5000         0.6705       1706.032         0.6223        150.125       1.544312              1
      6293.0000         0.6706       1705.749         0.6228       149.9284       1.334991              1
      6293.5000         0.6707       1709.519         0.6333       149.9333       1.327164              1
      6294.0000         0.6708       1717.248          0.624        149.737       1.118134              1
      6294.5000         0.6709       1724.976         0.6145        149.742       1.110397              1
      6295.0000          0.673       1732.705          0.595        149.546      0.9016724              1
      6295.5000         0.6751       1740.434         0.5754        149.551      0.8939362              1
      6296.0000         0.6752       1748.162         0.5659       149.5561       0.886322              1
      6296.5000         0.6773       1755.891         0.5464       149.5612      0.8786774              1
      6297.0000         0.6794       1767.578         0.5469       149.7668       1.071548              1
      6297.5000         0.6815       1775.306         0.5474       149.9746       1.266617              1
      6298.0000         0.6816       1783.035         0.5578       150.1798       1.459091              1
      6298.5000         0.6837       1790.763         0.6083       150.1846       1.451157              1
      6299.0000         0.6838        1802.45         0.6088       150.3894       1.643234              1
      6299.5000         0.6839       1810.179         0.5895       150.5941       1.835205              1
