#------------------------------------------------------------------------------
# Created by    : vladimir.rabinovich
# Created on    : 09/19/2023 17:19:39
#------------------------------------------------------------------------------
~Version Information Section
VERS.           2.0     :   CWLS log ASCII Standard - VERSION 2.0
WRAP.           NO      :   One line per depth step
~Well Information Section
#MNEM       .UNIT                                         VALUE :DESCRIPTION
#------------------------------------------------------------------------------
STRT        .FT                                            1969 :START DEPTH
STOP        .FT                                            7841 :STOP DEPTH
STEP        .FT                                             0.5 :STEP      
NULL        .                                           -999.25 :NULL      
COMP        .                           NEWFIELD EXPLORATION CO :COMPANY   
WELL        .                                   PHELAN GAS UNIT :WELL      
FLD         .                                          BINDWEED :FIELD     
LOC         .                                                   :LOCATION  
CNTY        .                                         JEFFERSON :LOCATION  
STAT        .                                             TEXAS :STATE     
CTRY        .                                     UNITED STATES :COUNTRY   
SRVC        .                                                   :SERVICE COMPANY
DATE        .                             9/13/2023 11:18:46 AM :LOG DATE  
API         .                                    42245322670000 :API NUMBER
UWI         .                                    42245322670000 :UNIQUE WELL ID
XCOORD      .                                  1272550.81244857 :SURFACE X 
YCOORD      .                                  10898469.5255822 :SURFACE Y 
LAT         .                                        30.0242363 :LATITUDE  
LON         .                                        -94.162774 :LONGITUDE 
ELEV        .FT                                              24 :ELEVATION VALUE
ELEV_TYPE   .                                                KB :ELEVATION REFERENCE TYPE
~Curve Information Section
#MNEM       .UNIT                                      API CODE :CURVE DESCRIPTION
#------------------------------------------------------------------------------
DEPT        .FT                                                 :DEPTH     
AHT20       .OHMM                                               :          
AHT30       .OHMM                                               :          
AHT60       .OHMM                                               :          
AHT90       .OHMM                                               :          
DCAL        .IN                                                 :          
DPHZSS      .V/V                                                :          
DT          .US/FT                                              :          
GR_NORM     .GAPI                                               :GammaRay Normalized
GRR         .GAPI                                               :          
HDRA        .G/CM3                                              :          
NPORSS      .V/V                                                :          
SP          .MV                                                 :          
SP_NORM     .MV                                                 :SP Normalized
TENR        .LB                                                 :          
VSH_GR      .V/V                                                :Volume of Shale from GR
VSH_SP      .V/V                                                :Volume of Shale from SP
~A        DEPTH          AHT20          AHT30          AHT60          AHT90           DCAL         DPHZSS             DT        GR_NORM            GRR           HDRA         NPORSS             SP        SP_NORM           TENR         VSH_GR         VSH_SP
# ...
      5905.0000         0.4955         0.5166         0.5414         0.5889           0.16           0.24       101.6919       72.63889          78.15        -0.0095         0.3717       -73.3333      -30.26743       3047.584      0.8433806      0.5843024
      5905.5000         0.5023         0.5191         0.5464         0.5889            0.1         0.2598       106.1674        64.7215        71.9697        -0.0134         0.3777       -88.8889      -45.65358       3046.872      0.6749256      0.3580357
      5906.0000         0.4955         0.5191         0.5464         0.5861            0.1          0.293       109.8433       57.53957        66.3636        -0.0213         0.3801      -101.0204      -57.61562       3046.159      0.5221185      0.1821233
      5906.5000         0.4713         0.5166         0.5414         0.5726            0.1         0.3235       114.9684        53.8508        63.4848        -0.0263         0.3664      -107.3469      -63.77265       3045.446      0.4436341     0.09157865
      5907.0000         0.4244         0.4381         0.4713         0.4606           0.34         0.3387       116.5768       47.63934        58.6364        -0.0242          0.364      -112.6531      -68.90939        3044.66      0.3114754     0.01603833
      5907.5000         0.3854         0.3783         0.3908         0.3836           0.52         0.3417       115.4671       45.50308        56.9697        -0.0222           0.37      -114.2857      -70.37253       3023.999       0.266023              0
      5908.0000          0.348         0.3261         0.3464           0.34           0.56         0.3399       114.1547       49.77092         60.303        -0.0152         0.3725       -114.898      -70.81537       3023.273       0.356828              0
      5908.5000         0.3157         0.2959         0.3099         0.3042           0.84         0.3424       113.9498       55.20327        64.5455        -0.0072         0.3707      -112.6531        -68.401       3082.444      0.4724099     0.02351469
      5909.0000         0.2972         0.2905         0.2761         0.2711           1.12         0.3472        113.846       55.58984        64.8485        -0.0011         0.3689      -108.3673      -63.94574       3061.771      0.4806348     0.08903319
      5909.5000         0.3128         0.3246         0.2986         0.2932           1.56         0.3491       113.2373       53.25951        63.0303         0.0019         0.3672      -100.8163      -56.22528       3041.078      0.4310534      0.2025694
      5910.0000         0.3697          0.389         0.3595         0.3529           1.86         0.3345       112.4261       53.45204        63.1818          0.002         0.3654        -90.101      -45.34052       3020.365      0.4351497      0.3626395
      5910.5000         0.4401         0.4649         0.4342         0.4263           1.48         0.3091       111.5152       56.55561        65.6061          0.004         0.3636       -82.0202      -37.09026       3019.485      0.5011832      0.4839668
      5911.0000         0.5215         0.5594         0.4977         0.4887            0.9         0.2965       111.4141       60.04712        68.3333          0.005         0.3618        -80.404      -35.30459       3038.454      0.5754707      0.5102266
      5911.5000         0.5673          0.562         0.5142         0.5047           0.54         0.2883       111.1111       64.12105        71.5152          0.005         0.3564       -78.7879      -33.51904       3057.423        0.66215      0.5364848
      5912.0000         0.5699          0.562         0.5264         0.5166           0.42         0.2849        110.303        66.8364        73.6364          0.005         0.3503       -77.1717      -31.73337       3056.495      0.7199234      0.5627446
      5912.5000         0.5699         0.5673         0.5363         0.5264           0.36         0.2755       109.2079       66.05857        73.0303          0.005         0.3442       -75.1515       -29.5437       3035.464      0.7033738      0.5949455
      5913.0000         0.5699         0.5726         0.5439         0.5338           0.24         0.2616       107.9208       65.66895        72.7273          0.005         0.3412       -73.1313      -27.35405       3014.433      0.6950841      0.6271464
      5913.5000         0.5916         0.5889         0.5568         0.5464           0.12         0.2458       106.8317       65.08517        72.2727          0.005          0.337       -70.9091      -24.96239       3013.402      0.6826631      0.6623178
      5914.0000         0.6171            0.6         0.5673         0.5568           0.02         0.2388       106.1386       65.47185        72.5758          0.005         0.3315       -68.2828      -22.16662       3052.474      0.6908904       0.703432
      5914.5000         0.6435         0.6316         0.5807         0.5699           0.02         0.2326       106.0396       65.85842        72.8788          0.005         0.3364       -65.6566      -19.37096       3071.443      0.6991153      0.7445447
      5915.0000         0.6681         0.6588         0.5972         0.5861           0.02         0.2307       106.9307       62.94596        70.6061          0.002         0.3436       -64.2424       -17.7873       3030.412      0.6371481      0.7678338
      5915.5000         0.6967          0.687         0.6085         0.5972           0.02         0.2351       108.9109       61.00374        69.0909         -0.003         0.3558       -64.8485      -18.22394       3029.485      0.5958242      0.7614127
      5916.0000            0.7            0.7         0.6228         0.6113           0.04         0.2388       110.8081       59.44973        67.8788         -0.006          0.363       -64.4444      -17.65037       2988.454      0.5627602      0.7698475
      5916.5000            0.7            0.7         0.6376         0.6258           0.04         0.2412       112.0202       60.80664        68.9394         -0.006         0.3756       -63.0303      -16.11856       3007.423      0.5916308      0.7923741
      5917.0000            0.7            0.7         0.6526         0.6405           0.08         0.2417       111.3131       62.55164         70.303         -0.006         0.3666       -60.8081      -13.90263       3006.495      0.6287584      0.8249614
      5917.5000            0.7            0.7         0.6681         0.6557           0.14         0.2344        109.604       64.49081        71.8182         -0.004         0.3606          -59.8      -12.90079       3005.464      0.6700173      0.8396943
      5918.0000            0.7            0.7         0.6807         0.6681           0.24         0.2264       107.9208       66.23582        73.1818         -0.002         0.3533          -58.4      -11.50705       3004.433      0.7071452      0.8601905
      5918.5000         0.7065            0.7         0.6967         0.6838           0.44         0.2208       107.3267       67.20464        73.9394         -0.003         0.3582          -57.4      -10.51331       3023.402      0.7277583      0.8748042
      5919.0000         0.7097         0.7065         0.7097         0.6967           0.62         0.2196       108.6139       67.78526        74.3939         -0.006         0.3624          -57.2      -10.31958       3062.474      0.7401118      0.8776533
      5919.5000         0.7163         0.7097         0.7097         0.6967           0.68         0.2233       110.8081        64.8728        72.1212         -0.008         0.3636          -55.8      -8.925835       3041.443      0.6781446      0.8981495
      5920.0000         0.7229         0.7163          0.713            0.7           0.54         0.2282       113.0303       62.73653        70.4545         -0.008         0.3768            -54      -7.132099       3040.412       0.632692      0.9245279
      5920.5000         0.7296         0.7196         0.7196         0.7065           0.42         0.2381       114.2424       62.15287             70         -0.005           0.39            -53      -6.138363           3040      0.6202739      0.9391418
