#------------------------------------------------------------------------------
# Created by    : vladimir.rabinovich
# Created on    : 09/19/2023 17:20:50
#------------------------------------------------------------------------------
~Version Information Section
VERS.           2.0     :   CWLS log ASCII Standard - VERSION 2.0
WRAP.           NO      :   One line per depth step
~Well Information Section
#MNEM       .UNIT                                         VALUE :DESCRIPTION
#------------------------------------------------------------------------------
STRT        .FT                                            1769 :START DEPTH
STOP        .FT                                           14822 :STOP DEPTH
STEP        .FT                                             0.5 :STEP      
NULL        .                                           -999.25 :NULL      
COMP        .                                      SHELL OIL CO :COMPANY   
WELL        .                                 MCFADDEN CEE CRSS :WELL      
FLD         .                                           WILDCAT :FIELD     
LOC         .                                                   :LOCATION  
CNTY        .                                         JEFFERSON :LOCATION  
STAT        .                                             TEXAS :STATE     
CTRY        .                                     UNITED STATES :COUNTRY   
SRVC        .                                                   :SERVICE COMPANY
DATE        .                             9/13/2023 11:19:11 AM :LOG DATE  
API         .                                    42245030100000 :API NUMBER
UWI         .                                    42245030100000 :UNIQUE WELL ID
XCOORD      .                                  1300794.63996209 :SURFACE X 
YCOORD      .                                  10796706.8159759 :SURFACE Y 
LAT         .                                        29.7451097 :LATITUDE  
LON         .                                       -94.0705183 :LONGITUDE 
ELEV        .FT                                            17.6 :ELEVATION VALUE
ELEV_TYPE   .                                                KB :ELEVATION REFERENCE TYPE
~Curve Information Section
#MNEM       .UNIT                                      API CODE :CURVE DESCRIPTION
#------------------------------------------------------------------------------
DEPT        .FT                                                 :DEPTH     
ASN         .OHMM                                               :          
DT          .US/F                                               :          
ILD         .OHMM                                               :          
SP          .MV                                                 :          
SP_NORM     .MV                                                 :SP Normalized
VSH_SP      .V/V                                                :Volume of Shale from SP
~A        DEPTH            ASN             DT            ILD             SP        SP_NORM         VSH_SP
      1769.0000         0.0754        -999.25         0.3119       -44.4733       12.31682              1
      1769.5000         0.1027        -999.25         0.4855       -48.1436       8.646523              1
      1770.0000          0.439        -999.25         0.5756       -51.1979       5.592224              1
      1770.5000         0.9688        -999.25          0.643       -67.1903      -10.40018      0.5052539
      1771.0000         1.0669        -999.25         0.6958       -67.2909      -10.50078      0.4999591
      1771.5000         1.0961        -999.25         0.7458       -67.1842      -10.39407      0.5055751
      1772.0000         1.1134        -999.25         0.7577       -67.0775      -10.28738      0.5111907
      1772.5000          1.119        -999.25         0.7315        -66.934      -10.14388      0.5187434
      1773.0000         1.0692        -999.25          0.706       -66.5988      -9.808678      0.5363854
      1773.5000         1.0534        -999.25         0.6813       -66.1118      -9.321678       0.562017
      1774.0000         1.0339        -999.25          0.671       -65.5864       -8.79628      0.5896695
      1774.5000         1.0173        -999.25         0.6662       -64.9172      -8.127075      0.6248908
      1775.0000         1.0043        -999.25         0.6611       -64.1381      -7.347977      0.6658959
      1775.5000          0.994        -999.25         0.6543       -63.2017      -6.411575      0.7151802
      1776.0000         0.9823        -999.25         0.6457       -62.5479      -5.757778      0.7495906
      1776.5000         0.9709        -999.25         0.6344         -62.06      -5.269878      0.7752696
      1777.0000           0.96        -999.25         0.6262       -61.5721      -4.781979      0.8009485
      1777.5000         0.9493        -999.25           0.62       -61.5292      -4.739079      0.8032064
      1778.0000         0.9383        -999.25         0.6208       -61.5587      -4.768578      0.8016538
      1778.5000         0.9295        -999.25         0.6258        -61.705      -4.914879      0.7939537
      1779.0000         0.9301        -999.25          0.633        -62.144      -5.353878      0.7708485
      1779.5000         0.9417        -999.25         0.6402       -62.6816      -5.891476      0.7425539
      1780.0000         0.9584        -999.25         0.6449       -63.4443      -6.654179      0.7024117
      1780.5000         0.9753        -999.25         0.6491       -64.2174      -7.427277      0.6617223
      1781.0000         0.9911        -999.25         0.6521       -65.0665      -8.276375      0.6170329
      1781.5000         1.0053        -999.25          0.655       -65.8887      -9.098579       0.573759
      1782.0000         1.0171        -999.25         0.6593       -66.6879      -9.897774      0.5316961
      1782.5000         1.0281        -999.25         0.6647       -67.5292      -10.73907      0.4874171
      1783.0000         1.0414        -999.25         0.6735       -68.3406      -11.55048      0.4447118
      1783.5000          1.054        -999.25         0.6885       -68.9966      -12.20647      0.4101856
      1784.0000         1.0631        -999.25         0.7008       -69.6527      -12.86258      0.3756537
      1784.5000         1.0711        -999.25         0.7125       -70.2865      -13.49638       0.342296
      1785.0000         1.0772        -999.25         0.7212       -70.8855      -14.09538      0.3107697
      1785.5000         1.0829        -999.25         0.7261       -71.4814      -14.69128      0.2794065
      1786.0000         1.0811        -999.25         0.7171       -71.9207      -15.13058      0.2562854
      1786.5000          1.078        -999.25         0.7002       -72.3605      -15.57037      0.2331382
      1787.0000         1.0743        -999.25          0.676       -72.8167      -16.02658      0.2091273
      1787.5000         1.0633        -999.25         0.6379       -73.4958      -16.70567      0.1733856
      1788.0000         1.0465        -999.25         0.5819       -74.2478      -17.45768      0.1338063
      1788.5000         1.0232        -999.25         0.5294        -74.869      -18.07888      0.1011116
      1789.0000         0.9795        -999.25         0.4757       -75.4659      -18.67577     0.06969613
      1789.5000         0.9495        -999.25         0.4375       -76.0576      -19.26748     0.03855374
      1790.0000           0.92        -999.25         0.4017       -76.8566      -20.06647              0
      1790.5000         0.8923        -999.25         0.3744       -76.6426      -19.85248    0.007764314
      1791.0000         0.8711        -999.25         0.3642       -76.3208      -19.53068     0.02470117
      1791.5000         0.8454        -999.25         0.3619        -75.824      -19.03387     0.05084871
      1792.0000         0.8422        -999.25         0.3655       -75.3126      -18.52248     0.07776441
      1792.5000         0.8673        -999.25         0.3702       -75.2156      -18.42548     0.08286968
      1793.0000         0.8772        -999.25         0.3768       -75.2588      -18.46867     0.08059612
      1793.5000         0.8838        -999.25         0.3834       -75.3314      -18.54128       0.076775
      1794.0000         0.8903        -999.25         0.3947       -75.4052      -18.61507     0.07289083
      1794.5000         0.8969        -999.25         0.4117        -75.479      -18.68887     0.06900667
      1795.0000         0.9079        -999.25         0.4262         -75.36      -18.56988      0.0752696
      1795.5000           0.92        -999.25         0.4407       -75.1918      -18.40168     0.08412211
      1796.0000         0.9337        -999.25         0.4581        -74.959      -18.16888     0.09637491
      1796.5000         0.9477        -999.25         0.4754       -74.6372      -17.84708      0.1133118
      1797.0000         0.9598        -999.25         0.4894          -74.2      -17.40987      0.1363224
      1797.5000         0.9731        -999.25         0.5026       -73.6157      -16.82558      0.1670749
      1798.0000         0.9855        -999.25         0.5117       -72.9929      -16.20277       0.199854
      1798.5000         0.9988        -999.25         0.5207       -72.2627      -15.47258      0.2382853
      1799.0000         1.0145        -999.25         0.5229       -71.5216      -14.73148      0.2772907
      1799.5000         1.0317        -999.25          0.525       -70.6616      -13.87148      0.3225539
      1800.0000         1.0477        -999.25         0.5272       -69.8417      -13.05157      0.3657066
      1800.5000         1.0612        -999.25         0.5309       -69.1371      -12.34698      0.4027907
      1801.0000         1.0775        -999.25          0.537       -68.5681      -11.77798      0.4327381
      1801.5000         1.0699        -999.25         0.5431       -68.0865      -11.29638      0.4580853
      1802.0000         1.0623        -999.25         0.5517       -67.6604      -10.87028      0.4805117
      1802.5000           1.04        -999.25         0.5608       -67.1838      -10.39368       0.505596
      1803.0000         1.0014        -999.25         0.5717       -66.5082      -9.718079      0.5411537
      1803.5000         0.9428        -999.25         0.5891       -65.7428      -8.952675      0.5814382
      1804.0000         0.9131        -999.25         0.6039       -64.9537      -8.163574      0.6229698
      1804.5000          0.892        -999.25         0.6171       -63.1825      -6.392376      0.7161908
      1805.0000         0.8796        -999.25         0.6239       -61.6999      -4.909779      0.7942222
      1805.5000         0.8679        -999.25         0.6292       -60.3571      -3.566978      0.8648959
      1806.0000         0.8568        -999.25         0.6345       -59.3946      -2.604477      0.9155539
      1806.5000         0.8452        -999.25         0.6322       -58.7047      -1.914577      0.9518644
