#------------------------------------------------------------------------------
# Created by    : vladimir.rabinovich
# Created on    : 09/19/2023 17:22:46
#------------------------------------------------------------------------------
~Version Information Section
VERS.           2.0     :   CWLS log ASCII Standard - VERSION 2.0
WRAP.           NO      :   One line per depth step
~Well Information Section
#MNEM       .UNIT                                         VALUE :DESCRIPTION
#------------------------------------------------------------------------------
STRT        .FT                                             992 :START DEPTH
STOP        .FT                                            8489 :STOP DEPTH
STEP        .FT                                             0.5 :STEP      
NULL        .                                           -999.25 :NULL      
COMP        .                                       GAELIC CORP :COMPANY   
WELL        .                                     PHELAN MICKEY :WELL      
FLD         .                                           WILDCAT :FIELD     
LOC         .                                                   :LOCATION  
CNTY        .                                         JEFFERSON :LOCATION  
STAT        .                                             TEXAS :STATE     
CTRY        .                                     UNITED STATES :COUNTRY   
SRVC        .                                                   :SERVICE COMPANY
DATE        .                             9/13/2023 11:18:46 AM :LOG DATE  
API         .                                    42245313790000 :API NUMBER
UWI         .                                    42245313790000 :UNIQUE WELL ID
XCOORD      .                                  1260103.88271883 :SURFACE X 
YCOORD      .                                     10773431.3746 :SURFACE Y 
LAT         .                                         29.679995 :LATITUDE  
LON         .                                       -94.1979967 :LONGITUDE 
ELEV        .FT                                              19 :ELEVATION VALUE
ELEV_TYPE   .                                                KB :ELEVATION REFERENCE TYPE
~Curve Information Section
#MNEM       .UNIT                                      API CODE :CURVE DESCRIPTION
#------------------------------------------------------------------------------
DEPT        .FT                                                 :DEPTH     
DPSS        .V/V                                                :          
DRHO        .G/CM3                                              :          
DT          .US/FT                                              :          
GR_NORM     .GAPI                                               :GammaRay Normalized
GRN         .GAPI                                               :          
ILD         .OHMM                                               :          
NPSS        .V/V                                                :Neutron Porosity Sandstone
RHOB        .G/CM3                                              :          
SFL         .OHMM                                               :          
SP          .MV                                                 :          
SP_NORM     .MV                                                 :SP Normalized
TENN        .LB                                                 :          
VSH_GR      .V/V                                                :Volume of Shale from GR
VSH_SP      .V/V                                                :Volume of Shale from SP
~A        DEPTH           DPSS           DRHO             DT        GR_NORM            GRN            ILD           NPSS           RHOB            SFL             SP        SP_NORM           TENN         VSH_GR         VSH_SP
# ...
      5942.0000         0.2502         0.0416       124.2649       70.43148        66.3974         0.4279         0.5073         2.2349         0.4996        -16.149      -8.741592        2603.96      0.7964145      0.9078382
      5942.5000         0.2496         0.0436       122.3816       68.21569        65.0608          0.486         0.5035         2.2383         0.5472       -21.2985      -13.89109        2603.96        0.74927      0.8465346
      5943.0000         0.2385         0.0461          117.1       69.45456        65.8081         0.5298         0.4523         2.2655         0.7097       -28.0311      -20.62369        2603.96      0.7756289      0.7663846
      5943.5000         0.2236         0.0492          112.1       70.94142         66.705         0.5321         0.4114         2.2873         0.7501       -35.5648      -28.15739        2603.96      0.8072643      0.6766977
      5944.0000         0.2191         0.0492       107.6326       69.71101        65.9628          0.506         0.3863          2.272         0.7746       -43.7151      -36.30769        2603.96      0.7810854      0.5796703
      5944.5000         0.2385         0.0457       106.5492        66.0072        63.7286         0.4812         0.3887         2.2404         0.7854       -50.0999      -42.69249        2603.96      0.7022809      0.5036608
      5945.0000         0.2549         0.0357       109.6058       62.29973        61.4922         0.4473         0.4027         2.2177         0.8258       -56.2972      -48.88979        2603.96      0.6233985      0.4298834
      5945.5000         0.2681         0.0248          112.3       60.56851        60.4479         0.4101         0.4069          2.202         0.8919       -62.2933      -54.88589        2603.96      0.5865641      0.3585013
      5946.0000         0.2761         0.0163            114       59.82598             60         0.3589         0.4069         2.1891         0.9336       -68.2675       -60.8601        2603.96      0.5707656      0.2873798
      5946.5000         0.2848         0.0098          114.9       58.34327        59.1056         0.3214         0.4048         2.1723         0.9684       -73.4412      -66.03379        2603.96      0.5392184      0.2257882
      5947.0000         0.2962         0.0033          115.6       54.88613        57.0202         0.2959         0.3952         2.1574         0.9818       -77.4175      -70.01009        2603.96      0.4656624      0.1784513
      5947.5000         0.3051        -0.0011          116.2       50.19793        54.1922         0.2787         0.3826         2.1431         0.9818       -80.8036      -73.39619        2603.96      0.3659134      0.1381406
      5948.0000         0.3114        -0.0011          116.9       46.00772        51.6646         0.2554         0.3743         2.1323         0.9251       -83.0166      -75.60919        2603.96      0.2767601      0.1117953
      5948.5000         0.3143         0.0019          117.1       44.78212        50.9253          0.233         0.3713         2.1323         0.8719       -85.0328      -77.62539        2603.96      0.2506833     0.08779299
      5949.0000         0.3122         0.0059          117.1       47.25436        52.4166         0.2245         0.3674         2.1382         0.9684       -86.8514      -79.44399        2603.96      0.3032843     0.06614295
      5949.5000         0.3092         0.0095          116.8       48.98509        53.4606         0.2164         0.3618         2.1407         1.0762       -87.4635      -80.05609        2603.96      0.3401083     0.05885606
      5950.0000          0.308         0.0075          116.5       49.23658        53.6123         0.2104         0.3612         2.1412         1.1477       -87.6729      -80.26549        2603.96      0.3454591     0.05636324
      5950.5000         0.3077         0.0025       116.5026       48.00816        52.8713         0.2104         0.3722         2.1402         0.9999       -87.2743      -79.86689       2604.135      0.3193226     0.06110845
      5951.0000         0.3104         0.0015       116.8079       47.02328        52.2772         0.2104         0.3796         2.1368         0.8482         -85.26      -77.85259       2604.425      0.2983676     0.08508819
      5951.5000         0.3128         0.0005       117.0127        47.5158        52.5743         0.2114         0.3772         2.1338         0.7742       -83.0481      -75.64069       2604.716      0.3088467      0.1114203
      5952.0000         0.3107          0.002       117.4176       49.73159        53.9109         0.2213         0.3692         2.1397          0.719       -77.4562      -70.04879       2605.036      0.3559913      0.1779906
      5952.5000         0.2988          0.005       118.0229       52.93227        55.8416         0.2437         0.3639         2.1733         0.6169       -69.3279       -61.9205       2615.251      0.4240909       0.274756
      5953.0000         0.2718          0.013       117.2278       57.11767        58.3663         0.2647         0.3722         2.2099         0.5115       -62.3828       -54.9754       2615.548      0.5131419      0.3574358
      5953.5000         0.2524         0.0214       116.0327         60.572          60.45         0.2835         0.3861         2.2337         0.4932       -57.7778       -50.3704       2615.844      0.5866383      0.4122572
      5954.0000         0.2456         0.0314       115.3375       63.30733           62.1         0.2967         0.3942         2.2446         0.6028       -57.3737      -49.96629       2616.171      0.6448368      0.4170679
      5954.5000         0.2694         0.0373       116.4428         62.064          61.35         0.3064         0.4017         2.1847         0.7417       -65.1704        -57.763       2616.469       0.618383        0.32425
      5955.0000         0.3036         0.0314       119.7476       57.36402        58.5149         0.3193         0.4262         2.1368         0.7114       -72.3352      -64.92779       2616.767      0.5183834      0.2389549
      5955.5000         0.3285         0.0124       122.7385       49.73159        53.9109         0.3266         0.4464         2.1118         0.5162       -77.3182      -69.91079       2617.094      0.3559913      0.1796335
      5956.0000         0.3354         0.0015       123.1397       45.05366        51.0891         0.3206         0.4476         2.0995         0.4887       -80.5143      -73.10689       2617.393      0.2564609      0.1415847
      5956.5000         0.3291         0.0005       121.5529       42.83786        49.7525         0.2871         0.4227         2.1083         0.6139       -82.9183      -75.51089       2607.729      0.2093163      0.1129656
      5957.0000         0.3232         0.0025        119.468       44.56131        50.7921         0.2595         0.3951         2.1132         0.8653       -85.1174      -77.70999       2608.052      0.2459852     0.08678582
      5957.5000         0.3217         0.0094       118.2728       48.50053        53.1683          0.239         0.3817         2.1162         0.9608       -86.5158      -79.10839       2608.346      0.3297984      0.0701382
      5958.0000         0.3217         0.0129       118.1777       50.22396        54.2079         0.2325         0.3793         2.1186         0.8379       -86.5192      -79.11179       2608.641      0.3664672      0.0700977
      5958.5000          0.316         0.0149       119.0825       47.76199        52.7228         0.2412         0.3945         2.1216         0.5502       -83.1451      -75.73769       2608.936      0.3140848      0.1102656
      5959.0000         0.3077         0.0149       120.4836       44.06876         50.495         0.2467         0.4101         2.1382         0.3697       -78.7772      -71.36979        2609.26      0.2355056      0.1622644
      5959.5000         0.3077         0.0124       121.0827       40.62191        48.4158         0.2389         0.4233         2.1461         0.3927       -76.1883      -68.78089       2599.563      0.1621683      0.1930846
