#------------------------------------------------------------------------------
# Created by    : vladimir.rabinovich
# Created on    : 09/19/2023 17:20:51
#------------------------------------------------------------------------------
~Version Information Section
VERS.           2.0     :   CWLS log ASCII Standard - VERSION 2.0
WRAP.           NO      :   One line per depth step
~Well Information Section
#MNEM       .UNIT                                         VALUE :DESCRIPTION
#------------------------------------------------------------------------------
STRT        .FT                                            1818 :START DEPTH
STOP        .FT                                            9030 :STOP DEPTH
STEP        .FT                                             0.5 :STEP      
NULL        .                                           -999.25 :NULL      
COMP        .                               CONCHO PETROLEUM CO :COMPANY   
WELL        .                                  J E BROUSSARD JR :WELL      
FLD         .                                           WILDCAT :FIELD     
LOC         .                                                   :LOCATION  
CNTY        .                                         JEFFERSON :LOCATION  
STAT        .                                             TEXAS :STATE     
CTRY        .                                     UNITED STATES :COUNTRY   
SRVC        .                                                   :SERVICE COMPANY
DATE        .                             9/13/2023 11:19:11 AM :LOG DATE  
API         .                                    42245021900000 :API NUMBER
UWI         .                                    42245021900000 :UNIQUE WELL ID
XCOORD      .                                  1213918.99973078 :SURFACE X 
YCOORD      .                                  10884047.8383225 :SURFACE Y 
LAT         .                                         29.982808 :LATITUDE  
LON         .                                       -94.3475252 :LONGITUDE 
ELEV        .FT                                              35 :ELEVATION VALUE
ELEV_TYPE   .                                                GL :ELEVATION REFERENCE TYPE
~Curve Information Section
#MNEM       .UNIT                                      API CODE :CURVE DESCRIPTION
#------------------------------------------------------------------------------
DEPT        .FT                                                 :DEPTH     
ASN         .OHMM                                               :          
LAT         .OHMM                                               :          
LN          .OHMM                                               :          
SP          .MV                                                 :          
SP_NORM     .MV                                                 :SP Normalized
VSH_SP      .V/V                                                :Volume of Shale from SP
~A        DEPTH            ASN            LAT             LN             SP        SP_NORM         VSH_SP
# ...
      6112.0000         0.5158         0.3621         0.2759      -133.6842      -76.36624     0.08089949
      6112.5000         0.5509         0.3793         0.2931       -137.193      -79.89485     0.03786766
      6113.0000          0.586         0.3793         0.3103      -138.9474      -81.66908      0.0162307
      6113.5000         0.6034         0.3793         0.3103      -138.5965        -81.338     0.02026832
      6114.0000         0.6241         0.3793         0.3103      -137.5439      -80.30522     0.03286315
      6114.5000         0.6103         0.3793         0.3103      -136.4912      -79.27234     0.04545928
      6115.0000         0.5368         0.3793         0.2931      -135.4386      -78.23956     0.05805411
      6115.5000         0.4877         0.3793         0.2931      -135.4386      -78.25938     0.05781239
      6116.0000         0.4351         0.3793         0.2759       -137.193       -80.0336     0.03617561
      6116.5000         0.4351         0.3793         0.2759      -139.2982      -82.15863     0.01026061
      6117.0000         0.4316         0.3621         0.2586      -141.3559      -84.23614              0
      6117.5000          0.414         0.3621         0.2586      -141.3559      -84.25596              0
      6118.0000         0.4035         0.3448         0.2414      -141.3559      -84.27578              0
      6118.5000         0.4035         0.3448         0.2414      -141.6949      -84.63461              0
      6119.0000         0.3895         0.3448         0.2241      -142.7119      -85.67142              0
      6119.5000         0.3719         0.3448         0.2241      -143.3898      -86.36914              0
      6120.0000         0.3614         0.3448         0.2069      -143.0508      -86.04996              0
      6120.5000         0.3509         0.3448         0.2069      -141.3406      -84.35959              0
      6121.0000         0.3368         0.3621         0.1897      -139.2644      -82.30321    0.008497471
      6121.5000         0.3368         0.3621         0.2069      -138.5558      -81.61443     0.01689725
      6122.0000         0.3333         0.3621         0.2069      -136.4408      -79.51924     0.04244827
      6122.5000         0.3298         0.3793         0.2241      -134.3294      -77.42767      0.0679552
      6123.0000         0.3298         0.3793         0.2241      -133.2693      -76.38739     0.08064158
      6123.5000         0.3298         0.3793         0.2241      -131.8622      -75.00011     0.09755968
      6124.0000         0.3333         0.3793         0.2241      -130.1089      -73.26662      0.1186997
      6124.5000         0.3368         0.3793         0.2241       -128.707      -71.88454      0.1355543
      6125.0000         0.3404         0.3793         0.2241      -130.4393      -73.63667       0.114187
      6125.5000         0.3404         0.3621         0.2241      -130.4302      -73.64739      0.1140562
      6126.0000         0.3368         0.3621         0.2241      -130.4212       -73.6582      0.1139244
      6126.5000         0.3333         0.3448         0.2241      -129.0239      -72.28072       0.130723
      6127.0000         0.3263         0.3276         0.2241      -127.9757      -71.25235       0.143264
      6127.5000         0.3193         0.3276         0.2241      -128.6618      -71.95827      0.1346553
      6128.0000         0.3158         0.3276         0.2241      -129.3466      -72.66289      0.1260623
      6128.5000         0.3088         0.3103         0.2069      -130.3761       -73.7122      0.1132658
      6129.0000         0.3018         0.3276         0.2069      -130.0216      -73.37753      0.1173472
      6129.5000         0.3018         0.3448         0.2069      -130.3582      -73.73395      0.1130006
      6130.0000         0.3298         0.3621         0.2069           -110      -53.39557      0.3610297
      6130.5000         0.3719         0.3966         0.2241       -89.6552      -33.07058      0.6088953
      6131.0000         0.4175         0.4138         0.2241       -85.8621      -29.29731      0.6549109
      6131.5000         0.4632          0.431         0.2241      -100.3571      -43.81213      0.4779009
      6132.0000         0.5053         0.4138         0.2586      -115.3571      -58.83195      0.2947324
      6132.5000         0.5263         0.3966         0.2759      -129.6552      -73.14986      0.1201236
      6133.0000         0.4982         0.3621         0.2759      -131.0345      -74.54898      0.1030612
      6133.5000         0.4421         0.3448         0.2759      -132.4138       -75.9481     0.08599872
      6134.0000            0.4         0.3103         0.2759      -133.7931      -77.34723     0.06893623
      6134.5000         0.3719         0.2931         0.2759      -133.7931      -77.36705     0.06869451
      6135.0000         0.3474         0.2759         0.2586      -133.4483      -77.04207      0.0726577
      6135.5000         0.3333         0.2759         0.2414      -133.1034      -76.71698      0.0766222
      6136.0000         0.3158         0.2586         0.2241      -132.4138      -76.04721     0.08479011
      6136.5000         0.3053         0.2586         0.2069      -131.7241      -75.37733     0.09295934
      6137.0000         0.2982         0.2414         0.1897      -130.6897      -74.36275      0.1053324
      6137.5000         0.2947         0.2414         0.1897      -129.6552      -73.34807      0.1177065
      6138.0000         0.2912         0.2241         0.1897      -129.6552      -73.36789      0.1174648
      6138.5000         0.2877         0.2241         0.1897      -130.3448      -74.07731      0.1088133
      6139.0000         0.2877         0.2241         0.1897      -131.3793      -75.13163     0.09595573
      6139.5000         0.2877         0.2241         0.1897      -132.7586      -76.53075     0.07889324
      6140.0000         0.2842         0.2241         0.1724      -134.1379      -77.92986     0.06183094
      6140.5000         0.2808         0.2242          0.172      -135.8806      -79.69238      0.0403368
      6141.0000         0.2739         0.2244         0.1711      -136.9466       -80.7782     0.02709514
      6141.5000         0.2705         0.2246         0.1703       -137.669      -81.52043     0.01804352
      6142.0000         0.2636         0.2421         0.1522      -137.7015      -81.57275     0.01740544
      6142.5000         0.2602         0.2423         0.1685       -137.388      -81.27907     0.02098698
      6143.0000         0.2533         0.2599         0.1677      -136.0351      -79.94598      0.0372441
      6143.5000         0.2535         0.2601         0.1668      -134.6798       -78.6105     0.05353044
      6144.0000         0.2536         0.2777         0.1659      -133.3219      -77.27243     0.06984841
      6144.5000         0.2537         0.2779         0.1651      -131.9615      -75.93185      0.0861969
      6145.0000         0.2573         0.2781          0.147      -129.2082      -73.19838       0.119532
      6145.5000         0.2609          0.261         0.1461       -126.102      -70.11198      0.1571709
      6146.0000          0.268         0.2612         0.1453      -123.6866      -67.71641      0.1863853
      6146.5000         0.2716         0.2789         0.1444      -121.9639      -66.01353      0.2071521
      6147.0000         0.2786          0.314         0.1435      -117.7446      -61.81405      0.2583653
      6147.5000         0.2857         0.3317         0.1427      -110.2645      -54.35377      0.3493443
      6148.0000         0.2927          0.367         0.1591       -99.5862      -43.69529      0.4793258
      6148.5000         0.3101         0.4023         0.1582       -92.3534      -36.48231      0.5672889
      6149.0000          0.324         0.4551         0.1746       -77.8556      -22.00433      0.7438496
      6149.5000         0.3586         0.4555         0.1737       -89.6293      -33.79785      0.6000262
