#------------------------------------------------------------------------------
# Created by    : vladimir.rabinovich
# Created on    : 09/19/2023 17:22:46
#------------------------------------------------------------------------------
~Version Information Section
VERS.           2.0     :   CWLS log ASCII Standard - VERSION 2.0
WRAP.           NO      :   One line per depth step
~Well Information Section
#MNEM       .UNIT                                         VALUE :DESCRIPTION
#------------------------------------------------------------------------------
STRT        .FT                                             992 :START DEPTH
STOP        .FT                                            8489 :STOP DEPTH
STEP        .FT                                             0.5 :STEP      
NULL        .                                           -999.25 :NULL      
COMP        .                                       GAELIC CORP :COMPANY   
WELL        .                                     PHELAN MICKEY :WELL      
FLD         .                                           WILDCAT :FIELD     
LOC         .                                                   :LOCATION  
CNTY        .                                         JEFFERSON :LOCATION  
STAT        .                                             TEXAS :STATE     
CTRY        .                                     UNITED STATES :COUNTRY   
SRVC        .                                                   :SERVICE COMPANY
DATE        .                             9/13/2023 11:18:46 AM :LOG DATE  
API         .                                    42245313790000 :API NUMBER
UWI         .                                    42245313790000 :UNIQUE WELL ID
XCOORD      .                                  1260103.88271883 :SURFACE X 
YCOORD      .                                     10773431.3746 :SURFACE Y 
LAT         .                                         29.679995 :LATITUDE  
LON         .                                       -94.1979967 :LONGITUDE 
ELEV        .FT                                              19 :ELEVATION VALUE
ELEV_TYPE   .                                                KB :ELEVATION REFERENCE TYPE
~Curve Information Section
#MNEM       .UNIT                                      API CODE :CURVE DESCRIPTION
#------------------------------------------------------------------------------
DEPT        .FT                                                 :DEPTH     
DPSS        .V/V                                                :          
DRHO        .G/CM3                                              :          
DT          .US/FT                                              :          
GR_NORM     .GAPI                                               :GammaRay Normalized
GRN         .GAPI                                               :          
ILD         .OHMM                                               :          
NPSS        .V/V                                                :Neutron Porosity Sandstone
RHOB        .G/CM3                                              :          
SFL         .OHMM                                               :          
SP          .MV                                                 :          
SP_NORM     .MV                                                 :SP Normalized
TENN        .LB                                                 :          
VSH_GR      .V/V                                                :Volume of Shale from GR
VSH_SP      .V/V                                                :Volume of Shale from SP
~A        DEPTH           DPSS           DRHO             DT        GR_NORM            GRN            ILD           NPSS           RHOB            SFL             SP        SP_NORM           TENN         VSH_GR         VSH_SP
# ...
      8210.0000          0.219          0.072          106.2       73.21516        83.7624         0.6803         0.3374         2.2879         0.9337       -14.0582      -5.040565       3316.689      0.8556418      0.9611484
      8210.5000          0.213          0.069       107.2981       77.93405        87.0297         0.6287         0.3466          2.299         0.8034        -13.271      -4.264075       3316.918      0.9560437      0.9686146
      8211.0000         0.2118         0.0629       108.1938       77.91682        87.0297         0.5834         0.3609         2.2995            0.7       -15.2593      -6.263086       3317.071       0.955677      0.9493934
      8211.5000         0.2205         0.0529       108.0895       72.30228        83.1683         0.5439         0.3704         2.2859         0.6056       -22.7976       -13.8121       3317.239      0.8362188      0.8768068
      8212.0000         0.2302         0.0463       107.5864       66.47252        79.1584         0.5118         0.3689         2.2677         0.6258       -30.1341      -21.15931       3317.391      0.7121813      0.8061605
      8212.5000          0.241         0.0367       106.4851       60.42747             75         0.4821         0.3488         2.2481         0.7499       -33.7082      -24.74411       3317.544      0.5835633      0.7716912
      8213.0000         0.2401         0.0347       105.0858       58.01182        73.3454         0.4523         0.3268         2.2515         0.8906       -35.1041      -26.15073       3317.697      0.5321664      0.7581661
      8213.5000         0.2305         0.0361       104.6846        58.6479        73.7961         0.4322         0.3001         2.2717         0.8987       -33.5297      -24.58704       3317.866      0.5456999      0.7732016
      8214.0000         0.2215         0.0371       105.3796       61.45222        75.7426         0.4362         0.3055         2.2843         0.7796       -31.5603      -22.62835       3318.019      0.6053665      0.7920351
      8214.5000         0.2224         0.0371       105.4766       63.58771        77.2277         0.4628         0.3349         2.2818         0.6712        -31.372      -22.45076       3318.173      0.6508024      0.7937427
      8215.0000         0.2224         0.0295       102.5876       62.27879        76.3366         0.4887         0.3655         2.2828         0.5834       -31.1837      -22.27317       3318.342      0.6229529      0.7954503
      8215.5000         0.2042         0.0305             96       56.60817        72.4365         0.5191         0.3527         2.3145         0.7863       -29.0153      -20.11548       3318.495      0.5023016      0.8161973
      8216.0000         0.1747         0.0559        89.2079       48.93486        67.1548         0.5699         0.3107         2.3966         1.3193       -24.4706      -15.58149       3308.692      0.3390395      0.8597934
      8216.5000         0.1179         0.0789        87.7228       44.75437        64.2827         0.5916         0.2554         2.4569         2.3888       -19.7261       -10.8477       3308.856      0.2500929      0.9053106
      8217.0000         0.1248         0.0778        88.7129        46.4808        65.4856         0.6142          0.245         2.4294         2.3237       -16.7462       -7.87851       3309.005      0.2868256      0.9338605
      8217.5000         0.1551         0.0643           95.4       55.87462         71.978         0.6376         0.2686         2.3869         1.1926       -14.9593      -6.102319       3309.155       0.486694      0.9509392
      8218.0000         0.1948         0.0532       102.6792       63.68234        77.3762         0.6649         0.3065         2.3445         0.7214       -13.9688      -5.122529       3309.305      0.6528157      0.9603603
      8218.5000         0.2052         0.0507        104.463       70.98461        82.4257         0.6743          0.338          2.311          0.703       -13.1771      -4.341539       3309.469      0.8081833      0.9678698
      8219.0000         0.2097         0.0491        105.353       75.27298         85.396         0.6526         0.3508         2.3035         0.7091       -12.3851       -3.56025        3309.62      0.8994251      0.9753822
      8219.5000         0.2109         0.0436       106.7375       75.25576         85.396         0.6346         0.3659          2.302         0.6935       -12.3912       -3.57706        3309.77      0.8990587      0.9752206
      8220.0000         0.2082         0.0411       107.4275       72.00935        83.1683         0.6171         0.3853          2.306         0.6618       -12.7973      -3.993871       3309.935      0.8299863      0.9712128
      8220.5000         0.2032          0.047       106.6328       68.11314        80.4923         0.6085         0.3888         2.3155         0.6376            -13       -4.20728       3310.192       0.747088      0.9691608
      8221.0000          0.205         0.0535       105.1448       67.22734        79.8931         0.6085          0.375         2.3125         0.6405            -12      -3.217991       3310.529      0.7282413      0.9786732
      8221.5000         0.2136         0.0486       104.4485       69.57419         81.524         0.6113         0.3656         2.2975         0.7564          -10.4        -1.6287       3340.826      0.7781742      0.9939548
      8222.0000         0.2214         0.0407       103.9499       71.70747        83.0076         0.6199         0.3591         2.2833            0.8           -9.2     -0.4394112       3351.162      0.8235633              1
      8222.5000         0.2208         0.0342       104.0459       72.76408        83.7484         0.6258         0.3576         2.2884            0.8           -8.4      0.3498793       3371.431      0.8460442              1
      8223.0000         0.2073         0.0412       105.0358       73.17374        84.0429         0.6346         0.3555          2.307         0.7729           -7.8       0.939168        3381.71      0.8547603              1
      8223.5000          0.199         0.0477       106.0267       75.09616         85.381         0.6435         0.3532          2.323          0.734           -7.6       1.128458        3382.01       0.895663              1
      8224.0000         0.1981         0.0457       106.9192       76.80431        86.5713         0.6526         0.3523          2.323            0.7           -8.2      0.5177479       3362.418      0.9320067              1
      8224.5000         0.2029         0.0378       106.8183       78.51424        87.7628         0.6618         0.3517          2.316         0.7308           -8.8    -0.09296322       3342.814      0.9683882              1
      8225.0000         0.2032         0.0378       105.8217        79.5769        88.5078         0.6775         0.3496         2.3155            0.8           -9.6     -0.9036732       3333.182       0.990998              1
      8225.5000         0.2005         0.0448       104.9239       78.90927        88.0591         0.6903         0.3481           2.32            0.8          -10.2      -1.514383       3333.506       0.976793       0.995054
      8226.0000         0.1996         0.0508       104.6226       78.02463        87.4607         0.7061         0.3484          2.321         0.8073          -10.6      -1.925094       3323.888      0.9579708      0.9911048
      8226.5000         0.1996         0.0568       103.1255       78.00567        87.4595         0.7214         0.3502          2.321         0.8146          -10.4      -1.735804       3334.186      0.9575674       0.992925
      8227.0000         0.1954         0.0662        99.2423        78.4201        87.7573         0.7371         0.3514          2.331            0.9          -10.4      -1.746513       3324.577      0.9663851       0.992822
      8227.5000         0.1845         0.0836        97.2669       77.31701        87.0082         0.7532         0.3395          2.347         0.9954          -10.2      -1.557224       3314.977      0.9429151      0.9946421
