#------------------------------------------------------------------------------
# Created by    : vladimir.rabinovich
# Created on    : 09/19/2023 17:22:41
#------------------------------------------------------------------------------
~Version Information Section
VERS.           2.0     :   CWLS log ASCII Standard - VERSION 2.0
WRAP.           NO      :   One line per depth step
~Well Information Section
#MNEM       .UNIT                                         VALUE :DESCRIPTION
#------------------------------------------------------------------------------
STRT        .FT                                             190 :START DEPTH
STOP        .FT                                            7751 :STOP DEPTH
STEP        .FT                                             0.5 :STEP      
NULL        .                                           -999.25 :NULL      
COMP        .                       GOLDEN TRIANGLE STORAGE LLC :COMPANY   
WELL        .                         GOLDEN TRIANGLE STORAGE 2 :WELL      
FLD         .                                        SPINDLETOP :FIELD     
LOC         .                                                   :LOCATION  
CNTY        .                                         JEFFERSON :LOCATION  
STAT        .                                             TEXAS :STATE     
CTRY        .                                     UNITED STATES :COUNTRY   
SRVC        .                                                   :SERVICE COMPANY
DATE        .                             9/13/2023 11:18:46 AM :LOG DATE  
API         .                                    42245325580000 :API NUMBER
UWI         .                                    42245325580000 :UNIQUE WELL ID
XCOORD      .                                  1288599.33875083 :SURFACE X 
YCOORD      .                                  10896379.1240251 :SURFACE Y 
LAT         .                                        30.0189256 :LATITUDE  
LON         .                                       -94.1119908 :LONGITUDE 
ELEV        .FT                                            12.2 :ELEVATION VALUE
ELEV_TYPE   .                                                GL :ELEVATION REFERENCE TYPE
~Curve Information Section
#MNEM       .UNIT                                      API CODE :CURVE DESCRIPTION
#------------------------------------------------------------------------------
DEPT        .FT                                                 :DEPTH     
DCAL        .IN                                                 :          
DPSS        .V/V                                                :          
DRHO        .G/CM3                                              :          
GR          .GAPI                                               :          
GR_NORM     .GAPI                                               :GammaRay Normalized
ILD         .OHMM                                               :          
ILM         .OHMM                                               :          
NPSS        .V/V                                                :Neutron Porosity Sandstone
SFL         .OHMM                                               :          
SP          .MV                                                 :          
SP_NORM     .MV                                                 :SP Normalized
TENS        .LB                                                 :          
VSH_GR      .V/V                                                :Volume of Shale from GR
VSH_SP      .V/V                                                :Volume of Shale from SP
~A        DEPTH           DCAL           DPSS           DRHO             GR        GR_NORM            ILD            ILM           NPSS            SFL             SP        SP_NORM           TENS         VSH_GR         VSH_SP
# ...
      5230.0000          -0.16         0.2952         0.0592        87.8571       89.95549         0.6543         0.7789         0.5244          0.745          -48.8      -1.676567           2560              1              1
      5230.5000          -0.16         0.2988         0.0612        86.6327       87.59135         0.6543         0.7789         0.5232         0.7584          -49.2      -2.080761           2560              1      0.9988123
      5231.0000          -0.16         0.2964         0.0694        84.1837       82.85685         0.6735         0.8159         0.5172         0.8825          -53.2      -6.084953           2560              1      0.9399272
      5231.5000           -0.2         0.2832         0.0837        80.8163       76.34468         0.7063         0.8825         0.4992         1.0578          -57.2      -10.08915           2560      0.9222273       0.881042
      5232.0000          -0.24         0.2628         0.0918        78.0612       71.01771          0.745         0.9913         0.4727         1.2758            -60      -12.89333           2560      0.8088874      0.8398039
      5232.5000          -0.24         0.2436          0.102         77.449       69.83851         0.7859          1.119         0.4506          1.496          -60.4      -13.29753           2520       0.783798      0.8338599
      5233.0000          -0.28         0.2304          0.104        79.2857       73.39951         0.8079          1.119         0.4212          1.496          -58.4      -11.30172           2520      0.8595639        0.86321
      5233.5000          -0.28         0.2376          0.098        80.8163         76.368          0.772         1.0778          0.414         1.2174          -55.6      -8.505909           2520      0.9227235      0.9043249
      5234.0000          -0.28          0.252         0.0878        82.6531       79.92915         0.7254          0.974         0.4152         0.8912          -53.2      -6.110104           2520      0.9984925      0.9395573
      5234.5000          -0.28         0.2664         0.0816        82.9592       80.52748         0.6735         0.8653         0.4347         0.7584          -51.6      -4.514294           2520              1      0.9630251
      5235.0000          -0.28          0.276         0.0735        85.4082       85.27367         0.6735         0.8485         0.4555            0.8          -49.6      -2.518486           2520              1      0.9923752
      5235.5000          -0.28         0.2724         0.0673        88.4694        91.2048            0.7         0.8653         0.4739            0.9          -47.6     -0.5226784           2520              1              1
      5236.0000          -0.28         0.2616         0.0673        85.7143       85.87778         0.7652         0.9655         0.4896              1          -46.8      0.2731285           2560              1              1
      5236.5000          -0.28          0.252         0.0673        81.7347       78.18062         0.8079         1.0189          0.504         1.1085          -46.4      0.6689339           2560      0.9612898              1
      5237.0000          -0.28         0.2484         0.0694        78.3673       71.66845         0.8159         1.0382         0.5148         1.0778          -46.4      0.6647415           2560       0.822733              1
      5237.5000          -0.28          0.252         0.0714        77.1429       69.30433         0.8239         1.0578         0.5208         1.0382          -46.4       0.660553           2560      0.7724325              1
      5238.0000          -0.32         0.2556         0.0776        76.5306       68.12497            0.8         1.0382         0.5208         1.0094          -46.4      0.6563606           2560      0.7473398              1
      5238.5000          -0.36          0.258         0.0796        76.5306       68.13078         0.7929         1.0189          0.516         0.9913          -46.4      0.6521683           2560      0.7474635              1
      5239.0000          -0.36         0.2556         0.0837        76.2245       67.54414         0.7929              1         0.5064         0.9913          -46.4      0.6479759           2560      0.7349818              1
      5239.5000           -0.4         0.2496         0.0878        75.3061       65.77227         0.7929         0.9913         0.4956              1          -46.4      0.6437836           2560      0.6972824              1
      5240.0000          -0.44          0.246         0.0898        75.3061        65.7781         0.7929         0.9913         0.4932         1.0094          -46.4      0.6395912           2560      0.6974064              1
      5240.5000          -0.44         0.2424         0.0939        75.6122       66.37643         0.7929         0.9913         0.4968         1.0094          -46.4      0.6353989           2560      0.7101369              1
      5241.0000          -0.48         0.2424         0.0959        76.5306       68.15993         0.7929         0.9826          0.504         0.9826          -46.4      0.6312065           2520      0.7480837              1
      5241.5000          -0.52         0.2436         0.0959        77.1429       69.35094         0.7929          0.974         0.5124         0.9655            -46       1.027016           2520      0.7734242              1
      5242.0000          -0.64         0.2472         0.0898        75.6122       66.39391         0.7859         0.9655         0.5196         0.9487          -45.2       1.822823           2560      0.7105088              1
      5242.5000          -0.76         0.2544         0.0816           73.2       61.73064          0.772          0.957         0.5244          0.924          -44.4       2.618629           2600      0.6112902              1
      5243.0000          -0.76         0.2568         0.0755           71.7       58.83305          0.772          0.957         0.5244          0.924          -44.8       2.214443           2640      0.5496395              1
      5243.5000           -0.8          0.258         0.0694           71.7       58.83887         0.7652          0.957         0.5208          0.924          -44.8       2.210251           2560      0.5497631              1
      5244.0000          -0.88         0.2592         0.0653           72.9       61.16747          0.772          0.957         0.5172         0.9322          -44.8       2.206059           2560      0.5993078              1
      5244.5000          -1.04         0.2604         0.0571           74.1       63.49602          0.772          0.957         0.5148         0.9404          -44.8       2.201866           2520      0.6488515              1
      5245.0000          -1.16         0.2628         0.0531           74.7       64.66321         0.7789          0.957         0.5124         0.9487          -44.8       2.197674           2520      0.6736853              1
      5245.5000          -1.12          0.264          0.049             75       65.24974         0.7859          0.957         0.5124         0.9655          -45.2        1.79348           2520      0.6861647              1
      5246.0000          -1.04          0.264         0.0469           74.7       64.67487         0.7859          0.957         0.5124          0.974          -45.2       1.789288           2520      0.6739334              1
      5246.5000          -1.08         0.2616         0.0469             75       65.26137         0.7929          0.957         0.5148          0.974          -45.6       1.385098           2520      0.6864121              1
      5247.0000          -1.12         0.2592         0.0429        75.9184       67.04491         0.7929          0.957         0.5196         0.9826          -45.6       1.380905           2560      0.7243597              1
      5247.5000             -1          0.258         0.0469        77.1429       69.42085         0.7929         0.9655          0.522         0.9826            -46      0.9767113           2560      0.7749118              1
