#------------------------------------------------------------------------------
# Created by    : vladimir.rabinovich
# Created on    : 09/19/2023 17:22:41
#------------------------------------------------------------------------------
~Version Information Section
VERS.           2.0     :   CWLS log ASCII Standard - VERSION 2.0
WRAP.           NO      :   One line per depth step
~Well Information Section
#MNEM       .UNIT                                         VALUE :DESCRIPTION
#------------------------------------------------------------------------------
STRT        .FT                                             190 :START DEPTH
STOP        .FT                                            7751 :STOP DEPTH
STEP        .FT                                             0.5 :STEP      
NULL        .                                           -999.25 :NULL      
COMP        .                       GOLDEN TRIANGLE STORAGE LLC :COMPANY   
WELL        .                         GOLDEN TRIANGLE STORAGE 2 :WELL      
FLD         .                                        SPINDLETOP :FIELD     
LOC         .                                                   :LOCATION  
CNTY        .                                         JEFFERSON :LOCATION  
STAT        .                                             TEXAS :STATE     
CTRY        .                                     UNITED STATES :COUNTRY   
SRVC        .                                                   :SERVICE COMPANY
DATE        .                             9/13/2023 11:18:46 AM :LOG DATE  
API         .                                    42245325580000 :API NUMBER
UWI         .                                    42245325580000 :UNIQUE WELL ID
XCOORD      .                                  1288599.33875083 :SURFACE X 
YCOORD      .                                  10896379.1240251 :SURFACE Y 
LAT         .                                        30.0189256 :LATITUDE  
LON         .                                       -94.1119908 :LONGITUDE 
ELEV        .FT                                            12.2 :ELEVATION VALUE
ELEV_TYPE   .                                                GL :ELEVATION REFERENCE TYPE
~Curve Information Section
#MNEM       .UNIT                                      API CODE :CURVE DESCRIPTION
#------------------------------------------------------------------------------
DEPT        .FT                                                 :DEPTH     
DCAL        .IN                                                 :          
DPSS        .V/V                                                :          
DRHO        .G/CM3                                              :          
GR          .GAPI                                               :          
GR_NORM     .GAPI                                               :GammaRay Normalized
ILD         .OHMM                                               :          
ILM         .OHMM                                               :          
NPSS        .V/V                                                :Neutron Porosity Sandstone
SFL         .OHMM                                               :          
SP          .MV                                                 :          
SP_NORM     .MV                                                 :SP Normalized
TENS        .LB                                                 :          
VSH_GR      .V/V                                                :Volume of Shale from GR
VSH_SP      .V/V                                                :Volume of Shale from SP
~A        DEPTH           DCAL           DPSS           DRHO             GR        GR_NORM            ILD            ILM           NPSS            SFL             SP        SP_NORM           TENS         VSH_GR         VSH_SP
# ...
      3214.0000          -0.72         0.3257         0.0796        81.7347       92.89452         0.5664          0.651         0.5556         0.6751          -66.8      -7.540745           1720              1       0.891358
      3214.5000          -0.76         0.3269         0.0776           91.2       108.4186         0.5886         0.6812         0.5364         0.6874          -67.6       -8.34074           1720              1      0.8756717
      3215.0000          -0.76         0.3147         0.0755           97.2       118.2578         0.6335         0.7555         0.5124         0.8073            -70      -10.74074           1720              1      0.8286129
      3215.5000          -0.68         0.2892         0.0816          102.6       127.1127         0.7135         0.8919         0.4836         1.0778          -72.4      -13.14074           1720              1       0.781554
      3216.0000           -0.6         0.2556         0.0857          100.8        124.156         0.7555         0.9624         0.4616         1.3495          -71.6      -12.34074           1720              1      0.7972404
      3216.5000          -0.56          0.252         0.0878           96.9       117.7542         0.7483         0.9352         0.4629         1.2639            -68      -8.740742           1720              1      0.8678286
      3217.0000          -0.56         0.2544         0.0918             93       111.3525         0.6751         0.8601         0.4678          0.981          -65.2      -5.940739           1720              1      0.9227306
      3217.5000          -0.64          0.282          0.098        89.0816       104.9205         0.6451            0.8         0.4739         0.8447          -63.2      -3.940742           1720              1      0.9619462
      3218.0000          -0.64         0.3024          0.104        87.2449       101.9036         0.6451         0.8295         0.4848         0.7924          -62.4      -3.140743           1760              1      0.9776325
      3218.5000          -0.68         0.3171          0.104        86.6327       100.8955         0.6751          0.868          0.498         0.8371          -61.6       -2.34074           1720              1      0.9933188
      3219.0000          -0.68         0.3294          0.098        86.0204       99.88718         0.7272            0.9         0.5148         0.8919          -60.8      -1.540741           1760              1              1
      3219.5000          -0.68          0.338         0.0918        85.7143       99.38124         0.7701         0.9352         0.5388         0.9352          -60.4      -1.140743           1720              1              1
      3220.0000          -0.68         0.3416         0.0857        85.4082       98.87528         0.7849          0.981         0.5592         0.9717            -60     -0.7407417           1720              1              1
      3220.5000          -0.68         0.3453         0.0796         85.102       98.36915         0.7924         0.9905         0.5736         0.9624            -60     -0.7407417           1720              1              1
      3221.0000          -0.68         0.3502         0.0694        85.7143       99.36982         0.7774         0.9624         0.5772         0.9352            -60     -0.7407417           1760              1              1
      3221.5000          -0.68         0.3551         0.0653        86.0204       99.86819         0.7774         0.9532         0.5748         0.9174            -60     -0.7407417           1760              1              1
      3222.0000          -0.68         0.3527         0.0612        84.7959       97.85558         0.7701         0.9532         0.5664         0.9352          -59.6     -0.3407402           1720              1              1
      3222.5000          -0.64         0.3465         0.0592        82.3469        93.8342         0.7849         0.9624         0.5628         0.9624          -58.8       0.459259           1720              1              1
      3223.0000          -0.64         0.3392         0.0592        80.2041        90.3151            0.8          0.981         0.5712          0.981            -58       1.259258           1720              1              1
      3223.5000          -0.64         0.3343         0.0592        78.3673       87.29806         0.8146         1.0094         0.5844              1            -58       1.259258           1720              1              1
      3224.0000          -0.64         0.3306         0.0571        78.3673       87.29424         0.8295         1.0285         0.5988         1.0189          -57.6        1.65926           1720              1              1
      3224.5000          -0.64         0.3294         0.0571        78.3673       87.29044         0.8447         1.0578         0.5988         1.0285          -57.6        1.65926           1720              1              1
      3225.0000          -0.64         0.3306         0.0551         77.449       85.78017         0.8601         1.0778         0.5784         1.0285          -57.2       2.059258           1760              1              1
      3225.5000          -0.64         0.3318         0.0531        76.5306       84.26972         0.8838         1.0778         0.5616         1.0382          -56.8       2.459259           1760              1              1
      3226.0000          -0.64         0.3306         0.0531        75.3061       82.25713         0.8838         1.0778         0.5472         1.0479          -56.8       2.459259           1720              1              1
      3226.5000          -0.64         0.3294         0.0531           74.1        80.2747         0.8759         1.0778         0.5328         1.0382          -56.4       2.859257           1720              1              1
      3227.0000          -0.64         0.3269          0.051           74.4       80.76306         0.8601         1.0778         0.5232         1.0285          -56.4       2.859257           1720              1              1
      3227.5000           -0.6         0.3245          0.051           74.4       80.75925         0.8524         1.0778         0.5184         1.0285          -56.4       2.859257           1720              1              1
      3228.0000          -0.56         0.3245          0.051           73.8       79.77115         0.8524         1.0778         0.5256         1.0189          -56.8       2.459259           1720      0.9951308              1
      3228.5000          -0.52          0.322          0.051           74.1       80.25949         0.8524         1.0578         0.5316         1.0189          -57.2       2.059258           1720              1              1
      3229.0000          -0.52         0.3208          0.051        75.6122       82.73648         0.8524         1.0578          0.534         1.0094          -57.6        1.65926           1720              1              1
      3229.5000          -0.52         0.3171         0.0531         77.449       85.74594         0.8601         1.0778         0.5376         1.0094            -58       1.259258           1720              1              1
      3230.0000          -0.48         0.3122         0.0633        77.7551        86.2443          0.868          1.088         0.5388         1.0479            -58       1.259258           1720              1              1
      3230.5000          -0.44         0.3049         0.0755        77.7551       86.24049         0.8838          1.119         0.5352         1.0778          -58.8       0.459259           1720              1              1
      3231.0000           -0.4         0.2952         0.0918        76.8367       84.73007            0.9         1.1509         0.5256         1.0982          -59.2     0.05925751           1720              1              1
      3231.5000           -0.4         0.2844          0.104        75.6122       82.71745         0.9174         1.1726         0.5148          1.119          -59.2     0.05925751           1720              1              1
