#------------------------------------------------------------------------------
# Created by    : vladimir.rabinovich
# Created on    : 09/19/2023 17:20:50
#------------------------------------------------------------------------------
~Version Information Section
VERS.           2.0     :   CWLS log ASCII Standard - VERSION 2.0
WRAP.           NO      :   One line per depth step
~Well Information Section
#MNEM       .UNIT                                         VALUE :DESCRIPTION
#------------------------------------------------------------------------------
STRT        .FT                                            1769 :START DEPTH
STOP        .FT                                           14822 :STOP DEPTH
STEP        .FT                                             0.5 :STEP      
NULL        .                                           -999.25 :NULL      
COMP        .                                      SHELL OIL CO :COMPANY   
WELL        .                                 MCFADDEN CEE CRSS :WELL      
FLD         .                                           WILDCAT :FIELD     
LOC         .                                                   :LOCATION  
CNTY        .                                         JEFFERSON :LOCATION  
STAT        .                                             TEXAS :STATE     
CTRY        .                                     UNITED STATES :COUNTRY   
SRVC        .                                                   :SERVICE COMPANY
DATE        .                             9/13/2023 11:19:11 AM :LOG DATE  
API         .                                    42245030100000 :API NUMBER
UWI         .                                    42245030100000 :UNIQUE WELL ID
XCOORD      .                                  1300794.63996209 :SURFACE X 
YCOORD      .                                  10796706.8159759 :SURFACE Y 
LAT         .                                        29.7451097 :LATITUDE  
LON         .                                       -94.0705183 :LONGITUDE 
ELEV        .FT                                            17.6 :ELEVATION VALUE
ELEV_TYPE   .                                                KB :ELEVATION REFERENCE TYPE
~Curve Information Section
#MNEM       .UNIT                                      API CODE :CURVE DESCRIPTION
#------------------------------------------------------------------------------
DEPT        .FT                                                 :DEPTH     
ASN         .OHMM                                               :          
DT          .US/F                                               :          
ILD         .OHMM                                               :          
SP          .MV                                                 :          
SP_NORM     .MV                                                 :SP Normalized
VSH_SP      .V/V                                                :Volume of Shale from SP
~A        DEPTH            ASN             DT            ILD             SP        SP_NORM         VSH_SP
# ...
      6101.0000         0.4848       135.5347         0.1945       -90.2069      -51.25422              0
      6101.5000          0.477       129.3253          0.195       -91.6556      -52.70773              0
      6102.0000         0.4712       123.1158         0.1964       -92.5931      -53.65005              0
      6102.5000         0.4653       117.9069         0.1989       -93.5133      -54.57506              0
      6103.0000         0.4544       121.7605         0.2026       -94.3451      -55.41168              0
      6103.5000          0.443       125.0793         0.2063       -95.1764      -56.24779              0
      6104.0000         0.4279        128.398         0.2112       -95.9872      -57.06341              0
      6104.5000         0.4127        131.289          0.218       -96.7844      -57.86543              0
      6105.0000         0.3921       126.7514         0.2248       -95.0164      -56.10224              0
      6105.5000          0.393       123.0922         0.2316        -92.897      -53.98766              0
      6106.0000         0.3978       125.2266         0.2383       -91.1962      -52.29167              0
      6106.5000         0.4047       127.1455         0.2451       -90.3081      -51.40839              0
      6107.0000         0.4116       129.5906         0.2478       -89.4404       -50.5455              0
      6107.5000         0.4226       132.0506          0.249       -88.6771      -49.78702    0.004346575
      6108.0000         0.4369        132.608         0.2502       -87.8625      -48.97724      0.0208727
      6108.5000         0.4464       133.7284         0.2436       -86.9338      -48.05335     0.03972758
      6109.0000         0.4503       130.6228         0.2361       -85.9148      -47.03917     0.06042512
      6109.5000         0.4529       125.6377         0.2285       -84.7798      -45.90898     0.08349018
      6110.0000         0.4509       122.8876         0.2193       -83.3618       -44.4958      0.1123307
      6110.5000         0.4489       127.1308         0.2092       -81.7759      -42.91471      0.1445976
      6111.0000         0.4468        131.374         0.1992       -81.0743      -42.21793      0.1588178
      6111.5000         0.4448       135.5509         0.1953       -81.8068      -42.95525      0.1437705
      6112.0000         0.4426       132.7067         0.1925       -82.6942      -43.84746      0.1255621
      6112.5000         0.4402       129.9063         0.1896       -83.4056      -44.56367      0.1109454
      6113.0000         0.4379       127.1058         0.1909       -84.1177      -45.28059     0.09631449
      6113.5000         0.4356       124.2616          0.193       -84.8291      -45.99681     0.08169781
      6114.0000         0.4332       126.9363         0.1951       -85.3105      -46.48302     0.07177509
      6114.5000         0.4322       129.6535         0.1975       -85.6783      -46.85564     0.06417068
      6115.0000         0.4313       130.2184         0.2004        -86.046      -47.22815     0.05656838
      6115.5000         0.4304       128.4403         0.2033       -85.9735      -47.16047     0.05794953
      6116.0000         0.4304        127.949         0.2062       -85.6758      -46.86758     0.06392693
      6116.5000         0.4323       128.5704         0.2074       -85.3782      -46.57479     0.06990214
      6117.0000         0.4343       130.7776         0.2072       -85.1018      -46.30322     0.07544459
      6117.5000         0.4362       129.7574          0.207       -84.8252      -46.03143     0.08099116
      6118.0000         0.4381       129.6032         0.2067       -84.6538      -45.86485     0.08439083
      6118.5000         0.4399       129.7586         0.2056       -85.0879      -46.30376     0.07543346
      6119.0000         0.4399       127.2631         0.2045       -85.5851      -46.80577     0.06518827
      6119.5000         0.4398       125.2741         0.2033       -86.4508      -47.67629      0.0474226
      6120.0000         0.4398       126.3723         0.2022       -87.3154      -48.54571     0.02967943
      6120.5000         0.4404       128.0416         0.2019       -87.2173      -48.45242      0.0315832
      6121.0000         0.4434       126.8502         0.2017       -86.8804      -48.12034     0.03836036
      6121.5000         0.4464       125.6587         0.2015       -86.6405      -47.88526     0.04315801
      6122.0000         0.4493       124.4672         0.2005       -86.4005      -47.65007     0.04795775
      6122.5000         0.4522       123.2758         0.1995       -86.1606      -47.41499     0.05275539
      6123.0000          0.455       122.0843         0.1984       -85.9487       -47.2079     0.05698161
      6123.5000         0.4578       124.8324         0.1973       -86.2394      -47.50342     0.05095058
      6124.0000         0.4607       129.8954         0.1974       -86.5299      -47.79873     0.04492382
      6124.5000         0.4607       130.1044         0.1995       -86.8204      -48.09405     0.03889699
      6125.0000         0.4594       127.2525         0.2016       -87.1111      -48.38956     0.03286603
      6125.5000         0.4489       124.4007         0.2037       -87.3508      -48.63408     0.02787594
      6126.0000         0.4336       125.0079         0.2066       -87.5222       -48.8103     0.02427961
      6126.5000         0.4149       131.1004         0.2095       -87.6937      -48.98661     0.02068134
      6127.0000         0.3921       127.1389         0.2124       -87.7187      -49.01643     0.02007294
      6127.5000          0.392       126.5209         0.2154       -87.1636      -48.46614     0.03130325
      6128.0000         0.4062       125.9026         0.2183       -86.5953      -47.90266     0.04280293
      6128.5000         0.4205       124.3481         0.2308       -86.0026      -47.31478     0.05480046
      6129.0000         0.4351       121.2634         0.2447       -85.3442      -46.66119     0.06813898
      6129.5000         0.4625       119.9029         0.2725       -83.9683       -45.2901     0.09612033
      6130.0000         0.5133       119.1764         0.3086       -75.9042      -37.23082      0.2605955
      6130.5000         0.5587       118.8459         0.3516       -72.2655      -33.59694      0.3347563
      6131.0000          0.581       125.7822         0.3965       -62.4167      -23.75295       0.535654
      6131.5000         0.6012       135.6439          0.455        -52.017      -13.35807      0.7477946
      6132.0000         0.6369       145.5055         0.5294        -48.035      -9.380882      0.8289616
      6132.5000         0.7709       155.3672         0.7535       -45.0806      -6.431301      0.8891571
      6133.0000          0.802       154.5584         0.9461       -42.1608      -3.516315      0.9486466
      6133.5000         0.9382       148.6758         1.0521       -36.6052       2.034466              1
      6134.0000         0.9977       142.7931         1.1249       -34.8019       3.832954              1
      6134.5000         1.0252       136.9105         1.2074       -34.4401       4.189938              1
      6135.0000         1.0488       131.0278         1.2966       -34.0779       4.547321              1
      6135.5000         1.0939        124.496         1.4252        -33.716       4.904408              1
      6136.0000         1.2001       127.7288         1.4775       -33.8086       4.806988              1
      6136.5000         1.2204       131.3625         1.5119        -33.947       4.663776              1
      6137.0000         1.2426       134.9962         1.5222       -34.0851       4.520863              1
      6137.5000         1.2811       127.2631         1.5265       -34.5518       4.049343              1
      6138.0000         1.3157       114.0766         1.5239       -35.3788       3.217529              1
      6138.5000         1.3344       100.8902          1.486       -36.2051       2.386414              1
