#------------------------------------------------------------------------------
# Created by    : vladimir.rabinovich
# Created on    : 09/19/2023 17:20:51
#------------------------------------------------------------------------------
~Version Information Section
VERS.           2.0     :   CWLS log ASCII Standard - VERSION 2.0
WRAP.           NO      :   One line per depth step
~Well Information Section
#MNEM       .UNIT                                         VALUE :DESCRIPTION
#------------------------------------------------------------------------------
STRT        .FT                                            1028 :START DEPTH
STOP        .FT                                            9325 :STOP DEPTH
STEP        .FT                                             0.5 :STEP      
NULL        .                                           -999.25 :NULL      
COMP        .                     HUNT LAMAR TRUST ESTATE ET AL :COMPANY   
WELL        .                                   BROUSSARD TRUST :WELL      
FLD         .                                           WILDCAT :FIELD     
LOC         .                                                   :LOCATION  
CNTY        .                                         JEFFERSON :LOCATION  
STAT        .                                             TEXAS :STATE     
CTRY        .                                     UNITED STATES :COUNTRY   
SRVC        .                                                   :SERVICE COMPANY
DATE        .                             9/13/2023 11:19:11 AM :LOG DATE  
API         .                                    42245021920000 :API NUMBER
UWI         .                                    42245021920000 :UNIQUE WELL ID
XCOORD      .                                  1218474.36862613 :SURFACE X 
YCOORD      .                                   10882715.986693 :SURFACE Y 
LAT         .                                        29.9792918 :LATITUDE  
LON         .                                       -94.3330868 :LONGITUDE 
ELEV        .FT                                              36 :ELEVATION VALUE
ELEV_TYPE   .                                                DF :ELEVATION REFERENCE TYPE
~Curve Information Section
#MNEM       .UNIT                                      API CODE :CURVE DESCRIPTION
#------------------------------------------------------------------------------
DEPT        .FT                                                 :DEPTH     
ASN         .OHMM                                               :          
LAT         .OHMM                                               :          
LN          .OHMM                                               :          
SP          .MV                                                 :          
SP_NORM     .MV                                                 :SP Normalized
VSH_SP      .V/V                                                :Volume of Shale from SP
~A        DEPTH            ASN            LAT             LN             SP        SP_NORM         VSH_SP
# ...
      3764.0000         1.5161         0.2743         0.1858      -153.7391      -94.47984    0.005533583
      3764.5000         1.5018         0.3009         0.1858      -150.9565      -91.69724      0.0351358
      3765.0000         1.4946         0.3097         0.1947           -148      -88.74074      0.0665879
      3765.5000         1.4661          0.354         0.2035      -145.0435      -85.78424     0.09803999
      3766.0000         1.4357         0.3717         0.2212       -142.087      -82.82774      0.1294921
      3766.5000         1.4071         0.3982         0.2212      -141.7391      -82.47984      0.1331932
      3767.0000         1.2714         0.4071         0.2301      -141.0435      -81.78424      0.1405932
      3767.5000         1.1768         0.4425         0.2389      -140.5217      -81.26244      0.1461443
      3768.0000         1.0839         0.4602         0.2389      -142.6087      -83.34944      0.1239421
      3768.5000         1.0696         0.4602         0.2389      -144.5217      -85.26244      0.1035911
      3769.0000         1.0589         0.4602         0.2301      -144.6957      -85.43643      0.1017401
      3769.5000         1.0554         0.4602         0.2301      -144.6957      -85.43643      0.1017401
      3770.0000         1.0536         0.4425         0.2301      -143.4783      -84.21904      0.1146911
      3770.5000         1.1214         0.4071         0.2301       -142.087      -82.82774      0.1294921
      3771.0000         1.1089         0.3894         0.2301           -140      -80.74074      0.1516943
      3771.5000         1.0964         0.3451         0.2301      -139.6396      -80.38034      0.1555283
      3772.0000         1.0839         0.3186         0.2301      -138.1982      -78.93893      0.1708624
      3772.5000         1.0696         0.3097         0.2301      -137.4775      -78.21823      0.1785295
      3773.0000         1.0571         0.3186         0.2389      -137.2973      -78.03804      0.1804464
      3773.5000         1.0482         0.3894         0.2389      -137.2973      -78.03804      0.1804464
      3774.0000         1.0375         0.4159         0.2389      -141.0435      -81.78424      0.1405932
      3774.5000         1.0286         0.4336         0.2389           -144      -84.74074      0.1091411
      3775.0000         1.0179         0.4336         0.2389           -144      -84.74074      0.1091411
      3775.5000              1         0.4248         0.2478      -143.4783      -84.21904      0.1146911
      3776.0000         0.9643         0.4071         0.2566      -140.5217      -81.26244      0.1461443
      3776.5000         0.9393         0.3805         0.2566      -137.4775      -78.21823      0.1785295
      3777.0000         0.9161         0.3628         0.2743      -134.4144      -75.15514      0.2111156
      3777.5000         0.8911         0.3363          0.292      -131.3514      -72.09213      0.2437007
      3778.0000         0.8786         0.3186         0.3097      -128.2883      -69.02904      0.2762868
      3778.5000         0.9321          0.292         0.3274      -128.6486      -69.38934      0.2724538
      3779.0000         1.0429         0.2743         0.3363       -132.973      -73.71375      0.2264495
      3779.5000         1.0964         0.2478         0.3451      -137.2973      -78.03804      0.1804464
      3780.0000         1.2071         0.2301          0.354      -141.5652      -82.30594      0.1350432
      3780.5000         1.3161         0.2124         0.3628      -147.8225      -88.56323     0.06847625
      3781.0000         1.3304         0.2124         0.3628      -152.1811      -92.92184     0.02210804
      3781.5000         1.2464         0.2124         0.3717      -153.9326      -94.67334    0.003475108
      3782.0000         1.1625         0.2124         0.3717      -152.8887      -93.62944     0.01458042
      3782.5000         1.1339         0.2124         0.3717      -152.5428      -93.28354     0.01826023
      3783.0000         1.1643         0.2124         0.3805      -151.3174      -92.05814     0.03129642
      3783.5000         1.1946         0.2124         0.3805      -150.4399      -91.18063     0.04063156
      3784.0000          1.225         0.2301         0.3805      -149.2069      -89.94763      0.0537486
      3784.5000         1.2054         0.2301         0.3894      -144.6154      -85.35614      0.1025943
      3785.0000         1.1446         0.2566         0.3982      -128.3944      -69.13513      0.2751582
      3785.5000         1.0839         0.2743         0.4159      -121.6058      -62.34654      0.3473772
      3786.0000         1.0214          0.292         0.4425           -100      -40.74074      0.5772262
      3786.5000         0.9304         0.3451         0.4779       -97.7193      -38.46004      0.6014889
      3787.0000         0.8696          0.354         0.5044       -81.4035      -22.14425      0.7750612
      3787.5000         0.8071         0.4159         0.5398       -65.7658      -6.506542      0.9414198
      3788.0000         0.8625         0.4779         0.5752       -57.8947       1.364559              1
      3788.5000         0.9179         0.5221         0.6018       -57.8947       1.364559              1
      3789.0000         0.9732         0.5487         0.6372       -57.7193       1.539959              1
      3789.5000              1         0.5664         0.6726       -57.3684       1.890858              1
      3790.0000         1.0554         0.5929         0.6991       -57.0175       2.241756              1
      3790.5000         1.0749         0.6282         0.7343       -57.0175       2.241756              1
      3791.0000         1.0552         0.6457         0.7692       -57.3684       1.890858              1
      3791.5000         1.0355         0.6721         0.7954       -58.0702       1.189056              1
      3792.0000         1.0157          0.672         0.8303       -58.7719      0.4873581              1
      3792.5000         1.0156         0.6719         0.8387       -59.1228      0.1364594              1
      3793.0000         1.0388         0.6717          0.856       -59.4737     -0.2144432              1
      3793.5000         1.0637         0.6716         0.9086       -59.4737     -0.2144432              1
      3794.0000         1.0886         0.6537          0.917       -59.8246     -0.5653419              1
      3794.5000         1.1028         0.6535         0.9166       -59.8246     -0.5653419              1
      3795.0000         1.1027         0.6267         0.9162       -59.8246     -0.5653419              1
      3795.5000         1.0972         0.6265         0.9157       -59.8246     -0.5653419              1
      3796.0000         1.0918         0.6264         0.9064       -59.8246     -0.5653419              1
      3796.5000         1.0881         0.6084         0.8971       -60.1802     -0.9209404              1
      3797.0000         1.0845         0.5993         0.8967       -60.3604      -1.101143       0.998924
      3797.5000         1.0844         0.5635         0.8962       -60.5405      -1.281242      0.9970081
      3798.0000         1.1147         0.5277         0.8958       -60.5405      -1.281242      0.9970081
      3798.5000         1.1164         0.5097         0.8954       -60.7207      -1.461441      0.9950911
      3799.0000         1.1181         0.5095         0.8949       -60.9009      -1.641644       0.993174
      3799.5000         1.1144         0.5092         0.8945       -61.0811      -1.821842       0.991257
      3800.0000         1.1107         0.5447          0.894       -61.2613      -2.002041        0.98934
      3800.5000         1.1036         0.5802         0.8938       -61.2613      -2.002041        0.98934
      3801.0000         1.0964         0.7406         0.8938       -61.2613      -2.002041        0.98934
      3801.5000         1.0821         0.7135         0.8938       -61.4414       -2.18224       0.987423
