#------------------------------------------------------------------------------
# Created by    : vladimir.rabinovich
# Created on    : 09/19/2023 17:22:41
#------------------------------------------------------------------------------
~Version Information Section
VERS.           2.0     :   CWLS log ASCII Standard - VERSION 2.0
WRAP.           NO      :   One line per depth step
~Well Information Section
#MNEM       .UNIT                                         VALUE :DESCRIPTION
#------------------------------------------------------------------------------
STRT        .FT                                             190 :START DEPTH
STOP        .FT                                            7751 :STOP DEPTH
STEP        .FT                                             0.5 :STEP      
NULL        .                                           -999.25 :NULL      
COMP        .                       GOLDEN TRIANGLE STORAGE LLC :COMPANY   
WELL        .                         GOLDEN TRIANGLE STORAGE 2 :WELL      
FLD         .                                        SPINDLETOP :FIELD     
LOC         .                                                   :LOCATION  
CNTY        .                                         JEFFERSON :LOCATION  
STAT        .                                             TEXAS :STATE     
CTRY        .                                     UNITED STATES :COUNTRY   
SRVC        .                                                   :SERVICE COMPANY
DATE        .                             9/13/2023 11:18:46 AM :LOG DATE  
API         .                                    42245325580000 :API NUMBER
UWI         .                                    42245325580000 :UNIQUE WELL ID
XCOORD      .                                  1288599.33875083 :SURFACE X 
YCOORD      .                                  10896379.1240251 :SURFACE Y 
LAT         .                                        30.0189256 :LATITUDE  
LON         .                                       -94.1119908 :LONGITUDE 
ELEV        .FT                                            12.2 :ELEVATION VALUE
ELEV_TYPE   .                                                GL :ELEVATION REFERENCE TYPE
~Curve Information Section
#MNEM       .UNIT                                      API CODE :CURVE DESCRIPTION
#------------------------------------------------------------------------------
DEPT        .FT                                                 :DEPTH     
DCAL        .IN                                                 :          
DPSS        .V/V                                                :          
DRHO        .G/CM3                                              :          
GR          .GAPI                                               :          
GR_NORM     .GAPI                                               :GammaRay Normalized
ILD         .OHMM                                               :          
ILM         .OHMM                                               :          
NPSS        .V/V                                                :Neutron Porosity Sandstone
SFL         .OHMM                                               :          
SP          .MV                                                 :          
SP_NORM     .MV                                                 :SP Normalized
TENS        .LB                                                 :          
VSH_GR      .V/V                                                :Volume of Shale from GR
VSH_SP      .V/V                                                :Volume of Shale from SP
~A        DEPTH           DCAL           DPSS           DRHO             GR        GR_NORM            ILD            ILM           NPSS            SFL             SP        SP_NORM           TENS         VSH_GR         VSH_SP
# ...
      6220.0000        -0.6122         0.3336         0.0347           56.4       47.97062         0.2532         0.3464         0.4469         0.7849           -110      -70.49383           3000      0.3185238     0.06172838
      6220.5000        -0.6939         0.3348         0.0408           58.8       51.68943         0.2509         0.3403         0.4555         0.7556         -111.2      -71.69382       2998.812      0.3976474     0.04529007
      6221.0000        -0.6939           0.33          0.051           60.6       54.48299         0.2486         0.3344         0.4629         0.7415         -111.2      -71.69382       2996.832       0.457085     0.04529007
      6221.5000        -0.7347         0.3228         0.0633           61.8       56.35133         0.2441         0.3257         0.4641         0.7631         -111.2      -71.69382       2994.852      0.4968369     0.04529007
      6222.0000        -0.7347         0.3168         0.0714           60.9       54.98131         0.2442         0.3229         0.4567         0.8148         -112.4      -72.89383       2992.871      0.4676874     0.02885165
      6222.5000        -0.6531         0.3156         0.0755           57.9       50.37292         0.2398         0.3144         0.4433         0.8149         -114.8      -75.29383       2990.891      0.3696366              0
      6223.0000        -0.5714          0.318         0.0796           56.1       47.61502         0.2332         0.3035         0.4286         0.7635           -116      -76.49383       2988.911       0.310958              0
      6223.5000        -0.5306         0.3192         0.0837           56.1       47.63286         0.2247         0.2898         0.4139         0.6461         -115.6      -76.09383       2986.931      0.3113374              0
      6224.0000        -0.5714         0.3192         0.0816           56.7       48.57595         0.2185         0.2818         0.3992         0.5833         -114.4      -74.89383        2984.95      0.3314031    0.001454393
      6224.5000        -0.6531         0.3192         0.0694             57        49.0564         0.2186         0.2873         0.3845         0.5261         -113.2      -73.69382        2982.97      0.3416255     0.01789281
      6225.0000        -0.6122          0.324         0.0531           57.6       49.99949         0.2229         0.2957         0.3796         0.5166         -111.2      -71.69382        2980.99      0.3616912     0.04529007
      6225.5000        -0.4082         0.3288         0.0367           59.1       52.33042         0.2337         0.3125         0.3808         0.5568         -108.8      -69.29383       2978.614      0.4112855      0.0781667
      6226.0000         0.0816           0.33         0.0306           59.7       53.27351         0.2522         0.3451         0.3943         0.6779         -106.4      -66.89383       2976.634      0.4313512      0.1110434
      6226.5000         0.2449         0.3312         0.0347           59.4       52.82872         0.2746         0.3846         0.4127         0.7927         -107.2      -67.69382       2974.654      0.4218877      0.1000846
      6227.0000          0.449          0.336         0.0449           56.7       48.68296          0.288         0.4178          0.431         0.9056         -109.2      -69.69382       2972.673      0.3336801     0.07268734
      6227.5000         0.9388         0.3516         0.0653           52.2       41.76146         0.2828         0.4027         0.4482         0.9141           -112      -72.49383       2970.693      0.1864141     0.03433112
      6228.0000         1.8776         0.3686         0.0939           49.8       38.07832         0.2624         0.3682         0.4665         0.8395         -113.2      -73.69382       2968.713      0.1080494     0.01789281
      6228.5000           2.48         0.3845          0.124           47.7       34.85781         0.2434         0.3277         0.4812         0.7648         -114.4      -74.89383       2966.733     0.03952789    0.001454393
      6229.0000           2.48         0.3943           0.14           47.7       34.87564         0.2237         0.2997         0.4896         0.7313         -114.8      -75.29383       2964.752     0.03990733              0
      6229.5000              2         0.3955           0.14           47.7       34.89348         0.1963         0.2807         0.4956         0.7316         -115.2      -75.69382       2962.772     0.04028678              0
      6230.0000         1.5918         0.3869          0.128             48       35.37394         0.1963         0.2653         0.5004         0.7449         -115.6      -76.09383       2960.792     0.05050927              0
      6230.5000         1.1429         0.3735           0.11           50.1       38.63013         0.1963         0.2556         0.5076          0.772         -115.6      -76.09383           2960      0.1197899              0
      6231.0000         0.6122         0.3637         0.0878           53.1       43.27418         0.1945         0.2508         0.5088         0.7789         -114.4      -74.89383           2960      0.2185996    0.001454393
      6231.5000         0.2449         0.3661         0.0653           54.3       45.14251         0.1945         0.2484         0.5076         0.7254         -112.4      -72.89383           2960      0.2583512     0.02885165
      6232.0000              0         0.3661         0.0449           53.7        44.2351         0.1927         0.2461         0.4992         0.6481           -110      -70.49383           2960      0.2390448     0.06172838
      6232.5000        -0.1633         0.3612         0.0306             51       40.08934         0.1927         0.2438         0.4896         0.5892           -108      -68.49383           2960       0.150837     0.08912565
      6233.0000        -0.1633         0.3516         0.0286             48       35.48095         0.1892         0.2415         0.4836         0.6117         -108.8      -69.29383           2920     0.05278624      0.0781667
      6233.5000              0         0.3396         0.0367           45.3       31.33519         0.1892         0.2415         0.4836         0.6866           -112      -72.49383           2920              0     0.03433112
      6234.0000         0.2041         0.3276          0.051           44.4       29.96516         0.1857         0.2415          0.492         0.8653         -114.8      -75.29383           2920              0              0
      6234.5000         0.8163         0.3228         0.0735           43.5       28.59512         0.1857          0.237         0.5148         0.9159           -116      -76.49383           2920              0              0
      6235.0000         1.7959         0.3432         0.0939           43.5       28.61296         0.1857          0.237          0.551         0.9404         -117.2      -77.69382           2920              0              0
      6235.5000            2.2         0.3967          0.116           42.9       27.70556         0.1857          0.237            0.6         0.9322         -118.4      -78.89383           2880              0              0
      6236.0000           2.28         0.4347          0.138           42.3       26.79816         0.1857         0.2392         0.6288         0.9159         -119.2      -79.69382           2880              0              0
      6236.5000           2.12         0.4702          0.166             42       26.35338         0.1857         0.2415         0.6648         0.9159         -119.6      -80.09383           2920              0              0
      6237.0000         1.9184         0.4641           0.19             42       26.37121         0.1892         0.2438         0.6768          0.924         -119.2      -79.69382           2920              0              0
      6237.5000         1.7959         0.4629          0.198           42.3       26.85167          0.191         0.2461         0.6684         0.9487         -118.8      -79.29383           2920              0              0
