#------------------------------------------------------------------------------
# Created by    : vladimir.rabinovich
# Created on    : 09/19/2023 17:20:52
#------------------------------------------------------------------------------
~Version Information Section
VERS.           2.0     :   CWLS log ASCII Standard - VERSION 2.0
WRAP.           NO      :   One line per depth step
~Well Information Section
#MNEM       .UNIT                                         VALUE :DESCRIPTION
#------------------------------------------------------------------------------
STRT        .FT                                            1025 :START DEPTH
STOP        .FT                                            8930 :STOP DEPTH
STEP        .FT                                             0.5 :STEP      
NULL        .                                           -999.25 :NULL      
COMP        .                                     MEREDITH & CO :COMPANY   
WELL        .                                 BROUSSARD JR ETAL :WELL      
FLD         .                                           WILDCAT :FIELD     
LOC         .                                                   :LOCATION  
CNTY        .                                         JEFFERSON :LOCATION  
STAT        .                                             TEXAS :STATE     
CTRY        .                                     UNITED STATES :COUNTRY   
SRVC        .                                                   :SERVICE COMPANY
DATE        .                             9/13/2023 11:19:11 AM :LOG DATE  
API         .                                    42245021860000 :API NUMBER
UWI         .                                    42245021860000 :UNIQUE WELL ID
XCOORD      .                                  1217776.66937412 :SURFACE X 
YCOORD      .                                  10884677.7702762 :SURFACE Y 
LAT         .                                        29.9846645 :LATITUDE  
LON         .                                       -94.3353628 :LONGITUDE 
ELEV        .FT                                              34 :ELEVATION VALUE
ELEV_TYPE   .                                                DF :ELEVATION REFERENCE TYPE
~Curve Information Section
#MNEM       .UNIT                                      API CODE :CURVE DESCRIPTION
#------------------------------------------------------------------------------
DEPT        .FT                                                 :DEPTH     
ASN         .OHMM                                               :          
LAT         .OHMM                                               :          
LN          .OHMM                                               :          
SP          .MV                                                 :          
SP_NORM     .MV                                                 :SP Normalized
VSH_SP      .V/V                                                :Volume of Shale from SP
~A        DEPTH            ASN            LAT             LN             SP        SP_NORM         VSH_SP
# ...
      7827.0000         1.2291            0.5         0.5893      -100.7143       -66.1464      0.3419555
      7827.5000           1.32            0.5         0.5893      -103.2143       -68.6464       0.316703
      7828.0000         1.4143         0.4821         0.5714      -106.0714       -71.5035      0.2878434
      7828.5000         1.5071         0.4643         0.5714      -104.6429        -70.075      0.3022728
      7829.0000         1.5929         0.4464         0.5714      -102.8571       -68.2892      0.3203111
      7829.5000         1.6145         0.4286         0.5714      -101.0714       -66.5035      0.3383485
      7830.0000         1.7491         0.4286         0.5714       -99.2857       -64.7178      0.3563859
      7830.5000         1.7673         0.4107         0.5714           -100       -65.4321      0.3491707
      7831.0000         1.7855         0.4107         0.5714      -102.1429        -67.575      0.3275253
      7831.5000         2.0357         0.3929         0.5714      -103.5714       -69.0035      0.3130959
      7832.0000         2.0536          0.375         0.5714      -106.4286      -71.86069      0.2842354
      7832.5000          2.125          0.375         0.5357           -110       -75.4321      0.2481606
      7833.0000         2.1964          0.375         0.5357      -112.8571       -78.2892       0.219301
      7833.5000         2.2321         0.3929         0.5357      -114.6429        -80.075      0.2012627
      7834.0000         2.1786         0.4107         0.5357      -116.0714       -81.5035      0.1868333
      7834.5000         2.0536         0.4107         0.5357      -115.7143       -81.1464      0.1904404
      7835.0000         1.8071         0.4286         0.5357           -115       -80.4321      0.1976556
      7835.5000         1.4786         0.4643         0.5357       -96.0714       -61.5035      0.3888535
      7836.0000         1.3055         0.5179         0.5357       -76.7273       -42.1594      0.5842485
      7836.5000         1.1357         0.5714         0.5179       -57.1429        -22.575      0.7820708
      7837.0000         0.7455          0.625         0.5179            -40      -5.432098      0.9552313
      7837.5000         0.6982         0.6786         0.5179       -37.8947      -3.326797       0.976497
      7838.0000         0.6327         0.7321         0.5179       -36.1404      -1.572498      0.9942172
      7838.5000         0.6073         0.7679         0.5179       -34.7368     -0.1688995              1
      7839.0000            0.6         0.8214         0.5357        -34.386         0.1819              1
      7839.5000         0.5893         0.8571         0.5357        -34.386         0.1819              1
      7840.0000         0.5929          0.875         0.5536       -34.0351      0.5328026              1
      7840.5000            0.6         0.8571         0.5714       -33.6842      0.8837013              1
      7841.0000         0.6073         0.8571         0.5714       -33.6842      0.8837013              1
      7841.5000         0.6291         0.8214         0.5893       -33.6842      0.8837013              1
      7842.0000         0.6473         0.7679         0.6071       -33.6842      0.8837013              1
      7842.5000         0.7018         0.7321         0.6071       -34.0351      0.5328026              1
      7843.0000         0.7564         0.6786         0.6429       -35.4386      -0.870697              1
      7843.5000         0.8107         0.6429         0.6607       -38.9474      -4.379498      0.9658636
      7844.0000         1.2873         0.5893         0.6786       -48.5714       -14.0035      0.8686515
      7844.5000         1.4071         0.5536         0.6964       -73.8182       -39.2503      0.6136333
      7845.0000         1.6473         0.5179         0.6964       -82.8571       -48.2892      0.5223313
      7845.5000         1.4643         0.4643         0.6964       -82.8571       -48.2892      0.5223313
      7846.0000         0.9143         0.4286         0.6964       -68.3636       -33.7957      0.6687303
      7846.5000         0.9143         0.3929         0.6964       -61.0909        -26.523      0.7421919
      7847.0000         1.0179          0.375         0.6964       -61.0909        -26.523      0.7421919
      7847.5000         1.2291         0.3571         0.6964       -79.6364       -45.0685      0.5548637
      7848.0000         1.3382         0.3393         0.6964       -80.7143       -46.1464      0.5439758
      7848.5000            1.2         0.3393         0.6964       -73.4545       -38.8866      0.6173071
      7849.0000           0.95         0.3571         0.6964       -65.8182       -31.2503      0.6944414
      7849.5000         0.7236          0.375         0.6964       -50.7143       -16.1464      0.8470061
      7850.0000         0.6691          0.375         0.6964       -35.7881        -1.2202      0.9977757
      7850.5000         0.6474         0.3929         0.6967        -33.326       1.241901              1
      7851.0000          0.633         0.4107         0.6974        -31.913       2.654902              1
      7851.5000         0.6331         0.4107          0.698       -30.8527       3.715202              1
      7852.0000         0.6369         0.4107         0.6986       -30.1441       4.423801              1
      7852.5000         0.6443         0.4107         0.6992       -30.1315       4.436401              1
      7853.0000         0.7132         0.4107         0.7178       -30.4724       4.095501              1
      7853.5000         0.8071         0.3929         0.7185       -31.1614       3.406502              1
      7854.0000         0.8964          0.375         0.7371       -32.8951       1.672802              1
      7854.5000         0.9893          0.375         0.7557        -38.109        -3.5411      0.9743323
      7855.0000         0.9964          0.375         0.7564       -46.6676       -12.0997      0.8878819
      7855.5000              1          0.375         0.7751       -49.5417       -14.9738      0.8588505
      7856.0000              1         0.3929         0.7939       -40.8683        -6.3004      0.9464606
      7856.5000         0.9714         0.4107         0.7946       -36.6539      -2.085999      0.9890303
      7857.0000         0.9429         0.4286         0.8134       -37.6803        -3.1124      0.9786626
      7857.5000         0.9143         0.4464         0.8141       -40.0907      -5.522797      0.9543152
      7858.0000            0.9         0.4821         0.8148        -41.527      -6.959099      0.9398071
      7858.5000          0.875         0.5179         0.8156       -37.2909         -2.723       0.982596
      7859.0000         0.8464         0.5536         0.8345       -33.1302       1.437702              1
      7859.5000         0.8286         0.5893         0.8352       -31.0479       3.520002              1
      7860.0000         0.8179          0.625          0.836        -30.694       3.873901              1
      7860.5000         0.8107          0.625         0.8364       -30.6897       3.878202              1
      7861.0000         0.8036         0.6607         0.8182       -30.3448       4.223101              1
      7861.5000         0.7893         0.6786         0.8182       -30.3448       4.223101              1
      7862.0000          0.775         0.6964         0.8182       -30.3448       4.223101              1
      7862.5000         0.7429         0.7143            0.8       -30.3448       4.223101              1
      7863.0000          0.725         0.7143            0.8       -30.6897       3.878202              1
      7863.5000         0.7536         0.7143            0.8       -31.0345       3.533401              1
      7864.0000         0.7821         0.6964         0.8182       -32.4138       2.154102              1
      7864.5000         0.8143         0.6786         0.8182       -33.4483       1.119602              1
