#------------------------------------------------------------------------------
# Created by    : vladimir.rabinovich
# Created on    : 09/19/2023 17:20:52
#------------------------------------------------------------------------------
~Version Information Section
VERS.           2.0     :   CWLS log ASCII Standard - VERSION 2.0
WRAP.           NO      :   One line per depth step
~Well Information Section
#MNEM       .UNIT                                         VALUE :DESCRIPTION
#------------------------------------------------------------------------------
STRT        .FT                                            1558 :START DEPTH
STOP        .FT                                           11266 :STOP DEPTH
STEP        .FT                                             0.5 :STEP      
NULL        .                                           -999.25 :NULL      
COMP        .                               MEREDITH & CO ET AL :COMPANY   
WELL        .                                 GRINNELL TEXAS CO :WELL      
FLD         .                                           WILDCAT :FIELD     
LOC         .                                                   :LOCATION  
CNTY        .                                         JEFFERSON :LOCATION  
STAT        .                                             TEXAS :STATE     
CTRY        .                                     UNITED STATES :COUNTRY   
SRVC        .                                                   :SERVICE COMPANY
DATE        .                             9/13/2023 11:19:11 AM :LOG DATE  
API         .                                    42245015300000 :API NUMBER
UWI         .                                    42245015300000 :UNIQUE WELL ID
XCOORD      .                                  1358778.50439977 :SURFACE X 
YCOORD      .                                  10877447.4356243 :SURFACE Y 
LAT         .                                        29.9685419 :LATITUDE  
LON         .                                       -93.8897358 :LONGITUDE 
ELEV        .FT                                              14 :ELEVATION VALUE
ELEV_TYPE   .                                                DF :ELEVATION REFERENCE TYPE
~Curve Information Section
#MNEM       .UNIT                                      API CODE :CURVE DESCRIPTION
#------------------------------------------------------------------------------
DEPT        .FT                                                 :DEPTH     
ASN         .OHMM                                               :          
LN          .OHMM                                               :          
SP          .MV                                                 :          
SP_NORM     .MV                                                 :SP Normalized
VSH_SP      .V/V                                                :Volume of Shale from SP
~A        DEPTH            ASN             LN             SP        SP_NORM         VSH_SP
# ...
      4770.0000         0.6399         0.3999       -82.1334      -67.31859      0.2288536
      4770.5000         0.6098         0.3995       -85.1047      -70.28989      0.1943036
      4771.0000         0.5799          0.399       -87.3795      -72.56469      0.1678524
      4771.5000           0.55         0.3965       -89.6521      -74.83729      0.1414269
      4772.0000         0.5136         0.3907       -91.7953      -76.98049      0.1165059
      4772.5000         0.4735         0.3849       -92.4323      -77.61749       0.109099
      4773.0000         0.4443          0.379       -92.9685      -78.15369      0.1028641
      4773.5000         0.4384         0.3732       -91.9941      -77.17929      0.1141943
      4774.0000         0.4412         0.3673       -91.0199      -76.20509      0.1255223
      4774.5000         0.4451         0.3615       -89.9585      -75.14369      0.1378641
      4775.0000         0.4489         0.3556       -87.0621      -72.24729      0.1715431
      4775.5000         0.4527         0.3629       -84.1658      -69.35099       0.205221
      4776.0000         0.4566         0.3813       -81.2693      -66.45449      0.2389013
      4776.5000         0.4604         0.3996       -74.8945      -60.07969      0.3130269
      4777.0000         0.4825         0.4179       -64.5962      -49.78138      0.4327746
      4777.5000         0.5268         0.4363       -44.6784      -29.86358       0.664377
      4778.0000         0.5729         0.4546       -25.5894      -10.77458       0.886342
      4778.5000         0.6283         0.4729       -20.9472      -6.132386      0.9403211
      4779.0000         0.6837         0.4912        -19.391      -4.576186      0.9584165
      4779.5000          0.725         0.5139       -18.8885      -4.073686      0.9642594
      4780.0000          0.759         0.5385       -18.4922      -3.677386      0.9688676
      4780.5000         0.7885         0.5631       -18.1886      -3.373786      0.9723979
      4781.0000         0.7988         0.5877       -17.8849      -3.070085      0.9759293
      4781.5000         0.7995         0.6123       -17.5813      -2.766486      0.9794595
      4782.0000          0.793         0.6369       -19.0471      -4.232285      0.9624153
      4782.5000         0.7831          0.653       -23.9406      -9.125785      0.9055141
      4783.0000         0.7572         0.6414       -28.8385      -14.02368      0.8485618
      4783.5000         0.7312         0.6298        -33.732      -18.91718      0.7916607
      4784.0000         0.7052         0.6182       -38.4579      -23.64309      0.7367083
      4784.5000         0.6809         0.6066       -43.9025      -29.08768       0.673399
      4785.0000         0.6587         0.5979       -52.8342      -38.01939       0.569542
      4785.5000         0.6366           0.59       -60.6153      -45.80048      0.4790641
      4786.0000         0.6144          0.582       -67.5146      -52.69979      0.3988397
      4786.5000         0.5923         0.5741        -73.043      -58.22818       0.334556
      4787.0000         0.5701         0.5661       -77.1649      -62.35009      0.2866269
      4787.5000         0.5567         0.5644       -78.4742      -63.65938      0.2714025
      4788.0000         0.5701         0.5875       -64.2611      -49.44629      0.4366711
      4788.5000         0.6072         0.6105       -32.0435      -17.22868      0.8112944
      4789.0000         0.6444         0.6336        -22.876      -8.061185      0.9178932
      4789.5000         0.6816         0.6566       -20.1978      -5.382985       0.949035
      4790.0000         0.7057         0.6797       -17.5196      -2.704785      0.9801769
      4790.5000         0.7199         0.7027       -15.7804     -0.9655857              1
      4791.0000          0.734         0.7258       -14.6959      0.1189146              1
      4791.5000         0.7481         0.7489       -13.6114       1.203415              1
      4792.0000         0.7623         0.7666       -12.5269       2.287914              1
      4792.5000         0.7764         0.7797       -12.3339       2.480914              1
      4793.0000         0.7906         0.7929       -12.1664       2.648415              1
      4793.5000         0.8035          0.806       -12.1981       2.616714              1
      4794.0000         0.8129         0.8191       -12.3885       2.426314              1
      4794.5000         0.8223         0.8322       -12.5789       2.235914              1
      4795.0000         0.8318         0.8453       -12.7691       2.045714              1
      4795.5000         0.8444         0.8585       -12.9595       1.855314              1
      4796.0000         0.8614         0.8716       -13.1622       1.652615              1
      4796.5000         0.8784         0.8847       -13.3659       1.448915              1
      4797.0000         0.8954         0.8978       -13.5697       1.245114              1
      4797.5000          0.912         0.9019       -13.7736       1.041215              1
      4798.0000         0.9257         0.9015       -13.9773      0.8375149              1
      4798.5000         0.9305          0.901       -14.3154      0.4994144              1
      4799.0000         0.9163         0.8951       -14.6709      0.1439142              1
      4799.5000         0.9047         0.8883       -15.0266     -0.2117853              1
      4800.0000         0.8985         0.8815       -15.3823     -0.5674858              1
      4800.5000         0.8923         0.8747       -15.7377     -0.9228859              1
      4801.0000          0.886         0.8679       -15.7107     -0.8958855              1
      4801.5000         0.8798         0.8611       -15.6822     -0.8673859              1
      4802.0000         0.8736         0.8543       -15.6538     -0.8389854              1
      4802.5000         0.8673         0.8475       -15.4685     -0.6536856              1
      4803.0000         0.8621         0.8407       -15.0299      -0.215085              1
      4803.5000         0.8568         0.8339       -14.5915      0.2233143              1
      4804.0000         0.8516          0.827       -14.1528       0.662015              1
      4804.5000         0.8464         0.8202       -13.7145       1.100314              1
      4805.0000         0.8411         0.8187       -13.2761       1.538714              1
      4805.5000         0.8381         0.8187       -12.8374       1.977414              1
      4806.0000         0.8358         0.8188       -12.4422       2.372615              1
      4806.5000         0.8335         0.8189       -12.2771       2.537715              1
      4807.0000         0.8312         0.8189       -12.1121       2.702715              1
      4807.5000          0.829          0.819       -11.9471       2.867715              1
      4808.0000         0.8267         0.8191        -12.296       2.518815              1
      4808.5000         0.8244         0.8192       -12.6746       2.140215              1
      4809.0000         0.8246         0.8192       -13.0535       1.761314              1
      4809.5000         0.8257         0.8193       -13.4321       1.382714              1
      4810.0000         0.8267         0.8194         -13.85      0.9648142              1
      4810.5000         0.8278         0.8194       -14.2823      0.5325146              1
      4811.0000         0.8289         0.8195       -14.7147      0.1001148              1
      4811.5000           0.83         0.8196       -14.6025      0.2123146              1
      4812.0000         0.8311         0.8196       -14.2785       0.536315              1
      4812.5000         0.8322         0.8207       -13.9545      0.8603144              1
      4813.0000         0.8332         0.8219       -13.6304       1.184415              1
      4813.5000         0.8343         0.8231       -13.4886       1.326215              1
