#------------------------------------------------------------------------------
# Created by    : vladimir.rabinovich
# Created on    : 09/19/2023 17:22:41
#------------------------------------------------------------------------------
~Version Information Section
VERS.           2.0     :   CWLS log ASCII Standard - VERSION 2.0
WRAP.           NO      :   One line per depth step
~Well Information Section
#MNEM       .UNIT                                         VALUE :DESCRIPTION
#------------------------------------------------------------------------------
STRT        .FT                                             190 :START DEPTH
STOP        .FT                                            7751 :STOP DEPTH
STEP        .FT                                             0.5 :STEP      
NULL        .                                           -999.25 :NULL      
COMP        .                       GOLDEN TRIANGLE STORAGE LLC :COMPANY   
WELL        .                         GOLDEN TRIANGLE STORAGE 2 :WELL      
FLD         .                                        SPINDLETOP :FIELD     
LOC         .                                                   :LOCATION  
CNTY        .                                         JEFFERSON :LOCATION  
STAT        .                                             TEXAS :STATE     
CTRY        .                                     UNITED STATES :COUNTRY   
SRVC        .                                                   :SERVICE COMPANY
DATE        .                             9/13/2023 11:18:46 AM :LOG DATE  
API         .                                    42245325580000 :API NUMBER
UWI         .                                    42245325580000 :UNIQUE WELL ID
XCOORD      .                                  1288599.33875083 :SURFACE X 
YCOORD      .                                  10896379.1240251 :SURFACE Y 
LAT         .                                        30.0189256 :LATITUDE  
LON         .                                       -94.1119908 :LONGITUDE 
ELEV        .FT                                            12.2 :ELEVATION VALUE
ELEV_TYPE   .                                                GL :ELEVATION REFERENCE TYPE
~Curve Information Section
#MNEM       .UNIT                                      API CODE :CURVE DESCRIPTION
#------------------------------------------------------------------------------
DEPT        .FT                                                 :DEPTH     
DCAL        .IN                                                 :          
DPSS        .V/V                                                :          
DRHO        .G/CM3                                              :          
GR          .GAPI                                               :          
GR_NORM     .GAPI                                               :GammaRay Normalized
ILD         .OHMM                                               :          
ILM         .OHMM                                               :          
NPSS        .V/V                                                :Neutron Porosity Sandstone
SFL         .OHMM                                               :          
SP          .MV                                                 :          
SP_NORM     .MV                                                 :SP Normalized
TENS        .LB                                                 :          
VSH_GR      .V/V                                                :Volume of Shale from GR
VSH_SP      .V/V                                                :Volume of Shale from SP
~A        DEPTH           DCAL           DPSS           DRHO             GR        GR_NORM            ILD            ILM           NPSS            SFL             SP        SP_NORM           TENS         VSH_GR         VSH_SP
# ...
      6724.0000          -0.32          0.282         0.0469        78.9796        77.3977         0.6213         0.7832         0.4992         0.8572          -47.2      -2.780365       2990.632      0.9446319      0.9893101
      6724.5000          -0.32         0.2772         0.0469         79.898       78.30863         0.6331         0.7899          0.492         0.8646          -47.2      -2.826477       2994.525      0.9640135      0.9886784
      6725.0000          -0.16         0.2688          0.049        80.5102       78.91336         0.6451         0.8038         0.4848         0.9132          -47.6      -3.272587       2998.433        0.97688      0.9825673
      6725.5000           0.04         0.2616          0.051        80.8163       79.21199         0.6701          0.856         0.4824         1.0138          -47.6      -3.318699       3002.496      0.9832338      0.9819356
      6726.0000           0.24         0.2592         0.0551        81.7347       80.12292         0.6961         0.9123          0.492         1.1226          -47.6      -3.364811       3048.165              1      0.9813039
      6726.5000           0.32         0.2676          0.051        83.2653       81.64605         0.7086         0.9295         0.5076         1.1327          -46.8      -2.610924       3052.209              1      0.9916312
      6727.0000            0.4         0.2784         0.0469         85.102       83.47528         0.6954         0.9115         0.5268         1.0509          -46.8      -2.657036       3056.238              1      0.9909995
      6727.5000           0.44         0.2892         0.0408        87.2449       85.61072         0.6624         0.8093         0.5448         0.9286            -46      -1.903149        3060.25              1              1
      6728.0000           0.48         0.2976         0.0367        89.6939       88.05224         0.6189         0.7333         0.5604         0.8237            -46      -1.949261       3064.245              1              1
      6728.5000           0.56         0.3012         0.0347           91.2       89.55087          0.601         0.7073         0.5652         0.7871          -45.2      -1.195374       3068.224              1              1
      6729.0000           0.64         0.3024         0.0388           91.2        89.5434         0.5845         0.6808         0.5628         0.7592          -45.2      -1.241486       3072.187              1              1
      6729.5000           0.64         0.3024         0.0469           90.3       88.63593         0.5736          0.674         0.5592         0.7589          -45.2      -1.287598       3076.134              1              1
      6730.0000           0.64          0.306         0.0531        89.3878       87.71626         0.5786         0.6802         0.5616         0.7722            -46      -2.133709       3120.914              1      0.9981683
      6730.5000           0.68         0.3108         0.0633        88.4694       86.79039         0.5838         0.6933         0.5616         0.7789          -46.8       -2.97982       3122.449              1      0.9865778
      6731.0000           0.76         0.3144         0.0714        87.8571       86.17062         0.5946         0.7126         0.5592         0.8073          -47.6      -3.825932       3122.449              1      0.9749873
      6731.5000           0.88         0.3168         0.0755        87.2449       85.55096            0.6         0.7384         0.5544         0.8371          -47.6      -3.872044       3122.449              1      0.9743556
      6732.0000           0.96          0.318         0.0755        86.9388       85.23738         0.6117         0.7584         0.5472         0.8524          -48.4      -4.718159       3122.449              1       0.962765
      6732.5000              1          0.318         0.0714        85.4082       83.69932         0.6176          0.772         0.5376          0.868          -48.4      -4.764271       3122.449              1      0.9621333
      6733.0000           0.92         0.3156         0.0653        82.9592       81.24284         0.6236         0.7789         0.5316          0.868          -48.4      -4.810383       3122.449              1      0.9615016
      6733.5000           0.92         0.3108         0.0571        80.8163       79.09247         0.6357         0.7859          0.528          0.868          -48.4      -4.856495       3122.449      0.9806908      0.9608699
      6734.0000           0.92         0.3024         0.0531        78.0612        76.3299         0.6357         0.7929         0.5256         0.8759          -48.4      -4.902607       3122.449      0.9219128      0.9602383
      6734.5000              1         0.2952         0.0531        76.5306       74.79183         0.6481         0.7929         0.5232         0.8838            -48      -4.548717       3122.449      0.8891879       0.965086
      6735.0000           1.04         0.2904         0.0571        75.9184       74.17216         0.6481         0.8073          0.522            0.9          -47.6      -4.194828       3122.449      0.8760035      0.9699339
      6735.5000           1.04         0.2928         0.0714        78.0612        76.3075         0.6543         0.8146         0.5232            0.9          -47.6       -4.24094       3122.449      0.9214361      0.9693022
      6736.0000              1         0.2964         0.0857        80.5102       78.74902         0.6481         0.8073         0.5316            0.9          -47.6      -4.287052       3122.449      0.9733835      0.9686705
      6736.5000              1            0.3         0.0878        82.6531       80.88445         0.6419         0.7929         0.5436         0.8759          -47.6      -4.333164       3122.449              1      0.9680389
      6737.0000              1         0.3024         0.0816        84.1837       82.40759         0.6357         0.7789         0.5556         0.8447          -47.6      -4.379276       3122.449              1      0.9674072
      6737.5000              1         0.3024         0.0714        84.7959       83.01231         0.6236         0.7584         0.5688         0.8073          -47.6      -4.425388       3122.449              1      0.9667755
      6738.0000           0.96         0.3024         0.0633        83.8776       82.08654         0.6117          0.745           0.57            0.8          -47.2      -4.071503       3122.449              1      0.9716232
      6738.5000           0.92         0.3012         0.0592        81.7347       79.93617         0.6117         0.7517         0.5664         0.8073          -47.2      -4.117615       3122.449       0.998642      0.9709916
      6739.0000           0.96            0.3         0.0551         79.898         78.092         0.6117         0.7584         0.5496          0.822          -47.6      -4.563725       3122.449      0.9594043      0.9648805
      6739.5000              1            0.3         0.0571        78.6735       76.86003         0.6117         0.7652         0.5364         0.8371          -47.6      -4.609837       3122.449      0.9331921      0.9642488
      6740.0000           1.08         0.2976         0.0673        78.0612       76.24026         0.6117         0.7652         0.5256         0.8447            -48       -5.05595       3122.449      0.9200056      0.9581377
      6740.5000            1.2          0.294         0.0816        78.0612        76.2328         0.6117          0.772         0.5208         0.8601            -48      -5.102062       3122.449      0.9198467       0.957506
      6741.0000            1.2          0.288          0.104        78.6735       76.83762         0.6117         0.7859         0.5232         0.8524          -48.4      -5.548176       3122.449      0.9327154      0.9513949
      6741.5000           1.16         0.2832          0.126        78.6735       76.83015         0.6117         0.7859         0.5292         0.8371          -48.4      -5.594288       3122.449      0.9325565      0.9507632
