#------------------------------------------------------------------------------
# Created by    : vladimir.rabinovich
# Created on    : 09/19/2023 17:20:52
#------------------------------------------------------------------------------
~Version Information Section
VERS.           2.0     :   CWLS log ASCII Standard - VERSION 2.0
WRAP.           NO      :   One line per depth step
~Well Information Section
#MNEM       .UNIT                                         VALUE :DESCRIPTION
#------------------------------------------------------------------------------
STRT        .FT                                            1025 :START DEPTH
STOP        .FT                                            8930 :STOP DEPTH
STEP        .FT                                             0.5 :STEP      
NULL        .                                           -999.25 :NULL      
COMP        .                                     MEREDITH & CO :COMPANY   
WELL        .                                 BROUSSARD JR ETAL :WELL      
FLD         .                                           WILDCAT :FIELD     
LOC         .                                                   :LOCATION  
CNTY        .                                         JEFFERSON :LOCATION  
STAT        .                                             TEXAS :STATE     
CTRY        .                                     UNITED STATES :COUNTRY   
SRVC        .                                                   :SERVICE COMPANY
DATE        .                             9/13/2023 11:19:11 AM :LOG DATE  
API         .                                    42245021860000 :API NUMBER
UWI         .                                    42245021860000 :UNIQUE WELL ID
XCOORD      .                                  1217776.66937412 :SURFACE X 
YCOORD      .                                  10884677.7702762 :SURFACE Y 
LAT         .                                        29.9846645 :LATITUDE  
LON         .                                       -94.3353628 :LONGITUDE 
ELEV        .FT                                              34 :ELEVATION VALUE
ELEV_TYPE   .                                                DF :ELEVATION REFERENCE TYPE
~Curve Information Section
#MNEM       .UNIT                                      API CODE :CURVE DESCRIPTION
#------------------------------------------------------------------------------
DEPT        .FT                                                 :DEPTH     
ASN         .OHMM                                               :          
LAT         .OHMM                                               :          
LN          .OHMM                                               :          
SP          .MV                                                 :          
SP_NORM     .MV                                                 :SP Normalized
VSH_SP      .V/V                                                :Volume of Shale from SP
~A        DEPTH            ASN            LAT             LN             SP        SP_NORM         VSH_SP
# ...
      4179.0000          1.575         1.4128         1.6627       -57.7788      -10.52043      0.8930289
      4179.5000         1.4839         1.2691         1.6796        -56.705      -9.449066      0.9050667
      4180.0000           1.35         1.1432         1.6787       -55.6294      -8.375896      0.9171247
      4180.5000         1.2643         1.0893         1.6071       -55.2727      -8.021637      0.9211052
      4181.0000         1.1741         1.0536         1.5179       -54.1818       -6.93317      0.9333352
      4181.5000         1.1667         1.0536         1.4107       -54.1818      -6.935604      0.9333078
      4182.0000         1.1481         1.0714         1.4107       -54.1818      -6.938038      0.9332805
      4182.5000         1.1259         1.1071         1.3929       -54.1818      -6.940475      0.9332531
      4183.0000         1.1037          1.125          1.375       -54.1818      -6.942909      0.9332258
      4183.5000         1.0667         1.1429         1.3571       -54.1818      -6.945343      0.9331984
      4184.0000          1.037         1.1429         1.3571       -54.1818      -6.947781       0.933171
      4184.5000         1.0296          1.125         1.3571       -54.9091      -7.677513      0.9249718
      4185.0000         1.0296         1.1071          1.375       -55.2727      -8.043549       0.920859
      4185.5000         1.0556         1.0714         1.3929       -56.3636      -9.136883      0.9085743
      4186.0000         1.0852         1.0357         1.4286       -58.1818      -10.95752      0.8881177
      4186.5000         1.1148         1.0179         1.4643       -58.5455      -11.32365      0.8840039
      4187.0000         1.1444              1         1.4821       -57.8182      -10.59879      0.8921485
      4187.5000         1.1741              1         1.5179       -56.3636      -9.146622      0.9084649
      4188.0000         1.2536         1.0357         1.5536       -53.8182      -6.603657      0.9370376
      4188.5000         1.2821         1.0714         1.5714       -51.6364       -4.42429      0.9615248
      4189.0000         1.3429         1.1607         1.5714       -49.8182      -2.608524      0.9819267
      4189.5000         1.4218         1.2679         1.5179       -48.7273      -1.520061      0.9941566
      4190.0000         1.4582         1.4643         1.4107       -48.3636      -1.158798      0.9982157
      4190.5000         1.4908         1.5886         1.3925       -48.7374       -1.53503      0.9939884
      4191.0000         1.4799         1.6769          1.392       -49.4735      -2.273563      0.9856903
      4191.5000         1.4471         1.7117         1.3735       -49.4829        -2.2854      0.9855573
      4192.0000         1.4145         1.7287          1.373       -49.8546      -2.659534      0.9813535
      4192.5000         1.3785         1.6921         1.3904       -49.8637       -2.67107      0.9812239
      4193.0000         1.2851         1.5663         1.4078       -49.8727      -2.682503      0.9810955
      4193.5000         1.1839         1.4761         1.4611       -49.8818      -2.694042      0.9809658
      4194.0000         1.1282         1.4038         1.4966       -49.8908      -2.705475      0.9808373
      4194.5000         1.0502         1.3315         1.4962       -49.8998      -2.716908      0.9807089
      4195.0000          1.013          1.295         1.5137       -49.9088       -2.72834      0.9805804
      4195.5000         0.9947         1.2941         1.4951       -49.9178       -2.73978      0.9804519
      4196.0000         0.9876          1.311         1.4585       -49.9267      -2.751114      0.9803246
      4196.5000         0.9978         1.3458         1.4219       -49.5763      -2.403149      0.9842343
      4197.0000          1.016         1.3628         1.3853       -49.5855      -2.414783      0.9841036
      4197.5000         1.0417         1.3976         1.3485       -48.8773      -1.709019      0.9920335
      4198.0000           1.06         1.4324         1.3117       -48.8871      -1.721252       0.991896
      4198.5000         1.0858         1.4672          1.293        -48.897      -1.733585      0.9917575
      4199.0000         1.0819         1.5199         1.2742        -48.549      -1.388023      0.9956402
      4199.5000         1.0558         1.5368         1.2555       -48.5592      -1.400658      0.9954982
      4200.0000         1.0556         1.5181         1.2548       -48.2121      -1.055992      0.9993709
      4200.5000         1.1074         1.4643         1.2544         -48.22      -1.066326      0.9992548
      4201.0000         1.1074         1.4107         1.2542       -48.2273      -1.076061      0.9991454
      4201.5000         1.0667         1.3393         1.2539       -48.2345      -1.085697      0.9990371
      4202.0000         1.0444         1.2679         1.2537       -48.6001      -1.453732      0.9949019
      4202.5000         1.0259         1.2321         1.2716       -48.6077      -1.463764      0.9947892
      4203.0000         1.0074           1.25         1.2713       -48.9742      -1.832703      0.9906438
      4203.5000         0.9861         1.2679         1.2711       -49.7006      -2.561535      0.9824547
      4204.0000         0.9722         1.3036         1.2889       -50.4284      -3.291767      0.9742498
      4204.5000         0.9583         1.3214         1.2706       -50.4376      -3.303406       0.974119
      4205.0000         0.9548         1.3571         1.2523       -51.1673      -4.035542      0.9658928
      4205.5000         0.9548         1.3571         1.2521       -50.8167      -3.687374      0.9698048
      4206.0000         0.9547         1.3393         1.2519       -50.1047      -2.977806      0.9777775
      4206.5000         0.9582         1.3214         1.2517        -48.669      -1.544544      0.9938815
      4207.0000         0.9616         1.2857         1.2694       -47.2307     -0.1086807              1
      4207.5000         0.9616           1.25         1.2871       -45.4279       1.691689              1
      4208.0000          0.958         1.2143         1.3048        -43.984       3.133152              1
      4208.5000          0.951         1.1786         1.3224        -42.175       4.939716              1
      4209.0000          0.944         1.1607           1.34       -41.0885       6.023781              1
      4209.5000         0.9439         1.1607         1.3576       -40.7263       6.383549              1
      4210.0000         0.9404         1.1607         1.3572       -40.3635       6.743916              1
      4210.5000         0.9405         1.1964         1.3571            -40       7.104977              1
      4211.0000         0.9443         1.1964         1.3571            -40       7.102543              1
      4211.5000         0.9481         1.2143         1.3571            -40       7.100109              1
      4212.0000         0.9589         1.2321         1.3393       -39.6552       7.442471              1
      4212.5000         0.9805         1.2321         1.3393       -39.6552       7.440037              1
      4213.0000         1.0058         1.2321         1.3393       -39.6552       7.437603              1
      4213.5000         1.0281           1.25         1.3214       -39.6552       7.435169              1
      4214.0000         1.0577           1.25         1.3214       -39.6552       7.432732              1
      4214.5000         1.0907         1.2679         1.3214       -39.3103         7.7752              1
      4215.0000          1.109         1.3036         1.3036       -39.6552       7.427864              1
      4215.5000         1.1419         1.3214         1.3036       -40.3636        6.71703              1
      4216.0000         1.1746         1.3571         1.3036       -41.4545       5.623695              1
      4216.5000         1.1891          1.375         1.3214       -42.1818       4.893959              1
