#------------------------------------------------------------------------------
# Created by    : vladimir.rabinovich
# Created on    : 09/19/2023 17:20:52
#------------------------------------------------------------------------------
~Version Information Section
VERS.           2.0     :   CWLS log ASCII Standard - VERSION 2.0
WRAP.           NO      :   One line per depth step
~Well Information Section
#MNEM       .UNIT                                         VALUE :DESCRIPTION
#------------------------------------------------------------------------------
STRT        .FT                                            1558 :START DEPTH
STOP        .FT                                           11266 :STOP DEPTH
STEP        .FT                                             0.5 :STEP      
NULL        .                                           -999.25 :NULL      
COMP        .                               MEREDITH & CO ET AL :COMPANY   
WELL        .                                 GRINNELL TEXAS CO :WELL      
FLD         .                                           WILDCAT :FIELD     
LOC         .                                                   :LOCATION  
CNTY        .                                         JEFFERSON :LOCATION  
STAT        .                                             TEXAS :STATE     
CTRY        .                                     UNITED STATES :COUNTRY   
SRVC        .                                                   :SERVICE COMPANY
DATE        .                             9/13/2023 11:19:11 AM :LOG DATE  
API         .                                    42245015300000 :API NUMBER
UWI         .                                    42245015300000 :UNIQUE WELL ID
XCOORD      .                                  1358778.50439977 :SURFACE X 
YCOORD      .                                  10877447.4356243 :SURFACE Y 
LAT         .                                        29.9685419 :LATITUDE  
LON         .                                       -93.8897358 :LONGITUDE 
ELEV        .FT                                              14 :ELEVATION VALUE
ELEV_TYPE   .                                                DF :ELEVATION REFERENCE TYPE
~Curve Information Section
#MNEM       .UNIT                                      API CODE :CURVE DESCRIPTION
#------------------------------------------------------------------------------
DEPT        .FT                                                 :DEPTH     
ASN         .OHMM                                               :          
LN          .OHMM                                               :          
SP          .MV                                                 :          
SP_NORM     .MV                                                 :SP Normalized
VSH_SP      .V/V                                                :Volume of Shale from SP
~A        DEPTH            ASN             LN             SP        SP_NORM         VSH_SP
# ...
      6090.0000          0.459         0.1858      -110.8495      -92.14876              0
      6090.5000          0.506         0.1866      -110.9087      -92.20615              0
      6091.0000         0.5529         0.1874      -110.9678      -92.26346              0
      6091.5000         0.5813         0.1883      -111.0269      -92.32076              0
      6092.0000         0.5923         0.1891      -111.0859      -92.37796              0
      6092.5000         0.5745           0.19       -111.145      -92.43526              0
      6093.0000         0.5566         0.1927      -111.1896      -92.47807              0
      6093.5000         0.5388         0.1959      -111.0602      -92.34688              0
      6094.0000         0.5223         0.1992      -110.9309      -92.21577              0
      6094.5000         0.5059         0.2024      -110.8016      -92.08468              0
      6095.0000         0.4895         0.2056      -110.6722      -91.95349   0.0005110856
      6095.5000         0.4969         0.2088       -110.543      -91.82249    0.001950694
      6096.0000          0.536          0.212      -110.4137      -91.69139    0.003391308
      6096.5000         0.5583         0.2153      -110.2844       -91.5603    0.004831922
      6097.0000         0.5806         0.2151      -110.2253       -91.4994    0.005501045
      6097.5000         0.6029         0.2136      -110.1821       -91.4544    0.005995614
      6098.0000         0.5787         0.2121      -110.1389      -91.40941    0.006490016
      6098.5000         0.5515         0.2107      -110.4602       -91.7289    0.002979069
      6099.0000          0.531         0.2092      -110.7839      -92.05081              0
      6099.5000         0.5106         0.2077      -110.7294      -91.99451   0.0000602806
      6100.0000         0.4901         0.2081      -110.5612      -91.82452    0.001928309
      6100.5000         0.4696         0.2087      -110.3929      -91.65442    0.003797594
      6101.0000         0.4492         0.2093      -110.2155      -91.47523    0.005766732
      6101.5000         0.4297         0.2099      -110.0297      -91.28763    0.007828262
      6102.0000         0.4195         0.2104      -109.8441      -91.10023    0.009887528
      6102.5000         0.4093          0.211      -109.6584      -90.91273     0.01194797
      6103.0000         0.3991         0.2116      -109.4727      -90.72524     0.01400832
      6103.5000         0.3889         0.2122       -109.287      -90.53774     0.01606876
      6104.0000         0.3787         0.2187      -109.1013      -90.35025     0.01812912
      6104.5000         0.3686         0.2287      -108.9155      -90.16264     0.02019073
      6105.0000         0.3587         0.2387      -108.7832      -90.02856     0.02166421
      6105.5000         0.3489         0.2488      -108.7092      -89.95275     0.02249724
      6106.0000          0.339         0.2588      -108.6353      -89.87706     0.02332901
      6106.5000         0.3364         0.2688      -108.5613      -89.80126     0.02416196
      6107.0000          0.354         0.2789      -108.4873      -89.72546      0.0249949
      6107.5000         0.3714         0.2889      -108.6584      -89.89477     0.02313442
      6108.0000         0.3848         0.2989      -109.6383      -90.87287     0.01238603
      6108.5000         0.3981         0.3013      -110.6423      -91.87508    0.001372788
      6109.0000         0.4115          0.301      -111.7401      -92.97108              0
      6109.5000         0.4248         0.3007      -112.8389      -94.06808              0
      6110.0000         0.4382         0.3005      -113.2765      -94.50388              0
      6110.5000         0.4505         0.3002      -112.5414      -93.76698              0
      6111.0000         0.4574         0.2945      -111.8062      -93.02999              0
      6111.5000         0.4643         0.2836       -111.071      -92.29299              0
      6112.0000         0.4712         0.2728      -110.3359       -91.5561    0.004878033
      6112.5000         0.4769         0.2619      -109.6008       -90.8192     0.01297584
      6113.0000         0.4729          0.251      -108.8657      -90.08231     0.02107356
      6113.5000         0.4681         0.2471      -108.0623      -89.27711      0.0299219
      6114.0000          0.461         0.2441      -107.1144      -88.32742     0.04035807
      6114.5000         0.4588         0.2479      -106.1677      -87.37891     0.05078116
      6115.0000         0.5038         0.2708      -104.8043      -86.01372     0.06578332
      6115.5000         0.5569         0.2937      -103.0453      -84.25293     0.08513264
      6116.0000          0.625         0.3167      -100.9932      -82.19903       0.107703
      6116.5000         0.7512         0.3397       -96.7036      -77.90762      0.1548613
      6117.0000         0.8865         0.3667       -91.7263      -72.92854      0.2095765
      6117.5000         1.0348         0.3937       -82.6713      -63.87174      0.3091018
      6118.0000         0.9437         0.4206         -74.63      -55.82864      0.3974875
      6118.5000         0.8829         0.4476       -54.7916      -35.98844      0.6155117
      6119.0000         0.8392         0.4613       -46.3184      -27.51345      0.7086434
      6119.5000         0.8148         0.4527       -33.2691      -14.46235      0.8520621
      6120.0000         0.7951         0.4442       -25.5143      -6.705751      0.9372994
      6120.5000         0.7899         0.4356        -25.521      -6.710655      0.9372455
      6121.0000         0.8101         0.4282       -26.2617      -7.449558      0.9291257
      6121.5000         0.8303         0.4279       -27.8973      -9.083363      0.9111719
      6122.0000         0.8485         0.4277       -29.5307      -10.71497      0.8932421
      6122.5000         0.8471         0.4274        -31.164      -12.34647      0.8753135
      6123.0000         0.7861         0.4272       -34.1332      -15.31387      0.8427047
      6123.5000         0.7076         0.4269       -40.6843      -21.86317      0.7707344
      6124.0000         0.6435         0.4391       -56.6961      -37.87318      0.5948002
      6124.5000         0.6183         0.4637       -70.5278      -51.70308      0.4428233
      6125.0000         0.6129         0.4883       -73.4486      -54.62209      0.4107463
      6125.5000         0.6111         0.5129       -77.6631      -58.83479      0.3644529
      6126.0000         0.6118         0.5321       -83.8792       -65.0491      0.2961638
      6126.5000         0.6125         0.5362       -90.1305       -71.2986      0.2274879
      6127.0000         0.6133         0.5403       -93.0577        -74.224      0.1953407
      6127.5000          0.614         0.5444        -81.913       -63.0775      0.3178296
      6128.0000         0.6147         0.5485       -64.3845       -45.5472      0.5104703
      6128.5000         0.6319         0.5557       -30.9811      -12.14201      0.8775604
      6129.0000         0.6909          0.567       -27.4234      -8.582512      0.9166757
      6129.5000         0.7619         0.5784       -25.9019      -7.059214      0.9334152
      6130.0000         0.8025         0.5897       -26.4309      -7.586418      0.9276218
      6130.5000          0.798          0.607       -26.8712      -8.024921       0.922803
      6131.0000         0.7935         0.6257       -26.0953      -7.247225      0.9313492
      6131.5000          0.789         0.6444       -25.3183      -6.468428      0.9399074
      6132.0000         0.7845         0.6632       -24.5424      -5.690731      0.9484535
      6132.5000          0.786         0.6742       -23.7665      -4.913034      0.9569996
      6133.0000         0.7902         0.6714       -22.9895      -4.134239      0.9655578
      6133.5000         0.7944         0.6686       -22.0692      -3.212143      0.9756907
