#------------------------------------------------------------------------------
# Created by    : vladimir.rabinovich
# Created on    : 09/19/2023 17:22:46
#------------------------------------------------------------------------------
~Version Information Section
VERS.           2.0     :   CWLS log ASCII Standard - VERSION 2.0
WRAP.           NO      :   One line per depth step
~Well Information Section
#MNEM       .UNIT                                         VALUE :DESCRIPTION
#------------------------------------------------------------------------------
STRT        .FT                                             992 :START DEPTH
STOP        .FT                                            8489 :STOP DEPTH
STEP        .FT                                             0.5 :STEP      
NULL        .                                           -999.25 :NULL      
COMP        .                                       GAELIC CORP :COMPANY   
WELL        .                                     PHELAN MICKEY :WELL      
FLD         .                                           WILDCAT :FIELD     
LOC         .                                                   :LOCATION  
CNTY        .                                         JEFFERSON :LOCATION  
STAT        .                                             TEXAS :STATE     
CTRY        .                                     UNITED STATES :COUNTRY   
SRVC        .                                                   :SERVICE COMPANY
DATE        .                             9/13/2023 11:18:46 AM :LOG DATE  
API         .                                    42245313790000 :API NUMBER
UWI         .                                    42245313790000 :UNIQUE WELL ID
XCOORD      .                                  1260103.88271883 :SURFACE X 
YCOORD      .                                     10773431.3746 :SURFACE Y 
LAT         .                                         29.679995 :LATITUDE  
LON         .                                       -94.1979967 :LONGITUDE 
ELEV        .FT                                              19 :ELEVATION VALUE
ELEV_TYPE   .                                                KB :ELEVATION REFERENCE TYPE
~Curve Information Section
#MNEM       .UNIT                                      API CODE :CURVE DESCRIPTION
#------------------------------------------------------------------------------
DEPT        .FT                                                 :DEPTH     
DPSS        .V/V                                                :          
DRHO        .G/CM3                                              :          
DT          .US/FT                                              :          
GR_NORM     .GAPI                                               :GammaRay Normalized
GRN         .GAPI                                               :          
ILD         .OHMM                                               :          
NPSS        .V/V                                                :Neutron Porosity Sandstone
RHOB        .G/CM3                                              :          
SFL         .OHMM                                               :          
SP          .MV                                                 :          
SP_NORM     .MV                                                 :SP Normalized
TENN        .LB                                                 :          
VSH_GR      .V/V                                                :Volume of Shale from GR
VSH_SP      .V/V                                                :Volume of Shale from SP
~A        DEPTH           DPSS           DRHO             DT        GR_NORM            GRN            ILD           NPSS           RHOB            SFL             SP        SP_NORM           TENN         VSH_GR         VSH_SP
# ...
      6698.0000         0.2781         0.0103          115.1       72.33436        62.2833         0.2915         0.3359         2.1917         1.2338       -52.7011      -50.12377       2862.992      0.8369012      0.5038003
      6698.5000         0.2718         0.0188          114.6       80.77605        68.8755         0.2889         0.3454          2.202         1.0903       -44.7606      -42.18683       2864.829              1      0.5839714
      6699.0000         0.2616         0.0317          114.4        85.1843        72.3186         0.2903         0.3597         2.2168         1.0416       -35.4057      -32.83548        2866.67              1      0.6784295
      6699.5000         0.2499           0.05          116.4       88.05478        74.5611         0.3054         0.3708         2.2376         0.9901       -25.6106      -23.04394       2888.286              1       0.777334
      6700.0000         0.2391          0.059          118.9        89.3884        75.6037         0.3302         0.3765         2.2564         0.7501       -18.2222      -15.65909        2900.05              1      0.8519284
      6700.5000         0.2364         0.0555       121.2091       92.07369        77.7016         0.3685         0.4105         2.2584         0.5503        -11.879      -9.319445        2901.28              1      0.9159652
      6701.0000         0.2388         0.0455       123.4263        95.9239         80.709         0.4058         0.4589          2.253          0.437        -9.1006        -6.5446       2891.862              1      0.9439939
      6701.5000         0.2386         0.0381       125.7445       98.04817        82.3689         0.4473         0.4962          2.255           0.46        -7.1126      -4.560154       2872.544              1      0.9640388
      6702.0000         0.2317         0.0411       126.2447       96.51328        81.1719         0.4908         0.5058         2.2683          0.538        -6.1144      -3.565509       2863.126              1      0.9740857
      6702.5000         0.2222         0.0495       125.8357       94.39626        79.5204          0.538         0.4953         2.2827         0.6294        -5.7107      -3.165363       2853.757              1      0.9781277
      6703.0000         0.2169         0.0525       125.4263       91.88923        77.5644         0.5738         0.4912         2.2911         0.6879        -4.9087      -2.366918        2854.24              1      0.9861928
      6703.5000         0.2201         0.0495       124.6133       89.56995         75.755         0.5846         0.5076         2.2851         0.6754        -3.9079      -1.369672       2854.723              1      0.9962659
      6704.0000          0.227          0.045       123.8003       88.02482          74.55          0.582         0.5216         2.2733         0.6477        -3.3037     -0.7690265       2855.207              1              1
      6704.5000         0.2342         0.0421       123.0883       87.44669           74.1         0.5768         0.5216         2.2629         0.6097        -2.5001     0.03101921       2855.738              1              1
      6705.0000         0.2345          0.046       123.1839       87.82919           74.4         0.5689         0.5088         2.2634         0.5876        -1.6956      0.8319645       2866.122              1              1
      6705.5000         0.2294          0.048        123.583       88.01956          74.55         0.5612         0.4975         2.2718           0.61        -1.6866      0.8374102       2866.606              1              1
      6706.0000         0.2234         0.0495       123.9821       87.24931          73.95          0.551         0.4936         2.2807         0.6275        -2.2751      0.2453558       2867.089              1              1
      6706.5000         0.2196         0.0565       124.0782       86.86333          73.65         0.5435         0.4936         2.2871         0.6485        -2.6649     -0.1479988       2867.621              1              1
      6707.0000         0.2187         0.0604       123.9718       85.32458          72.45          0.536         0.4903         2.2886         0.6517        -2.8549      -0.341553       2868.104              1              1
      6707.5000         0.2214         0.0614       124.2699        84.9386          72.15         0.5286         0.4865         2.2851         0.6641        -2.8465     -0.3367076       2868.587              1              1
      6708.0000         0.2277         0.0535       124.7701        86.2817           73.2         0.5047         0.4954         2.2752         0.6736        -2.8381      -0.331862        2869.07              1              1
      6708.5000         0.2349         0.0426       125.1687       86.85632          73.65            0.5         0.5259         2.2624         0.6521          -2.63     -0.1273167       2869.602              1              1
      6709.0000         0.2355         0.0436       125.7699       84.35697           71.7         0.4865         0.5346         2.2599         0.6196        -2.4217     0.07742906       2870.085              1              1
      6709.5000         0.2301           0.05       125.9671       81.08912          69.15         0.4777         0.5226         2.2683         0.5805        -2.0133      0.4822745       2870.569              1              1
      6710.0000         0.2253           0.05       126.1637       78.78188          67.35         0.4734         0.5112         2.2777         0.5672        -2.0044      0.4876201       2880.952      0.9740826              1
      6710.5000         0.2259         0.0445       126.4628       78.19416        66.8925         0.4606          0.525         2.2777          0.562           -1.6      0.8884658       2891.089      0.9615779              1
      6711.0000         0.2289         0.0351       126.7624         78.175        66.8789         0.4523         0.5364         2.2723         0.5542           -1.8      0.6849113        2900.99      0.9611703              1
      6711.5000         0.2298         0.0316       126.7591       78.34707        67.0146         0.4442         0.5418         2.2708          0.562             -2      0.4813569       2910.891      0.9648312              1
      6712.0000         0.2293         0.0321       126.8565       79.09075        67.5966         0.4381          0.532         2.2713         0.5807           -2.2      0.2778022       2891.089      0.9806543              1
      6712.5000         0.2344          0.035       127.4575       81.35452        69.3654         0.4322         0.5263         2.2634         0.5916           -1.8       0.674248       2891.089              1              1
      6713.0000         0.2433         0.0295       128.0582       83.22929        70.8305         0.4322         0.5335          2.247         0.5753           -1.8      0.6706934       2881.188              1              1
      6713.5000         0.2532         0.0241        128.759        83.2004        70.8093         0.4322         0.5386         2.2302         0.5464           -1.4       1.072214       2881.188              1              1
      6714.0000         0.2535         0.0246       129.5593       81.08747         69.161         0.4302         0.5272         2.2312         0.5313           -1.4       1.077693       2891.089              1              1
      6714.5000         0.2449         0.0339       129.3534       81.06292        69.1432         0.4263         0.5051           2.25         0.5414           -1.4       1.083172       2891.089              1              1
      6715.0000         0.2383         0.0397        128.645       83.67725        71.1857         0.4244         0.4896         2.2584          0.562           -1.4       1.088652        2900.99              1              1
      6715.5000         0.2402         0.0397       128.6407       86.28131        73.2202         0.4205         0.4867          2.253         0.5807           -1.6      0.8941308       2910.891              1              1
