#------------------------------------------------------------------------------
# Created by    : vladimir.rabinovich
# Created on    : 09/19/2023 17:20:51
#------------------------------------------------------------------------------
~Version Information Section
VERS.           2.0     :   CWLS log ASCII Standard - VERSION 2.0
WRAP.           NO      :   One line per depth step
~Well Information Section
#MNEM       .UNIT                                         VALUE :DESCRIPTION
#------------------------------------------------------------------------------
STRT        .FT                                            1028 :START DEPTH
STOP        .FT                                            9325 :STOP DEPTH
STEP        .FT                                             0.5 :STEP      
NULL        .                                           -999.25 :NULL      
COMP        .                     HUNT LAMAR TRUST ESTATE ET AL :COMPANY   
WELL        .                                   BROUSSARD TRUST :WELL      
FLD         .                                           WILDCAT :FIELD     
LOC         .                                                   :LOCATION  
CNTY        .                                         JEFFERSON :LOCATION  
STAT        .                                             TEXAS :STATE     
CTRY        .                                     UNITED STATES :COUNTRY   
SRVC        .                                                   :SERVICE COMPANY
DATE        .                             9/13/2023 11:19:11 AM :LOG DATE  
API         .                                    42245021920000 :API NUMBER
UWI         .                                    42245021920000 :UNIQUE WELL ID
XCOORD      .                                  1218474.36862613 :SURFACE X 
YCOORD      .                                   10882715.986693 :SURFACE Y 
LAT         .                                        29.9792918 :LATITUDE  
LON         .                                       -94.3330868 :LONGITUDE 
ELEV        .FT                                              36 :ELEVATION VALUE
ELEV_TYPE   .                                                DF :ELEVATION REFERENCE TYPE
~Curve Information Section
#MNEM       .UNIT                                      API CODE :CURVE DESCRIPTION
#------------------------------------------------------------------------------
DEPT        .FT                                                 :DEPTH     
ASN         .OHMM                                               :          
LAT         .OHMM                                               :          
LN          .OHMM                                               :          
SP          .MV                                                 :          
SP_NORM     .MV                                                 :SP Normalized
VSH_SP      .V/V                                                :Volume of Shale from SP
~A        DEPTH            ASN            LAT             LN             SP        SP_NORM         VSH_SP
# ...
      4334.0000         1.4411         1.4107         1.0885       -75.3153      -19.13082       0.807119
      4334.5000         1.4036         1.4196         1.0885       -75.3153      -19.11317      0.8073067
      4335.0000         1.3636         1.4375         1.0885       -75.3153      -19.09552      0.8074945
      4335.5000         1.3255         1.4286         1.0885       -75.3153      -19.07786      0.8076823
      4336.0000         1.2855         1.4107         1.0885       -75.4955      -19.24041      0.8059531
      4336.5000         1.2636         1.3125         1.0885       -75.6757      -19.40295      0.8042239
      4337.0000         1.2382         1.2857         1.0885       -75.4955       -19.2051      0.8063287
      4337.5000         1.2127         1.2143         1.0796       -75.3153      -19.00725      0.8084335
      4338.0000          1.186          1.125         1.0354        -74.955       -18.6293      0.8124542
      4338.5000         1.1614         1.0982              1       -71.3514      -15.00805      0.8509782
      4339.0000         1.1351         1.0446         0.9911       -70.6306       -14.2696      0.8588341
      4339.5000         1.1105         1.0268         0.9554       -69.9099      -13.53124      0.8666889
      4340.0000         1.0842         0.9646         0.9286       -69.1903      -12.79399       0.874532
      4340.5000         1.0385         0.9557         0.8839        -68.826      -12.41204      0.8785954
      4341.0000         1.0261         0.9557         0.8571        -68.462      -12.03038      0.8826555
      4341.5000         1.0243         0.9823         0.8214       -68.2783      -11.82903      0.8847975
      4342.0000         1.0242         1.0089         0.8214       -68.4545      -11.98758      0.8831109
      4342.5000         1.0504         1.0891         0.8304       -68.8103      -12.32573      0.8795135
      4343.0000         1.0784         1.1781         0.8482       -69.3455      -12.84328      0.8740077
      4343.5000         1.0854         1.2582         0.8571       -69.8802      -13.36033      0.8685071
      4344.0000         1.0677         1.3203         0.8661       -70.0554      -13.51787      0.8668311
      4344.5000         1.0501          1.338          0.875       -70.2304      -13.67522      0.8651572
      4345.0000         1.0342         1.3556          0.875       -70.2259      -13.65307      0.8653929
      4345.5000         1.0166         1.3643         0.8929       -69.5041      -12.91361      0.8732594
      4346.0000         1.0007         1.3553         0.8929       -68.6037      -11.99556      0.8830259
      4346.5000         0.9828         1.3374         0.9018       -66.6292      -10.00341       0.904219
      4347.0000         0.9649          1.284         0.9018       -65.9099      -9.266457      0.9120589
      4347.5000         0.9487         1.2218         0.9018       -65.1912      -8.530109      0.9198924
      4348.0000         0.9308         1.1685         0.9018       -64.4732      -7.794453      0.9277186
      4348.5000         0.9253         1.1064         0.9107        -63.577      -6.880604      0.9374404
      4349.0000         0.9377         1.0532         0.9107        -62.324      -5.609951       0.950958
      4349.5000         0.9501         0.9911         0.9107       -61.0721      -4.340401      0.9644638
      4350.0000         0.9625         0.9375         0.9018       -61.0717      -4.322346      0.9646559
      4350.5000          0.975         0.9018         0.8837       -61.0714      -4.304394      0.9648468
      4351.0000         0.9875         0.9018         0.8744       -61.0714      -4.286743      0.9650347
      4351.5000              1         0.9018         0.8651       -61.4286      -4.645172      0.9612216
      4352.0000         1.0105         0.9196         0.8469       -61.9643      -5.190567      0.9554195
      4352.5000         1.0228         0.9911         0.8108       -62.6786      -5.914566      0.9477174
      4353.0000         1.0351         1.0619         0.7837       -62.8571      -6.102764      0.9457152
      4353.5000         1.0474         1.1327         0.7567       -64.1071      -7.362465      0.9323142
      4354.0000         1.0596         1.2035         0.7029       -65.3571      -8.622162      0.9189132
      4354.5000         1.0351         1.2035         0.6848       -66.4286      -9.703354      0.9074112
      4355.0000         0.9696         1.1858         0.6579       -66.4286      -9.713051       0.907308
      4355.5000         0.9179         1.1681         0.6309       -66.7857      -10.07985      0.9034058
      4356.0000         0.8804         1.1327         0.6128       -66.9643      -10.26815      0.9014027
      4356.5000         0.8411          1.115         0.5948       -67.1429      -10.45644      0.8993995
      4357.0000         0.8036         1.0973         0.5857       -67.1429      -10.46614      0.8992964
      4357.5000          0.767         1.0796         0.5854       -67.1429      -10.47584      0.8991932
      4358.0000         0.7426         1.0796         0.5851       -65.5357      -8.878338      0.9161879
      4358.5000         0.7374         1.2389         0.5849         -63.75      -7.102337      0.9350815
      4359.0000         0.7339          1.292         0.5935       -61.0714      -4.433434      0.9634741
      4359.5000         0.7322         1.3451          0.602        -59.646      -3.017731      0.9785348
      4360.0000         0.7304         1.4071         0.6283       -58.2301      -1.611526      0.9934944
      4360.5000          0.753         1.4071          0.646       -56.9912     -0.3823242              1
      4361.0000         0.8214         1.4071         0.6814       -56.9912     -0.3920212              1
      4361.5000         0.8554         1.4071         0.7168       -56.9912     -0.4017181              1
      4362.0000         0.8893         1.3628         0.7434       -57.6991       -1.11932      0.9987307
      4362.5000         0.9232         1.3097         0.7611       -57.8761      -1.306015      0.9967445
      4363.0000         0.9571         1.2566         0.7788        -59.292      -2.731613      0.9815786
      4363.5000         0.9732         1.2212         0.7876       -60.5357      -3.985012      0.9682446
      4364.0000         1.0193          1.177         0.7965       -61.9643      -5.423306      0.9529436
      4364.5000         1.0649         1.1327         0.7965       -63.2143      -6.683002      0.9395425
      4365.0000          1.107         1.0885         0.7876       -64.6429        -8.1213      0.9242415
      4365.5000         1.1439         1.0442         0.7788       -65.8929      -9.380997      0.9108405
      4366.0000         1.1807         1.0088         0.7611       -67.3214       -10.8192      0.8955404
      4366.5000         1.2364         0.9643         0.7434       -68.9286      -12.43609      0.8783395
      4367.0000         1.2745         0.9196         0.7168       -70.3571      -13.87429      0.8630394
      4367.5000         1.2945          0.875         0.6991       -72.8571      -16.38399      0.8363405
      4368.0000         1.2927         0.8304         0.6726       -74.8214      -18.35799      0.8153405
      4368.5000         1.2618         0.7411         0.6549       -78.9286      -22.47488      0.7715438
      4369.0000           1.26         0.7143         0.6372       -81.7699      -25.32588       0.741214
      4369.5000         1.2855         0.6875         0.6195       -81.9469      -25.51258      0.7392279
      4370.0000            1.3         0.6696         0.6018       -84.4248      -28.00017      0.7127641
      4370.5000         1.3145         0.6429         0.5841       -88.3186      -31.90368      0.6712375
      4371.0000         1.3636          0.625         0.5664       -89.7345      -33.32927      0.6560716
      4371.5000         1.3636          0.625         0.5487       -90.4425      -34.04697      0.6484365
