#------------------------------------------------------------------------------
# Created by    : vladimir.rabinovich
# Created on    : 09/19/2023 17:22:41
#------------------------------------------------------------------------------
~Version Information Section
VERS.           2.0     :   CWLS log ASCII Standard - VERSION 2.0
WRAP.           NO      :   One line per depth step
~Well Information Section
#MNEM       .UNIT                                         VALUE :DESCRIPTION
#------------------------------------------------------------------------------
STRT        .FT                                             190 :START DEPTH
STOP        .FT                                            7751 :STOP DEPTH
STEP        .FT                                             0.5 :STEP      
NULL        .                                           -999.25 :NULL      
COMP        .                       GOLDEN TRIANGLE STORAGE LLC :COMPANY   
WELL        .                         GOLDEN TRIANGLE STORAGE 2 :WELL      
FLD         .                                        SPINDLETOP :FIELD     
LOC         .                                                   :LOCATION  
CNTY        .                                         JEFFERSON :LOCATION  
STAT        .                                             TEXAS :STATE     
CTRY        .                                     UNITED STATES :COUNTRY   
SRVC        .                                                   :SERVICE COMPANY
DATE        .                             9/13/2023 11:18:46 AM :LOG DATE  
API         .                                    42245325580000 :API NUMBER
UWI         .                                    42245325580000 :UNIQUE WELL ID
XCOORD      .                                  1288599.33875083 :SURFACE X 
YCOORD      .                                  10896379.1240251 :SURFACE Y 
LAT         .                                        30.0189256 :LATITUDE  
LON         .                                       -94.1119908 :LONGITUDE 
ELEV        .FT                                            12.2 :ELEVATION VALUE
ELEV_TYPE   .                                                GL :ELEVATION REFERENCE TYPE
~Curve Information Section
#MNEM       .UNIT                                      API CODE :CURVE DESCRIPTION
#------------------------------------------------------------------------------
DEPT        .FT                                                 :DEPTH     
DCAL        .IN                                                 :          
DPSS        .V/V                                                :          
DRHO        .G/CM3                                              :          
GR          .GAPI                                               :          
GR_NORM     .GAPI                                               :GammaRay Normalized
ILD         .OHMM                                               :          
ILM         .OHMM                                               :          
NPSS        .V/V                                                :Neutron Porosity Sandstone
SFL         .OHMM                                               :          
SP          .MV                                                 :          
SP_NORM     .MV                                                 :SP Normalized
TENS        .LB                                                 :          
VSH_GR      .V/V                                                :Volume of Shale from GR
VSH_SP      .V/V                                                :Volume of Shale from SP
~A        DEPTH           DCAL           DPSS           DRHO             GR        GR_NORM            ILD            ILM           NPSS            SFL             SP        SP_NORM           TENS         VSH_GR         VSH_SP
# ...
       208.0000           2.12         0.5916         -1.134        29.0816       60.33067       50104.46        23.0693         0.5016         0.2019          -61.6       -2.34074         1128.8      0.5815037              1
       208.5000           1.96         0.5532         -1.076        29.6939       60.79961       49615.63        12.8981         0.4932         0.2019          -62.4      -3.140743         1126.8      0.5914811      0.9872051
       209.0000           1.88         0.5148         -1.028           31.2       62.34468       49592.57        10.2006         0.4848         0.2019          -63.6       -4.34074         1124.8      0.6243548      0.8781145
       209.5000           1.84         0.5172         -1.036           32.7       63.88238       49569.52              6         0.4824         0.2019          -64.8      -5.540745         1122.8      0.6570719      0.7690232
       210.0000           1.84          0.528         -1.086           32.1       62.89175       49087.95         3.6462         0.4908         0.2019          -64.8      -5.540745         1120.8      0.6359946      0.7690232
       210.5000           2.12         0.5448         -1.186           30.3       60.45635       49078.83         2.9182         0.5004         0.2019            -66      -6.740742           1120      0.5841777      0.6599326
       211.0000           2.32          0.498          -1.16        29.0816       58.72118       49078.83         2.6613         0.5124         0.2019            -66      -6.740742           1120      0.5472592      0.6599326
       211.5000           2.36         0.6036         -0.872        28.1633       57.34732       49078.83         1.2878         0.5172         0.2019          -65.2      -5.940739           1120      0.5180282      0.7326601
       212.0000           2.84         0.6492         -0.486        29.6939       58.92188       49078.83         1.4545         0.5208         0.3646          -63.2      -3.940742           1120      0.5515294      0.9144779
       212.5000           3.32         0.7344        -0.2449           34.5       64.44005       49078.83         2.5887         0.5316         0.9322          -61.2      -1.940742           1120      0.6689372              1
       213.0000           2.68         0.8057          -0.08           38.1       68.50609        4573.05         2.0751          0.552          2.427            -60     -0.7407417           1120      0.7554487              1
       213.5000          -0.28         0.8106          -0.01           40.5       71.12737         9.3722         0.6671         0.5796         3.3847          -59.6     -0.3407402           1120      0.8112207              1
       214.0000          -1.08         0.8045         0.0163           42.9       73.74866          4.269         0.4335         0.5916         3.6455          -59.2     0.05925751           1120      0.8669927              1
       214.5000          -1.08         0.7584         0.0469           44.1       74.92519          2.565         0.4573         0.5952         3.7484          -58.8       0.459259           1120      0.8920252              1
       215.0000          -0.56         0.7224         0.0776           42.3       72.48978         4.7729         0.7063         0.5928         3.9264          -58.4      0.8592567           1120       0.840208              1
       215.5000            0.6         0.6869          0.104           41.4       71.13796         9.3722         1.1401         0.5796         4.2295            -58       1.259258           1120       0.811446              1
       216.0000           1.36          0.671          0.116           40.8       70.14733        12.8776         1.6276         0.5676         4.4721            -58       1.259258           1120      0.7903687              1
       216.5000           1.48         0.6552          0.128           41.7       70.96265        12.8776         2.1137         0.5664         4.7287            -58       1.259258           1120      0.8077161              1
       217.0000            1.6         0.6384           0.14           41.7       70.69441         8.2391         2.4722         0.5688         4.6849          -57.6        1.65926           1120      0.8020087              1
       217.5000           1.84         0.6252          0.152           40.5       68.98139         5.1956         1.9814         0.5724         4.5139          -57.2       2.059258           1120      0.7655615              1
       218.0000           2.12         0.6312           0.15           39.9       67.99077         5.0969         1.3495         0.5784         4.3089          -57.2       2.059258           1120      0.7444844              1
       218.5000           2.28         0.6372           0.15             39       66.63894         4.9079         1.3369          0.576         4.1131          -57.2       2.059258           1120      0.7157221              1
       219.0000           2.08         0.6396          0.148           38.7        66.0095         4.8175          1.375         0.5808         3.9631          -57.2       2.059258           1120      0.7023298              1
       219.5000            1.6         0.6312           0.15           38.1       65.01888         4.8175         1.7216         0.5724         3.8902          -57.2       2.059258           1120      0.6812527              1
       220.0000           1.64         0.5928            0.2             39       65.83421         7.0626         4.1516         0.5604         3.8186          -57.2       2.059258           1120      0.6986001              1
       220.5000           2.36         0.5676         0.2039           41.4       68.45548         10.285         7.2537         0.5484         3.7834          -56.8       2.459259           1120      0.7543719              1
       221.0000           2.44         0.5352         0.2314           42.9       69.99319        13.6221         9.7598         0.5604         3.7484          -56.8       2.459259           1120      0.7870892              1
       221.5000           2.52         0.5028         0.2569           43.5       70.44733         7.2537         6.5695         0.6012         3.6795          -56.8       2.459259           1120      0.7967516              1
       222.0000           2.64         0.4788         0.2706             42       68.37312         2.4951         2.0561         0.6108         3.6118          -56.4       2.859257           1120      0.7526195              1
       222.5000           2.72         0.4641         0.2765           39.9       65.57653              2         1.8907         0.6516         3.5454          -56.4       2.859257           1120      0.6931177              1
       223.0000            2.8         0.4604         0.2745           38.1       63.14114          2.427         2.2339         0.6882         3.5454          -56.4       2.859257           1120      0.6413009              1
       223.5000           2.88         0.4653         0.2686           36.3       60.70573         5.0482         3.8186          0.709         3.6455          -56.4       2.859257           1120      0.5894837              1
       224.0000           3.12         0.4714         0.2627           35.7        59.7151        10.3818         7.6517         0.7065         3.7138          -56.4       2.859257           1120      0.5684065              1
       224.5000           3.56         0.4739         0.2569           36.6       60.53043        10.1891         8.9121         0.6796         3.6795          -56.4       2.859257           1120      0.5857538              1
       225.0000           3.48         0.4641          0.251           37.8       61.70695         7.5167         6.9368         0.6444         3.5785          -56.8       2.459259           1120      0.6107861              1
       225.5000           3.24         0.4457         0.2373           38.1        61.7999          5.146         4.4721         0.6096         3.4481          -56.8       2.459259           1120      0.6127638              1
