#------------------------------------------------------------------------------
# Created by    : vladimir.rabinovich
# Created on    : 09/19/2023 17:20:50
#------------------------------------------------------------------------------
~Version Information Section
VERS.           2.0     :   CWLS log ASCII Standard - VERSION 2.0
WRAP.           NO      :   One line per depth step
~Well Information Section
#MNEM       .UNIT                                         VALUE :DESCRIPTION
#------------------------------------------------------------------------------
STRT        .FT                                            1769 :START DEPTH
STOP        .FT                                           14822 :STOP DEPTH
STEP        .FT                                             0.5 :STEP      
NULL        .                                           -999.25 :NULL      
COMP        .                                      SHELL OIL CO :COMPANY   
WELL        .                                 MCFADDEN CEE CRSS :WELL      
FLD         .                                           WILDCAT :FIELD     
LOC         .                                                   :LOCATION  
CNTY        .                                         JEFFERSON :LOCATION  
STAT        .                                             TEXAS :STATE     
CTRY        .                                     UNITED STATES :COUNTRY   
SRVC        .                                                   :SERVICE COMPANY
DATE        .                             9/13/2023 11:19:11 AM :LOG DATE  
API         .                                    42245030100000 :API NUMBER
UWI         .                                    42245030100000 :UNIQUE WELL ID
XCOORD      .                                  1300794.63996209 :SURFACE X 
YCOORD      .                                  10796706.8159759 :SURFACE Y 
LAT         .                                        29.7451097 :LATITUDE  
LON         .                                       -94.0705183 :LONGITUDE 
ELEV        .FT                                            17.6 :ELEVATION VALUE
ELEV_TYPE   .                                                KB :ELEVATION REFERENCE TYPE
~Curve Information Section
#MNEM       .UNIT                                      API CODE :CURVE DESCRIPTION
#------------------------------------------------------------------------------
DEPT        .FT                                                 :DEPTH     
ASN         .OHMM                                               :          
DT          .US/F                                               :          
ILD         .OHMM                                               :          
SP          .MV                                                 :          
SP_NORM     .MV                                                 :SP Normalized
VSH_SP      .V/V                                                :Volume of Shale from SP
~A        DEPTH            ASN             DT            ILD             SP        SP_NORM         VSH_SP
# ...
      5227.0000         0.7195       149.9778         0.3583       -73.0408      -34.27994      0.2076205
      5227.5000         0.7591       134.6994         0.3864       -70.3965      -31.64629      0.2703263
      5228.0000         0.7855       134.5356          0.416       -68.2528      -29.51325       0.321113
      5228.5000         0.7775       134.3113         0.4485       -66.1711      -27.44221      0.3704236
      5229.0000         0.7687       133.1585         0.4912       -63.6583      -24.94007      0.4299984
      5229.5000         0.7764       127.8196         0.5452       -61.5494      -22.84183      0.4799565
      5230.0000         0.7849       122.4807         0.6067        -59.428      -20.73109      0.5302122
      5230.5000         0.7978       117.1418         0.6824       -57.6115      -18.92524      0.5732085
      5231.0000         0.8192       111.8029         0.7531       -55.9734       -17.2978      0.6119572
      5231.5000         0.8732       117.7268         0.8358       -54.4728      -15.80786       0.647432
      5232.0000         0.9073       130.0498         0.9242       -52.5547      -13.90041      0.6928473
      5232.5000         0.9277       142.3727         1.1023       -50.6378      -11.99417       0.738234
      5233.0000         0.9478       154.6957         1.2048       -48.4273      -9.794331      0.7906111
      5233.5000         0.9877       154.4642           1.27       -46.6194      -7.997089      0.8334026
      5234.0000          1.062       146.9785         1.3237       -45.0829      -6.471249      0.8697322
      5234.5000          1.099       139.4929         1.3545       -44.0161      -5.415108      0.8948784
      5235.0000         1.1243       141.1093         1.3584       -43.0793      -4.488964      0.9169294
      5235.5000         1.1373       147.9187         1.3431       -42.2188      -3.639122      0.9371638
      5236.0000         1.1478       131.7636         1.2642       -41.3055      -2.736481      0.9586552
      5236.5000         1.1577       112.8002         1.0891       -40.3205      -1.762138      0.9818538
      5237.0000         1.1667       116.0711         0.9679       -39.8118      -1.264095       0.993712
      5237.5000         1.1664       120.0302         0.8894       -39.5912      -1.054157      0.9987105
      5238.0000         1.1589       123.9893         0.8333       -40.0327       -1.50631       0.987945
      5238.5000         1.1458       124.0367         0.7875       -40.5447      -2.028969      0.9755008
      5239.0000         1.1225       121.7175         0.7473          -41.3      -2.794926      0.9572636
      5239.5000         1.0909       119.3983         0.7127       -42.3135      -3.819084       0.932879
      5240.0000         1.0658       117.1266         0.6801       -43.5081      -5.024342      0.9041823
      5240.5000         1.0357       120.7169         0.6444       -45.4708        -6.9977      0.8571976
      5241.0000         1.0023       124.2351         0.6095        -46.809      -8.346558      0.8250819
      5241.5000         1.0109       127.7533         0.5754       -48.1448      -9.693016      0.7930234
      5242.0000          1.027       128.5093          0.548       -49.5189      -11.07778      0.7600529
      5242.5000         1.0433       125.3877          0.528        -51.048      -12.61753       0.723392
      5243.0000         1.0459       122.2662         0.5091       -53.0962      -14.67639      0.6743716
      5243.5000         1.0408       119.1447         0.4907       -55.3638      -16.95465      0.6201274
      5244.0000         1.0357       116.0231         0.4802       -56.9114      -18.51291       0.583026
      5244.5000         1.0266       114.0912         0.4883       -57.7633      -19.37547      0.5624889
      5245.0000         1.0154       116.5835         0.4965       -56.9858      -18.60862      0.5807471
      5245.5000         1.0034       119.0758         0.5128       -55.9747      -17.60818      0.6045671
      5246.0000         0.9913       121.5681         0.5272       -56.0917      -17.73584      0.6015276
      5246.5000         0.9828       124.5423         0.5348       -56.5468       -18.2016      0.5904382
      5247.0000          0.992       125.6291         0.5423       -57.0018      -18.66726      0.5793511
      5247.5000         1.0012       125.6237         0.5447       -57.7057      -19.38181      0.5623378
      5248.0000         1.0081       123.3701         0.5446       -58.4541      -20.14087      0.5442649
      5248.5000         1.0148       121.1165         0.5501       -58.9055      -20.60293      0.5332636
      5249.0000          1.012       118.8629         0.5616       -59.0228      -20.73089      0.5302169
      5249.5000         1.0003       125.7885         0.5745       -58.6455      -20.36425      0.5389465
      5250.0000         0.9845       138.7938         0.6054       -57.9671       -19.6965      0.5548452
      5250.5000         0.9667       151.7991         0.6406       -56.9821      -18.72216      0.5780437
      5251.0000         0.9511       157.2453         0.6779       -55.9276      -17.67832      0.6028972
      5251.5000         0.9457       151.0433         0.7237       -54.8049      -16.56628      0.6293744
      5252.0000          0.951       144.8413         0.7746       -53.1644      -14.93643      0.6681802
      5252.5000          0.953       138.6394         0.8266       -51.7531      -13.53579      0.7015287
      5253.0000         0.9527       136.2185         0.8617       -49.9861      -11.77945      0.7433465
      5253.5000         0.9518       140.0215         0.8572       -48.5524      -10.35641      0.7772284
      5254.0000         0.9508       143.8244         0.8529       -47.0705      -8.885166      0.8122579
      5254.5000         0.9499       146.9997         0.8498       -45.3667      -7.192024      0.8525708
      5255.0000         0.9478       141.5705         0.8467       -43.7955      -5.631485      0.8897265
      5255.5000          0.945       136.9104         0.8465       -42.6952      -4.541843      0.9156704
      5256.0000         0.9421       132.2503         0.8482       -41.7758      -3.633099      0.9373072
      5256.5000         0.9399        128.282         0.8585       -41.0621      -2.930058      0.9540462
      5257.0000         0.9379       135.2863         0.8812       -40.3701      -2.248714      0.9702687
      5257.5000         0.9387       141.3853         0.9288       -39.7641      -1.653374      0.9844435
      5258.0000         0.9444       147.4843         0.9898       -39.2455      -1.145428      0.9965374
      5258.5000         0.9538       153.5833          1.083       -38.7264     -0.6369858              1
      5259.0000         0.9668       158.4424         1.1621       -38.1707    -0.09194565              1
      5259.5000         0.9845       159.0608         1.2425       -37.6105      0.4575958              1
      5260.0000         1.0097       157.0495         1.3261       -37.0511       1.006336              1
      5260.5000         1.0736       156.5401         1.4155       -36.4941       1.552681              1
      5261.0000         1.1246       156.2753         1.5167        -35.939       2.097122              1
      5261.5000         1.1589       155.8256          1.638       -35.3839       2.641563              1
      5262.0000          1.187       153.5677         1.8203       -34.9047       3.110104              1
      5262.5000         1.2402       148.8858         1.9007       -34.5069       3.497246              1
      5263.0000         1.2861       143.7083         1.9739       -34.1092       3.884289              1
      5263.5000         1.3502       138.5309         1.9346       -33.8581       4.124729              1
      5264.0000         1.3796       133.5974          1.846       -33.6735       4.298672              1
      5264.5000         1.3989       129.2636         1.7406       -33.5239       4.437618              1
