#------------------------------------------------------------------------------
# Created by    : vladimir.rabinovich
# Created on    : 09/19/2023 17:22:03
#------------------------------------------------------------------------------
~Version Information Section
VERS.           2.0     :   CWLS log ASCII Standard - VERSION 2.0
WRAP.           NO      :   One line per depth step
~Well Information Section
#MNEM       .UNIT                                         VALUE :DESCRIPTION
#------------------------------------------------------------------------------
STRT        .FT                                             959 :START DEPTH
STOP        .FT                                            9240 :STOP DEPTH
STEP        .FT                                             0.5 :STEP      
NULL        .                                           -999.25 :NULL      
COMP        .                                  SAMEDAN OIL CORP :COMPANY   
WELL        .                                            WILBER :WELL      
FLD         .                                     HAMSHIRE WEST :FIELD     
LOC         .                                                   :LOCATION  
CNTY        .                                         JEFFERSON :LOCATION  
STAT        .                                             TEXAS :STATE     
CTRY        .                                     UNITED STATES :COUNTRY   
SRVC        .                                                   :SERVICE COMPANY
DATE        .                             9/13/2023 11:18:46 AM :LOG DATE  
API         .                                    42245321080000 :API NUMBER
UWI         .                                    42245321080000 :UNIQUE WELL ID
XCOORD      .                                  1220512.54732583 :SURFACE X 
YCOORD      .                                  10829820.5318697 :SURFACE Y 
LAT         .                                        29.8338887 :LATITUDE  
LON         .                                       -94.3247224 :LONGITUDE 
ELEV        .FT                                              24 :ELEVATION VALUE
ELEV_TYPE   .                                                KB :ELEVATION REFERENCE TYPE
~Curve Information Section
#MNEM       .UNIT                                      API CODE :CURVE DESCRIPTION
#------------------------------------------------------------------------------
DEPT        .FT                                                 :DEPTH     
CALI        .IN                                                 :          
DPSS        .%                                                  :          
DRHO        .G/CM3                                              :          
GR          .GAPI                                               :          
GR_NORM     .GAPI                                               :GammaRay Normalized
ILD         .OHMM                                               :          
ILM         .OHMM                                               :          
NPSS        .%                                                  :Neutron Porosity Sandstone
SGRD        .OHMM                                               :          
SP          .MV                                                 :          
SP_NORM     .MV                                                 :SP Normalized
TENS        .LB                                                 :          
VSH_GR      .V/V                                                :Volume of Shale from GR
VSH_SP      .V/V                                                :Volume of Shale from SP
~A        DEPTH           CALI           DPSS           DRHO             GR        GR_NORM            ILD            ILM           NPSS           SGRD             SP        SP_NORM           TENS         VSH_GR         VSH_SP
# ...
      7547.0000        10.3835        33.0695          0.163        92.2017        86.1721         0.6432         0.6345        40.1122         0.6345       -90.1315      -1.252037       4059.595              1      0.9961812
      7547.5000        10.3845         31.991           0.15         92.809       86.85713         0.6401         0.6343        40.8845         0.6258       -89.7291     -0.8801804       4059.566              1              1
      7548.0000        10.3856        31.5099          0.142        91.9163       85.84455         0.6342         0.6342        41.7156         0.6144       -89.5259     -0.7075119       4059.537              1              1
      7548.5000        10.4066        31.5077          0.138        93.8744       88.05832          0.634          0.634        41.9508         0.6032       -90.3147       -1.52684       4059.508              1      0.9920176
      7549.0000        10.4875        31.8051          0.137        97.3317       91.96879         0.6514         0.6397        41.9479         0.6031       -90.7062      -1.948875       4059.479              1      0.9856231
      7549.5000        10.5685        31.6232          0.137         97.789       92.48405         0.6753         0.6512        41.7072         0.6112       -90.5024      -1.775612       4059.449              1      0.9882483
      7550.0000        10.6495        30.9012          0.143        94.7963       89.09483         0.6938          0.669        40.6346         0.6541       -90.2993      -1.603043        4059.42              1       0.990863
      7550.5000          10.71          29.82          0.153          85.35       78.40186         0.7197         0.7001        39.2072         0.6875       -90.2945      -1.628777       4098.452      0.9659969      0.9904731
      7551.0000          10.75          28.86         0.1621          80.85       73.30677           0.74         0.7199        38.4924         0.6971       -89.8935      -1.258308       4097.528      0.8575909      0.9960862
      7551.5000        10.7897          28.38         0.1671          83.85       76.69969         0.7644         0.7402         38.788         0.7036       -89.6898      -1.085136       4096.604      0.9297807        0.99871
      7552.0000        10.7897          28.56         0.1682           89.1       82.63902          0.797         0.7611         39.322         0.7038       -89.4865      -0.912384       4056.007              1              1
      7552.5000        10.7897          28.92         0.1692          94.35       88.57835         0.8313         0.7935        39.0825         0.7138       -89.4815      -0.937912       4055.061              1              1
      7553.0000        10.7897           29.4         0.1693          95.25       89.59463         0.8671         0.8276        38.0089         0.7407       -89.0788     -0.5657425        4054.02              1              1
      7553.5000        10.7897          29.88         0.1653          93.15       87.21571         0.8834         0.8712        36.5168         0.7794       -89.4708     -0.9882813       4053.073              1              1
      7554.0000        10.7898          29.28         0.1694          88.35       81.78111         0.8834         0.8834        35.2004         0.8202        -90.857      -2.405014       4052.124              1      0.9787119
      7554.5000        10.7898          28.44         0.1914           80.4       72.78155         0.8835         0.8633        34.4809         0.8474       -92.2446      -3.823143       4051.175      0.8464159      0.9572251
      7555.0000        10.7898          28.08         0.1995          74.55       66.15862         0.8835          0.832        34.6577         0.8167       -93.8321      -5.441177       4050.224      0.7055026      0.9327095
      7555.5000          10.75          28.14         0.1995          71.55       62.76114         0.8714         0.8094        35.0135         0.7659       -94.4263       -6.06591       4049.178      0.6332158      0.9232438
      7556.0000        10.7898          28.56         0.1996           71.7       62.92862         0.8516         0.7984        35.2497         0.7383       -94.8219      -6.492043       4068.141      0.6367791      0.9167872
      7556.5000          10.75          29.46         0.1996           71.4       62.58682         0.8439         0.7986         34.472          0.725       -95.0187      -6.719383       4047.273      0.6295069      0.9133427
      7557.0000          10.75         30.298         0.1997             69       59.86838         0.8249         0.8099         34.589          0.712       -93.8199      -5.551117       4046.319      0.5716677      0.9310437
      7557.5000          10.71         30.417         0.1997           67.5        58.1685         0.8101         0.8101        35.7185         0.7187       -93.8169      -5.578651       4085.252         0.5355      0.9306265
      7558.0000          10.67          29.58         0.1988           68.1       58.84526         0.7992         0.8102        35.6559         0.7562       -94.4126       -6.20488       4084.222      0.5498992      0.9211382
      7558.5000          10.67          28.38         0.1988          69.45       60.37082         0.7848         0.8067        34.3441         0.7884       -95.0085      -6.831314       4083.285      0.5823578      0.9116468
      7559.0000          10.65           27.3         0.1809           69.9       60.87782         0.7814         0.8069        33.6877         0.7061       -93.8076       -5.66095       4122.295      0.5931452      0.9293795
      7559.5000          10.65          26.22         0.1469          71.85       63.08244         0.7673         0.7744        34.3399         0.6434        -92.006      -3.889877       4081.407      0.6400518       0.956214
      7560.0000          10.61          25.68          0.114          74.85       66.47536         0.7431         0.7534         34.694         0.6556       -91.4018      -3.316216       4060.472      0.7122416      0.9649058
      7560.5000         10.651        25.3768          0.091           78.6       70.71707          0.713         0.7711        33.5016         0.7466            -95      -6.944946       4038.986      0.8024909       0.909925
      7561.0000         10.673        25.2508          0.077             81       73.43096         0.6618         0.7782         32.367         0.8371          -98.8      -10.77549       4076.962      0.8602332      0.8518865
      7561.5000        10.6951        25.5447          0.073           81.6       74.10772         0.6258          0.789        32.4204         0.8333          -97.2      -9.206017       4074.942      0.8746323      0.8756664
      7562.0000        10.7171        26.2586          0.076          79.95       71.21556         0.5919         0.7675        33.7806         0.6838            -94      -6.036552       4052.924      0.8130971      0.9236886
      7562.5000        10.6991        27.3324          0.095          76.95       67.37053         0.5629         0.6496        35.4384         0.5046          -90.6      -2.667084       4030.906      0.7312878      0.9747412
      7563.0000        10.6611        28.0469          0.118          82.95       75.05287         0.5281         0.5681        37.9465         0.3744          -88.8     -0.8976212       4028.886       0.894742              1
      7563.5000        10.5432        27.5009          0.145          88.65       82.35099         0.4977         0.5502        39.8608         0.3043          -89.6      -1.728149       4066.862              1      0.9889674
      7564.0000        10.5052        24.9145          0.156           82.8        74.8556         0.4685         0.5403        39.1948         0.5759          -94.8      -6.958687       4064.842      0.8905447      0.9097168
      7564.5000        10.4472        21.3685          0.146          69.75       58.13829         0.4349         0.5354        28.9286         1.2834           -110      -22.18922       4042.824      0.5348573      0.6789513
