#------------------------------------------------------------------------------
# Created by    : vladimir.rabinovich
# Created on    : 09/19/2023 17:19:39
#------------------------------------------------------------------------------
~Version Information Section
VERS.           2.0     :   CWLS log ASCII Standard - VERSION 2.0
WRAP.           NO      :   One line per depth step
~Well Information Section
#MNEM       .UNIT                                         VALUE :DESCRIPTION
#------------------------------------------------------------------------------
STRT        .FT                                            1969 :START DEPTH
STOP        .FT                                            7841 :STOP DEPTH
STEP        .FT                                             0.5 :STEP      
NULL        .                                           -999.25 :NULL      
COMP        .                           NEWFIELD EXPLORATION CO :COMPANY   
WELL        .                                   PHELAN GAS UNIT :WELL      
FLD         .                                          BINDWEED :FIELD     
LOC         .                                                   :LOCATION  
CNTY        .                                         JEFFERSON :LOCATION  
STAT        .                                             TEXAS :STATE     
CTRY        .                                     UNITED STATES :COUNTRY   
SRVC        .                                                   :SERVICE COMPANY
DATE        .                             9/13/2023 11:18:46 AM :LOG DATE  
API         .                                    42245322670000 :API NUMBER
UWI         .                                    42245322670000 :UNIQUE WELL ID
XCOORD      .                                  1272550.81244857 :SURFACE X 
YCOORD      .                                  10898469.5255822 :SURFACE Y 
LAT         .                                        30.0242363 :LATITUDE  
LON         .                                        -94.162774 :LONGITUDE 
ELEV        .FT                                              24 :ELEVATION VALUE
ELEV_TYPE   .                                                KB :ELEVATION REFERENCE TYPE
~Curve Information Section
#MNEM       .UNIT                                      API CODE :CURVE DESCRIPTION
#------------------------------------------------------------------------------
DEPT        .FT                                                 :DEPTH     
AHT20       .OHMM                                               :          
AHT30       .OHMM                                               :          
AHT60       .OHMM                                               :          
AHT90       .OHMM                                               :          
DCAL        .IN                                                 :          
DPHZSS      .V/V                                                :          
DT          .US/FT                                              :          
GR_NORM     .GAPI                                               :GammaRay Normalized
GRR         .GAPI                                               :          
HDRA        .G/CM3                                              :          
NPORSS      .V/V                                                :          
SP          .MV                                                 :          
SP_NORM     .MV                                                 :SP Normalized
TENR        .LB                                                 :          
VSH_GR      .V/V                                                :Volume of Shale from GR
VSH_SP      .V/V                                                :Volume of Shale from SP
~A        DEPTH          AHT20          AHT30          AHT60          AHT90           DCAL         DPHZSS             DT        GR_NORM            GRR           HDRA         NPORSS             SP        SP_NORM           TENR         VSH_GR         VSH_SP
# ...
      7409.0000         0.4369         0.4075            0.4         0.3928              0         0.3004       103.7328       38.27512        58.2004        -0.0321         0.3098       -71.0069      -84.35235        3658.97      0.1122367     0.06644296
      7409.5000         0.4329         0.4019         0.3946         0.3874           0.16         0.2825       103.6336       39.42912        59.1017        -0.0231         0.2939       -72.2356      -85.56595         3659.4      0.1367898     0.05216531
      7410.0000         0.4269         0.4037         0.3964         0.3892            0.3         0.2742       103.3326       40.58325        60.0031         -0.024         0.2802        -72.854      -86.16924       3659.829      0.1613457     0.04506782
      7410.5000         0.4269         0.4152         0.4075            0.4           0.44         0.2826       103.0303       40.57887             60         -0.041         0.2862       -71.0204      -84.32054           3660      0.1612525     0.06681716
      7411.0000         0.4773         0.4577         0.4493          0.441           0.48         0.2922       102.6263       40.38441        59.8485         -0.048         0.2958       -68.3673      -81.65234           3680      0.1571152     0.09820781
      7411.5000         0.5502         0.4977         0.4885         0.4795           0.48         0.2958       102.4242       39.80175        59.3939         -0.045         0.3029       -66.7347      -80.00463           3700      0.1447182      0.1175926
      7412.0000         0.5502         0.4977         0.4885         0.4795           0.44         0.2904       102.1212       39.80134        59.3939         -0.043         0.3141       -66.1224      -79.37723           3680      0.1447094      0.1249738
      7412.5000         0.5305         0.4977         0.4885         0.4795           0.32          0.291       100.9091       40.18915         59.697         -0.042         0.3259       -65.7143      -78.95403           3700      0.1529606      0.1299526
      7413.0000         0.5354         0.5162         0.5069         0.4977           0.22         0.2934        100.101        42.3413        61.3776         -0.038         0.3206       -64.0816      -77.30621           3700       0.198751      0.1493387
      7413.5000         0.5553         0.5281         0.5186         0.5092           0.16         0.2874           99.8       44.49727        63.0612         -0.025         0.3082       -64.0816      -77.29111           3680      0.2446228      0.1495163
      7414.0000         0.5477         0.5305         0.5209         0.5115            0.1         0.2718           99.8       46.84948         64.898         -0.012         0.3024       -66.7347      -79.92912           3680      0.2946698       0.118481
      7414.5000         0.5092         0.4931          0.484         0.4751            0.1         0.2574        100.303       49.78971        67.1939         -0.011         0.2976       -69.5918       -82.7711           3680      0.3572278     0.08504585
      7415.0000         0.4707         0.4514         0.4431         0.4349            0.1         0.2736       101.3131       51.35767        68.4184         -0.028         0.3082       -71.6327      -84.79691           3660      0.3905888     0.06121287
      7415.5000          0.441         0.4349         0.4269          0.419            0.1         0.2916       101.8182       50.76911        67.9592         -0.048         0.3212        -72.449       -85.5981           3640      0.3780661     0.05178707
      7416.0000         0.4309         0.4269          0.419         0.4113            0.1          0.294       104.3434       49.00423        66.5816         -0.051         0.3265       -72.8571       -85.9911           3640      0.3405156     0.04716348
      7416.5000         0.4493         0.4431         0.4349         0.4269            0.1         0.2856          118.1       45.47504        63.8265          -0.05         0.3247       -72.6531        -85.772           3660      0.2654264     0.04974123
      7417.0000         0.5023         0.4751         0.4663         0.4577            0.1         0.2784          124.2       41.94584        61.0714         -0.049         0.3224        -72.449      -85.55279           3660      0.1903371     0.05232015
      7417.5000         0.5139         0.4908         0.4817         0.4729           0.14         0.2868          117.2        36.3038        56.6667         -0.052         0.3171       -73.6735      -86.76219           3680     0.07029359     0.03809186
      7418.0000         0.4885         0.4472          0.439         0.4309           0.14         0.2964       106.3636       33.19831        54.2424         -0.047         0.3106       -75.5102      -88.58379           3680    0.004219299     0.01666134
      7418.5000         0.4472         0.4056         0.3982          0.391           0.14         0.2844       105.0505        32.0335        53.3333         -0.035         0.3006       -77.9592      -91.01768           3700              0              0
      7419.0000         0.4056         0.3718         0.3651         0.3585           0.16          0.267       105.7576       34.74996        55.4545         -0.032         0.3024            -80      -93.04338           3680     0.03723323              0
      7419.5000         0.3839         0.3601         0.3536         0.3472           0.22         0.2808       106.3636       35.13778        55.7576         -0.031         0.3159       -81.6162      -94.64448           3680     0.04548458              0
      7420.0000         0.3752         0.3488         0.3425         0.3363            0.3         0.2964       106.1616       32.42049        53.6364         -0.042         0.3282       -82.4242      -95.43737           3700              0              0
      7420.5000          0.365         0.3378         0.3317         0.3257           0.34         0.3112       105.2525       29.89725        51.6667          -0.05         0.3347       -82.4242      -95.42227           3700              0              0
      7421.0000         0.3503         0.3256         0.3197         0.3139           0.32         0.3106       105.1515       28.15018         50.303         -0.047         0.3418       -81.2121      -94.19506           3680              0              0
      7421.5000         0.3438         0.3153         0.3096          0.304           0.22         0.3212       105.6566       28.34382        50.4545         -0.033         0.3476       -78.7755      -91.74335           3660              0              0
      7422.0000         0.3329         0.3109         0.3053         0.2998           0.16         0.3106       106.3636       29.50781        51.3636         -0.018         0.3441       -76.5306      -89.48336           3640              0    0.006078114
      7422.5000         0.3549         0.3299         0.3137          0.308           0.08          0.294       106.8687       31.06001        52.5758         -0.001         0.3229       -77.3469      -90.28455           3640              0              0
      7423.0000         0.3852          0.363         0.3283         0.3223              0          0.279       106.8687       33.00018        54.0909          0.008         0.3153       -79.5918      -92.51434           3640 0.000003895861              0
      7423.5000         0.4165         0.3886         0.3435         0.3373           0.06         0.2868       106.5657       34.94047        55.6061         -0.007         0.3153       -80.8081      -93.71555           3640     0.04128655              0
      7424.0000         0.4049         0.3815         0.3595          0.353           0.12         0.3018       106.0606       35.91029        56.3636         -0.032         0.3176       -81.8182      -94.71054           3640     0.06192106              0
      7424.5000         0.3884         0.3677         0.3529         0.3465           0.14         0.3147       105.6566       32.99895        54.0909         -0.059         0.3212       -83.8384      -96.71564           3620              0              0
