#------------------------------------------------------------------------------
# Created by    : vladimir.rabinovich
# Created on    : 09/19/2023 17:19:40
#------------------------------------------------------------------------------
~Version Information Section
VERS.           2.0     :   CWLS log ASCII Standard - VERSION 2.0
WRAP.           NO      :   One line per depth step
~Well Information Section
#MNEM       .UNIT                                         VALUE :DESCRIPTION
#------------------------------------------------------------------------------
STRT        .FT                                            1208 :START DEPTH
STOP        .FT                                            8860 :STOP DEPTH
STEP        .FT                                             0.5 :STEP      
NULL        .                                           -999.25 :NULL      
COMP        .                             WEAVER EXPLORATION CO :COMPANY   
WELL        .                                       BEAVERS W H :WELL      
FLD         .                                           WILDCAT :FIELD     
LOC         .                                                   :LOCATION  
CNTY        .                                         JEFFERSON :LOCATION  
STAT        .                                             TEXAS :STATE     
CTRY        .                                     UNITED STATES :COUNTRY   
SRVC        .                                                   :SERVICE COMPANY
DATE        .                             9/13/2023 11:18:46 AM :LOG DATE  
API         .                                    42245314920000 :API NUMBER
UWI         .                                    42245314920000 :UNIQUE WELL ID
XCOORD      .                                  1212655.17721247 :SURFACE X 
YCOORD      .                                  10886677.7304034 :SURFACE Y 
LAT         .                                        29.9899994 :LATITUDE  
LON         .                                       -94.3516153 :LONGITUDE 
ELEV        .FT                                            37.2 :ELEVATION VALUE
ELEV_TYPE   .                                                KB :ELEVATION REFERENCE TYPE
~Curve Information Section
#MNEM       .UNIT                                      API CODE :CURVE DESCRIPTION
#------------------------------------------------------------------------------
DEPT        .FT                                                 :DEPTH     
ALL         .OHMM                                               :          
CILD        .MMHO/M                                             :          
ILD         .OHMM                                               :          
SP          .MV                                                 :          
SP_NORM     .MV                                                 :SP Normalized
VSH_SP      .V/V                                                :Volume of Shale from SP
~A        DEPTH            ALL           CILD            ILD             SP        SP_NORM         VSH_SP
# ...
      1702.0000         2.4608       915.4384         1.0322       108.0362      -40.47729      0.1417981
      1702.5000         2.4811       907.2844         1.0629       108.4456      -40.07977      0.1504397
      1703.0000         2.4813       895.1116         1.0835        108.855      -39.68227       0.159081
      1703.5000         2.4515       882.9274         1.1141       108.8693      -39.67986      0.1591334
      1704.0000         2.4015       910.8795         1.1448        108.279      -40.28207       0.146042
      1704.5000         2.3716       942.8762         1.1552       107.6886      -40.88435      0.1329488
      1705.0000         2.3416       974.9047         1.1556       107.4982      -41.08664      0.1285513
      1705.5000         2.3017       1006.965          1.146       107.1078      -41.48894      0.1198057
      1706.0000         2.2716       1043.081         0.9958       106.9174      -41.69123       0.115408
      1706.5000         2.2516       1075.207         0.9762        106.527      -42.09351      0.1066628
      1707.0000         2.2215       1107.365         0.9465       106.1366      -42.49582     0.09791698
      1707.5000         2.1914       1127.468         0.9268       106.1462       -42.4981     0.09786738
      1708.0000         2.1714       1135.496         0.9172       106.3556      -42.30059      0.1021611
      1708.5000         2.1614       1147.565         0.8874       106.3652      -42.30289       0.102111
      1709.0000         2.1514       1171.752         0.8878       106.5794      -42.10058      0.1065092
      1709.5000         2.1514       1171.738         0.8681       106.7889      -41.90296      0.1108052
      1710.0000         2.1414       1171.717         0.8687          106.4      -42.30376      0.1020921
      1710.5000         2.1418       1167.677         0.8687            106      -42.71565     0.09313799
      1711.0000         2.1422       1163.636         0.8789          105.6      -43.12756     0.08418357
      1711.5000         2.1426       1155.556          0.879          105.6      -43.13944     0.08392517
      1712.0000         2.1329       1151.515         0.8891          105.6      -43.15133     0.08366676
      1712.5000         2.1535       1147.475         0.8892          105.6      -43.16323     0.08340802
      1713.0000          2.164       1143.434         0.8993          105.6      -43.17512     0.08314962
      1713.5000         2.1744       1139.394         0.8993          105.6        -43.187     0.08289122
      1714.0000         2.1951       1131.313         0.9094          105.8       -42.9989      0.0869804
      1714.5000         2.2156       1135.354         0.9095          105.8      -43.01079       0.086722
      1715.0000          2.206       1139.394         0.9095          105.8      -43.02267     0.08646359
      1715.5000         2.1963       1143.434         0.8995          105.8      -43.03458     0.08620486
      1716.0000         2.1866       1147.475         0.8896          106.2      -42.64647     0.09464198
      1716.5000          2.177       1151.515         0.8796          106.2      -42.65836     0.09438358
      1717.0000         2.1573       1151.515         0.8796          106.8      -42.07025      0.1071684
      1717.5000         2.1277       1159.596         0.8797          107.4      -41.48214      0.1199535
      1718.0000          2.108       1167.677         0.8797          107.6      -41.29404      0.1240425
      1718.5000         2.0985       1171.717         0.8798          108.2      -40.70593      0.1368276
      1719.0000         2.0889       1179.798         0.8799            109      -39.91782      0.1539605
      1719.5000         2.0593       1155.556         0.8899          109.8      -39.12971      0.1710932
      1720.0000           2.05       1115.168         0.8998          110.8       -38.1416      0.1925739
      1720.5000           2.03       1090.788         0.9202          109.6      -39.35349      0.1662284
      1721.0000          1.992       1074.504         1.0111          108.4      -40.56539      0.1398828
      1721.5000          1.984       1078.406         0.9915          109.6      -39.37728      0.1657113
      1722.0000         1.9741       1082.305         0.9519            111      -37.98917      0.1958877
      1722.5000         1.9761        1090.23         0.9223          110.8      -38.20107      0.1912812
      1723.0000         1.9821       1098.148         0.9127          109.8      -39.21295      0.1692837
      1723.5000          1.988       1122.163         0.8931          108.6      -40.42484      0.1429382
      1724.0000         2.0301       1146.154         0.8835          107.6      -41.43674      0.1209403
      1724.5000         2.0301       1170.122         0.8739          106.6      -42.44863      0.0989428
      1725.0000         2.0301       1194.066         0.8542          105.4      -43.66053     0.07259717
      1725.5000         2.0402       1218.077         0.8345          104.4      -44.67242     0.05059964
      1726.0000         2.0402       1242.115         0.8249          104.4       -44.6843     0.05034123
      1726.5000         2.0503       1254.038         0.8253          104.4      -44.69621      0.0500825
      1727.0000         2.0604       1237.596         0.8357          105.2       -43.9081      0.0672153
      1727.5000         2.0604       1193.031         0.8563          107.8      -41.31998      0.1234788
      1728.0000         2.0706       1148.758         0.9273            110      -39.13188       0.171046
      1728.5000         2.0807       1104.525         0.9479          112.2      -36.94377      0.2186137
      1729.0000         2.1009       1040.252         0.9584          114.4      -34.75565      0.2661814
      1729.5000         2.1211       996.1172         0.9892          116.8      -32.36755      0.3180967
      1730.0000         2.2222            948           1.05       119.5953      -29.58414      0.3786055
      1730.5000         2.2831            884         1.2501        126.608      -22.58333      0.5307972
      1731.0000         2.3137       783.8384         1.3203       126.0176      -23.18563      0.5177037
      1731.5000         2.3544       715.1515         1.3705       123.8277      -25.38742      0.4698387
      1732.0000         2.2539       719.1919         1.3807       121.4378      -27.78922      0.4176256
      1732.5000          2.214       723.2323         1.2406       119.8477       -29.3912      0.3827999
      1733.0000         2.1841       743.4343         1.2206       118.4575       -30.7933      0.3523196
      1733.5000         2.1141       775.7576         1.2007       115.8677        -33.395      0.2957609
      1734.0000         2.0642            808         1.2008       113.4777      -35.79688       0.243546
      1734.5000         1.9347            844         1.1908       112.0876      -37.19887      0.2130681
      1735.0000         1.9366            844         1.1909       111.2973      -38.00107       0.195629
      1735.5000         1.9604            836          1.191       111.7067      -37.60355      0.2042706
      1736.0000         2.0261            824         1.1911        112.716      -36.60614      0.2259535
      1736.5000         2.0968            816         1.1912       113.7253      -35.60874       0.247636
      1737.0000         2.1975            816         1.1913         111.94      -37.40593      0.2085668
      1737.5000         2.3583            816         1.1914       111.5496      -37.80822      0.1998213
      1738.0000         2.3786            856         1.1915       110.9593      -38.41042      0.1867299
      1738.5000         2.3188            900         1.1714        110.369       -39.0126       0.173639
      1739.0000         2.2392            944          1.111       109.7786      -39.61491      0.1605455
      1739.5000         2.1696           1004           0.96       109.1883      -40.21709      0.1474545
