#------------------------------------------------------------------------------
# Created by    : vladimir.rabinovich
# Created on    : 09/19/2023 17:20:52
#------------------------------------------------------------------------------
~Version Information Section
VERS.           2.0     :   CWLS log ASCII Standard - VERSION 2.0
WRAP.           NO      :   One line per depth step
~Well Information Section
#MNEM       .UNIT                                         VALUE :DESCRIPTION
#------------------------------------------------------------------------------
STRT        .FT                                             722 :START DEPTH
STOP        .FT                                            8710 :STOP DEPTH
STEP        .FT                                             0.5 :STEP      
NULL        .                                           -999.25 :NULL      
COMP        .                              BRUNER ARNOLD H & CO :COMPANY   
WELL        .                                              WEIR :WELL      
FLD         .                                           WILDCAT :FIELD     
LOC         .                                                   :LOCATION  
CNTY        .                                         JEFFERSON :LOCATION  
STAT        .                                             TEXAS :STATE     
CTRY        .                                     UNITED STATES :COUNTRY   
SRVC        .                                                   :SERVICE COMPANY
DATE        .                             9/13/2023 11:19:11 AM :LOG DATE  
API         .                                    42245021890000 :API NUMBER
UWI         .                                    42245021890000 :UNIQUE WELL ID
XCOORD      .                                  1215604.35578741 :SURFACE X 
YCOORD      .                                  10884998.9913957 :SURFACE Y 
LAT         .                                        29.9854781 :LATITUDE  
LON         .                                       -94.3422367 :LONGITUDE 
ELEV        .FT                                              36 :ELEVATION VALUE
ELEV_TYPE   .                                                DF :ELEVATION REFERENCE TYPE
~Curve Information Section
#MNEM       .UNIT                                      API CODE :CURVE DESCRIPTION
#------------------------------------------------------------------------------
DEPT        .FT                                                 :DEPTH     
ASN         .OHMM                                               :          
LAT         .OHMM                                               :          
LN          .OHMM                                               :          
SP          .MV                                                 :          
SP_NORM     .MV                                                 :SP Normalized
VSH_SP      .V/V                                                :Volume of Shale from SP
~A        DEPTH            ASN            LAT             LN             SP        SP_NORM         VSH_SP
# ...
      8664.0000         0.8448          0.807          0.807       -59.0745      -2.215096      0.9970535
      8664.5000         0.8069          0.807          0.807       -59.0907      -2.260258      0.9964348
      8665.0000         0.8138          0.807         0.8246        -59.107      -2.305527      0.9958147
      8665.5000         0.8241          0.807         0.8246       -59.1233      -2.350796      0.9951946
      8666.0000         0.8552         0.7895         0.8246       -57.3473     -0.6037674              1
      8666.5000         0.8966         0.7719         0.8421       -56.6424     0.07217026              1
      8667.0000         0.9414         0.7719         0.8421       -55.5752       1.110401              1
      8667.5000         0.9724         0.7544         0.8421       -55.2249       1.431732              1
      8668.0000         0.9759         0.7368         0.8246       -54.8734       1.754261              1
      8668.5000         0.9724         0.7368          0.807       -54.8823       1.716396              1
      8669.0000         0.9517         0.7368          0.807       -54.8912       1.678528              1
      8669.5000         0.9517         0.7544         0.7895       -54.9001       1.640659              1
      8670.0000         0.9276         0.7719         0.7895            -56      0.5117912              1
      8670.5000         0.8897          0.807         0.7895       -56.3636      0.1192245              1
      8671.0000         0.8345         0.8246         0.7895       -56.7273     -0.2734413              1
      8671.5000         0.7821         0.8421         0.7895       -57.4545       -1.02961              1
      8672.0000          0.775         0.8596         0.7895       -57.8182      -1.422279              1
      8672.5000            0.8         0.8947         0.7895       -58.5455      -2.178547      0.9975541
      8673.0000         0.8207         0.9123         0.7895       -58.5455      -2.207516      0.9971573
      8673.5000         0.8276         0.9298         0.7719       -58.5455      -2.236485      0.9967605
      8674.0000         0.8069         0.9298         0.7719       -58.5455      -2.265453      0.9963636
      8674.5000         0.7714         0.9474         0.7719       -58.5455      -2.294418      0.9959669
      8675.0000         0.8241         0.9474         0.7719       -58.5455      -2.323387      0.9955701
      8675.5000         0.8966         0.9298         0.7719       -58.5455      -2.352356      0.9951732
      8676.0000         0.9034         0.9298         0.7544       -58.1818      -2.017624      0.9997586
      8676.5000            0.9         0.9298         0.7368       -57.8182      -1.682987              1
      8677.0000         0.8103         0.9298         0.7368       -57.4545      -1.348255              1
      8677.5000         0.7571         0.9298         0.7193       -57.4545      -1.377224              1
      8678.0000         0.7429         0.9649         0.7018       -57.0909      -1.042595              1
      8678.5000         0.7286              1         0.6842       -57.0909       -1.07156              1
      8679.0000         0.7214          1.069         0.6667       -57.0909      -1.100529              1
      8679.5000         0.7571         1.1379         0.6667       -56.7273     -0.7658958              1
      8680.0000         0.9069         1.1379         0.6667       -56.7273     -0.7948647              1
      8680.5000         0.9932         1.1552         0.6842       -56.7349     -0.8314323              1
      8681.0000          0.921         1.1379         0.7018       -56.7501     -0.8755989              1
      8681.5000         0.8453         1.1207         0.7193       -56.7654     -0.9198685              1
      8682.0000         0.8661         1.1034         0.7544       -56.7807      -0.964138              1
      8682.5000         0.9077          1.069         0.7544        -56.796      -1.008404              1
      8683.0000         0.9492         1.0345         0.7544       -56.8113       -1.05267              1
      8683.5000         0.9908         1.0172         0.7544       -56.8267      -1.097038              1
      8684.0000         1.0152              1         0.7544       -56.8421      -1.141407              1
      8684.5000         1.0084         0.9644         0.7544       -56.8575      -1.185772              1
      8685.0000         0.9844         0.9465         0.7544        -56.873      -1.230244              1
      8685.5000         0.9708         0.9285         0.7544       -56.8885      -1.274712              1
      8686.0000         0.9434         0.9104         0.7544        -56.904      -1.319176              1
      8686.5000         0.9194         0.8923         0.7544       -56.9195      -1.363644              1
      8687.0000          0.892         0.8922         0.7368       -56.9351      -1.408215              1
      8687.5000         0.8646          0.856         0.7193       -56.9507      -1.452782              1
      8688.0000         0.8441         0.8557         0.6842       -56.9663      -1.497349              1
      8688.5000          0.827         0.8374         0.6667       -56.6128      -1.172817              1
      8689.0000         0.7924          0.819          0.614       -56.2587     -0.8476868              1
      8689.5000         0.7744         0.8187         0.6316       -55.9038     -0.5217552              1
      8690.0000           0.76         0.8183         0.6316       -55.9186     -0.5655174              1
      8690.5000           0.76         0.8183         0.6317       -55.9259     -0.6017876              1
      8691.0000         0.7673         0.8187         0.6319       -55.5556     -0.2604561              1
      8691.5000         0.7746          0.819         0.6322       -55.5556     -0.2894249              1
      8692.0000         0.7855         0.8013         0.6324       -55.1852     0.05200958              1
      8692.5000         0.7891         0.7836         0.6326       -55.1852     0.02304077              1
      8693.0000         0.7891          0.784         0.6506       -54.8148      0.3644714              1
      8693.5000         0.7855         0.7844         0.6508       -54.8148      0.3355026              1
      8694.0000         0.7819         0.7848         0.6511       -54.4444      0.6769371              1
      8694.5000          0.782         0.7851         0.6514       -54.4444      0.6479683              1
      8695.0000          0.782         0.7855         0.6517       -54.0741      0.9892998              1
      8695.5000          0.782         0.7859         0.6519       -54.0741       0.960331              1
      8696.0000          0.782         0.7863         0.6522       -53.7037       1.301765              1
      8696.5000         0.7928         0.7867         0.6525       -53.7037       1.272797              1
      8697.0000         0.8034          0.787         0.6527       -53.3333       1.614227              1
      8697.5000         0.8102         0.7874          0.653       -53.3333       1.585258              1
      8698.0000          0.817         0.7878         0.6533       -53.3333       1.556293              1
      8698.5000         0.8238         0.7882         0.6536       -53.3333       1.527325              1
      8699.0000         0.8238         0.7885         0.6538       -53.3333       1.498356              1
      8699.5000         0.8271         0.7889         0.6541       -53.3333       1.469387              1
      8700.0000         0.8271         0.7893         0.6544       -53.3333       1.440422              1
      8700.5000         0.8268         0.7719         0.6528       -53.3426       1.402153              1
      8701.0000         0.8266         0.7544          0.651        -53.361       1.354786              1
      8701.5000         0.8263         0.7544         0.6492       -53.3793       1.307518              1
