#------------------------------------------------------------------------------
# Created by    : vladimir.rabinovich
# Created on    : 09/19/2023 17:22:41
#------------------------------------------------------------------------------
~Version Information Section
VERS.           2.0     :   CWLS log ASCII Standard - VERSION 2.0
WRAP.           NO      :   One line per depth step
~Well Information Section
#MNEM       .UNIT                                         VALUE :DESCRIPTION
#------------------------------------------------------------------------------
STRT        .FT                                             190 :START DEPTH
STOP        .FT                                            7751 :STOP DEPTH
STEP        .FT                                             0.5 :STEP      
NULL        .                                           -999.25 :NULL      
COMP        .                       GOLDEN TRIANGLE STORAGE LLC :COMPANY   
WELL        .                         GOLDEN TRIANGLE STORAGE 2 :WELL      
FLD         .                                        SPINDLETOP :FIELD     
LOC         .                                                   :LOCATION  
CNTY        .                                         JEFFERSON :LOCATION  
STAT        .                                             TEXAS :STATE     
CTRY        .                                     UNITED STATES :COUNTRY   
SRVC        .                                                   :SERVICE COMPANY
DATE        .                             9/13/2023 11:18:46 AM :LOG DATE  
API         .                                    42245325580000 :API NUMBER
UWI         .                                    42245325580000 :UNIQUE WELL ID
XCOORD      .                                  1288599.33875083 :SURFACE X 
YCOORD      .                                  10896379.1240251 :SURFACE Y 
LAT         .                                        30.0189256 :LATITUDE  
LON         .                                       -94.1119908 :LONGITUDE 
ELEV        .FT                                            12.2 :ELEVATION VALUE
ELEV_TYPE   .                                                GL :ELEVATION REFERENCE TYPE
~Curve Information Section
#MNEM       .UNIT                                      API CODE :CURVE DESCRIPTION
#------------------------------------------------------------------------------
DEPT        .FT                                                 :DEPTH     
DCAL        .IN                                                 :          
DPSS        .V/V                                                :          
DRHO        .G/CM3                                              :          
GR          .GAPI                                               :          
GR_NORM     .GAPI                                               :GammaRay Normalized
ILD         .OHMM                                               :          
ILM         .OHMM                                               :          
NPSS        .V/V                                                :Neutron Porosity Sandstone
SFL         .OHMM                                               :          
SP          .MV                                                 :          
SP_NORM     .MV                                                 :SP Normalized
TENS        .LB                                                 :          
VSH_GR      .V/V                                                :Volume of Shale from GR
VSH_SP      .V/V                                                :Volume of Shale from SP
~A        DEPTH           DCAL           DPSS           DRHO             GR        GR_NORM            ILD            ILM           NPSS            SFL             SP        SP_NORM           TENS         VSH_GR         VSH_SP
# ...
      1216.0000          -0.68         0.3588          0.051             66       96.02553          1.088         1.5243         0.5712          1.375          -57.6     -0.8098755           1000              1              1
      1216.5000          -0.72         0.3637          0.051             66       96.02131         1.0285         1.4275         0.5736         1.2639          -58.4      -1.609879           1000              1              1
      1217.0000          -0.72         0.3686         0.0531           67.2       98.24503              1          1.375         0.5772         1.1948          -59.2      -2.409878           1000              1      0.9875795
      1217.5000           -0.6          0.371         0.0592           68.7       101.0257          0.974         1.2999         0.5856          1.119          -59.2      -2.409878           1000              1      0.9875795
      1218.0000           -0.6         0.3722         0.0653           70.2       103.8064         0.9487         1.2878         0.6024         1.0982          -59.6      -2.809875           1000              1      0.9754583
      1218.5000          -0.56         0.3686         0.0755           71.1       105.4731         0.9487         1.2758         0.6096         1.1509            -60      -3.209877           1000              1      0.9633371
      1219.0000          -0.52         0.3624         0.0796           71.1       105.4689          0.974         1.2999         0.6204         1.2288          -60.4      -3.609879           1000              1      0.9512158
      1219.5000          -0.44         0.3564         0.0816           69.3       102.1228         0.9913          1.375         0.6192         1.3121          -61.6      -4.809875           1000              1      0.9148523
      1220.0000          -0.44         0.3564         0.0796           68.1       99.89063         0.9913          1.375         0.6108         1.2878          -62.4      -5.609879           1000              1      0.8906097
      1220.5000          -0.36         0.3588         0.0755           68.7       101.0003         0.9826         1.3622         0.6024         1.2404          -62.8      -6.009876       998.8235              1      0.8784886
      1221.0000          -0.32         0.3649         0.0673           69.6       102.6671         0.9655          1.375         0.5772         1.2174          -62.8      -6.009876       996.8627              1      0.8784886
      1221.5000          -0.28          0.371         0.0612           69.6       102.6628         0.9655          1.401         0.5592          1.206          -62.4      -5.609879        994.902              1      0.8906097
      1222.0000          -0.28         0.3747          0.049           67.8       99.31671          0.974          1.441          0.552          1.206            -62      -5.209877       992.9412              1       0.902731
      1222.5000          -0.28         0.3722         0.0429           64.8       93.74267          0.974         1.4682         0.5508         1.2404          -63.6      -6.809875       990.9804              1      0.8542462
      1223.0000          -0.24         0.3637         0.0367           61.5       87.61163         0.9826         1.5243         0.5532         1.3245          -65.6      -8.809875       988.6275              1      0.7936401
      1223.5000          -0.16         0.3624         0.0408           59.1       83.15148              1         1.5677          0.558          1.482          -69.2      -12.40987       986.6667              1      0.6845493
      1224.0000           0.36         0.3857         0.0469             57       79.24841              1         1.5973          0.558         1.6124            -72      -15.20988       984.7059      0.9840086      0.5997007
      1224.5000           0.92         0.4078         0.0673           55.2       75.90228              1         1.6276         0.5508         1.7542            -74      -17.20988       982.7451      0.9128144      0.5390946
      1225.0000           1.44         0.4344         0.0939           53.7       73.11312              1         1.6429          0.546         1.8383          -75.2      -18.40987       980.7843      0.8534707      0.5027311
      1225.5000           1.68         0.4488          0.116           51.3       68.65303              1         1.6124         0.5448         1.9085          -75.2      -18.40987       978.8235      0.7585751      0.5027311
      1226.0000           1.64         0.4572           0.12           50.1       66.42087              1         1.5973         0.5448         1.8907          -74.8      -18.00988       976.8627      0.7110823      0.5148521
      1226.5000           1.52         0.4656          0.118           49.2       64.74569              1         1.5825         0.5412         1.8731            -74      -17.20988        974.902      0.6754402      0.5390946
      1227.0000           1.36          0.462          0.108           48.9       64.18447              1         1.5825         0.5376         1.8556            -72      -15.20988       972.9412      0.6634994      0.5997007
      1227.5000           1.12         0.4308         0.0959           48.9       64.18027         1.0094         1.5825         0.5302         1.8383          -69.6      -12.80988       970.9804      0.6634099       0.672428
      1228.0000           0.88         0.3894         0.0837           50.4       66.96096         1.0189         1.5973         0.5216         1.7874          -67.2      -10.40987       968.6275      0.7225736      0.7451553
      1228.5000           0.44         0.3396         0.0735           53.1       71.96957         1.0189         1.5973          0.518         1.6739            -64      -7.209877       966.6667      0.8291397      0.8421249
      1229.0000          -0.04         0.3192         0.0653           58.8       82.54806         1.0285         1.6124         0.5167         1.5825          -60.8      -4.009876       964.7059              1      0.9390947
      1229.5000          -0.24          0.306         0.0592           64.2       92.56954         1.0382         1.6276         0.5204           1.51            -60      -3.209877       962.7451              1      0.9633371
      1230.0000           -0.2         0.3036         0.0531           64.5       93.12231         1.0479         1.6276         0.5327          1.482          -59.2      -2.409878       960.7843              1      0.9875795
      1230.5000          -0.08          0.306         0.0531           62.4       89.21916         1.0678         1.6739         0.5472         1.5243          -59.6      -2.809875            960              1      0.9754583
      1231.0000              0          0.312         0.0531           61.2       86.98703         1.0778         1.7056         0.5532         1.5973          -59.2      -2.409878            960              1      0.9875795
      1231.5000           0.08         0.3204         0.0633           60.3       85.31184         1.0982         1.7378         0.5544         1.6429          -59.2      -2.409878            960              1      0.9875795
      1232.0000            0.2         0.3264         0.0694           60.9       86.42159         1.0982         1.7707         0.5484         1.6583          -58.8      -2.009876            960              1      0.9997007
      1232.5000           0.24         0.3312         0.0776           62.1       88.64532          1.088         1.7378         0.5363         1.6429          -58.4      -1.609879            960              1              1
      1233.0000           0.24         0.3336         0.0755             63       90.31201          1.088         1.7056         0.5253         1.6124          -57.6     -0.8098755            960              1              1
      1233.5000           0.24         0.3336         0.0694           63.9       91.97874          1.088         1.7216         0.5229         1.5973          -57.2     -0.4098778            960              1              1
