#------------------------------------------------------------------------------
# Created by    : vladimir.rabinovich
# Created on    : 09/19/2023 17:22:03
#------------------------------------------------------------------------------
~Version Information Section
VERS.           2.0     :   CWLS log ASCII Standard - VERSION 2.0
WRAP.           NO      :   One line per depth step
~Well Information Section
#MNEM       .UNIT                                         VALUE :DESCRIPTION
#------------------------------------------------------------------------------
STRT        .FT                                             959 :START DEPTH
STOP        .FT                                            9240 :STOP DEPTH
STEP        .FT                                             0.5 :STEP      
NULL        .                                           -999.25 :NULL      
COMP        .                                  SAMEDAN OIL CORP :COMPANY   
WELL        .                                            WILBER :WELL      
FLD         .                                     HAMSHIRE WEST :FIELD     
LOC         .                                                   :LOCATION  
CNTY        .                                         JEFFERSON :LOCATION  
STAT        .                                             TEXAS :STATE     
CTRY        .                                     UNITED STATES :COUNTRY   
SRVC        .                                                   :SERVICE COMPANY
DATE        .                             9/13/2023 11:18:46 AM :LOG DATE  
API         .                                    42245321080000 :API NUMBER
UWI         .                                    42245321080000 :UNIQUE WELL ID
XCOORD      .                                  1220512.54732583 :SURFACE X 
YCOORD      .                                  10829820.5318697 :SURFACE Y 
LAT         .                                        29.8338887 :LATITUDE  
LON         .                                       -94.3247224 :LONGITUDE 
ELEV        .FT                                              24 :ELEVATION VALUE
ELEV_TYPE   .                                                KB :ELEVATION REFERENCE TYPE
~Curve Information Section
#MNEM       .UNIT                                      API CODE :CURVE DESCRIPTION
#------------------------------------------------------------------------------
DEPT        .FT                                                 :DEPTH     
CALI        .IN                                                 :          
DPSS        .%                                                  :          
DRHO        .G/CM3                                              :          
GR          .GAPI                                               :          
GR_NORM     .GAPI                                               :GammaRay Normalized
ILD         .OHMM                                               :          
ILM         .OHMM                                               :          
NPSS        .%                                                  :Neutron Porosity Sandstone
SGRD        .OHMM                                               :          
SP          .MV                                                 :          
SP_NORM     .MV                                                 :SP Normalized
TENS        .LB                                                 :          
VSH_GR      .V/V                                                :Volume of Shale from GR
VSH_SP      .V/V                                                :Volume of Shale from SP
~A        DEPTH           CALI           DPSS           DRHO             GR        GR_NORM            ILD            ILM           NPSS           SGRD             SP        SP_NORM           TENS         VSH_GR         VSH_SP
# ...
      2669.0000        16.9703        -999.25        -999.25        38.1501       43.11406          0.296          0.335        -999.25         1.5171      -162.0245      -60.31249       2176.019      0.2151928      0.1147389
      2669.5000        16.9702        -999.25        -999.25        37.1181       41.49794         0.3398         0.3582        -999.25         1.2817      -153.4751      -51.75966       2176.936      0.1808072      0.2423932
      2670.0000          16.99        -999.25        -999.25        37.8683       42.67601         0.4055         0.3905        -999.25         0.9309         -138.2      -36.48113       2177.852      0.2058726      0.4704309
      2670.5000          16.99        -999.25        -999.25        44.2458       52.67675         0.4648         0.4461        -999.25         0.6689      -122.2103      -20.48801       2118.336      0.4186543      0.7091342
      2671.0000          16.95        -999.25        -999.25        52.9093       66.26154          0.545          0.516        -999.25         0.6248      -107.9514      -6.225693       2176.836      0.7076924      0.9220046
      2671.5000          17.03        -999.25        -999.25        55.7286        70.6836         0.6781         0.6024        -999.25         0.6937      -102.6253     -0.8961639       2175.913      0.8017787              1
      2672.0000          17.07        -999.25        -999.25        54.8016       69.23212         0.8409         0.7296        -999.25         0.8409      -102.6437     -0.9111404       2214.664      0.7708963              1
      2672.5000          17.09        -999.25        -999.25        54.1778       68.25599         1.0382         0.8879        -999.25         0.9958      -105.0403      -3.304314       2213.759      0.7501274      0.9656073
      2673.0000          17.09        -999.25        -999.25        53.2525       66.80715         1.1948         1.0728        -999.25          1.119      -106.8429        -5.1035       2212.944      0.7193011      0.9387537
      2673.5000          17.05        -999.25        -999.25        52.9263       66.29762          1.375         1.2288        -999.25         1.1617      -107.8534      -6.110573       2212.038      0.7084599      0.9237228
      2674.0000          17.01        -999.25        -999.25        55.4396       70.23994         1.4477         1.3622        -999.25         1.2004      -108.6639      -6.917648       2171.379      0.7923393      0.9116769
      2674.5000          16.95        -999.25        -999.25        56.9078       72.54369          1.482         1.4142        -999.25         1.2346      -109.2784      -7.528725       2170.451      0.8413552      0.9025564
      2675.0000          16.87        -999.25        -999.25        56.2816        71.5638         1.5171         1.4342        -999.25         1.2938      -109.4968      -7.743706       2169.522      0.8205065      0.8993477
      2675.5000          16.85        -999.25        -999.25        57.5958       73.62613          1.482         1.4342        -999.25         1.3815      -109.7132       -7.95668       2228.401      0.8643857      0.8961689
      2676.0000          16.85        -999.25        -999.25        59.2069       76.15395         1.4545         1.4342        -999.25         1.5171      -110.5257      -8.765755       2247.415      0.9181692      0.8840932
      2676.5000          16.85        -999.25        -999.25        57.9872       74.24356         1.4076         1.4342        -999.25         1.6897      -112.1302      -10.36684       2206.673      0.8775226      0.8601965
      2677.0000          16.85        -999.25        -999.25        55.1268       69.76081         1.3369         1.4275        -999.25         1.8383      -114.5249      -12.75811        2165.89      0.7821449      0.8245058
      2677.5000          16.85        -999.25        -999.25        53.9074       67.85086         1.2521         1.3945        -999.25         1.9446      -118.1096      -16.33938       2164.957      0.7415076       0.771054
      2678.0000          16.83        -999.25        -999.25        54.6242       68.97658         1.1563         1.3245        -999.25         1.9355      -120.7114      -18.93777        2184.07      0.7654591      0.7322721
      2678.5000          16.79        -999.25        -999.25        56.2357       71.50501         1.0479         1.2346        -999.25         1.8212      -122.7301      -20.95304       2203.109      0.8192556      0.7021934
      2679.0000          16.85        -999.25        -999.25        56.5045       71.92834         0.9427         1.1509        -999.25         1.6976       -124.951      -23.17051       2202.193      0.8282626      0.6690969
      2679.5000          16.85        -999.25        -999.25         53.652       67.45798          0.864         1.0431        -999.25         1.5751       -128.572      -26.78809       2161.306      0.7331485      0.6151031
      2680.0000          16.85        -999.25        -999.25         51.248       63.69078         0.7818          0.975        -999.25         1.4613      -132.1909      -30.40357       2160.368      0.6529954      0.5611407
      2680.5000          16.85        -999.25        -999.25         49.166       60.42844         0.7296         0.9076        -999.25         1.4076      -137.1992      -35.40845           2160      0.5835839      0.4864411
      2681.0000          16.85        -999.25        -999.25        48.1414       58.82393         0.6967         0.8485        -999.25          1.482      -142.0171      -40.22292           2160      0.5494454      0.4145832
      2681.5000          16.85        -999.25        -999.25        50.3842       62.34215         0.6712         0.8073        -999.25         1.6506      -145.4407       -43.6431           2160       0.624301      0.3635359
      2682.0000          16.83        -999.25        -999.25        52.4785       65.62754         0.6466         0.7782        -999.25         1.8469      -147.8509      -46.04988           2160       0.694203      0.3276137
      2682.5000          16.81        -999.25        -999.25        49.3748       60.76335         0.6199         0.7466        -999.25         1.9355      -149.6529      -47.84844           2140      0.5907095      0.3007695
      2683.0000          16.85        -999.25        -999.25          45.38       54.50205         0.5892         0.7163        -999.25         1.8469      -151.8531      -50.04523           2140      0.4574905      0.2679817
      2683.5000          16.85        -999.25        -999.25        41.3478       48.18213         0.5378         0.6743        -999.25         1.7056      -154.8516       -53.0403           2140       0.323024      0.2232791
      2684.0000          16.85        -999.25        -999.25        39.4133       45.15104         0.4932         0.6142        -999.25         1.5751      -157.6437      -55.82899           2120      0.2585327      0.1816569
      2684.5000          16.85        -999.25        -999.25        40.7783       47.29301         0.4342         0.5553        -999.25         1.4613      -160.6232      -58.80505           2120      0.3041066       0.137238
      2685.0000          16.85        -999.25        -999.25        42.1434       49.43513         0.3852          0.491        -999.25          1.375      -161.9892      -60.16763           2120      0.3496836      0.1169011
      2685.5000          16.81        -999.25        -999.25         38.859       44.28764         0.3505         0.4362        -999.25         1.3245      -163.3553      -61.53031           2120      0.2401625     0.09656251
      2686.0000          16.77        -999.25        -999.25        36.9229       41.25403          0.319            0.4        -999.25         1.3245      -164.7213      -62.89288           2140      0.1756177     0.07622562
      2686.5000          16.77        -999.25        -999.25        36.3382        40.3392          0.292         0.3727        -999.25         1.3945      -166.4834      -64.65156           2140      0.1561532     0.04997675
