#------------------------------------------------------------------------------
# Created by    : vladimir.rabinovich
# Created on    : 09/19/2023 17:19:39
#------------------------------------------------------------------------------
~Version Information Section
VERS.           2.0     :   CWLS log ASCII Standard - VERSION 2.0
WRAP.           NO      :   One line per depth step
~Well Information Section
#MNEM       .UNIT                                         VALUE :DESCRIPTION
#------------------------------------------------------------------------------
STRT        .FT                                            1969 :START DEPTH
STOP        .FT                                            7841 :STOP DEPTH
STEP        .FT                                             0.5 :STEP      
NULL        .                                           -999.25 :NULL      
COMP        .                           NEWFIELD EXPLORATION CO :COMPANY   
WELL        .                                   PHELAN GAS UNIT :WELL      
FLD         .                                          BINDWEED :FIELD     
LOC         .                                                   :LOCATION  
CNTY        .                                         JEFFERSON :LOCATION  
STAT        .                                             TEXAS :STATE     
CTRY        .                                     UNITED STATES :COUNTRY   
SRVC        .                                                   :SERVICE COMPANY
DATE        .                             9/13/2023 11:18:46 AM :LOG DATE  
API         .                                    42245322670000 :API NUMBER
UWI         .                                    42245322670000 :UNIQUE WELL ID
XCOORD      .                                  1272550.81244857 :SURFACE X 
YCOORD      .                                  10898469.5255822 :SURFACE Y 
LAT         .                                        30.0242363 :LATITUDE  
LON         .                                        -94.162774 :LONGITUDE 
ELEV        .FT                                              24 :ELEVATION VALUE
ELEV_TYPE   .                                                KB :ELEVATION REFERENCE TYPE
~Curve Information Section
#MNEM       .UNIT                                      API CODE :CURVE DESCRIPTION
#------------------------------------------------------------------------------
DEPT        .FT                                                 :DEPTH     
AHT20       .OHMM                                               :          
AHT30       .OHMM                                               :          
AHT60       .OHMM                                               :          
AHT90       .OHMM                                               :          
DCAL        .IN                                                 :          
DPHZSS      .V/V                                                :          
DT          .US/FT                                              :          
GR_NORM     .GAPI                                               :GammaRay Normalized
GRR         .GAPI                                               :          
HDRA        .G/CM3                                              :          
NPORSS      .V/V                                                :          
SP          .MV                                                 :          
SP_NORM     .MV                                                 :SP Normalized
TENR        .LB                                                 :          
VSH_GR      .V/V                                                :Volume of Shale from GR
VSH_SP      .V/V                                                :Volume of Shale from SP
~A        DEPTH          AHT20          AHT30          AHT60          AHT90           DCAL         DPHZSS             DT        GR_NORM            GRR           HDRA         NPORSS             SP        SP_NORM           TENR         VSH_GR         VSH_SP
# ...
      2497.0000         0.6967            0.7          0.687         0.6743         1.8389         0.2831        97.5323       55.37011        55.3788         -0.019         0.3616        -89.823      -48.00825       1840.966      0.4759598      0.2067544
      2497.5000          0.687         0.6618         0.6496         0.6376         1.6978         0.2972         98.927        55.3863        55.4087        -0.0178         0.3597       -91.2098      -49.37081       1843.896      0.4763042      0.1832619
      2498.0000         0.6496         0.6258         0.6142         0.6028         1.5767         0.3165        99.7222       54.78858        54.8247        -0.0197         0.3609       -92.1946      -50.33136       1847.151      0.4635868      0.1667006
      2498.5000         0.6113         0.6056         0.5945         0.5653         1.4958         0.3195        98.7175       54.64867        54.6985        -0.0195          0.362       -91.3468      -49.45932       1850.081      0.4606099      0.1817359
      2499.0000            0.6         0.5918         0.5811         0.5501         1.3342         0.3037        79.4173       55.58165        55.6452        -0.0094          0.348       -90.0868      -48.17508       1853.337      0.4804607       0.203878
      2499.5000         0.6056         0.5973         0.5838         0.5785         1.2329         0.2819             59       58.34794        58.4252         0.0048         0.3401       -85.9743      -44.03833       1856.267      0.5393178      0.2752013
      2500.0000         0.6258         0.6526         0.6171         0.6935         1.1517         0.2563           54.2       61.86592        61.9569         0.0109         0.3352       -81.4455      -39.48529       1859.522      0.6141685      0.3537019
      2500.5000         0.7571         0.7964         0.7606         0.8372         1.1515         0.2369        53.8974        65.5014        65.6061          0.007         0.3151       -70.5051      -28.52064       1858.955      0.6915192      0.5427476
      2501.0000         0.8842         0.9718         1.0374         1.0327         1.2727         0.2338        54.1923       69.12399        69.2424         0.0011           0.32       -62.0202       -20.0115       1855.845      0.7685956      0.6894569
      2501.5000         1.0327         1.1424         1.2351         1.2638         1.3737         0.2375        53.9872       69.11028        69.2424         0.0011         0.3472          -51.6      -9.567055       1852.746      0.7683038      0.8695335
      2502.0000         1.1961         1.2872         1.4909         1.5538         1.3939         0.2351        59.5825       68.94505        69.0909         0.0012         0.3731          -47.2      -5.142815       1849.656      0.7647884      0.9458135
      2502.5000         1.2754         1.4045         1.8162         1.7996         1.4141         0.2344        69.1775       68.32525        68.4848         0.0002         0.3791          -46.2      -4.118572       1846.575       0.751601      0.9634729
      2503.0000         1.3111          1.457         1.9015         1.8669         1.4343         0.2369        79.8014       67.85703        68.0303         0.0003         0.3737          -46.4      -4.294331       1843.504      0.7416388      0.9604426
      2503.5000         1.3231          1.457         1.7914         1.8079         1.4343         0.2394           84.4       69.96451        70.1515        -0.0007           0.37          -47.2      -5.070084       1840.442      0.7864789      0.9470675
      2504.0000         1.2813         1.4371         1.6493         1.6799         1.4141         0.2381           80.1        72.5266        72.7273        -0.0016         0.3616            -48       -5.84584       1837.389      0.8409914      0.9336924
      2504.5000         1.2408         1.3664         1.5325         1.5898         1.4141         0.2307         65.957       74.93559          75.15        -0.0016         0.3507            -48      -5.821598       1834.346      0.8922465      0.9341104
      2505.0000         1.2126         1.2991         1.4371         1.4772         1.4141         0.2258           49.6       74.46886         74.697        -0.0015         0.3452          -47.8      -5.597351       1831.312      0.8823163      0.9379767
      2505.5000         1.1689         1.2295         1.3415         1.3726         1.3737         0.2245             49       74.45515         74.697        -0.0005         0.3543          -46.6      -4.373108       1828.287      0.8820244      0.9590843
      2506.0000         1.1165         1.1636          1.258         1.2813         1.2727         0.2332         51.142       75.49444          75.75        -0.0004         0.3808          -44.8      -2.548866       1825.271       0.904137      0.9905368
      2506.5000         1.0615         1.1114         1.1689         1.1797         1.1919         0.2423        53.3373       76.98072          77.25         0.0006         0.4061          -42.4     -0.1246262       1822.264        0.93576              1
      2507.0000         1.0046         1.0615         1.1372         1.1476         1.0909         0.2586        55.2321         78.317           78.6         0.0007         0.4268          -40.4        1.89962       1819.266      0.9641915              1
      2507.5000         0.9681         1.0518         1.1268         1.1372         1.0505          0.272        56.7274       79.80328           80.1        -0.0003         0.4554       -39.8043       2.519566       1816.278      0.9958146              1
      2508.0000         0.9681         1.0518         1.1216         1.1319         1.0505         0.2814        62.2221       82.33958          82.65        -0.0022          0.464       -39.2182       3.129906       1813.298              1              1
      2508.5000         0.9682          1.047         1.1165         1.1268         1.0505         0.2889        73.2117       86.22586          86.55        -0.0052          0.464       -39.0242       3.348152       1810.328              1              1
      2509.0000         0.9594         1.0422         1.1114         1.1216         1.0909         0.2971           86.2       88.61214          88.95        -0.0121         0.4634       -38.4409       3.955696       1807.366              1              1
      2509.5000         0.9463         1.0374         1.0911         1.1012         1.0505         0.3012           91.6       90.37813        90.7297        -0.0131         0.4658       -38.0543       4.366539       1804.413              1              1
      2510.0000         0.9421         1.0327         1.0911         1.1012         1.0505         0.3036           92.1       93.71491        94.0802         -0.013         0.4689       -37.6685       4.776581       1801.469              1              1
      2510.5000         0.9465         1.0279         1.0962         1.1063         1.0511         0.3078           91.9       97.04819        97.4272         -0.015         0.4959       -38.6408       3.828526         1799.5              1              1
      2511.0000         0.9684         1.0232         1.0962         1.1114         1.0521         0.3132           91.6       100.8209       101.2136         -0.019         0.5264       -39.0291        3.46447         1798.5              1              1
      2511.5000         0.9818         1.0185         1.0812         1.1216         1.0531         0.3204           91.2       104.3023       104.7087         -0.022         0.5514       -39.2233        3.29451         1797.5              1              1
      2512.0000         0.9596         1.0232         1.0615         1.1012         1.0541         0.3228           90.5        102.541       102.9612         -0.023         0.5334       -39.4175       3.124557         1796.5              1              1
      2512.5000         0.9465         1.0139          1.047         1.0812         1.0551          0.321           90.3       99.32343        99.7573         -0.019         0.4865       -39.8058       2.760498         1795.5              1              1
