#------------------------------------------------------------------------------
# Created by    : vladimir.rabinovich
# Created on    : 09/19/2023 17:22:03
#------------------------------------------------------------------------------
~Version Information Section
VERS.           2.0     :   CWLS log ASCII Standard - VERSION 2.0
WRAP.           NO      :   One line per depth step
~Well Information Section
#MNEM       .UNIT                                         VALUE :DESCRIPTION
#------------------------------------------------------------------------------
STRT        .FT                                             959 :START DEPTH
STOP        .FT                                            9240 :STOP DEPTH
STEP        .FT                                             0.5 :STEP      
NULL        .                                           -999.25 :NULL      
COMP        .                                  SAMEDAN OIL CORP :COMPANY   
WELL        .                                            WILBER :WELL      
FLD         .                                     HAMSHIRE WEST :FIELD     
LOC         .                                                   :LOCATION  
CNTY        .                                         JEFFERSON :LOCATION  
STAT        .                                             TEXAS :STATE     
CTRY        .                                     UNITED STATES :COUNTRY   
SRVC        .                                                   :SERVICE COMPANY
DATE        .                             9/13/2023 11:18:46 AM :LOG DATE  
API         .                                    42245321080000 :API NUMBER
UWI         .                                    42245321080000 :UNIQUE WELL ID
XCOORD      .                                  1220512.54732583 :SURFACE X 
YCOORD      .                                  10829820.5318697 :SURFACE Y 
LAT         .                                        29.8338887 :LATITUDE  
LON         .                                       -94.3247224 :LONGITUDE 
ELEV        .FT                                              24 :ELEVATION VALUE
ELEV_TYPE   .                                                KB :ELEVATION REFERENCE TYPE
~Curve Information Section
#MNEM       .UNIT                                      API CODE :CURVE DESCRIPTION
#------------------------------------------------------------------------------
DEPT        .FT                                                 :DEPTH     
CALI        .IN                                                 :          
DPSS        .%                                                  :          
DRHO        .G/CM3                                              :          
GR          .GAPI                                               :          
GR_NORM     .GAPI                                               :GammaRay Normalized
ILD         .OHMM                                               :          
ILM         .OHMM                                               :          
NPSS        .%                                                  :Neutron Porosity Sandstone
SGRD        .OHMM                                               :          
SP          .MV                                                 :          
SP_NORM     .MV                                                 :SP Normalized
TENS        .LB                                                 :          
VSH_GR      .V/V                                                :Volume of Shale from GR
VSH_SP      .V/V                                                :Volume of Shale from SP
~A        DEPTH           CALI           DPSS           DRHO             GR        GR_NORM            ILD            ILM           NPSS           SGRD             SP        SP_NORM           TENS         VSH_GR         VSH_SP
# ...
      3209.0000        13.1168        -999.25        -999.25        52.1287       50.70732         0.4758         0.5736        -999.25         1.5534         -156.4      -54.30449       2408.922      0.3767514      0.2274712
      3209.5000        12.8941        -999.25        -999.25        49.3069        46.8558         0.4714         0.5479        -999.25         1.4479         -153.4      -51.30772       2411.692      0.2948044      0.2709027
      3210.0000        12.6918        -999.25        -999.25        54.0594       53.32483         0.4821         0.5379        -999.25         1.1618         -146.6      -44.51096       2374.845      0.4324433      0.3694064
      3210.5000        12.4723        -999.25        -999.25        61.3462       63.24704         0.5045         0.5502        -999.25         0.8561      -134.2065      -32.12067       2376.735      0.6435541      0.5489758
      3211.0000        12.2535        -999.25        -999.25        74.0887       80.60307         0.5426         0.5705        -999.25           0.69      -117.2554      -15.17281        2377.73              1       0.794597
      3211.5000        12.2129        -999.25        -999.25        82.4718       92.01907         0.6081         0.5996        -999.25         0.6372      -106.7658       -4.68644       2378.725              1      0.9465733
      3212.0000        12.2119        -999.25        -999.25        86.6533       97.71008         0.6929         0.6521        -999.25         0.7124      -103.6053      -1.529167       2419.324              1      0.9923309
      3212.5000        12.2109        -999.25        -999.25         87.538       98.90896         0.7846         0.7424        -999.25         0.8028      -101.4339      0.6390076       2420.319              1              1
      3213.0000        12.2099        -999.25        -999.25        86.7763       97.86446         0.8948         0.8669        -999.25         0.9259      -100.4517       1.617981       2421.314              1              1
      3213.5000        12.2089        -999.25        -999.25        83.4735       93.35754         1.0079         0.9414        -999.25         1.0173       -98.8697       3.196754        2422.31              1              1
      3214.0000        12.2079        -999.25        -999.25        78.8291       87.02259          1.081         1.0171        -999.25         1.1066       -97.6847       4.378525       2383.701              1              1
      3214.5000        12.2069        -999.25        -999.25        76.4299       83.74691         1.1648         1.1063        -999.25         1.1011       -97.2976       4.762398       2404.498              1              1
      3215.0000        12.2059        -999.25        -999.25        75.2273       82.10165         1.2493         1.1376        -999.25         1.0604       -97.3088       4.747971       2425.295              1              1
      3215.5000        12.2049        -999.25        -999.25        73.8709       80.24686         1.3027         1.1752        -999.25         1.0503       -96.7233       5.330246        2426.29              1              1
      3216.0000        12.2039        -999.25        -999.25        70.7135       75.93806         1.3333         1.2084        -999.25           1.05       -97.3314       4.718918       2387.681      0.9135757              1
      3216.5000         12.203        -999.25        -999.25         69.656       74.49052         1.3774          1.231        -999.25         1.0597       -97.7402       4.306892       2408.478       0.882777              1
      3217.0000         12.202        -999.25        -999.25        71.7484       77.33498         1.3771         1.2423        -999.25         1.0694       -98.1485       3.895363       2429.275      0.9432974              1
      3217.5000        12.1416        -999.25        -999.25        74.1407       80.58807         1.3768         1.2478        -999.25         1.0894        -98.755       3.285637        2430.27              1              1
      3218.0000         12.101        -999.25        -999.25        76.5214       83.82536         1.3636         1.2417        -999.25         1.0993       -99.1625       2.874901       2431.265              1              1
      3218.5000        12.0208        -999.25        -999.25        77.4058        85.0238         1.3255         1.2356        -999.25         1.0837       -99.7679       2.266273        2432.26              1              1
      3219.0000        11.9604        -999.25        -999.25        75.9101       82.97919         1.2945         1.1955        -999.25         1.0388      -100.3745       1.656448       2433.255              1              1
      3219.5000        11.9198        -999.25        -999.25        74.1106       80.52065         1.2525         1.1567        -999.25         0.9919      -100.1849       1.842819       2454.052              1              1
      3220.0000        11.9188        -999.25        -999.25        70.2033       75.19004         1.2175         1.1191        -999.25         0.9388       -99.4018       2.622688       2455.048      0.8976604              1
      3220.5000        11.9183        -999.25        -999.25        67.9458       72.10741         1.1891         1.0827        -999.25         0.8918       -99.4108       2.610466       2435.644      0.8320726              1
      3221.0000        11.9579        -999.25        -999.25        73.0387       79.04027         1.1722         1.0525        -999.25         0.8521       -99.2224       2.795639       2356.436      0.9795802              1
      3221.5000        11.9579        -999.25        -999.25        78.2528       86.13828         1.1774         1.0279        -999.25         0.8328       -99.2321       2.782707       2435.644              1              1
      3222.0000        12.0173        -999.25        -999.25         78.842        86.9345         1.1938         1.0471        -999.25         0.8402       -99.8369       2.174683       2415.842              1              1
      3222.5000        12.0965        -999.25        -999.25         72.116       77.76321         1.2161         1.0868        -999.25         0.8829      -100.6442       1.364151       2475.248      0.9524088              1
      3223.0000        12.1559        -999.25        -999.25        73.1584       79.17697          1.233         1.1175        -999.25         0.9576      -101.6512      0.3539276       2435.644      0.9824888              1
      3223.5000        12.1559        -999.25        -999.25        76.8881       84.25235         1.2502         1.1437        -999.25         1.0463      -102.6572      -0.655304       2435.644              1              1
      3224.0000        12.0767        -999.25        -999.25        77.6269       85.25243         1.2557         1.1488        -999.25         1.1222      -102.6651     -0.6664352       2475.248              1              1
      3224.5000        11.9777        -999.25        -999.25         74.936       81.57927         1.2264         1.1379        -999.25         1.0757      -103.0722      -1.076759        2495.05              1      0.9988875
      3225.0000        11.7401        -999.25        -999.25        72.8281       78.70049         1.2376         1.1061        -999.25         0.9813      -103.2798       -1.28759       2514.852      0.9723508       0.995832
      3225.5000        11.6411        -999.25        -999.25        71.6205       77.04843         1.2373         1.0701        -999.25         0.8777      -103.6861      -1.697113       2514.852      0.9372007      0.9898969
      3226.0000        11.6015        -999.25        -999.25        73.7137       79.89397         1.2028         1.0451        -999.25         0.8052      -104.2909      -2.305145       2475.248       0.997744      0.9810848
      3226.5000        11.5817        -999.25        -999.25        75.5042       82.32707         1.1692         1.0207        -999.25          0.776      -104.6963      -2.713768       2475.248              1      0.9751628
