#------------------------------------------------------------------------------
# Created by    : vladimir.rabinovich
# Created on    : 09/19/2023 17:20:50
#------------------------------------------------------------------------------
~Version Information Section
VERS.           2.0     :   CWLS log ASCII Standard - VERSION 2.0
WRAP.           NO      :   One line per depth step
~Well Information Section
#MNEM       .UNIT                                         VALUE :DESCRIPTION
#------------------------------------------------------------------------------
STRT        .FT                                            1769 :START DEPTH
STOP        .FT                                           14822 :STOP DEPTH
STEP        .FT                                             0.5 :STEP      
NULL        .                                           -999.25 :NULL      
COMP        .                                      SHELL OIL CO :COMPANY   
WELL        .                                 MCFADDEN CEE CRSS :WELL      
FLD         .                                           WILDCAT :FIELD     
LOC         .                                                   :LOCATION  
CNTY        .                                         JEFFERSON :LOCATION  
STAT        .                                             TEXAS :STATE     
CTRY        .                                     UNITED STATES :COUNTRY   
SRVC        .                                                   :SERVICE COMPANY
DATE        .                             9/13/2023 11:19:11 AM :LOG DATE  
API         .                                    42245030100000 :API NUMBER
UWI         .                                    42245030100000 :UNIQUE WELL ID
XCOORD      .                                  1300794.63996209 :SURFACE X 
YCOORD      .                                  10796706.8159759 :SURFACE Y 
LAT         .                                        29.7451097 :LATITUDE  
LON         .                                       -94.0705183 :LONGITUDE 
ELEV        .FT                                            17.6 :ELEVATION VALUE
ELEV_TYPE   .                                                KB :ELEVATION REFERENCE TYPE
~Curve Information Section
#MNEM       .UNIT                                      API CODE :CURVE DESCRIPTION
#------------------------------------------------------------------------------
DEPT        .FT                                                 :DEPTH     
ASN         .OHMM                                               :          
DT          .US/F                                               :          
ILD         .OHMM                                               :          
SP          .MV                                                 :          
SP_NORM     .MV                                                 :SP Normalized
VSH_SP      .V/V                                                :Volume of Shale from SP
~A        DEPTH            ASN             DT            ILD             SP        SP_NORM         VSH_SP
# ...
     10471.0000         0.6442       151.7458         0.4218       -43.0988      -1.123493      0.9974797
     10471.5000         0.6256       150.2872         0.4241       -43.1011      -1.125793      0.9974328
     10472.0000         0.6413       148.9565         0.4264       -43.1011      -1.125793      0.9974328
     10472.5000         0.6541       148.8555         0.4287       -43.1011      -1.125793      0.9974328
     10473.0000         0.6617       147.0192          0.431       -43.1011      -1.125793      0.9974328
     10473.5000         0.6683       145.1262         0.4332       -43.1011      -1.125793      0.9974328
     10474.0000           0.67       144.3074         0.4342       -43.1011      -1.125793      0.9974328
     10474.5000         0.6718       144.2296         0.4353       -43.1011      -1.125793      0.9974328
     10475.0000         0.6735       147.0675         0.4363       -43.1011      -1.125793      0.9974328
     10475.5000         0.6752       149.8726         0.4372       -43.1055      -1.130192       0.997343
     10476.0000         0.6769       150.4252          0.438        -43.114      -1.138691      0.9971696
     10476.5000          0.679       148.8476         0.4388       -43.1225      -1.147194       0.996996
     10477.0000         0.6828       147.5081         0.4396        -43.131      -1.155693      0.9968226
     10477.5000         0.6865       146.1686         0.4403       -43.1395      -1.164192      0.9966491
     10478.0000         0.6903        144.829         0.4422       -43.1479      -1.172592      0.9964777
     10478.5000         0.6966       143.3744         0.4443       -43.1565      -1.181194      0.9963021
     10479.0000         0.7063        144.381         0.4463        -43.165      -1.189693      0.9961287
     10479.5000         0.7301       144.1482         0.4492       -43.1735      -1.198193      0.9959552
     10480.0000         0.7369       144.4262         0.4585       -43.1766      -1.201294       0.995892
     10480.5000         0.7436       144.7671         0.4678       -43.1526      -1.177292      0.9963818
     10481.0000          0.749       145.0874         0.4771       -43.1287      -1.153393      0.9968696
     10481.5000         0.7544       145.1537          0.492       -43.1047      -1.129391      0.9973594
     10482.0000         0.7626        145.237         0.5091       -43.0807      -1.105392      0.9978491
     10482.5000          0.779        145.695         0.5261       -43.0568      -1.081493      0.9983369
     10483.0000          0.799       147.2589         0.5347       -43.0328      -1.057491      0.9988267
     10483.5000         0.8095       146.9789         0.5428       -43.0089      -1.033592      0.9993144
     10484.0000          0.819       145.7714         0.5509       -42.9849      -1.009594      0.9998042
     10484.5000         0.8276       145.5386         0.5545       -42.9609     -0.9855919              1
     10485.0000         0.8362       145.5304         0.5544       -42.9373     -0.9619942              1
     10485.5000         0.8492       145.9252         0.5543       -42.9147     -0.9393921              1
     10486.0000         0.8582       144.5305         0.5535        -42.892     -0.9166908              1
     10486.5000         0.8409       142.3564         0.5491       -42.8694     -0.8940926              1
     10487.0000         0.8237       140.5792         0.5447       -42.8468     -0.8714943              1
     10487.5000         0.8096       139.1071         0.5403       -42.8242     -0.8488922              1
     10488.0000         0.8017       138.8774         0.5359       -42.8016     -0.8262939              1
     10488.5000         0.8066       139.6924         0.5299        -42.779     -0.8036919              1
     10489.0000         0.8131       141.3522         0.5228       -42.7563     -0.7809944              1
     10489.5000         0.8204       141.6045         0.5157       -42.7338     -0.7584915              1
     10490.0000         0.8284        142.281         0.5105       -42.7112     -0.7358932              1
     10490.5000         0.8373       143.6027         0.5136       -42.6996     -0.7242928              1
     10491.0000         0.8413       143.7103         0.5166       -42.6935     -0.7181931              1
     10491.5000         0.8453       143.4395         0.5197       -42.6873     -0.7119942              1
     10492.0000         0.8483       143.0541         0.5275       -42.6812     -0.7058907              1
     10492.5000         0.8498       144.8352         0.5424        -42.675     -0.6996918              1
     10493.0000         0.8513       146.1842         0.5573       -42.6689     -0.6935921              1
     10493.5000         0.8531       146.3837         0.5722       -42.6628     -0.6874924              1
     10494.0000         0.8562       145.4964         0.5826       -42.6566     -0.6812935              1
     10494.5000          0.859       144.7562         0.5868       -42.6505     -0.6751938              1
     10495.0000         0.8602       145.5765         0.5909       -42.6443     -0.6689911              1
     10495.5000         0.8634       147.3116           0.58       -42.6382     -0.6628914              1
     10496.0000          0.876       147.5436           0.56        -42.632     -0.6566925              1
     10496.5000         0.8938       145.8391           0.54       -42.6259     -0.6505928              1
     10497.0000         0.8882       144.9934         0.5201        -42.638      -0.662693              1
     10497.5000         0.8777       143.8243         0.5031       -42.6566     -0.6812935              1
     10498.0000         0.8668       143.2043         0.4879       -42.6752      -0.699894              1
     10498.5000         0.8331       142.1111         0.4727       -42.6938     -0.7184944              1
     10499.0000         0.8095       140.9949         0.4576       -42.7124     -0.7370911              1
     10499.5000         0.7987       140.8116         0.4423        -42.731     -0.7556915              1
     10500.0000         0.7909       141.1114         0.4333       -42.7496      -0.774292              1
     10500.5000         0.7852       142.6867         0.4277       -42.7682     -0.7928925              1
     10501.0000         0.7799       143.2794         0.4221       -42.7868     -0.8114929              1
     10501.5000         0.7746       143.1518         0.4165       -42.8054     -0.8300934              1
     10502.0000         0.7683       142.8139         0.4145        -42.824     -0.8486938              1
     10502.5000         0.7612       142.8135         0.4168       -42.8426     -0.8672943              1
     10503.0000         0.7557        142.968         0.4192       -42.8612      -0.885891              1
     10503.5000          0.754       141.4945         0.4215       -42.8688     -0.8934937              1
     10504.0000         0.7539       140.1787         0.4238       -42.8754     -0.9000931              1
     10504.5000         0.7554       139.2545         0.4263       -42.8821     -0.9067917              1
     10505.0000         0.7569        138.164         0.4298       -42.8887     -0.9133911              1
     10505.5000         0.7584       137.0792         0.4334       -42.8954     -0.9200935              1
     10506.0000         0.7586       138.6917         0.4369        -42.902      -0.926693              1
     10506.5000         0.7584       139.5423         0.4405       -42.9086     -0.9332924              1
     10507.0000         0.7582        140.221          0.444       -42.9153      -0.939991              1
     10507.5000         0.7574       141.2426         0.4494       -42.9219     -0.9465942              1
     10508.0000         0.7561       143.9391          0.459       -42.9286     -0.9532928              1
     10508.5000         0.7547       144.7137         0.4686       -42.9352     -0.9598923              1
