#------------------------------------------------------------------------------
# Created by    : vladimir.rabinovich
# Created on    : 09/19/2023 17:22:03
#------------------------------------------------------------------------------
~Version Information Section
VERS.           2.0     :   CWLS log ASCII Standard - VERSION 2.0
WRAP.           NO      :   One line per depth step
~Well Information Section
#MNEM       .UNIT                                         VALUE :DESCRIPTION
#------------------------------------------------------------------------------
STRT        .FT                                             959 :START DEPTH
STOP        .FT                                            9240 :STOP DEPTH
STEP        .FT                                             0.5 :STEP      
NULL        .                                           -999.25 :NULL      
COMP        .                                  SAMEDAN OIL CORP :COMPANY   
WELL        .                                            WILBER :WELL      
FLD         .                                     HAMSHIRE WEST :FIELD     
LOC         .                                                   :LOCATION  
CNTY        .                                         JEFFERSON :LOCATION  
STAT        .                                             TEXAS :STATE     
CTRY        .                                     UNITED STATES :COUNTRY   
SRVC        .                                                   :SERVICE COMPANY
DATE        .                             9/13/2023 11:18:46 AM :LOG DATE  
API         .                                    42245321080000 :API NUMBER
UWI         .                                    42245321080000 :UNIQUE WELL ID
XCOORD      .                                  1220512.54732583 :SURFACE X 
YCOORD      .                                  10829820.5318697 :SURFACE Y 
LAT         .                                        29.8338887 :LATITUDE  
LON         .                                       -94.3247224 :LONGITUDE 
ELEV        .FT                                              24 :ELEVATION VALUE
ELEV_TYPE   .                                                KB :ELEVATION REFERENCE TYPE
~Curve Information Section
#MNEM       .UNIT                                      API CODE :CURVE DESCRIPTION
#------------------------------------------------------------------------------
DEPT        .FT                                                 :DEPTH     
CALI        .IN                                                 :          
DPSS        .%                                                  :          
DRHO        .G/CM3                                              :          
GR          .GAPI                                               :          
GR_NORM     .GAPI                                               :GammaRay Normalized
ILD         .OHMM                                               :          
ILM         .OHMM                                               :          
NPSS        .%                                                  :Neutron Porosity Sandstone
SGRD        .OHMM                                               :          
SP          .MV                                                 :          
SP_NORM     .MV                                                 :SP Normalized
TENS        .LB                                                 :          
VSH_GR      .V/V                                                :Volume of Shale from GR
VSH_SP      .V/V                                                :Volume of Shale from SP
~A        DEPTH           CALI           DPSS           DRHO             GR        GR_NORM            ILD            ILM           NPSS           SGRD             SP        SP_NORM           TENS         VSH_GR         VSH_SP
# ...
      3749.0000        14.0435        -999.25        -999.25        34.5374       27.88781         0.2936         0.3239        -999.25         1.6088      -171.4269      -72.88027        2572.75              0              0
      3749.5000        14.0805        -999.25        -999.25         36.922       30.75945         0.3074         0.3394        -999.25         1.4116      -168.2806      -69.72128       2615.729              0    0.004039488
      3750.0000        14.0977        -999.25        -999.25        36.9069       30.74192         0.3146         0.3556        -999.25         1.1825      -165.1375      -66.56548       2678.705              0     0.04977561
      3750.5000         14.115        -999.25        -999.25        38.0915        32.1688         0.3205         0.3692        -999.25         1.0524      -160.9954       -62.4107       2641.588              0      0.1099899
      3751.0000         14.093        -999.25        -999.25        42.5773       37.57023          0.316         0.3709        -999.25         1.0232      -158.4166      -59.81919       2604.137     0.09723891       0.147548
      3751.5000        14.0906        -999.25        -999.25        48.5309       44.73885         0.3057         0.3709        -999.25         1.0277      -155.8311      -57.22101       2646.892      0.2497628      0.1852028
      3752.0000        14.0686        -999.25        -999.25        51.1955       47.94761         0.3057         0.3692        -999.25         0.9862      -154.2464      -55.62361       2609.475      0.3180341      0.2083535
      3752.5000        14.1059        -999.25        -999.25        50.4392        47.0377         0.3145         0.3657        -999.25         0.9278        -153.46      -54.82452       2612.281      0.2986745      0.2199344
      3753.0000        14.1035        -999.25        -999.25        49.0877       45.41118          0.344         0.3623        -999.25         0.9278      -154.2713      -55.62312       2595.141      0.2640677      0.2083605
      3753.5000        14.1013        -999.25        -999.25        48.4786       44.67849         0.3834         0.3606        -999.25         0.9772       -154.683      -56.02213       2557.804      0.2484786      0.2025779
      3754.0000        14.0989        -999.25        -999.25         54.279       51.66267         0.4249         0.3816        -999.25         0.9157      -145.9281      -47.25454       2560.632       0.397078      0.3296444
      3754.5000         14.057        -999.25        -999.25        64.4165       63.86858         0.5115         0.4309        -999.25         0.7984      -128.9719      -30.28564       2662.742      0.6567783      0.5755705
      3755.0000         13.975        -999.25        -999.25        71.7221       72.66498          0.614         0.5233        -999.25         0.7415      -113.3911      -14.69215       2685.416      0.8439357      0.8015631
      3755.5000        13.9327        -999.25        -999.25        71.8578       72.82901         0.7312         0.6548        -999.25          0.813      -107.8119       -9.10025       2628.216      0.8474258      0.8826051
      3756.0000        13.9304        -999.25        -999.25        70.5034       71.19901         0.9077         0.8016        -999.25         0.9156      -103.6305      -4.906158       2631.002      0.8127448       0.943389
      3756.5000        13.8881        -999.25        -999.25        69.5961       70.10728         1.1206         0.9846        -999.25         0.9931       -100.651      -1.913971       2574.164      0.7895165      0.9867541
      3757.0000        13.8856        -999.25        -999.25        68.2428       68.47861         1.3133         1.0593        -999.25         1.0156      -100.8714      -2.121674       2556.829      0.7548642      0.9837438
      3757.5000        13.8833        -999.25        -999.25        66.8909       65.11953         1.4019         1.1149        -999.25         0.9842      -100.2918      -1.529381       2579.502      0.6833943      0.9923278
      3758.0000        13.8409        -999.25        -999.25        65.6892       63.48286         1.3822         1.1572        -999.25         0.9272       -99.5113     -0.8415985       2562.182      0.6485716              1
      3758.5000        13.7787        -999.25        -999.25         67.315       65.69887         1.3128          1.157        -999.25         0.8958       -99.1322      -0.588028       2564.995      0.6957206              1
      3759.0000        13.7361        -999.25        -999.25        72.0628       72.16884         1.2409         1.1353        -999.25         0.8791       -99.1521     -0.7334518        2587.63      0.8333796              1
      3759.5000        13.6936        -999.25        -999.25        72.7921       73.16331         1.1729         1.1088        -999.25         0.8709       -99.5718      -1.278679        2629.78      0.8545384      0.9959612
      3760.0000        13.6712        -999.25        -999.25        74.4119       75.37117         1.1402         1.0881        -999.25         0.8586       -99.9918      -1.824203       2632.554      0.9015142      0.9880551
      3760.5000        13.6489        -999.25        -999.25        77.9922       80.25032         1.1342         1.0623        -999.25         0.8303      -100.0119      -1.969833        2634.84              1      0.9859444
      3761.0000        13.7069        -999.25        -999.25         82.027       84.60474         1.1279         1.0415        -999.25         0.8102      -100.0317      -2.115166       2597.196              1      0.9838382
      3761.5000        13.7649        -999.25        -999.25        84.5619       88.59941         1.1268         1.0405        -999.25         0.7981      -100.0514      -2.260391       2599.157              1      0.9817334
      3762.0000         13.923        -999.25        -999.25        83.1971       86.44997         1.1257         1.0642        -999.25         0.8163      -100.0712      -2.405716       2640.721              1      0.9796273
      3762.5000         14.141        -999.25        -999.25        81.2324       83.35538         1.1246         1.0782        -999.25         0.8877       -99.6918      -2.151848       2563.474              1      0.9833065
      3763.0000        14.3589        -999.25        -999.25        75.8164        74.8231         1.1236         1.0925        -999.25         0.9705      -100.1106      -2.696175       2565.435      0.8898531      0.9754177
      3763.5000         14.477        -999.25        -999.25        66.5593       60.23904         1.0762         1.0914        -999.25         1.0415      -100.1303        -2.8414       2567.396       0.579554       0.973313
      3764.0000         14.495        -999.25        -999.25        60.8743       51.28294         1.0405         1.0955        -999.25          1.111      -101.5505      -4.387123       2569.356      0.3889987      0.9509113
      3764.5000         14.493        -999.25        -999.25         60.256       50.30964         0.9967         1.0945        -999.25         1.1524      -104.5703      -7.532448       2630.722      0.3682901      0.9053268
      3765.0000        14.4908        -999.25        -999.25         62.621       54.03663         0.9795         1.0582        -999.25         1.1038      -106.7901      -9.877785       2612.881      0.4475878      0.8713365
      3765.5000        14.4888        -999.25        -999.25        64.2421       56.59162         0.9304         1.0232        -999.25         1.0376      -109.8119      -13.02511       2595.236      0.5019494      0.8257231
      3766.0000        14.4869        -999.25        -999.25        60.9362       51.38389         0.8945          0.982        -999.25         1.0127      -111.8317      -15.17044       2616.998      0.3911466      0.7946313
      3766.5000        14.4849        -999.25        -999.25        58.6763       47.82418         0.8445         0.9328        -999.25         0.9853      -114.4515      -17.91576       2618.959      0.3154081       0.754844
