#------------------------------------------------------------------------------
# Created by    : vladimir.rabinovich
# Created on    : 09/19/2023 17:20:52
#------------------------------------------------------------------------------
~Version Information Section
VERS.           2.0     :   CWLS log ASCII Standard - VERSION 2.0
WRAP.           NO      :   One line per depth step
~Well Information Section
#MNEM       .UNIT                                         VALUE :DESCRIPTION
#------------------------------------------------------------------------------
STRT        .FT                                            1558 :START DEPTH
STOP        .FT                                           11266 :STOP DEPTH
STEP        .FT                                             0.5 :STEP      
NULL        .                                           -999.25 :NULL      
COMP        .                               MEREDITH & CO ET AL :COMPANY   
WELL        .                                 GRINNELL TEXAS CO :WELL      
FLD         .                                           WILDCAT :FIELD     
LOC         .                                                   :LOCATION  
CNTY        .                                         JEFFERSON :LOCATION  
STAT        .                                             TEXAS :STATE     
CTRY        .                                     UNITED STATES :COUNTRY   
SRVC        .                                                   :SERVICE COMPANY
DATE        .                             9/13/2023 11:19:11 AM :LOG DATE  
API         .                                    42245015300000 :API NUMBER
UWI         .                                    42245015300000 :UNIQUE WELL ID
XCOORD      .                                  1358778.50439977 :SURFACE X 
YCOORD      .                                  10877447.4356243 :SURFACE Y 
LAT         .                                        29.9685419 :LATITUDE  
LON         .                                       -93.8897358 :LONGITUDE 
ELEV        .FT                                              14 :ELEVATION VALUE
ELEV_TYPE   .                                                DF :ELEVATION REFERENCE TYPE
~Curve Information Section
#MNEM       .UNIT                                      API CODE :CURVE DESCRIPTION
#------------------------------------------------------------------------------
DEPT        .FT                                                 :DEPTH     
ASN         .OHMM                                               :          
LN          .OHMM                                               :          
SP          .MV                                                 :          
SP_NORM     .MV                                                 :SP Normalized
VSH_SP      .V/V                                                :Volume of Shale from SP
~A        DEPTH            ASN             LN             SP        SP_NORM         VSH_SP
# ...
      8642.0000         0.8999         0.6935       -20.4355     -0.6824131              1
      8642.5000         0.8737         0.6897       -20.4937     -0.7406139              1
      8643.0000         0.8512         0.6859       -20.5519     -0.7988148              1
      8643.5000         0.8458         0.6821       -20.6101     -0.8570137              1
      8644.0000         0.8404         0.6783       -20.6683     -0.9152145              1
      8644.5000         0.8351         0.6744       -20.7265     -0.9734135              1
      8645.0000         0.8297         0.6706       -20.7848      -1.031713      0.9996437
      8645.5000         0.8243         0.6668       -20.8429      -1.089813      0.9989908
      8646.0000         0.8189          0.663       -20.8636      -1.110514      0.9987583
      8646.5000         0.8135         0.6592       -20.8525      -1.099415       0.998883
      8647.0000         0.8082         0.6577       -20.8415      -1.088413      0.9990066
      8647.5000         0.8028         0.6581       -20.8304      -1.077314      0.9991313
      8648.0000         0.7974         0.6586       -20.8194      -1.066315      0.9992549
      8648.5000         0.7945         0.6591       -20.8084      -1.055313      0.9993785
      8649.0000         0.7967         0.6595       -20.7973      -1.044214      0.9995032
      8649.5000         0.7988           0.66       -20.7863      -1.033215      0.9996268
      8650.0000          0.801         0.6604       -20.7752      -1.022114      0.9997515
      8650.5000         0.8032         0.6609       -20.7642      -1.011114      0.9998751
      8651.0000         0.8054         0.6614       -20.7351     -0.9820137              1
      8651.5000         0.8075         0.6618        -20.675     -0.9219131              1
      8652.0000         0.8097         0.6623        -20.615     -0.8619137              1
      8652.5000         0.8119         0.6631        -20.555     -0.8019142              1
      8653.0000         0.8141         0.6664        -20.495     -0.7419147              1
      8653.5000         0.8162         0.6697        -20.435     -0.6819134              1
      8654.0000         0.8184          0.673        -20.375     -0.6219139              1
      8654.5000         0.8206         0.6764       -20.3149     -0.5618134              1
      8655.0000         0.8228         0.6797       -20.2549     -0.5018139              1
      8655.5000         0.8249          0.683       -20.2144     -0.4613132              1
      8656.0000         0.8271         0.6863       -20.2037      -0.450613              1
      8656.5000         0.8281         0.6896       -20.1929     -0.4398136              1
      8657.0000          0.829         0.6929       -20.1821     -0.4290142              1
      8657.5000         0.8298         0.6963       -20.1714      -0.418314              1
      8658.0000         0.8307         0.6996       -20.1606     -0.4075146              1
      8658.5000         0.8316         0.7029       -20.1498     -0.3967133              1
      8659.0000         0.8325         0.7066       -20.1391      -0.386013              1
      8659.5000         0.8334         0.7103       -20.1283     -0.3752136              1
      8660.0000         0.8342          0.714       -20.1175     -0.3644142              1
      8660.5000         0.8351         0.7177       -20.1074     -0.3543148              1
      8661.0000          0.836         0.7214       -20.1222     -0.3691139              1
      8661.5000         0.8369         0.7251        -20.137      -0.383913              1
      8662.0000         0.8378         0.7288       -20.1517      -0.398613              1
      8662.5000         0.8382         0.7325       -20.1665      -0.413414              1
      8663.0000         0.8381         0.7362       -20.1813     -0.4282131              1
      8663.5000         0.8381         0.7399       -20.1961     -0.4430141              1
      8664.0000         0.8381         0.7436       -20.2109     -0.4578133              1
      8664.5000          0.838         0.7473       -20.2257     -0.4726143              1
      8665.0000         0.8522          0.751       -20.2405     -0.4874134              1
      8665.5000         0.8677         0.7538       -20.2553     -0.5022144              1
      8666.0000         0.8833         0.7566       -20.2701     -0.5170135              1
      8666.5000         0.8993         0.7595       -20.2853     -0.5322132              1
      8667.0000         0.9155         0.7623        -20.302      -0.548914              1
      8667.5000         0.9317         0.7651       -20.3187     -0.5656147              1
      8668.0000         0.9478          0.768       -20.3354     -0.5823135              1
      8668.5000         0.9565         0.7708       -20.3521     -0.5990143              1
      8669.0000         0.9523         0.7737       -20.3687     -0.6156139              1
      8669.5000          0.948         0.7765       -20.3854     -0.6323147              1
      8670.0000         0.9438         0.7793        -20.402     -0.6489143              1
      8670.5000         0.9395         0.7822       -20.4187     -0.6656132              1
      8671.0000         0.9352         0.7848       -20.4354     -0.6823139              1
      8671.5000          0.931         0.7871       -20.4474      -0.694313              1
      8672.0000         0.9287         0.7893       -20.4008     -0.6477146              1
      8672.5000         0.9304         0.7916       -20.3544     -0.6013145              1
      8673.0000         0.9321         0.7938       -20.3079     -0.5548134              1
      8673.5000         0.9338         0.7961       -20.2613      -0.508213              1
      8674.0000         0.9354         0.7983       -20.2149      -0.461813              1
      8674.5000         0.9371         0.8006       -20.1683     -0.4152145              1
      8675.0000         0.9369         0.8028       -20.1218     -0.3687134              1
      8675.5000         0.9351         0.8073       -20.0753     -0.3222141              1
      8676.0000         0.9327         0.8142       -19.9229     -0.1698132              1
      8676.5000         0.9256         0.8211       -19.6647     0.08838654              1
      8677.0000         0.9185         0.8229       -19.4064      0.3466854              1
      8677.5000         0.9114          0.819       -19.1482       0.604887              1
      8678.0000         0.9044          0.815       -18.7459       1.007187              1
      8678.5000         0.8973          0.811       -18.2873       1.465786              1
      8679.0000         0.8925          0.807       -17.8286       1.924486              1
      8679.5000           0.89          0.803       -17.3699       2.383186              1
      8680.0000         0.8875         0.7991       -17.0186       2.734486              1
      8680.5000         0.8851         0.7951       -16.7037       3.049387              1
      8681.0000         0.8826         0.7922       -16.3887       3.364386              1
      8681.5000         0.8838         0.7892       -16.0738       3.679287              1
      8682.0000         0.8865         0.7863       -15.7588       3.994287              1
      8682.5000         0.8916         0.7833       -15.4439       4.309186              1
      8683.0000         0.8981         0.7804        -15.337       4.416086              1
      8683.5000         0.9189         0.7775       -15.2338       4.519286              1
      8684.0000         0.9397         0.7745       -15.1306       4.622486              1
      8684.5000         1.1014         0.7728       -15.0272       4.725886              1
      8685.0000         1.2268         0.7726       -16.4223       3.330786              1
      8685.5000         1.3738         0.7725       -18.1667       1.586386              1
