#------------------------------------------------------------------------------
# Created by    : vladimir.rabinovich
# Created on    : 09/19/2023 17:20:51
#------------------------------------------------------------------------------
~Version Information Section
VERS.           2.0     :   CWLS log ASCII Standard - VERSION 2.0
WRAP.           NO      :   One line per depth step
~Well Information Section
#MNEM       .UNIT                                         VALUE :DESCRIPTION
#------------------------------------------------------------------------------
STRT        .FT                                            1818 :START DEPTH
STOP        .FT                                            9030 :STOP DEPTH
STEP        .FT                                             0.5 :STEP      
NULL        .                                           -999.25 :NULL      
COMP        .                               CONCHO PETROLEUM CO :COMPANY   
WELL        .                                  J E BROUSSARD JR :WELL      
FLD         .                                           WILDCAT :FIELD     
LOC         .                                                   :LOCATION  
CNTY        .                                         JEFFERSON :LOCATION  
STAT        .                                             TEXAS :STATE     
CTRY        .                                     UNITED STATES :COUNTRY   
SRVC        .                                                   :SERVICE COMPANY
DATE        .                             9/13/2023 11:19:11 AM :LOG DATE  
API         .                                    42245021900000 :API NUMBER
UWI         .                                    42245021900000 :UNIQUE WELL ID
XCOORD      .                                  1213918.99973078 :SURFACE X 
YCOORD      .                                  10884047.8383225 :SURFACE Y 
LAT         .                                         29.982808 :LATITUDE  
LON         .                                       -94.3475252 :LONGITUDE 
ELEV        .FT                                              35 :ELEVATION VALUE
ELEV_TYPE   .                                                GL :ELEVATION REFERENCE TYPE
~Curve Information Section
#MNEM       .UNIT                                      API CODE :CURVE DESCRIPTION
#------------------------------------------------------------------------------
DEPT        .FT                                                 :DEPTH     
ASN         .OHMM                                               :          
LAT         .OHMM                                               :          
LN          .OHMM                                               :          
SP          .MV                                                 :          
SP_NORM     .MV                                                 :SP Normalized
VSH_SP      .V/V                                                :Volume of Shale from SP
~A        DEPTH            ASN            LAT             LN             SP        SP_NORM         VSH_SP
# ...
      7100.0000         0.7793          0.569         0.5088       -83.3884      -19.30007      0.8053184
      7100.5000         0.7654         0.5685         0.5263       -86.7797       -22.6963      0.7691882
      7101.0000         0.7375         0.5677         0.5439       -94.2373      -30.15884      0.6897996
      7101.5000         0.7097         0.5668         0.5614      -101.7857      -37.71217       0.609445
      7102.0000         0.6819         0.5659         0.5789      -113.2143      -49.14571      0.4878116
      7102.5000         0.6542         0.5478         0.5965      -115.7143      -51.65064      0.4611634
      7103.0000          0.654         0.5297          0.614      -115.7143      -51.65557      0.4611109
      7103.5000         0.6915         0.5116         0.6316           -110      -45.94621      0.5218489
      7104.0000         0.7255         0.4935         0.6316      -109.6429      -45.59404      0.5255953
      7104.5000         0.7629         0.5099         0.6316      -113.9286      -49.88467      0.4799504
      7105.0000         0.7728         0.5263         0.6316      -123.1034      -59.06441      0.3822936
      7105.5000         0.7554         0.5427         0.6316      -123.1034      -59.06934      0.3822411
      7106.0000         0.7346         0.6108         0.6316      -114.2857      -50.25657       0.475994
      7106.5000         0.7889         0.6616         0.6316      -105.3571      -41.33291      0.5709265
      7107.0000         0.8229         0.7297         0.6316       -87.7966      -23.77734      0.7576879
      7107.5000          0.826         0.7806         0.6316       -69.8246      -5.810272      0.9488269
      7108.0000         0.8188         0.8315         0.6316       -68.7719      -4.762505      0.9599733
      7108.5000         0.8081         0.8651         0.6316       -67.0175      -3.013039      0.9785847
      7109.0000         0.7975         0.8815         0.6316       -66.3158      -2.316277      0.9859971
      7109.5000         0.7937         0.8978         0.6316       -64.9123     -0.9177055              1
      7110.0000         0.9002         0.9142         0.6491       -64.2105     -0.2208405              1
      7110.5000         0.9483         0.9138         0.6667       -64.2105     -0.2257767              1
      7111.0000         0.9931         0.9138         0.7544       -64.9123     -0.9325066              1
      7111.5000         1.0175         0.8966         0.9298       -66.3158      -2.340942      0.9857346
      7112.0000         1.0421         0.8793         0.9298       -68.7719      -4.801968      0.9595535
      7112.5000         1.0702         0.8448         0.9298       -71.2281      -7.263111      0.9333712
      7113.0000         1.0842         0.8103         0.9298       -73.3333      -9.373238       0.910923
      7113.5000         1.0912         0.7414         0.9474       -75.7895      -11.83437      0.8847408
      7114.0000         1.0982         0.6897         0.9649       -77.8947       -13.9445      0.8622925
      7114.5000         1.1053         0.6379         0.9649       -79.6491      -15.70384      0.8435761
      7115.0000         1.1158         0.5862         0.9649        -80.678      -16.73767      0.8325779
      7115.5000         1.1193          0.569         0.9298       -81.0169       -17.0815      0.8289202
      7116.0000         1.1298         0.5862         0.8947        -80.678      -16.74754       0.832473
      7116.5000         1.0982         0.6207         0.8596            -80      -16.07447      0.8396332
      7117.0000         1.0667         0.6724         0.8246       -78.2456        -14.325      0.8582447
      7117.5000         1.0316         0.7414         0.7895       -75.0877      -11.17204      0.8917868
      7118.0000         0.9897         0.7931         0.7544       -72.2807      -8.369972      0.9215961
      7118.5000         0.9966         0.8448         0.7193       -69.8246      -5.918808      0.9476722
      7119.0000         1.0035         0.8966         0.7018       -68.0702      -4.169338      0.9662836
      7119.5000         1.0105         0.9138         0.6842       -67.0175      -3.121574        0.97743
      7120.0000          1.007         0.9138         0.6842       -66.3158      -2.424812      0.9848424
      7120.5000         0.9897         0.8966         0.6842       -66.6667      -2.780643       0.981057
      7121.0000         0.9724         0.8621         0.6842       -66.6667      -2.785576      0.9810045
      7121.5000         0.9586         0.8103         0.6842       -67.3684      -3.492207      0.9734871
      7122.0000         0.9414         0.7759         0.6842       -68.0702       -4.19894      0.9659687
      7122.5000         0.9207         0.7414         0.6842       -70.5263      -6.659973      0.9397875
      7123.0000            0.9         0.6724         0.6842       -72.2807      -8.419308      0.9210712
      7123.5000         0.8793         0.6379         0.6842       -75.4386      -11.58214      0.8874241
      7124.0000         0.8586         0.6034         0.6667       -79.2982      -15.44668      0.8463119
      7124.5000         0.8379         0.5862         0.6491       -82.0339      -18.18731      0.8171563
      7125.0000         0.8172         0.5517         0.6491       -88.4746      -24.63294      0.7485857
      7125.5000         0.7966         0.5517         0.6316       -94.2373      -30.40057       0.687228
      7126.0000         0.7797         0.5517          0.614      -100.7143      -36.88251      0.6182712
      7126.5000         0.7661         0.5345          0.614         -107.5      -43.67314      0.5460304
      7127.0000         0.7356         0.5345         0.5965      -111.7857      -47.96377      0.5003854
      7127.5000         0.6847         0.5517         0.5965      -129.3103      -65.49331       0.313901
      7128.0000         0.6576         0.5517         0.5614      -139.3103      -75.49825      0.2074655
      7128.5000         0.6305         0.5517         0.5263      -145.2632      -81.45607      0.1440844
      7129.0000         0.6034         0.5862         0.4912      -144.2105       -80.4083      0.1552308
      7129.5000          0.593         0.6207         0.4561      -143.1579      -79.36064      0.1663762
      7130.0000         0.5825         0.6724         0.4211      -140.3509      -76.55858      0.1961853
      7130.5000         0.5684         0.7069         0.4035      -138.2668      -74.47941      0.2183042
      7131.0000         0.5614         0.7586          0.386      -132.3868      -68.60434      0.2808049
      7131.5000            0.6         0.7931         0.4035      -114.2531      -50.47557      0.4736641
      7132.0000         0.6746         0.8103         0.4211       -104.272      -40.49941      0.5797935
      7132.5000         0.7525         0.8103         0.4386      -103.5568      -39.78914      0.5873495
      7133.0000         0.8276         0.7931         0.4561      -103.9089      -40.14617      0.5835513
      7133.5000         0.8897         0.7069         0.4737      -105.3254      -41.56761      0.5684296
      7134.0000          0.831         0.6034         0.4912      -110.9959      -47.24305      0.5080527
      7134.5000         0.7695         0.5172         0.4912       -129.503      -65.75508      0.3111162
      7135.0000         0.7085          0.431         0.4912      -163.3839       -99.6409              0
      7135.5000         0.6475         0.3793         0.4912      -159.8306      -96.09254              0
      7136.0000          0.586         0.3621         0.4912      -156.6301      -92.89697     0.02237263
      7136.5000         0.5439         0.3621         0.4737      -151.9751       -88.2469     0.07184146
      7137.0000         0.5719         0.4138         0.4737       -140.447      -76.72375      0.1944282
      7137.5000         0.6034         0.4828         0.4561       -140.447      -76.72868      0.1943757
