#------------------------------------------------------------------------------
# Created by    : vladimir.rabinovich
# Created on    : 09/19/2023 17:19:39
#------------------------------------------------------------------------------
~Version Information Section
VERS.           2.0     :   CWLS log ASCII Standard - VERSION 2.0
WRAP.           NO      :   One line per depth step
~Well Information Section
#MNEM       .UNIT                                         VALUE :DESCRIPTION
#------------------------------------------------------------------------------
STRT        .FT                                            1969 :START DEPTH
STOP        .FT                                            7841 :STOP DEPTH
STEP        .FT                                             0.5 :STEP      
NULL        .                                           -999.25 :NULL      
COMP        .                           NEWFIELD EXPLORATION CO :COMPANY   
WELL        .                                   PHELAN GAS UNIT :WELL      
FLD         .                                          BINDWEED :FIELD     
LOC         .                                                   :LOCATION  
CNTY        .                                         JEFFERSON :LOCATION  
STAT        .                                             TEXAS :STATE     
CTRY        .                                     UNITED STATES :COUNTRY   
SRVC        .                                                   :SERVICE COMPANY
DATE        .                             9/13/2023 11:18:46 AM :LOG DATE  
API         .                                    42245322670000 :API NUMBER
UWI         .                                    42245322670000 :UNIQUE WELL ID
XCOORD      .                                  1272550.81244857 :SURFACE X 
YCOORD      .                                  10898469.5255822 :SURFACE Y 
LAT         .                                        30.0242363 :LATITUDE  
LON         .                                        -94.162774 :LONGITUDE 
ELEV        .FT                                              24 :ELEVATION VALUE
ELEV_TYPE   .                                                KB :ELEVATION REFERENCE TYPE
~Curve Information Section
#MNEM       .UNIT                                      API CODE :CURVE DESCRIPTION
#------------------------------------------------------------------------------
DEPT        .FT                                                 :DEPTH     
AHT20       .OHMM                                               :          
AHT30       .OHMM                                               :          
AHT60       .OHMM                                               :          
AHT90       .OHMM                                               :          
DCAL        .IN                                                 :          
DPHZSS      .V/V                                                :          
DT          .US/FT                                              :          
GR_NORM     .GAPI                                               :GammaRay Normalized
GRR         .GAPI                                               :          
HDRA        .G/CM3                                              :          
NPORSS      .V/V                                                :          
SP          .MV                                                 :          
SP_NORM     .MV                                                 :SP Normalized
TENR        .LB                                                 :          
VSH_GR      .V/V                                                :Volume of Shale from GR
VSH_SP      .V/V                                                :Volume of Shale from SP
~A        DEPTH          AHT20          AHT30          AHT60          AHT90           DCAL         DPHZSS             DT        GR_NORM            GRR           HDRA         NPORSS             SP        SP_NORM           TENR         VSH_GR         VSH_SP
# ...
      2865.0000              1         1.0518         1.3917          1.424           0.74         0.2808         89.648       87.60947             87         -0.019         0.4176          -45.4       2.181263       1902.062              1              1
      2865.5000         1.0092         1.0566          1.411         1.4175           0.62         0.2755        89.8525        85.9667           85.8         -0.019         0.4294          -46.2       1.377014       1902.062              1              1
      2866.0000         1.0139         1.0664         1.3853         1.3853           0.62         0.2744        90.4576       84.93707          85.05         -0.019         0.4537          -46.8      0.7727661       1902.062              1              1
      2866.5000         1.0232         1.0713         1.3354         1.3354           0.62         0.2732        91.1626       79.00217           80.7         -0.016         0.4781          -46.8      0.7685165       1902.062      0.9787697              1
      2867.0000         1.0232         1.0713         1.2813         1.2991           0.62         0.2709        91.6677       75.11115          77.85         -0.008         0.5039          -46.8      0.7642632       1902.062       0.895982              1
      2867.5000         1.0374         1.0962         1.2696         1.2991           0.62         0.2697        91.6727       75.92101          78.45         -0.001         0.4969          -46.8      0.7600136       1902.062       0.913213              1
      2868.0000         1.0518         1.1476         1.2813         1.3051           0.64         0.2697        91.3778       79.59229          81.15         -0.007         0.4911          -45.8       1.755764       1902.062      0.9913254              1
      2868.5000         1.0911         1.1636         1.2872         1.3051           0.76         0.2738        86.9828       79.99337          81.45         -0.011         0.4817          -44.8       2.751514       1902.062      0.9998589              1
      2869.0000         1.1216         1.1851         1.2872         1.2872           0.82         0.2755        77.1448       79.37252             81         -0.011         0.4744          -44.6       2.947266        1922.68      0.9866494              1
      2869.5000         1.1216         1.1851         1.2872         1.2813           0.86         0.2773        64.8929       76.09466           78.6          -0.01         0.4706          -44.6       2.943012        1922.68      0.9169076              1
      2870.0000         1.1268         1.1851         1.2872         1.2813           0.82         0.2761         62.298        75.6782           78.3         -0.009          0.465          -45.2        2.33876        1922.68      0.9080468              1
      2870.5000         1.1268         1.1851         1.2872         1.2872         0.7595         0.2755         74.902       77.71438           79.8         -0.007         0.4581          -45.8       1.734512        1922.68      0.9513698              1
      2871.0000         1.1319         1.1851         1.2872         1.3051         0.6985          0.275           87.5       79.54618          81.15         -0.005         0.4506          -45.8       1.730263        1922.68      0.9903443              1
      2871.5000         1.1319         1.1851         1.3051         1.3171         0.6574          0.279           91.3       80.15166           81.6         -0.004         0.4575          -45.8       1.726013        1922.68              1              1
      2872.0000         1.1319         1.1851         1.3171         1.3354         0.7364          0.286           92.2       77.69133           79.8         -0.004         0.4588          -45.4       2.121758        1922.68      0.9508793              1
      2872.5000         1.1319         1.1851         1.3292         1.3539         0.8155         0.2866           92.6         75.231             78         -0.004         0.4532          -44.8        2.71751        1922.68       0.898532              1
      2873.0000         1.1424         1.1851         1.3477         1.3664         0.8545          0.286           91.8       73.17945           76.5         -0.004          0.447          -44.8       2.713261        1922.68      0.8548819              1
      2873.5000         1.1529         1.1961         1.3601          1.379         0.8934         0.2831        76.1765       71.94547           75.6         -0.003         0.4408          -44.6       2.909012        1922.68      0.8286269              1
      2874.0000         1.1743         1.1961         1.3726         1.3853         0.9324         0.2802           63.9       70.91583          74.85         -0.001         0.4408          -45.2        2.30476        1922.68      0.8067198              1
      2874.5000         1.1743         1.1961          1.379         1.3981         0.9915         0.2767        57.8351        70.0906          74.25         -0.003         0.4452          -45.2       2.300507        1922.68      0.7891617              1
      2875.0000         1.1743         1.1961         1.3853          1.411         1.0505          0.272        58.6598         69.061           73.5         -0.004         0.4477          -45.8       1.696259        1922.68      0.7672552              1
      2875.5000         1.1743         1.2182         1.3981          1.424         1.1094          0.265        58.9691       68.03137          72.75         -0.004         0.4439            -46       1.492008        1922.68      0.7453483              1
      2876.0000         1.2016         1.2295         1.4045          1.424         1.1884         0.2616        59.1753       67.00175             72         -0.004          0.426            -47      0.4877586        1922.68      0.7234416              1
      2876.5000         1.2295         1.2696         1.4175          1.424         1.2675         0.2616           63.3       66.58528           71.7         -0.003         0.4095          -47.6     -0.1164894        1922.68      0.7145805              1
      2877.0000         1.2638         1.3171         1.4045         1.3726         1.4065         0.2581        77.9412       68.41709          73.05         -0.003          0.392            -48     -0.5207443        1922.68      0.7535551              1
      2877.5000         1.2991         1.3664         1.3415         1.3111         1.5454         0.2476           93.1       69.02258           73.5         -0.003         0.3793            -49      -1.524994        1922.68      0.7664378              1
      2878.0000         1.3111         1.3415         1.1743         1.1529         1.6044         0.2356       102.1212       70.03681          74.25         -0.005         0.3721            -51      -3.529243        1922.68      0.7880173      0.9757263
      2878.5000         1.2182         1.1961         1.0279         1.0092         1.6435         0.2269           99.8       70.23352           74.4         -0.005         0.3721            -55      -7.533493        1922.68      0.7922026      0.9121668
      2879.0000         1.1165         1.0713            0.9         0.8838         1.6025         0.2313           95.2       68.18198           72.9         -0.005         0.3733            -60      -12.53774        1922.68      0.7485527      0.8327342
      2879.5000         1.0279         0.9552          0.789         0.7746         1.5414          0.247        79.0196       62.04269           68.4         -0.006         0.3721          -65.6      -18.14199        1922.68      0.6179296      0.7437779
      2880.0000         0.8919         0.8601         0.7196         0.6967         1.5004         0.2715           62.9       55.69902          63.75         -0.007         0.3655          -72.2      -24.74624        1922.68      0.4829579      0.6389486
      2880.5000          0.822         0.7854         0.6526         0.6526            1.5         0.2953        56.0852       53.03431           61.8         -0.007         0.3558          -75.4       -27.9505        1922.68      0.4262619      0.5880874
