#------------------------------------------------------------------------------
# Created by    : vladimir.rabinovich
# Created on    : 09/19/2023 17:20:51
#------------------------------------------------------------------------------
~Version Information Section
VERS.           2.0     :   CWLS log ASCII Standard - VERSION 2.0
WRAP.           NO      :   One line per depth step
~Well Information Section
#MNEM       .UNIT                                         VALUE :DESCRIPTION
#------------------------------------------------------------------------------
STRT        .FT                                            1818 :START DEPTH
STOP        .FT                                            9030 :STOP DEPTH
STEP        .FT                                             0.5 :STEP      
NULL        .                                           -999.25 :NULL      
COMP        .                               CONCHO PETROLEUM CO :COMPANY   
WELL        .                                  J E BROUSSARD JR :WELL      
FLD         .                                           WILDCAT :FIELD     
LOC         .                                                   :LOCATION  
CNTY        .                                         JEFFERSON :LOCATION  
STAT        .                                             TEXAS :STATE     
CTRY        .                                     UNITED STATES :COUNTRY   
SRVC        .                                                   :SERVICE COMPANY
DATE        .                             9/13/2023 11:19:11 AM :LOG DATE  
API         .                                    42245021900000 :API NUMBER
UWI         .                                    42245021900000 :UNIQUE WELL ID
XCOORD      .                                  1213918.99973078 :SURFACE X 
YCOORD      .                                  10884047.8383225 :SURFACE Y 
LAT         .                                         29.982808 :LATITUDE  
LON         .                                       -94.3475252 :LONGITUDE 
ELEV        .FT                                              35 :ELEVATION VALUE
ELEV_TYPE   .                                                GL :ELEVATION REFERENCE TYPE
~Curve Information Section
#MNEM       .UNIT                                      API CODE :CURVE DESCRIPTION
#------------------------------------------------------------------------------
DEPT        .FT                                                 :DEPTH     
ASN         .OHMM                                               :          
LAT         .OHMM                                               :          
LN          .OHMM                                               :          
SP          .MV                                                 :          
SP_NORM     .MV                                                 :SP Normalized
VSH_SP      .V/V                                                :Volume of Shale from SP
~A        DEPTH            ASN            LAT             LN             SP        SP_NORM         VSH_SP
# ...
      9000.0000         1.0667         0.8276         0.9649       -41.0089      -1.056999      0.9993936
      9000.5000         1.0771         0.8099         0.9825       -40.6785     -0.7723999              1
      9001.0000         1.0943         0.7917              1       -40.3395     -0.4792023              1
      9001.5000         1.1115         0.7907         1.0175       -40.3398     -0.5253029              1
      9002.0000         1.1427         0.7898          1.035       -40.3401     -0.5713997              1
      9002.5000         1.1738         0.7716         1.0524       -40.3404     -0.6175041              1
      9003.0000         1.1911         0.7711         1.0524            -40     -0.3229027              1
      9003.5000         1.2222         0.7529         1.0698        -40.341     -0.7097015              1
      9004.0000         1.2148         0.7519         1.0697       -40.3412     -0.7557068              1
      9004.5000         1.1586         0.7682         1.0696        -40.683      -1.143303      0.9984755
      9005.0000         1.0887         0.7672         1.0522       -41.0254        -1.6124      0.9934851
      9005.5000          1.099          0.784         1.0348       -41.3684      -2.303017      0.9861381
      9006.0000          1.123         0.8003         1.0347       -42.0542       -3.33643      0.9751444
      9006.5000          1.147         0.8166         1.0347       -42.7412      -4.371044      0.9641379
      9007.0000         1.1709         0.8329         1.0347       -45.1439      -7.121361      0.9348791
      9007.5000         1.1948         0.8491         1.0346       -49.6133      -11.93837      0.8836343
      9008.0000         1.1808         0.8487         1.0346       -52.3696      -15.04229       0.850614
      9008.5000         1.1666         0.8477         1.0346       -49.2854       -12.3057      0.8797266
      9009.0000         1.1489         0.8467         1.0345       -45.8516      -9.219517      0.9125583
      9009.5000         1.1314         0.8285         1.0173       -42.4116      -6.127129      0.9454561
      9010.0000         1.1138         0.8276         0.9825       -40.3447      -4.407845      0.9637463
      9010.5000         1.1034         0.8276         0.9474            -40      -4.410759      0.9637153
      9011.0000         1.1034         0.8276         0.8947       -39.6491      -4.407475      0.9637502
      9011.5000            1.1         0.8276         0.8421       -39.6491      -4.755089      0.9600523
      9012.0000         0.9679         0.8276         0.7895       -39.2982      -4.751801      0.9600872
      9012.5000         0.7966         0.8448         0.7368       -39.2982      -5.099415      0.9563892
      9013.0000         0.7864         0.8448         0.7193       -37.5439       -3.69273      0.9713539
      9013.5000         0.7797         0.8448         0.7018       -36.4912      -2.987644      0.9788548
      9014.0000         0.7695         0.8448         0.7018       -36.1404      -2.984459      0.9788888
      9014.5000         0.7661         0.8448         0.6842       -36.1404      -3.332073      0.9751907
      9015.0000         0.7593         0.8276         0.6842       -36.1404      -3.679688      0.9714927
      9015.5000         0.7525         0.8103         0.6842       -36.1404      -4.027302      0.9677947
      9016.0000         0.7424         0.8103         0.6842       -36.1404      -4.374914      0.9640967
      9016.5000          0.739         0.8103         0.6842       -35.7895       -4.37163      0.9641316
      9017.0000         0.7322         0.8103         0.6842       -35.4386      -4.368341      0.9641666
      9017.5000          0.722         0.8103         0.6842       -34.0351      -3.312456      0.9753994
      9018.0000         0.7153         0.8276         0.6842       -33.3333      -2.958273      0.9791673
      9018.5000         0.7119         0.8448         0.6842       -32.2807      -2.253286      0.9866672
      9019.0000         0.7051         0.8448         0.6842       -31.5789      -1.899099      0.9904351
      9019.5000         0.7254         0.8448         0.6842       -31.2281      -1.598471      0.9936333
      9020.0000         0.7356         0.8448         0.6842       -31.2281      -1.598471      0.9936333
      9020.5000         0.7424         0.8448         0.6842        -31.234       -1.60437      0.9935705
      9021.0000         0.7559         0.8448         0.6842       -30.8919       -1.26227      0.9972099
      9021.5000         0.7627         0.8448         0.6842       -30.9004      -1.270771      0.9971195
      9022.0000         0.7695         0.8448         0.6842       -30.9089       -1.27927      0.9970291
      9022.5000         0.7729         0.8621         0.6842       -30.9132      -1.283571      0.9969833
      9023.0000         0.7763         0.8621         0.6842       -30.9216      -1.291971      0.9968939
      9023.5000         0.7763         0.8621         0.6842       -31.2789      -1.649271      0.9930928
      9024.0000         0.7763         0.8621         0.6842        -31.287      -1.657372      0.9930067
      9024.5000         0.7763         0.8621         0.6842       -31.2951       -1.66547      0.9929205
      9025.0000         0.7763         0.8621         0.6842       -31.9989       -2.36927      0.9854333
      9025.5000         0.7763         0.8793         0.6842       -32.0063      -2.376673      0.9853545
      9026.0000         0.7729         0.8966         0.6842       -32.0137      -2.384069      0.9852759
      9026.5000         0.7729         0.8966         0.6842       -32.0174       -2.38777      0.9852365
      9027.0000         0.7729         0.8966         0.6842       -32.0248       -2.39517      0.9851578
      9027.5000         0.7729         0.8966         0.6842       -32.0322      -2.402571      0.9850791
      9028.0000         0.7729         0.8966         0.6842       -32.0396      -2.409971      0.9850003
      9028.5000         0.7729         0.8966         0.6842        -32.047      -2.417372      0.9849216
      9029.0000         0.7729         0.8966         0.6842       -32.0543      -2.424669       0.984844
      9029.5000         0.7729         0.8966         0.6842       -32.0616      -2.431971      0.9847662
      9030.0000         0.7729         0.8966         0.6842       -32.4138       -2.78417      0.9810194
