#------------------------------------------------------------------------------
# Created by    : vladimir.rabinovich
# Created on    : 09/19/2023 17:20:50
#------------------------------------------------------------------------------
~Version Information Section
VERS.           2.0     :   CWLS log ASCII Standard - VERSION 2.0
WRAP.           NO      :   One line per depth step
~Well Information Section
#MNEM       .UNIT                                         VALUE :DESCRIPTION
#------------------------------------------------------------------------------
STRT        .FT                                            1769 :START DEPTH
STOP        .FT                                           14822 :STOP DEPTH
STEP        .FT                                             0.5 :STEP      
NULL        .                                           -999.25 :NULL      
COMP        .                                      SHELL OIL CO :COMPANY   
WELL        .                                 MCFADDEN CEE CRSS :WELL      
FLD         .                                           WILDCAT :FIELD     
LOC         .                                                   :LOCATION  
CNTY        .                                         JEFFERSON :LOCATION  
STAT        .                                             TEXAS :STATE     
CTRY        .                                     UNITED STATES :COUNTRY   
SRVC        .                                                   :SERVICE COMPANY
DATE        .                             9/13/2023 11:19:11 AM :LOG DATE  
API         .                                    42245030100000 :API NUMBER
UWI         .                                    42245030100000 :UNIQUE WELL ID
XCOORD      .                                  1300794.63996209 :SURFACE X 
YCOORD      .                                  10796706.8159759 :SURFACE Y 
LAT         .                                        29.7451097 :LATITUDE  
LON         .                                       -94.0705183 :LONGITUDE 
ELEV        .FT                                            17.6 :ELEVATION VALUE
ELEV_TYPE   .                                                KB :ELEVATION REFERENCE TYPE
~Curve Information Section
#MNEM       .UNIT                                      API CODE :CURVE DESCRIPTION
#------------------------------------------------------------------------------
DEPT        .FT                                                 :DEPTH     
ASN         .OHMM                                               :          
DT          .US/F                                               :          
ILD         .OHMM                                               :          
SP          .MV                                                 :          
SP_NORM     .MV                                                 :SP Normalized
VSH_SP      .V/V                                                :Volume of Shale from SP
~A        DEPTH            ASN             DT            ILD             SP        SP_NORM         VSH_SP
# ...
     14803.0000         0.7322        114.831         0.5109       -41.4777      0.4976082              1
     14803.5000         0.7237       118.3159         0.5042       -41.5536      0.4217072              1
     14804.0000         0.7152       118.6378         0.4976       -41.6299      0.3454056              1
     14804.5000         0.7081       118.8571         0.4909       -41.8013      0.1740074              1
     14805.0000         0.7028       119.2133         0.4886       -41.9807   -0.005393982              1
     14805.5000         0.7112       121.0247         0.4864       -42.1594     -0.1840935              1
     14806.0000         0.7206       120.8693         0.4842       -42.3387     -0.3633919              1
     14806.5000           0.73        121.256         0.4821       -42.5181     -0.5427933              1
     14807.0000         0.7414        121.795         0.4811       -42.6974     -0.7220917              1
     14807.5000         0.7362       122.2619         0.4802       -42.8688     -0.8934937              1
     14808.0000         0.7258       122.2861         0.4792       -43.0022      -1.026894      0.9994512
     14808.5000         0.7134       122.4931         0.4783       -43.1359      -1.160591      0.9967226
     14809.0000         0.7044        122.788         0.4774       -43.2697      -1.294392       0.993992
     14809.5000         0.7076       123.1891         0.4776       -43.4034      -1.428093      0.9912634
     14810.0000         0.7108       123.4057         0.4787       -43.5372      -1.561893      0.9885328
     14810.5000         0.7161       123.6527         0.4798       -43.6709      -1.695591      0.9858043
     14811.0000         0.7231       123.9094         0.4808       -43.8043      -1.828991      0.9830818
     14811.5000         0.7301       124.4262         0.4819       -43.8818      -1.906494      0.9815001
     14812.0000         0.7391       125.9966          0.483        -43.866      -1.890694      0.9818226
     14812.5000         0.7417       127.2136          0.484       -43.8502      -1.874893       0.982145
     14813.0000         0.7366       123.3399         0.4851       -43.8344      -1.859093      0.9824675
     14813.5000         0.7302       121.9891         0.4862       -43.8186      -1.843292      0.9827899
     14814.0000         0.7249       120.6277         0.4872       -43.8028      -1.827492      0.9831124
     14814.5000         0.7213       120.2155         0.4883        -43.787      -1.811691      0.9834349
     14815.0000         0.7231        119.697         0.4894       -43.7712      -1.795891      0.9837573
     14815.5000         0.7286       119.6966         0.4904       -43.7554      -1.780094      0.9840797
     14816.0000         0.7351       118.9988         0.4904       -43.7396      -1.764294      0.9844022
     14816.5000         0.7485       118.5336         0.4903       -43.7238      -1.748493      0.9847246
     14817.0000         0.7604       122.7157         0.4901        -43.708      -1.732693      0.9850471
     14817.5000         0.7698       123.5365         0.4899       -43.6865      -1.711193      0.9854859
     14818.0000         0.7743        123.799         0.4897       -43.6619      -1.686592      0.9859879
     14818.5000         0.7725       123.9535         0.4895       -43.6373      -1.661991        0.98649
     14819.0000         0.7706       124.0302         0.4894       -43.6127      -1.637394      0.9869919
     14819.5000         0.7688       124.0297         0.4892       -43.5881      -1.612793       0.987494
     14820.0000         0.7671        -999.25          0.489       -43.5635      -1.588192      0.9879961
     14820.5000         0.7662        -999.25         0.4888       -43.5388      -1.563492      0.9885002
     14821.0000         0.7653        -999.25         0.4886       -43.5142      -1.538891      0.9890022
     14821.5000         0.7649        -999.25         0.4885       -43.4896      -1.514294      0.9895042
     14822.0000         0.7669        -999.25         0.4883        -43.465      -1.489693      0.9900063
