#------------------------------------------------------------------------------
# Created by    : vladimir.rabinovich
# Created on    : 09/19/2023 17:19:40
#------------------------------------------------------------------------------
~Version Information Section
VERS.           2.0     :   CWLS log ASCII Standard - VERSION 2.0
WRAP.           NO      :   One line per depth step
~Well Information Section
#MNEM       .UNIT                                         VALUE :DESCRIPTION
#------------------------------------------------------------------------------
STRT        .FT                                            1208 :START DEPTH
STOP        .FT                                            8860 :STOP DEPTH
STEP        .FT                                             0.5 :STEP      
NULL        .                                           -999.25 :NULL      
COMP        .                             WEAVER EXPLORATION CO :COMPANY   
WELL        .                                       BEAVERS W H :WELL      
FLD         .                                           WILDCAT :FIELD     
LOC         .                                                   :LOCATION  
CNTY        .                                         JEFFERSON :LOCATION  
STAT        .                                             TEXAS :STATE     
CTRY        .                                     UNITED STATES :COUNTRY   
SRVC        .                                                   :SERVICE COMPANY
DATE        .                             9/13/2023 11:18:46 AM :LOG DATE  
API         .                                    42245314920000 :API NUMBER
UWI         .                                    42245314920000 :UNIQUE WELL ID
XCOORD      .                                  1212655.17721247 :SURFACE X 
YCOORD      .                                  10886677.7304034 :SURFACE Y 
LAT         .                                        29.9899994 :LATITUDE  
LON         .                                       -94.3516153 :LONGITUDE 
ELEV        .FT                                            37.2 :ELEVATION VALUE
ELEV_TYPE   .                                                KB :ELEVATION REFERENCE TYPE
~Curve Information Section
#MNEM       .UNIT                                      API CODE :CURVE DESCRIPTION
#------------------------------------------------------------------------------
DEPT        .FT                                                 :DEPTH     
ALL         .OHMM                                               :          
CILD        .MMHO/M                                             :          
ILD         .OHMM                                               :          
SP          .MV                                                 :          
SP_NORM     .MV                                                 :SP Normalized
VSH_SP      .V/V                                                :Volume of Shale from SP
~A        DEPTH            ALL           CILD            ILD             SP        SP_NORM         VSH_SP
# ...
      6794.0000         0.8894       1777.544         0.6059       143.8148      -13.24997      0.8344599
      6794.5000         0.7256       1868.138          0.576       147.2314      -9.839676      0.8805449
      6795.0000         0.7739       1962.573         0.5459       150.8522      -6.225159      0.9293898
      6795.5000          0.806       2013.474         0.5158       150.8576      -6.226059      0.9293776
      6796.0000         0.8239       2064.136         0.5061       146.8398      -10.25015      0.8749979
      6796.5000          0.804        2114.76         0.5066       146.8432      -10.25305      0.8749588
      6797.0000         0.7619       2118.534          0.507       148.2561      -8.846436      0.8939671
      6797.5000         0.7198       2126.222         0.5075       150.6778      -6.431046      0.9266075
      6798.0000         0.7098       2126.094          0.508       153.1018      -4.013321      0.9592794
      6798.5000         0.6878       2129.815         0.5289       155.5283      -1.593124      0.9919848
      6799.0000         0.6658       2098.358         0.5294       157.9572       0.829483              1
      6799.5000         0.6679       2066.875         0.5299         160.19          3.056              1
      6800.0000          0.668       2031.379         0.5306            160       2.859695              1
      6800.5000           0.67           2000         0.5301       159.5961       2.449509              1
      6801.0000         0.6721       1952.896         0.5295       159.1927        2.03981              1
      6801.5000         0.6721       1929.311          0.529       158.7896       1.630417              1
      6802.0000         0.6741        1917.49         0.5285       158.3869        1.22142              1
      6802.5000         0.6762       1929.242         0.5279       158.3876       1.215836              1
      6803.0000         0.6782       1941.006         0.5274       158.3884       1.210327              1
      6803.5000         0.6783       1940.977         0.5167       158.3892       1.204849              1
      6804.0000         0.6743       1937.011         0.5162       158.3903       1.199646              1
      6804.5000         0.6623       1933.042         0.5258       158.5922       1.395248              1
      6805.0000         0.6503       1929.069         0.5354       158.5928       1.389557              1
      6805.5000         0.6503       1932.976         0.5348       158.5935       1.383972              1
      6806.0000         0.6704       1956.609         0.5444       156.7867     -0.4291382              1
      6806.5000         0.6986       1980.267         0.5539       153.1753      -4.046829      0.9588267
      6807.0000         0.7289       2003.895         0.5533       149.7684      -7.460022      0.9127024
      6807.5000         0.7753       2015.575         0.5528       146.1647      -11.07001      0.8639188
      6808.0000         0.8353       2038.918         0.5422       143.5668      -13.67421      0.8287269
      6808.5000         0.8671       2050.568         0.5416       142.3733      -14.87399      0.8125136
      6809.0000         0.8355       2050.544         0.5311       144.3833      -12.87029      0.8395907
      6809.5000         0.8038       2034.975         0.5305       146.3914      -10.86848      0.8666421
      6810.0000         0.7394       1968.317           0.53          147.4       -9.86618      0.8801867
      6810.5000         0.7051       1920.792         0.5202          146.8      -10.47247      0.8719936
      6811.0000         0.7717       1928.713         0.5005       134.7475      -22.53127      0.7090369
      6811.5000         0.9685       2062.136         0.4907       124.6465      -32.63857      0.5724518
      6812.0000          1.082       2333.981         0.4709          114.6      -42.69135      0.4366033
      6812.5000         1.1719           2472         0.4511          110.6      -46.69765      0.3824641
      6813.0000         1.2711           2612         0.4413          106.6      -50.70394      0.3283251
      6813.5000         1.3215           2660         0.4215          104.6      -52.71024      0.3012129
      6814.0000         1.3557           2756         0.4016          101.8      -55.51653      0.2632902
      6814.5000         1.3698        2804.04         0.3817          101.8      -55.52283      0.2632051
      6815.0000         1.3517       2856.566         0.3819            103      -54.32912      0.2793363
      6815.5000         1.2272        2804.04         0.4022          106.2      -51.13542      0.3224943
      6816.0000         1.1012           2616         0.4325            119      -38.34171      0.4953824
      6816.5000         0.9754           2428         0.4529       127.4747      -29.87331      0.6098202
      6817.0000         0.8518       2240.777         0.4833          140.8      -16.55429      0.7898069
      6817.5000         0.7118       2069.903         0.5037          144.6      -12.76059      0.8410731
      6818.0000         0.7599       1916.832         0.5342          147.2      -10.16689      0.8761232
      6818.5000           0.81       1813.861         0.5546          148.2      -9.173172      0.8895518
      6819.0000           0.81       1659.406         0.5853          149.4      -7.979477      0.9056827
      6819.5000           0.78           1524         0.5855          150.4      -6.985764      0.9191113
      6820.0000          0.748       1452.037         0.5858        151.999      -5.393066      0.9406343
      6820.5000         0.7161        1407.85         0.6062       153.0084      -4.389938        0.95419
      6821.0000         0.6841       1375.661         0.6266       154.2178      -3.186844      0.9704481
      6821.5000         0.6681       1343.473         0.6571       155.4271      -1.983841      0.9867048
      6822.0000         0.6741       1311.285         0.6875       156.4366     -0.9806366              1
      6822.5000         0.6842       1367.072         0.7179        157.646      0.2224731              1
      6823.0000         0.6923       1430.854          0.718       158.2558      0.8259735              1
      6823.5000         0.6963       1498.634         0.7181       158.4656       1.029495              1
      6824.0000         0.6883       1562.413         0.7183       158.6755       1.233093              1
      6824.5000         0.6683       1629.886         0.7184       159.0854       1.636703              1
      6825.0000         0.6703       1669.372         0.6884       159.2953       1.840302              1
      6825.5000         0.6744       1716.675         0.6383       159.5052       2.043915              1
      6826.0000         0.6805       1787.729         0.5984       159.7151       2.247513              1
      6826.5000         0.6845       1803.464         0.5685       159.9227       2.448822              1
      6827.0000         0.6906       1830.975         0.5587       159.7351       2.254944              1
      6827.5000         0.6967       1858.486         0.5489       159.3452       1.858734              1
      6828.0000         0.6887       1889.955         0.5491       158.9553       1.462555              1
      6828.5000         0.6807         1933.3         0.5493       158.5654       1.066345              1
      6829.0000         0.6726       1944.978         0.5395       157.9756      0.4702606              1
      6829.5000         0.6666       1956.655         0.5398       157.9855      0.4738617              1
      6830.0000         0.6687       1968.317           0.53            158      0.4820709              1
      6830.5000         0.6748       1972.277         0.5303          157.8      0.2757721              1
      6831.0000         0.6809       1972.277         0.5205          157.8      0.2694855              1
      6831.5000          0.687       1960.396         0.5208            158      0.4631805              1
