#------------------------------------------------------------------------------
# Created by    : vladimir.rabinovich
# Created on    : 09/19/2023 17:20:52
#------------------------------------------------------------------------------
~Version Information Section
VERS.           2.0     :   CWLS log ASCII Standard - VERSION 2.0
WRAP.           NO      :   One line per depth step
~Well Information Section
#MNEM       .UNIT                                         VALUE :DESCRIPTION
#------------------------------------------------------------------------------
STRT        .FT                                             722 :START DEPTH
STOP        .FT                                            8710 :STOP DEPTH
STEP        .FT                                             0.5 :STEP      
NULL        .                                           -999.25 :NULL      
COMP        .                              BRUNER ARNOLD H & CO :COMPANY   
WELL        .                                              WEIR :WELL      
FLD         .                                           WILDCAT :FIELD     
LOC         .                                                   :LOCATION  
CNTY        .                                         JEFFERSON :LOCATION  
STAT        .                                             TEXAS :STATE     
CTRY        .                                     UNITED STATES :COUNTRY   
SRVC        .                                                   :SERVICE COMPANY
DATE        .                             9/13/2023 11:19:11 AM :LOG DATE  
API         .                                    42245021890000 :API NUMBER
UWI         .                                    42245021890000 :UNIQUE WELL ID
XCOORD      .                                  1215604.35578741 :SURFACE X 
YCOORD      .                                  10884998.9913957 :SURFACE Y 
LAT         .                                        29.9854781 :LATITUDE  
LON         .                                       -94.3422367 :LONGITUDE 
ELEV        .FT                                              36 :ELEVATION VALUE
ELEV_TYPE   .                                                DF :ELEVATION REFERENCE TYPE
~Curve Information Section
#MNEM       .UNIT                                      API CODE :CURVE DESCRIPTION
#------------------------------------------------------------------------------
DEPT        .FT                                                 :DEPTH     
ASN         .OHMM                                               :          
LAT         .OHMM                                               :          
LN          .OHMM                                               :          
SP          .MV                                                 :          
SP_NORM     .MV                                                 :SP Normalized
VSH_SP      .V/V                                                :Volume of Shale from SP
~A        DEPTH            ASN            LAT             LN             SP        SP_NORM         VSH_SP
# ...
      4446.0000           0.72         0.4386            0.2           -135      -73.85231      0.1343095
      4446.5000         0.6473         0.3509         0.2545           -140      -78.86222     0.07394915
      4447.0000         0.6109         0.2632         0.2909      -143.4674      -82.33954     0.03205375
      4447.5000         0.5895         0.1579         0.2727      -147.2756      -86.15765              0
      4448.0000         0.5404         0.0877         0.2727      -147.9618      -86.85376              0
      4448.5000         0.4912         0.0526         0.2545      -148.6467      -87.54855              0
      4449.0000         0.4386         0.0526         0.2364      -148.2937      -87.20547              0
      4449.5000         0.4351         0.0702         0.2364      -142.4169      -81.33858     0.04411353
      4450.0000         0.4491         0.0877         0.2182      -128.5767       -67.5083      0.2107434
      4450.5000         0.4808         0.1057            0.2      -123.2037       -62.1452      0.2753591
      4451.0000         0.5127         0.1242            0.2      -123.1854      -62.13681      0.2754601
      4451.5000         0.5479         0.1251            0.2      -132.8055      -71.76682       0.159436
      4452.0000         0.5796          0.126            0.2      -137.4371      -76.40833      0.1035141
      4452.5000         0.6336          0.127            0.2      -147.5366      -86.51775              0
      4453.0000         0.6338         0.1103            0.2      -148.9116      -87.90266              0
      4453.5000         0.5873         0.1113         0.2182      -149.5954      -88.59636              0
      4454.0000          0.563         0.0946         0.2364      -149.9332      -88.94407              0
      4454.5000         0.5144         0.0956         0.2364      -149.9243      -88.94508              0
      4455.0000          0.466         0.0965         0.2364      -149.9153      -88.94599              0
      4455.5000         0.4628          0.097         0.2182      -148.5141       -87.5547              0
      4456.0000         0.4805         0.0979         0.2182      -146.0652      -85.11571              0
      4456.5000          0.512         0.0988         0.2182      -145.0067      -84.06712     0.01123948
      4457.0000         0.5607         0.0997         0.2182      -143.5973      -82.66763     0.02810081
      4457.5000         0.6318         0.1006         0.2182      -143.5826      -82.66284     0.02815853
      4458.0000         0.6465         0.1016         0.2182      -144.6168      -83.70695     0.01557886
      4458.5000          0.654         0.1025         0.2182      -145.3028      -84.40286    0.007194427
      4459.0000         0.6505         0.1034         0.2364      -145.9901      -85.10007              0
      4459.5000         0.6435         0.1043         0.2364      -146.6787      -85.79858              0
      4460.0000         0.6182         0.1053         0.2364      -146.6667      -85.79649              0
      4460.5000         0.6036         0.1053         0.2364      -145.2632       -84.4029    0.007193968
      4461.0000         0.5759         0.1053         0.2545      -142.1053      -81.25491     0.04512152
      4461.5000         0.5448         0.1053         0.2727      -138.9286      -78.08813     0.08327558
      4462.0000         0.5172         0.1053         0.2909      -140.3509      -79.52034        0.06602
      4462.5000         0.4793         0.1053         0.3091      -143.1579      -82.33723     0.03208151
      4463.0000          0.431         0.1228         0.3273      -146.3158      -85.50505              0
      4463.5000         0.4207         0.1404         0.3455      -147.0175      -86.21666              0
      4464.0000         0.4517         0.1404         0.3636      -144.2105      -83.41957     0.01904131
      4464.5000         0.4966         0.1579         0.3636      -140.3509      -79.56989     0.06542307
      4465.0000         0.5552         0.1754         0.3455      -137.8571        -77.086     0.09534942
      4465.5000         0.6109          0.193         0.3273      -135.3571       -74.5959      0.1253506
      4466.0000           0.72         0.2281         0.3273      -130.7143      -69.96301      0.1811685
      4466.5000         0.7709         0.2456         0.3091      -117.5439      -56.80252      0.3397287
      4467.0000           0.81         0.2632         0.2909      -109.1228      -48.39133      0.4410683
      4467.5000           0.84         0.3158         0.2727      -101.0526      -40.33104      0.5381802
      4468.0000         0.8667         0.3684         0.2727       -90.1695      -29.45786      0.6691825
      4468.5000         0.8933         0.4211         0.2727       -83.3898      -22.68806      0.7507462
      4469.0000         0.9133         0.4912         0.2909       -77.8855      -17.19367      0.8169437
      4469.5000         0.9167         0.5439         0.3455       -68.7423      -8.060387      0.9269833
      4470.0000         0.9067         0.5789         0.4364       -64.1967      -3.524693      0.9816302
      4470.5000         0.8668         0.5623         0.5091       -62.4484      -1.786301              1
      4471.0000         0.8536          0.528         0.5636       -60.6763     -0.0241127              1
      4471.5000         0.8438         0.5113         0.6364       -60.6593    -0.01702499              1
      4472.0000         0.8339         0.4771         0.7455       -60.2903      0.3420677              1
      4472.5000         0.8341         0.4429         0.7818       -59.5557       1.066757              1
      4473.0000         0.8409         0.4086         0.7818       -59.5383       1.074245              1
      4473.5000         0.8444          0.392            0.8        -59.521       1.081638              1
      4474.0000         0.8479         0.3753            0.8       -59.5037       1.089027              1
      4474.5000         0.8515         0.3586            0.8       -59.4864       1.096416              1
      4475.0000         0.8516         0.3419         0.8182       -59.4691       1.103806              1
      4475.5000         0.8551         0.3427         0.8182       -59.4519       1.111095              1
      4476.0000         0.8553         0.3436         0.8364       -59.4347       1.118385              1
      4476.5000         0.8588         0.3445         0.8364       -59.7706      0.7725754              1
      4477.0000         0.8623         0.3453         0.8364       -59.7531      0.7801628              1
      4477.5000         0.8625         0.3637         0.8545       -59.3833       1.140057              1
      4478.0000          0.866         0.3646         0.8545       -59.0142       1.499249              1
      4478.5000         0.8662          0.383         0.8727       -58.6456       1.857937              1
      4479.0000          0.873         0.3838         0.8727       -58.6292       1.864426              1
      4479.5000         0.8765         0.3847         0.8727       -58.2617       2.222015              1
      4480.0000           0.88         0.3855         0.8908       -57.8947       2.579105              1
      4480.5000         0.8833         0.3684          0.891       -57.8947       2.569195              1
      4481.0000         0.8833         0.3684         0.9093       -57.5439       2.910088              1
      4481.5000           0.89         0.3684         0.9095       -57.5439       2.900177              1
      4482.0000         0.8967         0.3684         0.9097       -57.5439       2.890266              1
      4482.5000         0.9067          0.386         0.9098       -57.8947       2.529556              1
      4483.0000         0.9167          0.386           0.91       -56.8421       3.572247              1
      4483.5000         0.9333         0.4035         0.9102       -57.5439       2.860535              1
