#------------------------------------------------------------------------------
# Created by    : vladimir.rabinovich
# Created on    : 09/19/2023 17:20:52
#------------------------------------------------------------------------------
~Version Information Section
VERS.           2.0     :   CWLS log ASCII Standard - VERSION 2.0
WRAP.           NO      :   One line per depth step
~Well Information Section
#MNEM       .UNIT                                         VALUE :DESCRIPTION
#------------------------------------------------------------------------------
STRT        .FT                                            1025 :START DEPTH
STOP        .FT                                            8930 :STOP DEPTH
STEP        .FT                                             0.5 :STEP      
NULL        .                                           -999.25 :NULL      
COMP        .                                     MEREDITH & CO :COMPANY   
WELL        .                                 BROUSSARD JR ETAL :WELL      
FLD         .                                           WILDCAT :FIELD     
LOC         .                                                   :LOCATION  
CNTY        .                                         JEFFERSON :LOCATION  
STAT        .                                             TEXAS :STATE     
CTRY        .                                     UNITED STATES :COUNTRY   
SRVC        .                                                   :SERVICE COMPANY
DATE        .                             9/13/2023 11:19:11 AM :LOG DATE  
API         .                                    42245021860000 :API NUMBER
UWI         .                                    42245021860000 :UNIQUE WELL ID
XCOORD      .                                  1217776.66937412 :SURFACE X 
YCOORD      .                                  10884677.7702762 :SURFACE Y 
LAT         .                                        29.9846645 :LATITUDE  
LON         .                                       -94.3353628 :LONGITUDE 
ELEV        .FT                                              34 :ELEVATION VALUE
ELEV_TYPE   .                                                DF :ELEVATION REFERENCE TYPE
~Curve Information Section
#MNEM       .UNIT                                      API CODE :CURVE DESCRIPTION
#------------------------------------------------------------------------------
DEPT        .FT                                                 :DEPTH     
ASN         .OHMM                                               :          
LAT         .OHMM                                               :          
LN          .OHMM                                               :          
SP          .MV                                                 :          
SP_NORM     .MV                                                 :SP Normalized
VSH_SP      .V/V                                                :Volume of Shale from SP
~A        DEPTH            ASN            LAT             LN             SP        SP_NORM         VSH_SP
      1025.0000         0.1879         0.0893         0.0094       -73.5714      -9.373871      0.6648241
      1025.5000         0.2048          0.125         0.0085       -75.7143      -11.51677      0.5674196
      1026.0000         1.5308         0.1429         0.0076       -77.8571      -13.65957      0.4700196
      1026.5000         2.3953         0.1429         0.0067       -79.6429      -15.44537       0.388847
      1027.0000         2.7903         0.1607         0.0058       -82.1429      -17.94537      0.2752106
      1027.5000         3.5838         0.1607              0       -82.8571      -18.65957      0.2427469
      1028.0000         4.3684         0.1607          0.004       -83.2143      -19.01677      0.2265105
      1028.5000         4.4561         0.1607         1.5105       -83.5714      -19.37387      0.2102786
      1029.0000         4.5439         0.1607              2       -83.5714      -19.37387      0.2102786
      1029.5000         4.7193         0.1607         2.8225       -83.5714      -19.37387      0.2102786
      1030.0000         4.8947         0.1607         3.5819       -83.5714      -19.37387      0.2102786
      1030.5000              5         0.1607         4.4035       -83.5873      -19.38977      0.2095559
      1031.0000              5         0.1607         4.7018       -83.9617      -19.76417      0.1925378
      1031.5000         4.9649         0.1607         5.0741       -83.9791      -19.78157      0.1917468
      1032.0000         4.8947         0.1607         5.2037       -84.3535      -20.15597      0.1747287
      1032.5000         4.8596         0.1607         5.3704       -84.7279      -20.53036      0.1577107
      1033.0000         4.8596         0.1429         5.4815       -85.1023      -20.90477      0.1406923
      1033.5000         4.8772         0.1429         5.5741       -85.1197      -20.92216      0.1399016
      1034.0000         4.9474         0.1429         5.6111       -85.4941      -21.29657      0.1228832
      1034.5000         4.9649         0.1429         5.6481       -85.8685      -21.67097      0.1058651
      1035.0000         4.9825         0.1429         5.6481       -86.2429      -22.04536     0.08884707
      1035.5000              5         0.1429         5.6296       -86.2603      -22.06277     0.08805604
      1036.0000              5         0.1429         5.6111       -86.9917      -22.79417     0.05481061
      1036.5000         5.0926         0.1429         5.4815       -87.7318      -23.53426     0.02116984
      1037.0000         5.1111         0.1429          5.463       -88.1062      -23.90867    0.004151431
      1037.5000         5.1111         0.1429         5.4259       -88.4806      -24.28307              0
      1038.0000         5.0926         0.1429         5.3889        -88.855      -24.65747              0
      1038.5000         4.9649         0.1429         5.3889       -89.2294      -25.03187              0
      1039.0000         4.9123         0.1429         5.4259       -89.2468      -25.04927              0
      1039.5000         4.8596         0.1429         5.4444       -89.2643      -25.06676              0
      1040.0000          4.807         0.1429          5.463       -88.5677      -24.37017              0
      1040.5000         4.7713         0.1424         5.4626       -88.5776      -24.38007              0
      1041.0000         4.7704         0.1415         5.4436       -87.8701      -23.67257     0.01488321
      1041.5000         4.7871         0.1406         5.4245       -87.8774      -23.67987     0.01455134
      1042.0000         4.8213         0.1393         5.4054       -87.5263      -23.32877     0.03051064
      1042.5000         4.8905         0.1384         5.3863       -87.1745      -22.97697     0.04650151
      1043.0000         4.9946         0.1733         5.3485       -87.1811      -22.98357     0.04620153
      1043.5000         5.1054         0.2081         5.3293       -87.1877      -22.99017     0.04590156
      1044.0000         5.2165         0.2608         5.2911       -87.1911      -22.99357     0.04574689
      1044.5000         5.2718         0.6883         5.2718       -87.1977      -23.00017     0.04544692
      1045.0000         5.1964         0.8842         5.2711       -87.2043      -23.00677     0.04514694
      1045.5000         5.1208         1.8295         5.2704       -86.8505      -22.65297     0.06122867
      1046.0000         4.9897         2.4506         5.2698        -86.496      -22.29847     0.07734229
      1046.5000         4.9187         3.0179         5.2691       -85.7797      -21.58217      0.1099014
      1047.0000         4.8478         3.8036         5.2684       -84.7005      -20.50297       0.158956
      1047.5000         4.7237         3.9643         5.2678       -83.6192      -19.42167       0.208106
      1048.0000         4.6352         4.0359         5.2671       -81.8113      -17.61377      0.2902832
      1048.5000         4.5467         4.1791         5.2664       -80.3626      -16.16507      0.3561332
      1049.0000         4.4756         4.2863         5.2658       -78.9266      -14.72906      0.4214061
      1049.5000         4.4222         4.3218         5.2462       -77.8543      -13.65677      0.4701469
      1050.0000         4.4564         4.3572         5.2078       -77.1417      -12.94417      0.5025378
      1050.5000         4.5614         4.3929         5.1509       -78.5803      -14.38277       0.437147
      1051.0000         4.6491            4.5          5.113       -79.3119      -15.11436      0.4038925
      1051.5000         4.7018         4.6071         5.0565       -80.7794      -16.58187      0.3371877
      1052.0000         4.7018         4.7143         5.0188       -81.8833      -17.68577      0.2870106
      1052.5000         4.6667         4.7857         4.9474       -82.6234      -18.42587      0.2533698
      1053.0000         4.6491         4.8214         4.9123       -83.3622      -19.16467      0.2197879
      1053.5000          4.614         4.8571         4.8596       -83.7385      -19.54097      0.2026832
      1054.0000         4.5965          4.875         4.8596       -83.7531      -19.55556      0.2020198
      1054.5000         4.5439         4.8929         4.7018       -83.4072      -19.20967      0.2177422
      1055.0000         4.4912         4.8929         4.5965       -83.0619      -18.86436       0.233438
      1055.5000         4.4035         4.9286         4.4737       -82.3573      -18.15977      0.2654651
      1056.0000         4.2982         4.9464         4.3684       -81.2944      -17.09687      0.3137786
      1056.5000         4.1228         4.9464         4.2982       -80.2335      -16.03596      0.3620016
      1057.0000         3.9277         4.9464         4.2982       -79.5212      -15.32367      0.3943787
      1057.5000         3.7286          4.875         4.3333       -77.7304      -13.53287      0.4757788
      1058.0000         3.4385         4.8036         4.3684       -75.2122      -11.01466      0.5902426
      1058.5000         3.2386         4.6071         4.4211       -73.4139       -9.21637      0.6719832
      1059.0000         3.0566         4.0714         4.4737       -70.5238      -6.326271      0.8033513
      1059.5000         2.9655         3.7143         4.5088       -68.7176      -4.520065      0.8854516
      1060.0000         2.8575         3.4821         4.5439        -67.635      -3.437469      0.9346605
      1060.5000         2.8036         3.3571         4.5439       -66.9241       -2.72657      0.9669741
      1061.0000         2.8036         3.2143         4.5088       -66.2154      -2.017868      0.9991878
      1061.5000         2.8214         3.2143         4.4561       -66.2335      -2.035965      0.9983652
      1062.0000          2.875           3.25         4.4035       -66.2517      -2.054169      0.9975378
      1062.5000         2.9464         3.3929         4.3684       -66.6333      -2.435768      0.9801924
