#------------------------------------------------------------------------------
# Created by    : vladimir.rabinovich
# Created on    : 09/19/2023 17:20:52
#------------------------------------------------------------------------------
~Version Information Section
VERS.           2.0     :   CWLS log ASCII Standard - VERSION 2.0
WRAP.           NO      :   One line per depth step
~Well Information Section
#MNEM       .UNIT                                         VALUE :DESCRIPTION
#------------------------------------------------------------------------------
STRT        .FT                                            1025 :START DEPTH
STOP        .FT                                            8930 :STOP DEPTH
STEP        .FT                                             0.5 :STEP      
NULL        .                                           -999.25 :NULL      
COMP        .                                     MEREDITH & CO :COMPANY   
WELL        .                                 BROUSSARD JR ETAL :WELL      
FLD         .                                           WILDCAT :FIELD     
LOC         .                                                   :LOCATION  
CNTY        .                                         JEFFERSON :LOCATION  
STAT        .                                             TEXAS :STATE     
CTRY        .                                     UNITED STATES :COUNTRY   
SRVC        .                                                   :SERVICE COMPANY
DATE        .                             9/13/2023 11:19:11 AM :LOG DATE  
API         .                                    42245021860000 :API NUMBER
UWI         .                                    42245021860000 :UNIQUE WELL ID
XCOORD      .                                  1217776.66937412 :SURFACE X 
YCOORD      .                                  10884677.7702762 :SURFACE Y 
LAT         .                                        29.9846645 :LATITUDE  
LON         .                                       -94.3353628 :LONGITUDE 
ELEV        .FT                                              34 :ELEVATION VALUE
ELEV_TYPE   .                                                DF :ELEVATION REFERENCE TYPE
~Curve Information Section
#MNEM       .UNIT                                      API CODE :CURVE DESCRIPTION
#------------------------------------------------------------------------------
DEPT        .FT                                                 :DEPTH     
ASN         .OHMM                                               :          
LAT         .OHMM                                               :          
LN          .OHMM                                               :          
SP          .MV                                                 :          
SP_NORM     .MV                                                 :SP Normalized
VSH_SP      .V/V                                                :Volume of Shale from SP
~A        DEPTH            ASN            LAT             LN             SP        SP_NORM         VSH_SP
# ...
      1557.0000          2.096         1.9821         1.9517       -65.4075      -4.866447      0.9210929
      1557.5000         2.1132              2         1.9687       -65.4315       -4.89563      0.9204974
      1558.0000         2.1124         2.0179         1.9858       -64.3494      -3.818714      0.9424752
      1558.5000         2.1116         2.0179         2.0028       -63.6343      -3.108791      0.9569634
      1559.0000         2.1107         2.0179           2.02       -62.1789      -1.658577      0.9865596
      1559.5000         2.1099         2.0179         2.0373       -61.8302      -1.315056      0.9935703
      1560.0000         2.1091         2.0357         2.0545       -61.8509      -1.340939      0.9930421
      1560.5000         2.1273         2.0357         2.0727       -61.8519      -1.347118      0.9941167
      1561.0000         2.1273         2.0714         2.0909       -61.4815     -0.9819031              1
      1561.5000         2.1455          2.125         2.1091       -61.4815     -0.9870834              1
      1562.0000         2.1636         2.1607         2.1273       -61.4815     -0.9922676              1
      1562.5000         2.2182         2.2143         2.1273       -61.1111     -0.6270485              1
      1563.0000         2.2727         2.2679         2.1273       -61.1111     -0.6322327              1
      1563.5000         2.3455         2.3393         2.1091       -60.7407     -0.2670135              1
      1564.0000         2.3818         2.3929         2.1091       -60.7407     -0.2721977              1
      1564.5000         2.4364         2.4643         2.0727       -60.7407     -0.2773781              1
      1565.0000         2.4545            2.5         2.0727       -60.7407     -0.2825623              1
      1565.5000         2.5091         2.5357         2.0727       -60.7407     -0.2877426              1
      1566.0000         2.5455         2.5536         2.0545       -60.7407     -0.2929268              1
      1566.5000         2.5455         2.5536         2.0545       -60.7407      -0.298111              1
      1567.0000         2.5636         2.5179         2.0364       -60.7407     -0.3032913              1
      1567.5000            2.6         2.5179         2.0364       -60.7407     -0.3084755              1
      1568.0000         2.6545         2.4821         2.0182       -62.2222      -1.795155      0.9865228
      1568.5000         2.7091         2.4821         1.9286       -68.1481      -7.726242      0.8859959
      1569.0000         2.7818         2.4643         1.8393       -72.2222      -11.80552      0.8168556
      1569.5000         2.8364         2.4643           1.75       -76.6667      -16.25521      0.7414372
      1570.0000         2.9636         2.4643         1.6607       -84.4828      -24.07649      0.6088731
      1570.5000          3.037         2.4286         1.6071       -90.3448      -29.94367      0.5094293
      1571.0000         3.0556         2.3571         1.5179       -96.2069      -35.81095      0.4099839
      1571.5000         2.9455         2.3036         1.5179      -102.2222      -41.83143      0.3079418
      1572.0000         2.8364         2.2321         1.5179      -108.1481      -47.76252       0.207415
      1572.5000         2.7273         2.0893         1.5536           -110       -49.6196       0.175939
      1573.0000         2.6182         1.9464         1.5714       -112.963      -52.58778      0.1256309
      1573.5000         2.5273         1.7321         1.5893      -115.1852      -54.81517     0.08787853
      1574.0000         2.5091         1.5893         1.6071      -116.2963      -55.93145     0.06895854
      1574.5000         2.5455         1.4821         1.6071      -117.4074      -57.04773     0.05003848
      1575.0000         2.6364         1.4107         1.6071      -117.4074      -57.05291     0.04995068
      1575.5000         2.7273         1.3929         1.5714       -117.037      -56.68769     0.05614077
      1576.0000         2.8364         1.4107         1.5179      -115.9259      -55.58178     0.07488516
      1576.5000         2.9455         1.4286            1.5      -115.1852      -54.84626     0.08735152
      1577.0000         3.0185         1.4821            1.5      -113.7037      -53.36993       0.112374
      1577.5000         3.0556         1.5357         1.4821       -112.963      -52.63442      0.1248404
      1578.0000         3.1296         1.6071         1.4643      -111.4815       -51.1581      0.1498627
      1578.5000         3.2037         1.6607         1.4464      -110.7407      -50.42249      0.1623308
      1579.0000         3.2778         1.6964         1.4286           -110      -49.68697      0.1747972
      1579.5000         3.3333         1.7143         1.4107      -109.6296      -49.32175      0.1809873
      1580.0000         3.3519         1.7143         1.3929           -110      -49.69733      0.1746215
      1580.5000         3.2407         1.6964         1.3571      -110.3704      -50.07291      0.1682557
      1581.0000         3.1296         1.6786         1.3393      -110.7407      -50.44839      0.1618916
      1581.5000         3.0185         1.6607         1.3214      -111.4815      -51.19438      0.1492478
      1582.0000         2.8727         1.6429         1.3036      -112.5926      -52.31066      0.1303278
      1582.5000         2.7273          1.625         1.3036      -113.7037      -53.42694      0.1114078
      1583.0000         2.6364         1.5893         1.2857      -115.1852      -54.91363      0.0862097
      1583.5000            2.6         1.5714         1.2857      -116.6667      -56.40031     0.06101169
      1584.0000         2.5455         1.5536         1.2679      -117.7778      -57.51659     0.04209163
      1584.5000         2.5273         1.5357           1.25      -118.5185      -58.26247     0.02944959
      1585.0000         2.5091         1.5179           1.25      -118.8889      -58.63806     0.02308377
      1585.5000         2.5091            1.5         1.2143      -118.8889      -58.64324     0.02299597
      1586.0000         2.5273            1.5         1.2143      -118.8889      -58.64842      0.0229081
      1586.5000         2.5455         1.5179         1.2143      -118.1481       -57.9128     0.03537621
      1587.0000         2.5636         1.5357         1.2143      -117.4074      -57.17729     0.04784258
      1587.5000         2.5818         1.5357         1.2143       -117.037      -56.81207     0.05403273
      1588.0000            2.6         1.5357         1.2143      -116.6667      -56.44695     0.06022114
      1588.5000         2.6182         1.5357         1.1964      -116.2963      -56.08173     0.06641129
      1589.0000         2.6364         1.5179         1.1964      -115.9259      -55.71652     0.07260139
      1589.5000         2.6364            1.5         1.1786      -115.5556       -55.3514     0.07878986
      1590.0000            2.6         1.4643         1.1786      -115.1852      -54.98618     0.08497994
      1590.5000         2.4179         1.4458         1.1782      -115.1792      -54.98536     0.08499391
      1591.0000         2.3449          1.427         1.1596       -114.431      -54.24234     0.09758739
      1591.5000         2.2358         1.4083         1.1588      -114.0542      -53.87072       0.103886
      1592.0000         2.1269         1.3895         1.1581      -113.6788      -53.50051      0.1101608
      1592.5000         2.0181          1.335         1.1752       -113.672      -53.49889      0.1101884
      1593.0000         1.8565         1.2627         1.1924      -114.3985      -54.23057     0.09778692
      1593.5000         1.7447         1.2083         1.2097      -115.4883      -55.32555     0.07922796
      1594.0000         1.7449          1.136          1.209       -117.305      -57.14744     0.04834851
      1594.5000         1.7521         1.0636         1.2262      -119.1154      -58.96302     0.01757593
