#------------------------------------------------------------------------------
# Created by    : vladimir.rabinovich
# Created on    : 09/19/2023 17:20:51
#------------------------------------------------------------------------------
~Version Information Section
VERS.           2.0     :   CWLS log ASCII Standard - VERSION 2.0
WRAP.           NO      :   One line per depth step
~Well Information Section
#MNEM       .UNIT                                         VALUE :DESCRIPTION
#------------------------------------------------------------------------------
STRT        .FT                                            1028 :START DEPTH
STOP        .FT                                            9325 :STOP DEPTH
STEP        .FT                                             0.5 :STEP      
NULL        .                                           -999.25 :NULL      
COMP        .                     HUNT LAMAR TRUST ESTATE ET AL :COMPANY   
WELL        .                                   BROUSSARD TRUST :WELL      
FLD         .                                           WILDCAT :FIELD     
LOC         .                                                   :LOCATION  
CNTY        .                                         JEFFERSON :LOCATION  
STAT        .                                             TEXAS :STATE     
CTRY        .                                     UNITED STATES :COUNTRY   
SRVC        .                                                   :SERVICE COMPANY
DATE        .                             9/13/2023 11:19:11 AM :LOG DATE  
API         .                                    42245021920000 :API NUMBER
UWI         .                                    42245021920000 :UNIQUE WELL ID
XCOORD      .                                  1218474.36862613 :SURFACE X 
YCOORD      .                                   10882715.986693 :SURFACE Y 
LAT         .                                        29.9792918 :LATITUDE  
LON         .                                       -94.3330868 :LONGITUDE 
ELEV        .FT                                              36 :ELEVATION VALUE
ELEV_TYPE   .                                                DF :ELEVATION REFERENCE TYPE
~Curve Information Section
#MNEM       .UNIT                                      API CODE :CURVE DESCRIPTION
#------------------------------------------------------------------------------
DEPT        .FT                                                 :DEPTH     
ASN         .OHMM                                               :          
LAT         .OHMM                                               :          
LN          .OHMM                                               :          
SP          .MV                                                 :          
SP_NORM     .MV                                                 :SP Normalized
VSH_SP      .V/V                                                :Volume of Shale from SP
~A        DEPTH            ASN            LAT             LN             SP        SP_NORM         VSH_SP
# ...
      8742.0000         1.2623         0.5607         0.8035       -61.4748      -5.586823       0.951204
      8742.5000         1.2801         0.6139          0.812       -62.9212      -7.036663      0.9357802
      8743.0000         1.3087         0.6134         0.8204       -64.3663      -8.485203      0.9203702
      8743.5000         1.3266          0.613         0.8199        -66.349      -10.47134      0.8992411
      8744.0000         1.3247         0.6125         0.8195       -67.4323      -11.55807      0.8876801
      8744.5000         1.2476         0.5853         0.8102       -67.7967      -11.92591      0.8837669
      8745.0000         1.1902         0.5759         0.8098       -66.5466      -10.67926      0.8970292
      8745.5000         1.1812         0.5487         0.8005       -64.2219      -8.357994      0.9217235
      8746.0000         1.1757         0.5304         0.7912       -63.5122      -7.651733      0.9292369
      8746.5000         1.1899         0.4853         0.7819       -63.6986      -7.841572      0.9272173
      8747.0000         1.2131         0.4492         0.7726       -66.0334      -10.17981      0.9023424
      8747.5000         1.2274         0.4041         0.7722       -69.7978      -13.94765      0.8622591
      8748.0000         1.2274         0.4037         0.7717       -70.1601      -14.31339      0.8583682
      8748.5000         1.1914         0.4032         0.7713       -69.2704      -13.42713      0.8677965
      8749.0000         1.0841         0.4207         0.7708       -65.7007      -9.860863      0.9057355
      8749.5000         1.0126         0.6612         0.7792       -62.1345      -6.298103      0.9436372
      8750.0000              1         0.6608         0.7877       -59.9956      -4.162643      0.9663548
      8750.5000         0.9982         0.6518         0.7876       -59.6461      -3.816582      0.9700364
      8751.0000         0.9982          0.625         0.7965       -62.1447      -6.318619      0.9434189
      8751.5000         0.9982         0.5714         0.7965       -64.6488       -8.82616       0.916743
      8752.0000         1.0375         0.5179         0.8142       -67.3339       -11.5147      0.8881415
      8752.5000         1.0786         0.4732         0.8142       -69.8423      -14.02654      0.8614199
      8753.0000         1.1196         0.4732         0.8142       -72.5318      -16.71947      0.8327715
      8753.5000         1.1429         0.4732          0.823       -75.2236      -19.41471      0.8040988
      8754.0000         1.1429         0.4732          0.823       -75.7678      -19.96235      0.7982728
      8754.5000         1.1393         0.4911          0.823       -76.3126      -20.51059      0.7924405
      8755.0000         1.1196         0.5268          0.823       -74.5268      -18.72823      0.8114018
      8755.5000         1.0768         0.6696         0.8142       -72.7393      -16.94417      0.8303812
      8756.0000         1.0411         0.7768         0.7965       -70.7707        -14.979      0.8512872
      8756.5000         1.0054         0.7768         0.7965       -68.9798      -13.19154      0.8703027
      8757.0000         0.9838         0.6964         0.7876       -67.1872      -11.40239      0.8893363
      8757.5000         1.0107         0.6071         0.7876       -65.2132      -9.431828      0.9102997
      8758.0000         1.0143         0.5804         0.7788        -64.676      -8.898064      0.9159781
      8758.5000         1.0161         0.6339         0.7699       -63.9584      -8.183903      0.9235755
      8759.0000         1.0125         0.6875         0.7611       -62.3402      -6.569138      0.9407539
      8759.5000         0.9604         0.7589         0.7611       -61.4408      -5.673176      0.9502854
      8760.0000         0.9063         0.8393         0.7611       -60.3604      -4.596218      0.9617423
      8760.5000         0.9279         0.8661         0.7611       -59.8246      -4.063854      0.9674058
      8761.0000          0.973         0.8929         0.7699       -59.8246      -4.067295      0.9673692
      8761.5000         1.0179         0.9196         0.7611            -60      -4.246132      0.9654667
      8762.0000         1.0411         0.9464         0.7522       -60.3604      -4.609974       0.961596
      8762.5000         1.0661         0.9821         0.7434       -61.0811       -5.33411      0.9538925
      8763.0000         1.0679         0.9821         0.7434       -61.8018       -6.05825      0.9461888
      8763.5000         1.0679         1.0088         0.7434       -62.5225      -6.782387      0.9384853
      8764.0000         1.0589         1.0088         0.7434       -63.0631      -7.326424      0.9326976
      8764.5000         1.0429         1.0088         0.7522       -63.0631      -7.329865       0.932661
      8765.0000         1.0036         1.0088         0.7611       -62.8829      -7.153103      0.9345415
      8765.5000         0.9441         1.0088         0.7699       -62.1622      -6.435844      0.9421719
      8766.0000         0.9333         1.0088         0.7788       -61.6216      -5.898682      0.9478863
      8766.5000         0.9333         1.0088         0.7876       -61.0811      -5.361622      0.9535998
      8767.0000         0.9568              1         0.7965       -60.3604       -4.64436      0.9612302
      8767.5000         0.9856         0.9732         0.8142       -59.8246      -4.111996      0.9668937
      8768.0000              1         0.9554          0.823       -59.4737      -3.764538        0.97059
      8768.5000         1.0196         0.9018          0.823       -58.9474      -3.241673      0.9761524
      8769.0000         1.0196         0.8929          0.823       -58.4211      -2.718815      0.9817147
      8769.5000              1         0.8482          0.823       -57.7193      -2.020451      0.9891441
      8770.0000          0.982         0.8214          0.823       -58.0702      -2.374794      0.9853745
      8770.5000          0.982         0.8125          0.823       -58.4211       -2.72913       0.981605
      8771.0000         1.0071         0.8036          0.823       -58.7719       -3.08337      0.9778365
      8771.5000         1.0589         0.8036          0.823       -59.2982      -3.613106       0.972201
      8772.0000         1.1107         0.8036          0.823       -59.6491      -3.967445      0.9684314
      8772.5000         1.1196         0.8304          0.823       -59.6491      -3.970886      0.9683948
      8773.0000          1.125         0.8571         0.8142       -58.9474      -3.272621      0.9758232
      8773.5000         1.1179         0.8839         0.8053       -58.2456      -2.574265      0.9832525
      8774.0000         1.0625         0.9107         0.7876       -57.3684        -1.7005      0.9925479
      8774.5000         1.0071         0.9464         0.7699       -56.6667      -1.002239      0.9999762
      8775.0000         0.9766         0.9821         0.7522       -55.9649     -0.3038788              1
      8775.5000         0.9964              1         0.7345       -55.0877      0.5698853              1
      8776.0000         1.0054         1.0265         0.7257       -54.7368      0.9173431              1
      8776.5000         1.0268         1.0442         0.7168       -55.0877      0.5630074              1
      8777.0000         1.0464         1.0619         0.6991       -55.4386      0.2086678              1
      8777.5000         1.0661         1.0885         0.6991       -56.1404     -0.4965706              1
      8778.0000         1.0821         1.1062         0.6903       -57.0175      -1.377113      0.9963739
      8778.5000         1.0875         1.1062         0.6814        -57.193      -1.556049      0.9946533
      8779.0000         1.0518         1.1062         0.6637        -57.193       -1.55949      0.9946203
      8779.5000         1.0143         1.0885          0.646       -56.3158     -0.6857262              1
