#------------------------------------------------------------------------------
# Created by    : vladimir.rabinovich
# Created on    : 09/19/2023 17:19:39
#------------------------------------------------------------------------------
~Version Information Section
VERS.           2.0     :   CWLS log ASCII Standard - VERSION 2.0
WRAP.           NO      :   One line per depth step
~Well Information Section
#MNEM       .UNIT                                         VALUE :DESCRIPTION
#------------------------------------------------------------------------------
STRT        .FT                                            1969 :START DEPTH
STOP        .FT                                            7841 :STOP DEPTH
STEP        .FT                                             0.5 :STEP      
NULL        .                                           -999.25 :NULL      
COMP        .                           NEWFIELD EXPLORATION CO :COMPANY   
WELL        .                                   PHELAN GAS UNIT :WELL      
FLD         .                                          BINDWEED :FIELD     
LOC         .                                                   :LOCATION  
CNTY        .                                         JEFFERSON :LOCATION  
STAT        .                                             TEXAS :STATE     
CTRY        .                                     UNITED STATES :COUNTRY   
SRVC        .                                                   :SERVICE COMPANY
DATE        .                             9/13/2023 11:18:46 AM :LOG DATE  
API         .                                    42245322670000 :API NUMBER
UWI         .                                    42245322670000 :UNIQUE WELL ID
XCOORD      .                                  1272550.81244857 :SURFACE X 
YCOORD      .                                  10898469.5255822 :SURFACE Y 
LAT         .                                        30.0242363 :LATITUDE  
LON         .                                        -94.162774 :LONGITUDE 
ELEV        .FT                                              24 :ELEVATION VALUE
ELEV_TYPE   .                                                KB :ELEVATION REFERENCE TYPE
~Curve Information Section
#MNEM       .UNIT                                      API CODE :CURVE DESCRIPTION
#------------------------------------------------------------------------------
DEPT        .FT                                                 :DEPTH     
AHT20       .OHMM                                               :          
AHT30       .OHMM                                               :          
AHT60       .OHMM                                               :          
AHT90       .OHMM                                               :          
DCAL        .IN                                                 :          
DPHZSS      .V/V                                                :          
DT          .US/FT                                              :          
GR_NORM     .GAPI                                               :GammaRay Normalized
GRR         .GAPI                                               :          
HDRA        .G/CM3                                              :          
NPORSS      .V/V                                                :          
SP          .MV                                                 :          
SP_NORM     .MV                                                 :SP Normalized
TENR        .LB                                                 :          
VSH_GR      .V/V                                                :Volume of Shale from GR
VSH_SP      .V/V                                                :Volume of Shale from SP
~A        DEPTH          AHT20          AHT30          AHT60          AHT90           DCAL         DPHZSS             DT        GR_NORM            GRR           HDRA         NPORSS             SP        SP_NORM           TENR         VSH_GR         VSH_SP
# ...
      3249.0000         0.7462         0.7566         0.7706          0.785         0.3575         0.3157          110.6       69.24954        71.9808          0.004         0.5641       -57.5844      -8.201683        2028.35      0.7712669      0.9015606
      3249.5000         0.7533         0.7567         0.7708         0.7851         0.4586          0.324       104.0043       71.53558        73.6452          0.004         0.5156       -57.9901      -8.607384        2027.26      0.8199059      0.8951209
      3250.0000         0.7534         0.7674         0.7817         0.7962         0.4595         0.3312        98.2017       73.81303        75.3033          0.003         0.4899       -58.7961      -9.413383       2026.269      0.8683622      0.8823273
      3250.5000          0.789         0.8036         0.8183         0.8333            0.4         0.3336           93.1       76.27933           77.1         -0.002         0.4662          -58.8      -9.417282       2026.291      0.9208367      0.8822654
      3251.0000          0.841         0.8564         0.8721         0.8881           0.06         0.3216        87.3758       77.11504           77.7         0.0001         0.4444          -59.2      -9.817284       2027.327      0.9386178      0.8759161
      3251.5000         0.9005         0.9172         0.9341         0.9514           0.06         0.3054        83.0393       77.74638          78.15         0.0041         0.4306       -60.6061      -11.22338       2028.364      0.9520506      0.8535971
      3252.0000         0.9604         0.9782         0.9962         1.0148           0.06         0.2866        80.7238       78.37769           78.6         0.0072         0.4104       -63.8384      -14.45568         2029.4      0.9654828      0.8022907
      3252.5000          0.926         0.9432         0.9606         0.9784           0.06         0.2761        77.2978       79.00903          79.05         0.0072         0.4062       -66.6667      -17.28399       2030.436      0.9789155      0.7573971
      3253.0000         0.8687         0.8848         0.9011         0.9178           0.06         0.2755        69.1942       77.59647             78         0.0043         0.4212       -64.4444      -15.06168       2031.472      0.9488611      0.7926717
      3253.5000         0.8148         0.8299         0.8453         0.8609           0.06         0.2843        59.9309       76.59271          77.25         0.0033         0.4549       -61.0101      -11.62738       2032.508      0.9275045      0.8471844
      3254.0000         0.8454         0.8571          0.873         0.8892           0.04         0.2965        60.9435       77.22403           77.7         0.0014         0.4868          -57.4      -8.017284       2033.544      0.9409368      0.9044876
      3254.5000         0.8853         0.9101         0.9269          0.944           0.02         0.3054        72.3398       79.08168          79.05        -0.0016         0.5072          -54.2      -4.817284        2034.58      0.9804613      0.9552812
      3255.0000         0.9356          0.975         1.0068         1.0255              0         0.3102         83.466       86.86654          84.75        -0.0035          0.516          -52.2      -2.817284       2035.616              1      0.9870272
      3255.5000         0.9842         1.0401         1.0841         1.1042          -0.06         0.3107        89.4976        89.7461          86.85        -0.0035         0.4932          -51.6      -2.217281       2036.652              1      0.9965511
      3256.0000          1.026         1.1147         1.1512         1.1725           -0.1         0.3095        89.8996       91.19498           87.9        -0.0024         0.4685          -51.4      -2.017284       2037.688              1      0.9997256
      3256.5000         1.0647          1.189         1.2111         1.2336          -0.16         0.3054           90.2       92.64384          88.95        -0.0014         0.4548          -51.4      -2.017284       2038.725              1      0.9997256
      3257.0000         1.1049         1.1892         1.2113         1.2338          -0.22         0.3018             90       92.45763           88.8        -0.0013         0.4572          -51.2      -1.817284       2039.761              1              1
      3257.5000         1.1204         1.1895         1.2115          1.234          -0.28         0.2994           90.6       93.08896          89.25        -0.0003         0.4659            -51      -1.617283       2040.797              1              1
      3258.0000          1.131         1.1897         1.2117         1.2342           -0.3         0.2971             91        93.1071          89.25        -0.0002         0.4739          -50.8      -1.417282       2041.833              1              1
      3258.5000         1.1416         1.1899         1.2119         1.2344           -0.3         0.2948           91.6       92.10336           88.5         0.0008         0.4745          -50.4      -1.017284       2042.869              1              1
      3259.0000         1.1471         1.1901         1.2121         1.2346           -0.3         0.2924           91.8       90.89519           87.6        -0.0011          0.477            -50     -0.6172829       2043.905              1              1
      3259.5000         1.1265         1.1903         1.2123         1.2348           -0.3         0.2918           91.4       89.68703           86.7        -0.0041         0.4812          -49.4    -0.01728439       2044.941              1              1
      3260.0000         1.1113         1.1796         1.2015         1.2237          -0.22         0.2924           90.7       86.23064          84.15         -0.007         0.4824          -49.4    -0.01728439       2045.977              1              1
      3260.5000         1.0962         1.1689         1.1906         1.2126          -0.14         0.2907           90.4       79.91283           79.5         -0.002         0.4769          -49.6     -0.2172813       2046.392      0.9981452              1
      3261.0000         1.0812         1.1582         1.1797         1.2016          -0.04         0.2866           88.4       80.33977           79.8         0.0021         0.4763          -50.6      -1.217281       2046.392              1              1
      3261.5000         1.0812         1.1529         1.1743         1.1961              0         0.2854        78.6275       84.44566           82.8         0.0101         0.4806          -50.8      -1.417282       2046.392              1              1
      3262.0000         1.0615         1.1424         1.1636         1.1851              0         0.2854           69.3       89.16472          86.25         0.0072         0.4824          -50.8      -1.417282       2046.392              1              1
      3262.5000         1.0185         1.1216         1.1424         1.1636           0.04         0.2878        73.5294       91.02235           87.6         0.0032         0.4841          -50.2     -0.8172836       2046.392              1              1
      3263.0000              1         1.0962         1.1165         1.1372           0.08         0.2895           83.5       88.79226          85.95         0.0003         0.4824          -49.4    -0.01728439       2046.392              1              1
      3263.5000         0.9818         1.0713         1.0911         1.1114           0.14         0.2924           85.8       85.33588           83.4        -0.0017         0.4689          -48.8      0.5827179       2046.392              1              1
      3264.0000         0.9729         1.0518         1.0713         1.0911            0.2          0.293        73.9216       82.08385             81        -0.0016         0.4497          -49.2      0.1827164       2046.392              1              1
      3264.5000         0.9509         1.0232          1.047         1.0664           0.16          0.293           64.3       84.35027          82.65        -0.0016         0.4373          -49.6     -0.2172813       2046.392              1              1
