#------------------------------------------------------------------------------
# Created by    : vladimir.rabinovich
# Created on    : 09/19/2023 17:19:39
#------------------------------------------------------------------------------
~Version Information Section
VERS.           2.0     :   CWLS log ASCII Standard - VERSION 2.0
WRAP.           NO      :   One line per depth step
~Well Information Section
#MNEM       .UNIT                                         VALUE :DESCRIPTION
#------------------------------------------------------------------------------
STRT        .FT                                            1969 :START DEPTH
STOP        .FT                                            7841 :STOP DEPTH
STEP        .FT                                             0.5 :STEP      
NULL        .                                           -999.25 :NULL      
COMP        .                           NEWFIELD EXPLORATION CO :COMPANY   
WELL        .                                   PHELAN GAS UNIT :WELL      
FLD         .                                          BINDWEED :FIELD     
LOC         .                                                   :LOCATION  
CNTY        .                                         JEFFERSON :LOCATION  
STAT        .                                             TEXAS :STATE     
CTRY        .                                     UNITED STATES :COUNTRY   
SRVC        .                                                   :SERVICE COMPANY
DATE        .                             9/13/2023 11:18:46 AM :LOG DATE  
API         .                                    42245322670000 :API NUMBER
UWI         .                                    42245322670000 :UNIQUE WELL ID
XCOORD      .                                  1272550.81244857 :SURFACE X 
YCOORD      .                                  10898469.5255822 :SURFACE Y 
LAT         .                                        30.0242363 :LATITUDE  
LON         .                                        -94.162774 :LONGITUDE 
ELEV        .FT                                              24 :ELEVATION VALUE
ELEV_TYPE   .                                                KB :ELEVATION REFERENCE TYPE
~Curve Information Section
#MNEM       .UNIT                                      API CODE :CURVE DESCRIPTION
#------------------------------------------------------------------------------
DEPT        .FT                                                 :DEPTH     
AHT20       .OHMM                                               :          
AHT30       .OHMM                                               :          
AHT60       .OHMM                                               :          
AHT90       .OHMM                                               :          
DCAL        .IN                                                 :          
DPHZSS      .V/V                                                :          
DT          .US/FT                                              :          
GR_NORM     .GAPI                                               :GammaRay Normalized
GRR         .GAPI                                               :          
HDRA        .G/CM3                                              :          
NPORSS      .V/V                                                :          
SP          .MV                                                 :          
SP_NORM     .MV                                                 :SP Normalized
TENR        .LB                                                 :          
VSH_GR      .V/V                                                :Volume of Shale from GR
VSH_SP      .V/V                                                :Volume of Shale from SP
~A        DEPTH          AHT20          AHT30          AHT60          AHT90           DCAL         DPHZSS             DT        GR_NORM            GRR           HDRA         NPORSS             SP        SP_NORM           TENR         VSH_GR         VSH_SP
# ...
      7041.0000         0.3068         0.2985         0.2748         0.2636         0.4645         0.3159       109.4719       38.91241        54.2379         -0.034         0.3541       -41.2155      -56.17271       3640.887       0.125796       0.384401
      7041.5000         0.3226         0.3197         0.2811          0.276         0.2694         0.3083       109.2557       36.16182        51.8078         -0.033          0.363       -39.4259      -54.44468       3641.479     0.06727283      0.4040377
      7042.0000         0.3095         0.2998         0.2849         0.2863          0.113         0.3025       109.0383        32.8928        48.9196         -0.028         0.3342       -40.0352      -55.11555       3621.977              0      0.3964143
      7042.5000         0.2888         0.2784         0.2634         0.2586          0.112         0.2971       109.0242       29.62025        46.0283         -0.022         0.3154       -44.2456      -59.38752       3622.559              0      0.3478691
      7043.0000          0.272         0.2634         0.2424          0.238           0.15         0.2984       108.9093        29.4404        45.8697         -0.017         0.3113        -48.856      -64.05948       3643.198              0      0.2947786
      7043.5000         0.2645         0.2491         0.2379         0.2336          0.149         0.2954       108.4911       32.87247        48.9026         -0.018         0.3102       -53.0653      -68.33035       3683.865              0      0.2462461
      7044.0000         0.2681         0.2525         0.2368         0.2324          0.148         0.2936       107.9741       35.44805        51.1787         -0.023         0.3102       -57.8756      -73.20221       3704.556      0.0520862       0.190884
      7044.5000         0.2743         0.2644         0.2422         0.2378         0.1858         0.2943       107.8599        36.6479        52.2392         -0.029         0.3079       -60.2906      -75.67878       3725.269     0.07761481      0.1627411
      7045.0000         0.2806         0.2643         0.2433         0.2388         0.1849         0.3038       107.3423       36.12604        51.7784         -0.039         0.3055       -62.9401      -78.38985       3745.939     0.06651144      0.1319336
      7045.5000         0.2755         0.2631         0.2466         0.2421         0.1645         0.3208       106.8266       35.08686        50.8605          -0.05         0.3108        -63.355      -78.86632       3726.482     0.04440121      0.1265191
      7046.0000         0.2754         0.2654         0.2535         0.2488         0.1636         0.3208       106.6127       35.08106        50.8557         -0.046         0.3196       -60.5225      -76.09538       3727.057     0.04427792       0.158007
      7046.5000         0.2779         0.2715         0.2605         0.2558         0.1431         0.3162       106.5985       38.18188        53.5959         -0.028          0.322       -53.7254      -69.35985       3747.823      0.1102527      0.2345472
      7047.0000          0.295         0.2909         0.2765         0.2715         0.1422         0.3045         107.89       46.28949        60.7601         -0.014          0.329       -42.1358      -57.83181       3748.474      0.2827552      0.3655476
      7047.5000         0.3403         0.3117         0.3088         0.3032         0.1994         0.2878       110.3812       57.80882        70.9389         -0.004         0.3512       -25.3451      -41.10268       3728.914      0.5278473      0.5556514
      7048.0000         0.4074         0.3837         0.3664         0.3596         0.3539         0.2681       112.1667       72.11867        83.5834              0          0.384            1.4      -14.41915       3709.399       0.832312      0.8588733
      7048.5000         0.4981         0.4958         0.4609         0.4525         0.5276         0.2483       114.3523       85.69028        95.5756          0.006         0.4008             11      -4.880713       3689.864              1      0.9672646
      7049.0000         0.5972         0.6316         0.6346         0.6228         0.6237         0.2393       115.8363       88.56804        98.1187          0.007         0.3954           13.8       -2.14228       3670.247              1      0.9983832
      7049.5000         0.6405         0.6435         0.6287         0.6171         0.6034         0.2356       117.3218       86.86125        96.6109          0.001         0.3894             14      -2.003847       3650.672              1      0.9999563
      7050.0000         0.6228         0.6056         0.5944         0.5834         0.4859         0.2337       118.8073       81.24998        91.6531         -0.006         0.3828           10.8      -5.265412       3610.879              1      0.9628931
      7050.5000          0.578         0.5699         0.5594          0.549         0.4272          0.246          119.8       76.03081          87.45         -0.012          0.381          3.605      -12.52198       3631.028      0.9155491      0.8804321
      7051.0000         0.5364         0.5339         0.5241         0.5144         0.3495         0.2682          119.3        73.5328           85.5        -0.0259         0.3786        -6.3898      -22.57835        3670.83         0.8624      0.7661552
      7051.5000         0.5003          0.498          0.489         0.4801          0.233         0.2922          116.4       70.45842           83.1        -0.0309         0.3731       -17.3967      -33.64681        3670.24      0.7969877      0.6403771
      7052.0000         0.4958         0.4869          0.478         0.4694         0.2524         0.3035          113.5       65.84706           79.5        -0.0328         0.3653          -24.8      -41.11168        3669.65      0.6988736      0.5555491
      7052.5000         0.4914         0.4825         0.4738         0.4652         0.2718         0.3116          111.5       62.00419           76.5        -0.0348         0.3611          -28.4      -44.77325       3709.373      0.6171105      0.5139404
      7053.0000         0.4871         0.4782         0.4695          0.461         0.2913         0.3099          110.4       57.75376        73.1818        -0.0367         0.3593          -28.8      -45.23481       3708.763      0.5266758      0.5086954
      7053.5000         0.4872         0.4718         0.4632         0.4548         0.3107         0.3064            110       56.97718        72.5758        -0.0317         0.3546          -28.4      -44.89638       3748.427      0.5101527      0.5125412
      7054.0000         0.4873         0.4675          0.459         0.4507         0.3495         0.3029          109.9       57.17082        72.7273        -0.0296         0.3476          -26.6      -43.15794       3767.925      0.5142727      0.5322961
      7054.5000         0.4829         0.4655         0.4549         0.4466         0.2913         0.2994          109.6       57.55849        73.0303        -0.0266         0.3429          -24.6      -41.21951       3787.403      0.5225211      0.5543237
      7055.0000         0.4808         0.4656         0.4508         0.4426         0.1942         0.2958          109.1       58.91653        74.0909        -0.0245         0.3528          -24.6      -41.28108        3766.65      0.5514156      0.5536241
      7055.5000         0.4765         0.4656         0.4467         0.4386         0.0777         0.2982            109       60.27265          75.15        -0.0265          0.358          -26.8      -43.54264       3725.823      0.5802691      0.5279245
      7056.0000         0.4744         0.4657         0.4406         0.4326        -0.0194         0.3046          108.8       61.61708           76.2        -0.0294         0.3487            -29      -45.80421       3664.951      0.6088741      0.5022249
      7056.5000         0.4723         0.4658         0.4407         0.4326        -0.0194          0.311          108.4       62.96154          77.25        -0.0324         0.3382          -29.2      -46.06578       3644.291      0.6374796      0.4992525
