#------------------------------------------------------------------------------
# Created by    : vladimir.rabinovich
# Created on    : 09/19/2023 17:19:39
#------------------------------------------------------------------------------
~Version Information Section
VERS.           2.0     :   CWLS log ASCII Standard - VERSION 2.0
WRAP.           NO      :   One line per depth step
~Well Information Section
#MNEM       .UNIT                                         VALUE :DESCRIPTION
#------------------------------------------------------------------------------
STRT        .FT                                            1969 :START DEPTH
STOP        .FT                                            7841 :STOP DEPTH
STEP        .FT                                             0.5 :STEP      
NULL        .                                           -999.25 :NULL      
COMP        .                           NEWFIELD EXPLORATION CO :COMPANY   
WELL        .                                   PHELAN GAS UNIT :WELL      
FLD         .                                          BINDWEED :FIELD     
LOC         .                                                   :LOCATION  
CNTY        .                                         JEFFERSON :LOCATION  
STAT        .                                             TEXAS :STATE     
CTRY        .                                     UNITED STATES :COUNTRY   
SRVC        .                                                   :SERVICE COMPANY
DATE        .                             9/13/2023 11:18:46 AM :LOG DATE  
API         .                                    42245322670000 :API NUMBER
UWI         .                                    42245322670000 :UNIQUE WELL ID
XCOORD      .                                  1272550.81244857 :SURFACE X 
YCOORD      .                                  10898469.5255822 :SURFACE Y 
LAT         .                                        30.0242363 :LATITUDE  
LON         .                                        -94.162774 :LONGITUDE 
ELEV        .FT                                              24 :ELEVATION VALUE
ELEV_TYPE   .                                                KB :ELEVATION REFERENCE TYPE
~Curve Information Section
#MNEM       .UNIT                                      API CODE :CURVE DESCRIPTION
#------------------------------------------------------------------------------
DEPT        .FT                                                 :DEPTH     
AHT20       .OHMM                                               :          
AHT30       .OHMM                                               :          
AHT60       .OHMM                                               :          
AHT90       .OHMM                                               :          
DCAL        .IN                                                 :          
DPHZSS      .V/V                                                :          
DT          .US/FT                                              :          
GR_NORM     .GAPI                                               :GammaRay Normalized
GRR         .GAPI                                               :          
HDRA        .G/CM3                                              :          
NPORSS      .V/V                                                :          
SP          .MV                                                 :          
SP_NORM     .MV                                                 :SP Normalized
TENR        .LB                                                 :          
VSH_GR      .V/V                                                :Volume of Shale from GR
VSH_SP      .V/V                                                :Volume of Shale from SP
~A        DEPTH          AHT20          AHT30          AHT60          AHT90           DCAL         DPHZSS             DT        GR_NORM            GRR           HDRA         NPORSS             SP        SP_NORM           TENR         VSH_GR         VSH_SP
# ...
      3633.0000         1.0615         0.9422         1.1372         1.1529         2.0388         0.2627       129.6721       74.96379          74.55        -0.0061         0.4032          -53.4      -10.35658        2114.49      0.8928466      0.8771091
      3633.5000         1.0664         0.9209         1.1012         1.1165         2.0388          0.265       129.2675       73.77546           73.5        -0.0071         0.4116          -55.6      -12.54446       2113.469      0.8675629      0.8449345
      3634.0000         1.0762         0.9125         1.0139         1.0139         2.0388         0.2633       128.3623       72.24763          72.15        -0.0091         0.4122          -58.6      -15.53234       2112.449      0.8350559      0.8009951
      3634.5000         0.9954            0.9         0.9166         0.8959         2.0388         0.2563       127.3571       70.38026           70.5        -0.0141         0.3978          -66.6      -23.52021       2111.429      0.7953246      0.6835263
      3635.0000         0.8838          0.822         0.7963         0.7927         2.4078         0.2464       128.1525       65.79674          66.45        -0.0101         0.3822          -77.8       -34.7081       2110.408      0.6978029      0.5189986
      3635.5000         0.7196         0.6681         0.6775         0.6376         3.2816         0.2476       131.5171        60.8737           62.1         -0.004         0.3762        -90.101      -46.99697        2109.49      0.5930573      0.3382798
      3636.0000         0.5834         0.5439         0.5094         0.4955         4.7423         0.2703       135.0414       56.26788        58.0303         -0.003         0.3792      -103.2653      -60.14915       2108.469      0.4950613      0.1448655
      3636.5000         0.5239         0.4482         0.4362         0.4092         5.7113         0.3006       138.0756       51.12358        53.4848        -0.0061         0.3774      -107.7551      -64.62682       2107.449      0.3856081      0.0790173
      3637.0000          0.578         0.4932         0.4586         0.4442         4.9072          0.327       140.7325       48.20858        50.9091        -0.0101         0.3714      -107.9592       -64.8188       2106.429      0.3235867     0.07619409
      3637.5000         0.6618         0.5542         0.4799         0.4756         3.6699         0.3288       144.3273       47.17972             50        -0.0131          0.369      -108.3673      -65.21478       2105.408      0.3016962     0.07037085
      3638.0000         0.6935          0.549         0.4586         0.4544         3.2427         0.3216       146.2222       43.75023        46.9697        -0.0172         0.3642      -108.5714      -65.40677        2104.49      0.2287282     0.06754752
      3638.5000         0.6287            0.5         0.4225         0.4186          4.268          0.318       150.1033       39.44239        43.1633        -0.0202          0.342      -109.7959      -66.61914       2103.469      0.1370722     0.04971852
      3639.0000         0.5807         0.4799         0.4074         0.4037         4.4124         0.3306       150.7226       34.59212        38.8776        -0.0222         0.3444      -111.2245      -68.03562       2102.449       0.033875     0.02888792
      3639.5000         0.5568         0.4691         0.3926          0.389         3.9417         0.3606       153.9204       32.51336        37.0408        -0.0182         0.3804      -112.2449       -69.0439       2101.429              0      0.0140603
      3640.0000         0.5338         0.4586         0.3801         0.3766         3.8835         0.3768       155.1557        32.3402        36.8878        -0.0121         0.3894      -114.0816      -70.86847       2100.408              0              0
      3640.5000          0.524         0.4503         0.3783         0.3749         4.2062         0.3636       154.8454       33.72827        38.1143         -0.005         0.3816       -115.914      -72.68875       2101.244     0.01549514              0
      3641.0000         0.5216         0.4422         0.3731         0.3697         4.2887          0.345       153.7113       35.28984        39.4941          0.003         0.3678      -117.1291      -73.89173       2103.739     0.04871994              0
      3641.5000         0.5145         0.4303          0.368         0.3646         3.5922         0.3378       152.8866       34.42802        38.7326          0.002         0.3552      -118.1392      -74.88971       2106.242      0.0303835              0
      3642.0000         0.5027         0.4264         0.3646         0.3613         3.1845         0.3774       152.6804       32.70269        37.2081         -0.005           0.36      -118.9455      -75.68389       2108.501              0              0
      3642.5000         0.4914         0.4187         0.3613          0.358         3.5534         0.4038       152.7835        32.8797        37.3645        -0.0131         0.4188      -118.7319      -75.45818       2111.018              0              0
      3643.0000         0.4804         0.4111          0.358         0.3547         3.8252         0.3954       153.0928       34.26618        38.5896        -0.0111         0.3738      -117.7054      -74.41954       2113.544     0.02694004              0
      3643.5000         0.4696         0.4037         0.3581         0.3548         3.8835          0.387       153.4021        35.6512        39.8134         -0.005         0.3636      -117.4926      -74.19463       2115.823      0.0564085              0
      3644.0000         0.4612         0.3963         0.3564         0.3532         4.1856         0.3846       153.6082       37.03452        41.0357          0.001         0.3822      -118.0933       -74.7832       2118.364     0.08584084              0
      3644.5000         0.4528         0.3909         0.3516         0.3484         4.6598         0.3966       153.9175        36.8643        40.8853          0.011          0.396       -118.288      -74.96578       2120.912     0.08221923              0
      3645.0000         0.4467         0.3927         0.3516         0.3468         4.5979         0.3846       154.6392       34.97058         39.212          0.019          0.396      -118.0753      -74.74097       2123.213     0.04192717              0
      3645.5000         0.4592         0.4037         0.3598         0.3565         4.5979         0.3894        156.701       33.76754         38.149          0.005         0.4008      -117.8628      -74.51634       2125.777     0.01633064              0
      3646.0000         0.4854         0.4227         0.3768         0.3733         4.6186         0.4274       159.1753       33.94387        38.3048         -0.008         0.4318      -117.8543      -74.49571       2128.091     0.02008227              0
      3646.5000         0.5155         0.4407         0.3909         0.3873         4.9485          0.467       160.4015       34.46423        38.7646        -0.0181          0.433      -117.8449       -74.4742        2130.67      0.0311539              0
      3647.0000         0.5448         0.4531         0.3963         0.3927         5.4845         0.4478       158.6598       34.46752        38.7675         -0.014         0.4146      -117.0248      -73.64198       2133.258     0.03122387              0
      3647.5000          0.581         0.4616            0.4         0.3963         5.8557         0.4152       156.8041       34.47126        38.7708         -0.011         0.3906      -116.0038      -72.60885       2135.593     0.03130332              0
      3648.0000         0.5811         0.4725         0.3964         0.3927           6.26         0.3942       156.1856       34.64644        38.9256         -0.008         0.3888      -114.7805      -71.37343       2138.196     0.03503069              0
      3648.5000         0.5705         0.4661         0.3892         0.3856           6.64         0.4074       157.9381       34.65007        38.9288         -0.006         0.4098      -113.3569      -69.93771       2140.808      0.0351078   0.0009159761
