#------------------------------------------------------------------------------
# Created by    : vladimir.rabinovich
# Created on    : 09/19/2023 17:20:52
#------------------------------------------------------------------------------
~Version Information Section
VERS.           2.0     :   CWLS log ASCII Standard - VERSION 2.0
WRAP.           NO      :   One line per depth step
~Well Information Section
#MNEM       .UNIT                                         VALUE :DESCRIPTION
#------------------------------------------------------------------------------
STRT        .FT                                            1558 :START DEPTH
STOP        .FT                                           11266 :STOP DEPTH
STEP        .FT                                             0.5 :STEP      
NULL        .                                           -999.25 :NULL      
COMP        .                               MEREDITH & CO ET AL :COMPANY   
WELL        .                                 GRINNELL TEXAS CO :WELL      
FLD         .                                           WILDCAT :FIELD     
LOC         .                                                   :LOCATION  
CNTY        .                                         JEFFERSON :LOCATION  
STAT        .                                             TEXAS :STATE     
CTRY        .                                     UNITED STATES :COUNTRY   
SRVC        .                                                   :SERVICE COMPANY
DATE        .                             9/13/2023 11:19:11 AM :LOG DATE  
API         .                                    42245015300000 :API NUMBER
UWI         .                                    42245015300000 :UNIQUE WELL ID
XCOORD      .                                  1358778.50439977 :SURFACE X 
YCOORD      .                                  10877447.4356243 :SURFACE Y 
LAT         .                                        29.9685419 :LATITUDE  
LON         .                                       -93.8897358 :LONGITUDE 
ELEV        .FT                                              14 :ELEVATION VALUE
ELEV_TYPE   .                                                DF :ELEVATION REFERENCE TYPE
~Curve Information Section
#MNEM       .UNIT                                      API CODE :CURVE DESCRIPTION
#------------------------------------------------------------------------------
DEPT        .FT                                                 :DEPTH     
ASN         .OHMM                                               :          
LN          .OHMM                                               :          
SP          .MV                                                 :          
SP_NORM     .MV                                                 :SP Normalized
VSH_SP      .V/V                                                :Volume of Shale from SP
~A        DEPTH            ASN             LN             SP        SP_NORM         VSH_SP
# ...
      6706.0000         0.6811         0.6037       -21.3285      0.2898026              1
      6706.5000         0.6972         0.6166       -21.4622      0.1532516              1
      6707.0000         0.7137         0.6295       -21.8669     -0.2542992              1
      6707.5000         0.7302         0.6424       -22.2716     -0.6618519              1
      6708.0000         0.7467         0.6553       -22.6763      -1.069403      0.9991738
      6708.5000         0.7857         0.6658       -23.3954      -1.791353      0.9905791
      6709.0000         0.8344         0.6755       -24.8777      -3.276506      0.9728987
      6709.5000         0.9088         0.6851       -27.2652      -5.666857      0.9444422
      6710.0000         0.9484         0.6948       -30.0337       -8.43821      0.9114499
      6710.5000         0.9753         0.7044       -33.6502      -12.05756      0.8683624
      6711.0000         0.9085         0.7141       -37.5883      -15.99851      0.8214463
      6711.5000         0.8542         0.7237       -41.9096      -20.32266      0.7699683
      6712.0000         0.8126         0.7334       -40.5991      -19.01501      0.7855356
      6712.5000         0.8126         0.7403       -36.7073      -15.12606      0.8318326
      6713.0000         0.8238         0.7468       -32.0864      -10.50802      0.8868093
      6713.5000         0.8318         0.7533       -27.2894      -5.713869      0.9438825
      6714.0000         0.8399         0.7597       -22.5188     -0.9461212              1
      6714.5000         0.8479         0.7581       -20.2789       1.290928              1
      6715.0000          0.856         0.7509       -20.6027      0.9642773              1
      6715.5000         0.8601         0.7444       -23.2412      -1.677074      0.9919396
      6716.0000           0.86         0.7383        -26.034      -4.472727       0.958658
      6716.5000           0.86         0.7323       -28.8312      -7.272778      0.9253241
      6717.0000         0.8596         0.7263       -31.3618      -9.806229       0.895164
      6717.5000         0.8518         0.7203       -33.4124      -11.85968      0.8707181
      6718.0000          0.844         0.7142       -35.4651      -13.91523      0.8462473
      6718.5000         0.8363         0.7075       -37.2755      -15.72849      0.8246609
      6719.0000         0.8229         0.7001       -38.8107      -17.26653      0.8063508
      6719.5000          0.789         0.6926       -40.3458      -18.80449      0.7880418
      6720.0000          0.755         0.6852       -38.2623      -16.72384      0.8128115
      6720.5000         0.7267         0.6778       -35.2712      -13.73559      0.8483859
      6721.0000         0.7063         0.6703       -32.4168      -10.88404      0.8823328
      6721.5000         0.7057         0.6626       -29.7452      -8.215292      0.9141037
      6722.0000         0.7255         0.6546       -27.0714      -5.544344      0.9459007
      6722.5000         0.7474         0.6466        -25.685      -4.160795      0.9623715
      6723.0000         0.7692         0.6387       -25.6053      -4.083948      0.9632863
      6723.5000         0.7911         0.6307       -25.5256      -4.007099      0.9642012
      6724.0000         0.8045         0.6227       -25.4459       -3.93025      0.9651161
      6724.5000         0.7772         0.6148       -25.3662      -3.853401       0.966031
      6725.0000          0.732         0.6063       -25.2865      -3.776554      0.9669458
      6725.5000         0.7006         0.5971       -25.2068      -3.699705      0.9678606
      6726.0000         0.6706         0.5878       -24.8942      -3.389956      0.9715481
      6726.5000         0.6406         0.5785        -24.446      -2.944607      0.9768499
      6727.0000         0.6186         0.5693       -23.9978       -2.49926      0.9821517
      6727.5000         0.6045           0.56       -23.5496      -2.053911      0.9874535
      6728.0000         0.5904         0.5646       -23.1014      -1.608562      0.9927552
      6728.5000         0.5811          0.571       -22.6537      -1.163713       0.998051
      6729.0000          0.574         0.5774       -22.2055     -0.7183647              1
      6729.5000         0.5856          0.588       -21.7573      -0.273016              1
      6730.0000            0.6         0.6011       -21.3432      0.1382313              1
      6730.5000         0.6144         0.6141       -21.0781      0.4004803              1
      6731.0000         0.6288         0.6271        -20.813      0.6627293              1
      6731.5000         0.6431         0.6401       -20.5481       0.924778              1
      6732.0000         0.6558         0.6531        -20.283       1.187025              1
      6732.5000         0.6655         0.6661       -20.0182       1.448975              1
      6733.0000         0.6752         0.6776        -19.753       1.711323              1
      6733.5000         0.6849           0.68       -19.5873       1.874174              1
      6734.0000         0.6946         0.6824       -19.6177       1.840921              1
      6734.5000         0.7006         0.6849        -19.648        1.80777              1
      6735.0000         0.6976         0.6873       -19.6784       1.774519              1
      6735.5000         0.6945         0.6897       -19.7088       1.741268              1
      6736.0000         0.6915         0.6921       -19.8747       1.572515              1
      6736.5000         0.6884         0.6946       -20.3818       1.062565              1
      6737.0000         0.6846         0.6961        -20.889      0.5525131              1
      6737.5000         0.6808         0.6819       -21.3966     0.04206085              1
      6738.0000         0.6769         0.6677       -21.9038      -0.467989              1
      6738.5000         0.6731         0.6535       -21.9276     -0.4946423              1
      6739.0000         0.6726         0.6393       -21.8428      -0.412693              1
      6739.5000         0.6858         0.6251        -21.758     -0.3307438              1
      6740.0000          0.699         0.6074       -21.6731     -0.2486954              1
      6740.5000         0.7122         0.5898       -21.5883      -0.166748              1
      6741.0000         0.7254         0.5721       -21.4316     -0.0128994              1
      6741.5000         0.7322         0.5543       -21.2729      0.1429501              1
      6742.0000         0.7384         0.5558        -21.114      0.2989979              1
      6742.5000         0.7447         0.5582       -20.9552      0.4549465              1
      6743.0000         0.7509         0.5606       -20.7965       0.610796              1
      6743.5000         0.7505          0.563        -20.963      0.4414444              1
      6744.0000          0.749         0.5654       -21.2521      0.1494923              1
      6744.5000         0.7475         0.5671       -21.5409     -0.1421585              1
      6745.0000          0.746          0.568       -21.7981     -0.4022102              1
      6745.5000         0.7446         0.5689       -21.9748     -0.5817623              1
      6746.0000         0.7532         0.5698       -22.1513     -0.7611141              1
      6746.5000         0.7619         0.5707       -23.1763      -1.788965      0.9906076
      6747.0000         0.7706         0.5716       -24.3458      -2.961317       0.976651
      6747.5000         0.7894         0.5724        -25.664      -4.282368      0.9609242
      6748.0000         0.8114         0.5634       -27.5824      -6.203619      0.9380522
      6748.5000         0.8335         0.5545       -29.5007      -8.124771      0.9151813
      6749.0000         0.8556         0.5455       -31.3861      -10.01302      0.8927021
      6749.5000         0.8792         0.5366       -33.0049      -11.63468      0.8733967
