#------------------------------------------------------------------------------
# Created by    : vladimir.rabinovich
# Created on    : 09/19/2023 17:20:52
#------------------------------------------------------------------------------
~Version Information Section
VERS.           2.0     :   CWLS log ASCII Standard - VERSION 2.0
WRAP.           NO      :   One line per depth step
~Well Information Section
#MNEM       .UNIT                                         VALUE :DESCRIPTION
#------------------------------------------------------------------------------
STRT        .FT                                             722 :START DEPTH
STOP        .FT                                            8710 :STOP DEPTH
STEP        .FT                                             0.5 :STEP      
NULL        .                                           -999.25 :NULL      
COMP        .                              BRUNER ARNOLD H & CO :COMPANY   
WELL        .                                              WEIR :WELL      
FLD         .                                           WILDCAT :FIELD     
LOC         .                                                   :LOCATION  
CNTY        .                                         JEFFERSON :LOCATION  
STAT        .                                             TEXAS :STATE     
CTRY        .                                     UNITED STATES :COUNTRY   
SRVC        .                                                   :SERVICE COMPANY
DATE        .                             9/13/2023 11:19:11 AM :LOG DATE  
API         .                                    42245021890000 :API NUMBER
UWI         .                                    42245021890000 :UNIQUE WELL ID
XCOORD      .                                  1215604.35578741 :SURFACE X 
YCOORD      .                                  10884998.9913957 :SURFACE Y 
LAT         .                                        29.9854781 :LATITUDE  
LON         .                                       -94.3422367 :LONGITUDE 
ELEV        .FT                                              36 :ELEVATION VALUE
ELEV_TYPE   .                                                DF :ELEVATION REFERENCE TYPE
~Curve Information Section
#MNEM       .UNIT                                      API CODE :CURVE DESCRIPTION
#------------------------------------------------------------------------------
DEPT        .FT                                                 :DEPTH     
ASN         .OHMM                                               :          
LAT         .OHMM                                               :          
LN          .OHMM                                               :          
SP          .MV                                                 :          
SP_NORM     .MV                                                 :SP Normalized
VSH_SP      .V/V                                                :Volume of Shale from SP
~A        DEPTH            ASN            LAT             LN             SP        SP_NORM         VSH_SP
# ...
      2850.0000         1.0772         0.8947         1.1754       -73.3246       5.771706              1
      2850.5000         1.0702         0.9298         1.1754       -73.3333       5.750923              1
      2851.0000         1.0772         0.9649         1.1754       -73.6842       5.387947              1
      2851.5000         1.0947              1          1.193       -73.6842       5.375862              1
      2852.0000         1.0982              1          1.193       -73.6842       5.363777              1
      2852.5000         1.1053         1.0175         1.2105       -74.0351       5.000793              1
      2853.0000         1.0947         1.0351         1.2105        -74.386        4.63781              1
      2853.5000         1.0842         1.0351         1.2281       -74.7368       4.274925              1
      2854.0000         1.0702         1.0526         1.2281       -75.0877       3.911942              1
      2854.5000         1.0561         1.0702         1.2456       -75.4386       3.548965              1
      2855.0000         1.0421         1.0702         1.2456       -75.7895       3.185982              1
      2855.5000         1.0351         1.0877         1.2632       -76.1404        2.82299              1
      2856.0000         1.0491         1.1053         1.2632       -76.4912       2.460114              1
      2856.5000         1.0632         1.1228         1.2807       -76.4912       2.448029              1
      2857.0000         1.0842         1.1404         1.2807       -76.8421       2.085045              1
      2857.5000         1.0737         1.1404         1.2807       -76.8421        2.07296              1
      2858.0000         1.0596         1.1754         1.2807       -76.8421       2.060883              1
      2858.5000         1.0526         1.1754         1.2807       -76.8421       2.048798              1
      2859.0000         1.0596          1.193         1.2807       -76.8421       2.036713              1
      2859.5000         1.0667         1.2281         1.2807        -77.193       1.673729              1
      2860.0000         1.0807         1.2456         1.2807        -77.193       1.661652              1
      2860.5000         1.0947         1.2807         1.2807        -77.193       1.649567              1
      2861.0000         1.1018         1.2982         1.2807       -77.5439       1.286583              1
      2861.5000         1.1123         1.3158         1.2807       -77.8947      0.9237061              1
      2862.0000         1.1228         1.3333         1.2807       -78.2456      0.5607224              1
      2862.5000         1.1333         1.3509         1.2807       -78.2456      0.5486374              1
      2863.0000         1.1544         1.3684         1.2807       -78.2456      0.5365524              1
      2863.5000         1.1684         1.3684         1.2807       -78.2456      0.5244751              1
      2864.0000         1.1754          1.386         1.2807       -78.2456      0.5123901              1
      2864.5000         1.1825          1.386         1.2807       -78.5965      0.1494064              1
      2865.0000         1.1825          1.386         1.2807       -78.5965      0.1373291              1
      2865.5000         1.1895         1.3684         1.2982       -78.5965      0.1252441              1
      2866.0000         1.1965         1.3684         1.2982       -78.5965      0.1131592              1
      2866.5000         1.2035         1.3509         1.2982       -78.9474     -0.2498322              1
      2867.0000         1.2035         1.3509         1.2982       -79.2982      -0.612709              1
      2867.5000         1.2105         1.3684         1.3158       -79.2982      -0.624794              1
      2868.0000          1.214         1.3684         1.3158       -79.2982      -0.636879              1
      2868.5000         1.2211          1.386         1.3158       -79.2982     -0.6489639              1
      2869.0000         1.2281          1.386         1.3333       -79.6491       -1.01194              1
      2869.5000         1.2386          1.386         1.3333       -79.6491      -1.024025              1
      2870.0000         1.2351          1.386         1.3333        -80.339      -1.726006              1
      2870.5000         1.2421         1.4035         1.3333        -80.678      -2.077087      0.9988664
      2871.0000         1.2526         1.4035         1.3333       -82.0339      -3.445068       0.978749
      2871.5000         1.2632         1.4211         1.3333       -82.7119      -4.135155      0.9686007
      2872.0000         1.2737         1.4211         1.3333       -83.7288      -5.164139      0.9534686
      2872.5000         1.2842         1.4386         1.3509       -84.7458      -6.193214      0.9383351
      2873.0000         1.2947         1.4386         1.3509       -85.0847      -6.544205      0.9331735
      2873.5000         1.2982         1.4561         1.3684       -85.0847       -6.55629      0.9329957
      2874.0000         1.2982         1.4561         1.3684       -85.0847      -6.568367      0.9328181
      2874.5000         1.3088         1.4561          1.386       -85.0847      -6.580452      0.9326404
      2875.0000         1.3228         1.4561         1.4035       -84.4068      -5.914635      0.9424319
      2875.5000         1.3509         1.4561         1.4386       -83.0508      -4.570717      0.9621953
      2876.0000         1.3789         1.4561         1.4561       -81.3559      -2.887901      0.9869426
      2876.5000         1.4241         1.4561         1.4737        -80.339       -1.88308              1
      2877.0000         1.4621         1.4737         1.4912       -79.2982     -0.8543701              1
      2877.5000         1.5552         1.4912         1.5088       -78.9474     -0.5156555              1
      2878.0000         1.5552         1.5263         1.5088       -78.5965     -0.1768265              1
      2878.5000         1.5414         1.5439         1.5088       -78.5965     -0.1889114              1
      2879.0000         1.5276         1.5614         1.4912       -78.5965     -0.2009964              1
      2879.5000         1.5138         1.5965         1.4737       -78.5965     -0.2130737              1
      2880.0000          1.531          1.614         1.4386       -79.2982     -0.9268646              1
      2880.5000         1.5448         1.6316         1.4211            -80      -1.640747              1
      2881.0000          1.531         1.6491         1.4035       -81.3559      -3.008736      0.9851657
      2881.5000         1.5207         1.6491          1.386       -82.3729      -4.037811      0.9700322
      2882.0000            1.5         1.6842         1.3509       -82.7119      -4.388893      0.9648692
      2882.5000         1.4828         1.7018         1.3333       -83.0508      -4.739876      0.9597077
      2883.0000         1.4586         1.7193         1.3158       -83.3898      -5.090958      0.9545447
      2883.5000          1.431         1.7368         1.3158       -83.7288      -5.442039      0.9493818
      2884.0000         1.4069         1.7193         1.3158       -83.7288      -5.454124       0.949204
      2884.5000          1.393         1.7018         1.3158       -83.3898      -5.127213      0.9540116
      2885.0000         1.3789         1.6667         1.3158       -82.7119      -4.461388      0.9638031
      2885.5000         1.3649          1.614         1.3158       -81.3559      -3.117477      0.9835665
      2886.0000         1.3404         1.5614         1.2982       -79.6491       -1.42276              1
      2886.5000         1.3193         1.5088         1.2807       -78.2456    -0.03134155              1
      2887.0000         1.3053         1.4912         1.2456       -76.4912       1.710976              1
      2887.5000         1.2877         1.4737         1.2281       -75.4386       2.751495              1
