#------------------------------------------------------------------------------
# Created by    : vladimir.rabinovich
# Created on    : 09/19/2023 17:22:46
#------------------------------------------------------------------------------
~Version Information Section
VERS.           2.0     :   CWLS log ASCII Standard - VERSION 2.0
WRAP.           NO      :   One line per depth step
~Well Information Section
#MNEM       .UNIT                                         VALUE :DESCRIPTION
#------------------------------------------------------------------------------
STRT        .FT                                             992 :START DEPTH
STOP        .FT                                            8489 :STOP DEPTH
STEP        .FT                                             0.5 :STEP      
NULL        .                                           -999.25 :NULL      
COMP        .                                       GAELIC CORP :COMPANY   
WELL        .                                     PHELAN MICKEY :WELL      
FLD         .                                           WILDCAT :FIELD     
LOC         .                                                   :LOCATION  
CNTY        .                                         JEFFERSON :LOCATION  
STAT        .                                             TEXAS :STATE     
CTRY        .                                     UNITED STATES :COUNTRY   
SRVC        .                                                   :SERVICE COMPANY
DATE        .                             9/13/2023 11:18:46 AM :LOG DATE  
API         .                                    42245313790000 :API NUMBER
UWI         .                                    42245313790000 :UNIQUE WELL ID
XCOORD      .                                  1260103.88271883 :SURFACE X 
YCOORD      .                                     10773431.3746 :SURFACE Y 
LAT         .                                         29.679995 :LATITUDE  
LON         .                                       -94.1979967 :LONGITUDE 
ELEV        .FT                                              19 :ELEVATION VALUE
ELEV_TYPE   .                                                KB :ELEVATION REFERENCE TYPE
~Curve Information Section
#MNEM       .UNIT                                      API CODE :CURVE DESCRIPTION
#------------------------------------------------------------------------------
DEPT        .FT                                                 :DEPTH     
DPSS        .V/V                                                :          
DRHO        .G/CM3                                              :          
DT          .US/FT                                              :          
GR_NORM     .GAPI                                               :GammaRay Normalized
GRN         .GAPI                                               :          
ILD         .OHMM                                               :          
NPSS        .V/V                                                :Neutron Porosity Sandstone
RHOB        .G/CM3                                              :          
SFL         .OHMM                                               :          
SP          .MV                                                 :          
SP_NORM     .MV                                                 :SP Normalized
TENN        .LB                                                 :          
VSH_GR      .V/V                                                :Volume of Shale from GR
VSH_SP      .V/V                                                :Volume of Shale from SP
~A        DEPTH           DPSS           DRHO             DT        GR_NORM            GRN            ILD           NPSS           RHOB            SFL             SP        SP_NORM           TENN         VSH_GR         VSH_SP
# ...
      7202.0000         0.1963         0.0489       105.8895       88.56076        74.5508         0.7178         0.4224         2.3262         0.7756        -6.7091     -0.9574552           3080              1              1
      7202.5000         0.1963         0.0444       104.8889       87.51402        73.9524         0.6733         0.4132         2.3247         0.8689        -7.6949      -1.964956           3080              1       0.990253
      7203.0000         0.1993         0.0444       105.6843       86.20712        73.2049         0.6195         0.4081         2.3217         0.8268        -7.4902      -1.781957           3080              1      0.9921014
      7203.5000         0.2064         0.0444       110.1653       86.72826        73.5049         0.6113         0.4275         2.3113         0.7659        -5.6961   -0.009558201           3090              1              1
      7204.0000         0.2106         0.0493       113.1233       91.69121          76.35         0.6145         0.4524          2.303         0.7067        -4.2977       1.367141           3090              1              1
      7204.5000         0.2082         0.0564       114.5056       95.66291           79.2         0.6266         0.4854         2.3069         0.6752        -3.0967        2.54644           3090              1              1
      7205.0000         0.2038         0.0619       114.1093       95.41463          79.05         0.6419         0.4884         2.3143         0.7301        -2.8894       2.732039           3090              1              1
      7205.5000          0.205         0.0563       112.6225       90.73693           76.2         0.6483         0.4638         2.3123         0.7913        -3.4781       2.121639           3080              1              1
      7206.0000         0.2079         0.0507       111.4302       86.07485        73.3595         0.6488         0.4428         2.3069         0.8585        -4.2665       1.311538           3080              1              1
      7206.5000         0.2112         0.0458       110.9305       82.16115        70.9752         0.6462         0.4314          2.301          0.932        -4.2587       1.297637           3080              1              1
      7207.0000         0.2163         0.0418       111.3235       78.98454        69.0402         0.6436          0.423         2.2931         0.8906        -4.4503       1.084336           3080      0.9783944              1
      7207.5000         0.2214         0.0443       112.9113       77.76601        68.2988         0.6381         0.4158         2.2847         0.8248        -4.4426       1.070335           3070      0.9524684              1
      7208.0000         0.2238         0.0482            115       79.47828        69.3439         0.6356         0.4126         2.2797         0.6881        -5.2331      0.2581344           3070      0.9888995              1
      7208.5000         0.2268         0.0521       116.0962       82.40925        71.1319         0.6301         0.4272         2.2757         0.5958        -7.0226      -1.553067           3070              1      0.9944135
      7209.0000         0.2298         0.0521       114.8005       82.65423        71.2826         0.6306         0.4458         2.2708          0.577        -9.0137      -3.565867           3070              1      0.9740822
      7209.5000         0.2313         0.0461       111.0059       81.19212        70.3927         0.6281         0.4569         2.2693         0.6581       -11.0067      -5.580568           3060              1      0.9537317
      7210.0000         0.2283         0.0345       105.4468        79.0006        69.0582         0.6256         0.4509         2.2752         0.8109       -13.2017      -7.797269           3060      0.9787362      0.9313407
      7210.5000          0.207         0.0311        99.7969       76.56403        67.5743         0.6228         0.4138         2.3064         1.0665       -14.7941      -9.411369           3060      0.9268943      0.9150367
      7211.0000         0.1862         0.0481        98.2894       74.36891        66.2376         0.6054          0.375         2.3426         1.2996       -16.9842      -11.62317           3060      0.8801896      0.8926952
      7211.5000         0.1629         0.0724        99.7866       75.09769        66.6832         0.5858         0.3339         2.3861         1.1642       -22.1531      -16.81377           3060      0.8956956       0.840265
      7212.0000         0.1494         0.1069        103.943       77.77539        68.3168         0.5537         0.3544         2.4059         0.8116         -34.42      -29.10237           3060      0.9526679      0.7161376
      7212.5000         0.1821         0.0821       108.5914       76.55506        67.5743         0.5065         0.4338         2.3451         0.6369       -45.1548      -39.85888           3070      0.9267035      0.6074861
      7213.0000         0.2184         0.0451       111.6724       66.80726        61.6337         0.4643         0.4509         2.2718          0.812       -51.5447      -46.27047           3070      0.7193034      0.5427225
      7213.5000         0.2667         0.0214       112.0675       57.48087          55.95         0.4276         0.4126            2.2         0.9097       -56.3347      -51.08218           3070      0.5208696      0.4941194
      7214.0000         0.2733         0.0112       111.6621       49.60423          51.15          0.416          0.369         2.1995         0.8087       -59.9246      -54.69378           3060      0.3532814      0.4576386
      7214.5000         0.2641         0.0131       109.4625       43.69615          47.55         0.3955         0.3532          2.223         0.7143       -66.2521      -61.04298           3070      0.2275776      0.3935053
      7215.0000         0.2525          0.017       107.2793       38.52108        44.3968         0.3775         0.3544         2.2355         0.7533        -75.351      -70.16357           3060      0.1174698       0.301378
      7215.5000         0.2522          0.016       105.4921       34.06898        41.6843          0.352         0.3555          2.229         1.0024       -84.8945      -79.72878           3060     0.02274428      0.2047599
      7216.0000         0.2691         0.0121       104.2001       31.84549        40.3303         0.3298         0.3398          2.196         1.2671       -93.6844      -88.54038           3040              0      0.1157537
      7216.5000         0.2829         0.0083       104.3932       31.35307        40.0315          0.295         0.3249         2.1767         1.6389       -98.4744      -93.35208           3040              0      0.0671507
      7217.0000         0.2916         0.0044       104.9824       31.84856        40.3349         0.2641         0.3213         2.1619         1.9607      -102.4398      -97.33918           3050              0     0.02687697
      7217.5000         0.2997         0.0019       105.3736       31.35663        40.0364         0.2353         0.3195          2.154         2.1548        -104.41      -99.33109           3070              0    0.006756715
      7218.0000         0.3033              0       105.7648       31.11192        39.8886         0.2106         0.3153          2.148         2.2235      -106.3811      -101.3239           3070              0              0
      7218.5000         0.3075         -0.002       105.7594       31.85332        40.3419         0.1877         0.3108         2.1412         2.1557      -107.3612      -102.3257           3070              0              0
      7219.0000         0.3069         -0.004       105.6555       33.08671        41.0951         0.1743         0.3063         2.1426         2.0439      -108.1433      -103.1295           3050    0.001844853              0
      7219.5000         0.3051         -0.003       105.7497        34.0727        41.6975         0.1634         0.3021         2.1466          1.981      -108.7274      -103.7353           3040      0.0228235              0
