#------------------------------------------------------------------------------
# Created by    : vladimir.rabinovich
# Created on    : 09/19/2023 17:20:52
#------------------------------------------------------------------------------
~Version Information Section
VERS.           2.0     :   CWLS log ASCII Standard - VERSION 2.0
WRAP.           NO      :   One line per depth step
~Well Information Section
#MNEM       .UNIT                                         VALUE :DESCRIPTION
#------------------------------------------------------------------------------
STRT        .FT                                            1025 :START DEPTH
STOP        .FT                                            8930 :STOP DEPTH
STEP        .FT                                             0.5 :STEP      
NULL        .                                           -999.25 :NULL      
COMP        .                                     MEREDITH & CO :COMPANY   
WELL        .                                 BROUSSARD JR ETAL :WELL      
FLD         .                                           WILDCAT :FIELD     
LOC         .                                                   :LOCATION  
CNTY        .                                         JEFFERSON :LOCATION  
STAT        .                                             TEXAS :STATE     
CTRY        .                                     UNITED STATES :COUNTRY   
SRVC        .                                                   :SERVICE COMPANY
DATE        .                             9/13/2023 11:19:11 AM :LOG DATE  
API         .                                    42245021860000 :API NUMBER
UWI         .                                    42245021860000 :UNIQUE WELL ID
XCOORD      .                                  1217776.66937412 :SURFACE X 
YCOORD      .                                  10884677.7702762 :SURFACE Y 
LAT         .                                        29.9846645 :LATITUDE  
LON         .                                       -94.3353628 :LONGITUDE 
ELEV        .FT                                              34 :ELEVATION VALUE
ELEV_TYPE   .                                                DF :ELEVATION REFERENCE TYPE
~Curve Information Section
#MNEM       .UNIT                                      API CODE :CURVE DESCRIPTION
#------------------------------------------------------------------------------
DEPT        .FT                                                 :DEPTH     
ASN         .OHMM                                               :          
LAT         .OHMM                                               :          
LN          .OHMM                                               :          
SP          .MV                                                 :          
SP_NORM     .MV                                                 :SP Normalized
VSH_SP      .V/V                                                :Volume of Shale from SP
~A        DEPTH            ASN            LAT             LN             SP        SP_NORM         VSH_SP
# ...
      5205.0000         2.1442         0.7456          0.703       -41.8182      -2.102108      0.9894028
      5205.5000         1.9961         0.7816         0.7203       -42.9091      -3.196331      0.9788814
      5206.0000         1.9384         0.8176         0.8096       -43.2727      -3.563255      0.9753533
      5206.5000         1.6319         0.7807         0.8987       -43.2727      -3.566578      0.9753214
      5207.0000         1.3939         0.7254         0.9876       -42.5455      -2.842701      0.9822817
      5207.5000         1.3364         0.6332          1.077       -41.8182      -2.118721      0.9892431
      5208.0000         1.2681         0.5407         1.1667       -41.8182      -2.122044      0.9892111
      5208.5000         1.1357         0.4479         1.2204       -41.8182      -2.125366      0.9891792
      5209.0000         1.0429         0.3916         1.2378       -41.8182      -2.128689      0.9891472
      5209.5000         1.0393         0.3535         1.2371       -41.4545      -1.768311      0.9926124
      5210.0000         1.0357         0.3338         1.2364       -41.0909      -1.408039      0.9960765
      5210.5000         1.0357         0.3148         1.2364       -41.0909      -1.411362      0.9960446
      5211.0000         1.0143         0.2963         1.2182       -40.7273      -1.051083      0.9995088
      5211.5000              1         0.2778         1.2182       -40.7273      -1.054405      0.9994769
      5212.0000         0.9709         0.2778         1.2182       -40.7273      -1.057728      0.9994449
      5212.5000         0.9491         0.2778         1.2182       -40.7273       -1.06105       0.999413
      5213.0000         0.9273         0.2778         1.2182            -40     -0.3370743              1
      5213.5000         0.9164         0.2778            1.2       -39.6552    0.004402161              1
      5214.0000         0.9055         0.2778            1.2       -39.3103      0.3459816              1
      5214.5000         0.8909         0.2593            1.2       -39.3103       0.342659              1
      5215.0000         0.8836         0.2407            1.2       -39.3103      0.3393364              1
      5215.5000         0.8873         0.2407         1.1818       -39.3103      0.3360138              1
      5216.0000         0.8945         0.2407         1.1818       -39.6552    -0.01221085              1
      5216.5000         0.9018         0.2593         1.1818            -40     -0.3603325              1
      5217.0000         0.9091         0.2778         1.1818       -40.7273      -1.090954      0.9991254
      5217.5000         0.9236         0.2963         1.1636       -40.7273      -1.094276      0.9990935
      5218.0000         0.9345         0.3333         1.1455            -40     -0.3703003              1
      5218.5000         0.9455         0.3704         1.1455            -40     -0.3736229              1
      5219.0000           0.96         0.4074         1.1091            -40     -0.3769455              1
      5219.5000         0.9673         0.4444         1.0727            -40     -0.3802681              1
      5220.0000         0.9818            0.5         1.0727       -40.7273      -1.110889      0.9989337
      5220.5000         1.0036          0.537         1.0727       -40.7273      -1.114216      0.9989018
      5221.0000         1.0036         0.5926         1.0727       -41.4545      -1.844738      0.9918775
      5221.5000         1.0036         0.6481         1.0727       -42.1818      -2.575363      0.9848523
      5222.0000         1.0036         0.7037         1.0727       -42.9091      -3.305984      0.9778271
      5222.5000         1.0036         0.7778         1.0727            -44      -4.400208      0.9673057
      5223.0000         0.9891         0.7963         1.0727       -43.6364      -4.039928      0.9707699
      5223.5000         0.9855         0.8704         1.0727       -42.9091      -3.315952      0.9777312
      5224.0000         0.9782         0.9074         1.0727       -41.8182      -2.228374      0.9881887
      5224.5000         0.9673         0.9815         1.0727            -40     -0.4134979              1
      5225.0000         0.9564         1.0357         1.0545       -41.4545      -1.871319      0.9916219
      5225.5000         0.9418         1.1071         1.0545       -39.3103       0.269558              1
      5226.0000         0.9345         1.1786         1.0364       -39.6552    -0.07866669              1
      5226.5000         0.9236           1.25         1.0364       -40.7273      -1.154087      0.9985184
      5227.0000         0.9127         1.3036         1.0182       -40.7273       -1.15741      0.9984865
      5227.5000         0.9018         1.3571              1            -40     -0.4334335              1
      5228.0000         0.8909          1.375              1       -39.6552    -0.09195709              1
      5228.5000           0.88          1.375         0.9643       -39.3103      0.2496223              1
      5229.0000         0.8691         1.3214         0.9464       -38.6207      0.9358978              1
      5229.5000         0.8582         1.2857         0.9286       -38.2759       1.277374              1
      5230.0000         0.8473           1.25         0.9286       -40.3636     -0.8136482              1
      5230.5000         0.8327           1.25         0.9286       -40.3636     -0.8169708              1
      5231.0000         0.8255         1.2321         0.9286            -40     -0.4566917              1
      5231.5000         0.8255         1.2143         0.9286       -39.6552     -0.1152191              1
      5232.0000           0.84         1.1964         0.9286       -38.9655      0.5711594              1
      5232.5000         0.8582         1.1786         0.9464       -38.9655      0.5678368              1
      5233.0000         0.8909         1.1607         0.9464       -38.6207      0.9093132              1
      5233.5000           0.92         1.1607         0.9643       -40.3636     -0.8369102              1
      5234.0000         0.9491          1.125         0.9643       -41.8182       -2.29483      0.9875497
      5234.5000         0.9709          1.125         0.9643       -42.9091      -3.389053      0.9770283
      5235.0000         0.9855         1.1071         0.9643       -43.6364      -4.119675      0.9700031
      5235.5000         0.9927          1.125         0.9286            -44      -4.486599       0.966475
      5236.0000         0.9891         1.1607         0.8929       -45.0909      -5.580822      0.9559537
      5236.5000         0.9818         1.1607          0.875       -48.3636      -8.856846      0.9244534
      5237.0000         0.9745         1.1964          0.875       -50.1818      -10.67563      0.9069651
      5237.5000         0.9673         1.2143         0.8036       -52.7273      -13.22113      0.8824891
      5238.0000           0.96         1.2321         0.7857       -52.7273      -13.22113      0.8824891
      5238.5000         0.9564         1.2321         0.7857       -53.8182      -14.31203      0.8719997
      5239.0000         0.9564         1.2143         0.7857       -54.5455      -15.03933      0.8650064
      5239.5000         0.9564         1.1964         0.7857       -55.2727      -15.76653      0.8580142
      5240.0000         0.9564         1.1071         0.7857       -63.2143      -23.70813      0.7816526
      5240.5000         0.9308         0.9252         0.7857       -71.0787      -31.57253      0.7060334
      5241.0000         0.8871          0.869         0.7857        -78.955      -39.44883      0.6302997
      5241.5000         0.8435         0.7579         0.8036       -78.9724      -39.46622      0.6301324
      5242.0000            0.8         0.7023         0.8036       -78.9898      -39.48363      0.6299651
      5242.5000         0.7491         0.6652         0.8036       -74.3463      -34.84013      0.6746142
