#------------------------------------------------------------------------------
# Created by    : vladimir.rabinovich
# Created on    : 09/19/2023 17:20:51
#------------------------------------------------------------------------------
~Version Information Section
VERS.           2.0     :   CWLS log ASCII Standard - VERSION 2.0
WRAP.           NO      :   One line per depth step
~Well Information Section
#MNEM       .UNIT                                         VALUE :DESCRIPTION
#------------------------------------------------------------------------------
STRT        .FT                                            1818 :START DEPTH
STOP        .FT                                            9030 :STOP DEPTH
STEP        .FT                                             0.5 :STEP      
NULL        .                                           -999.25 :NULL      
COMP        .                               CONCHO PETROLEUM CO :COMPANY   
WELL        .                                  J E BROUSSARD JR :WELL      
FLD         .                                           WILDCAT :FIELD     
LOC         .                                                   :LOCATION  
CNTY        .                                         JEFFERSON :LOCATION  
STAT        .                                             TEXAS :STATE     
CTRY        .                                     UNITED STATES :COUNTRY   
SRVC        .                                                   :SERVICE COMPANY
DATE        .                             9/13/2023 11:19:11 AM :LOG DATE  
API         .                                    42245021900000 :API NUMBER
UWI         .                                    42245021900000 :UNIQUE WELL ID
XCOORD      .                                  1213918.99973078 :SURFACE X 
YCOORD      .                                  10884047.8383225 :SURFACE Y 
LAT         .                                         29.982808 :LATITUDE  
LON         .                                       -94.3475252 :LONGITUDE 
ELEV        .FT                                              35 :ELEVATION VALUE
ELEV_TYPE   .                                                GL :ELEVATION REFERENCE TYPE
~Curve Information Section
#MNEM       .UNIT                                      API CODE :CURVE DESCRIPTION
#------------------------------------------------------------------------------
DEPT        .FT                                                 :DEPTH     
ASN         .OHMM                                               :          
LAT         .OHMM                                               :          
LN          .OHMM                                               :          
SP          .MV                                                 :          
SP_NORM     .MV                                                 :SP Normalized
VSH_SP      .V/V                                                :Volume of Shale from SP
~A        DEPTH            ASN            LAT             LN             SP        SP_NORM         VSH_SP
# ...
      8050.0000         1.7655         0.2414         0.4821      -134.8276      -82.97575      0.1279175
      8050.5000         1.7759         0.2414         0.4821      -133.4366      -81.58475      0.1427155
      8051.0000         1.7966         0.2069         0.4821      -132.3842      -80.53235      0.1539112
      8051.5000         1.7586         0.2069         0.4821      -132.3667      -80.51485      0.1540974
      8052.0000         1.7241         0.2069            0.5      -133.0391      -81.18724      0.1469443
      8052.5000         1.7138         0.2069         0.4643      -134.4013      -82.54945      0.1324526
      8053.0000         1.7034         0.2069         0.4643      -135.7635      -83.91165      0.1179612
      8053.5000         1.6966         0.2069         0.4643      -137.4705      -85.61865     0.09980157
      8054.0000         1.6931         0.2069         0.4643      -138.4877      -86.63585     0.08898033
      8054.5000         1.6793         0.2241         0.4643      -139.1598      -87.30795     0.08183029
      8055.0000          1.631         0.2241         0.4643      -139.1422      -87.29034     0.08201762
      8055.5000         1.5536         0.2241         0.4643      -138.7796      -86.92775       0.085875
      8056.0000         1.4786         0.2414         0.4643       -138.417      -86.56516     0.08973239
      8056.5000         1.4393         0.2414         0.4643       -133.571      -81.71915      0.1412857
      8057.0000         1.4393         0.2586         0.4643      -126.3112      -74.45935      0.2185175
      8057.5000           1.45         0.2586         0.4821      -119.3833      -67.53145      0.2922186
      8058.0000         1.4571         0.2759            0.5      -118.6702      -66.81834      0.2998048
      8058.5000         1.4679         0.2759         0.5179      -117.2459      -65.39405      0.3149569
      8059.0000          1.475         0.2759         0.5179      -115.8242      -63.97235      0.3300814
      8059.5000         1.4964         0.2931         0.5179      -114.4049      -62.55305      0.3451804
      8060.0000         1.5214         0.2931         0.5179      -112.9882      -61.13634      0.3602516
      8060.5000          1.575         0.2931         0.5179      -111.5789      -59.72705      0.3752441
      8061.0000         1.6621         0.2931         0.5357      -110.1754      -58.32355       0.390175
      8061.5000         1.7517         0.3103         0.5357      -108.0702      -56.21835      0.4125708
      8062.0000         1.6966         0.3276         0.5357       -105.614      -53.76215      0.4387006
      8062.5000         1.6414         0.3448         0.5357      -103.5088      -51.65694      0.4610963
      8063.0000         1.5821         0.3448         0.5179      -101.7544      -49.90255      0.4797601
      8063.5000          1.525         0.3793         0.4821           -100      -48.14815       0.498424
      8064.0000         1.4643         0.4138         0.4464       -97.9661      -46.11425      0.5200612
      8064.5000         1.3724         0.4655         0.4286       -93.8983      -42.04645      0.5633357
      8065.0000         1.2414            0.5         0.3929       -89.4915      -37.63965      0.6102165
      8065.5000         1.1123          0.569         0.3571       -85.4237      -33.57185       0.653491
      8066.0000         0.9793         0.6034         0.3571       -81.0169      -29.16505      0.7003719
      8066.5000         0.8483         0.6724         0.3571       -76.7857      -24.93385      0.7453846
      8067.0000         0.8724         0.6897         0.3571       -73.2143      -21.36245      0.7833782
      8067.5000         0.9414         0.7069         0.3571       -73.2143      -21.36245      0.7833782
      8068.0000         1.0105         0.6724         0.3571       -81.6949      -29.84305       0.693159
      8068.5000         1.0842         0.6379         0.3571       -89.8305      -37.97865      0.6066102
      8069.0000          0.969          0.569          0.375       -97.9661      -46.11425      0.5200612
      8069.5000         0.8552         0.4828         0.3929      -106.3158      -54.46395      0.4312346
      8070.0000            0.8         0.3966         0.3929       -145.614      -93.76215     0.01316866
      8070.5000         0.6828         0.2759         0.4107      -149.4737      -97.62184              0
      8071.0000         0.7069         0.2069         0.4464      -149.4737      -97.62184              0
      8071.5000          0.731         0.1379         0.4643      -149.4737      -97.62184              0
      8072.0000         0.7448          0.069         0.4643      -149.4737      -97.62184              0
      8072.5000         0.7483         0.0345         0.4643      -148.7719      -96.92004              0
      8073.0000          0.769         0.0345         0.4286      -147.3684      -95.51654              0
      8073.5000         0.7931         0.0517         0.3929      -143.1579      -91.30605     0.03929739
      8074.0000         1.0035          0.069         0.3571      -136.2069      -84.35504      0.1132442
      8074.5000         1.2103         0.0862         0.3571      -134.4828      -82.63095      0.1315856
      8075.0000         1.5857         0.1207         0.3571      -132.7586      -80.90675      0.1499282
      8075.5000         1.7828         0.1379         0.3571      -134.4828      -82.63095      0.1315856
      8076.0000         1.7793         0.1724         0.3571      -138.9655      -87.11365     0.08389737
      8076.5000         1.7241         0.1897         0.3571      -143.8596      -92.00775     0.03183243
      8077.0000          1.669         0.1897         0.3571      -147.0175      -95.16565              0
      8077.5000         1.5036         0.1724         0.3571      -148.4211      -96.56924              0
      8078.0000         1.3828         0.1379         0.3571      -150.1754      -98.32355              0
      8078.5000         1.2655         0.1207         0.3571      -151.5789      -99.72705              0
      8079.0000         1.2069         0.0862         0.3571      -152.6316      -100.7798              0
      8079.5000         1.1965          0.069         0.3571      -152.9825      -101.1306              0
      8080.0000         1.1789          0.069         0.3571      -153.3333      -101.4814              0
      8080.5000         1.0982          0.069          0.375      -153.6842      -101.8324              0
      8081.0000         1.0632          0.069         0.3929      -153.3333      -101.4814              0
      8081.5000         1.0596          0.069         0.3929      -152.9825      -101.1306              0
      8082.0000         1.0807          0.069         0.3929      -152.6316      -100.7798              0
      8082.5000          1.186         0.0862         0.4107      -151.9298      -100.0779              0
      8083.0000         1.3517         0.1034         0.3929      -150.8772      -99.02534              0
      8083.5000         1.4429         0.1379         0.3929      -150.1754      -98.32355              0
      8084.0000         1.5393         0.1552          0.375      -148.7719      -96.92004              0
      8084.5000         1.6345         0.1897          0.375      -148.0702      -96.21835              0
      8085.0000         1.6345         0.2069          0.375      -147.0175      -95.16565              0
      8085.5000         1.5536         0.2414          0.375      -146.6667      -94.81485    0.001969683
      8086.0000         1.4679         0.2414          0.375      -147.0175      -95.16565              0
      8086.5000         1.3828         0.2586          0.375      -147.3684      -95.51654              0
      8087.0000            1.3         0.2586          0.375      -147.3684      -95.51654              0
      8087.5000         1.2828         0.2586         0.3929      -147.7193      -95.86745              0
