#------------------------------------------------------------------------------
# Created by    : vladimir.rabinovich
# Created on    : 09/19/2023 17:20:52
#------------------------------------------------------------------------------
~Version Information Section
VERS.           2.0     :   CWLS log ASCII Standard - VERSION 2.0
WRAP.           NO      :   One line per depth step
~Well Information Section
#MNEM       .UNIT                                         VALUE :DESCRIPTION
#------------------------------------------------------------------------------
STRT        .FT                                            1017 :START DEPTH
STOP        .FT                                            8855 :STOP DEPTH
STEP        .FT                                             0.5 :STEP      
NULL        .                                           -999.25 :NULL      
COMP        .                               MEREDITH & CO ET AL :COMPANY   
WELL        .                               BROUSSARD J JR ETAL :WELL      
FLD         .                                           WILDCAT :FIELD     
LOC         .                                                   :LOCATION  
CNTY        .                                         JEFFERSON :LOCATION  
STAT        .                                             TEXAS :STATE     
CTRY        .                                     UNITED STATES :COUNTRY   
SRVC        .                                                   :SERVICE COMPANY
DATE        .                             9/13/2023 11:19:11 AM :LOG DATE  
API         .                                    42245021880000 :API NUMBER
UWI         .                                    42245021880000 :UNIQUE WELL ID
XCOORD      .                                  1215343.11980964 :SURFACE X 
YCOORD      .                                  10882366.7587642 :SURFACE Y 
LAT         .                                        29.9782309 :LATITUDE  
LON         .                                       -94.3429645 :LONGITUDE 
ELEV        .FT                                              36 :ELEVATION VALUE
ELEV_TYPE   .                                                DF :ELEVATION REFERENCE TYPE
~Curve Information Section
#MNEM       .UNIT                                      API CODE :CURVE DESCRIPTION
#------------------------------------------------------------------------------
DEPT        .FT                                                 :DEPTH     
ASN         .OHMM                                               :          
LAT         .OHMM                                               :          
LN          .OHMM                                               :          
SP          .MV                                                 :          
SP_NORM     .MV                                                 :SP Normalized
VSH_SP      .V/V                                                :Volume of Shale from SP
~A        DEPTH            ASN            LAT             LN             SP        SP_NORM         VSH_SP
# ...
      4133.0000         0.7891         0.2794         0.3229      -118.1761      -71.26252      0.1342185
      4133.5000         0.8381         0.2803         0.3238      -117.0057      -70.09212      0.1488485
      4134.0000         0.8697         0.2809         0.3244      -119.3068      -72.39322      0.1200848
      4134.5000         0.9355         0.2818         0.3397      -120.7553      -73.84172      0.1019785
      4135.0000         0.9814         0.2824         0.3403      -122.7962      -75.88262     0.07646723
      4135.5000         1.0102         0.2685         0.3412      -124.2548      -77.34122     0.05823479
      4136.0000         1.0568         0.2694         0.3563      -125.4137      -78.50011     0.04374857
      4136.5000         1.1033           0.27         0.3714      -126.2842      -79.37062     0.03286724
      4137.0000         1.1324         0.2708         0.3723       -126.561      -79.64742     0.02940731
      4137.5000         1.1616         0.2569         0.3729      -126.5494      -79.63582     0.02955227
      4138.0000         1.1153         0.2433         0.3737        -125.65      -78.73642     0.04079475
      4138.5000         1.0546          0.215         0.3743      -124.4624      -77.54882     0.05563974
      4139.0000         0.9654         0.2158         0.3752      -122.3869      -75.47332      0.0815835
      4139.5000         0.8769          0.202         0.3903      -119.4375      -72.52392       0.118451
      4140.0000         0.6765         0.1736         0.3912      -104.6421      -57.72852      0.3033935
      4140.5000         0.5508         0.1594         0.3918       -89.8464      -42.93282      0.4883398
      4141.0000         0.4871         0.1739         0.3926       -77.9206      -31.00702      0.6374123
      4141.5000         0.4871         0.2174         0.3931       -71.7418      -24.82822      0.7146473
      4142.0000         0.4988         0.2464         0.4085       -67.0392      -20.12562      0.7734298
      4142.5000         0.5978         0.2899         0.4238       -72.0175      -25.10392       0.711201
      4143.0000         0.6946         0.3478         0.4388       -82.5268      -35.61322      0.5798348
      4143.5000         0.7737         0.3623         0.4542       -94.3958      -47.48222      0.4314723
      4144.0000         0.8402         0.3478         0.4547       -90.3216      -43.40802      0.4823998
      4144.5000          0.892         0.3333           0.47       -86.2533      -39.33972      0.5332535
      4145.0000         1.0246         0.3333         0.4999       -76.9396      -30.02602      0.6496748
      4145.5000         1.1146         0.3623         0.5004       -66.4202      -19.50661      0.7811673
      4146.0000         1.2775         0.3913         0.5157       -58.8306      -11.91702      0.8760372
      4146.5000         1.3709         0.4203         0.5166       -54.7346      -7.821018      0.9272373
      4147.0000         1.4468         0.4493         0.5316       -53.5588      -6.645218      0.9419348
      4147.5000         1.4937         0.4493         0.5614        -60.291      -13.37742      0.8577822
      4148.0000         1.4264         0.4493         0.5765        -61.454      -14.54042      0.8432448
      4148.5000         1.3797         0.4348         0.6353       -65.2297      -18.31612      0.7960485
      4149.0000         1.2722         0.4058         0.6941        -65.517      -18.60342      0.7924573
      4149.5000         1.1766         0.3768         0.7381       -62.9011      -15.98752       0.825156
      4150.0000         1.1246         0.3767         0.7971       -60.2899      -13.37632       0.857796
      4150.5000         1.0493         0.3918         0.8696       -55.2863      -8.372719       0.920341
      4151.0000         0.9913         0.4216         0.8986       -50.5744       -3.66082      0.9792398
      4151.5000         0.9306         0.4366         0.9855       -48.8072       -1.89362              1
      4152.0000         0.9248         0.4375         1.0145       -47.3331     -0.4195175              1
      4152.5000         0.9422         0.4381         1.0436       -46.7407      0.1728821              1
      4153.0000         0.9509         0.4244         1.0437        -46.444      0.4695816              1
      4153.5000          0.974          0.425         1.0728       -45.8532       1.060383              1
      4154.0000         0.9827         0.4114          1.102       -45.8498       1.063782              1
      4154.5000         0.9914         0.3832         1.1167       -45.5526       1.360981              1
      4155.0000         0.9971         0.3838         1.1168       -45.2573       1.656281              1
      4155.5000         1.0029         0.3847         1.1315        -44.961       1.952583              1
      4156.0000         1.0087         0.3852         1.1461       -44.6652       2.248383              1
      4156.5000         1.0348         0.3861         1.1609       -44.0798       2.833782              1
      4157.0000         1.0725         0.3866         1.1756        -43.494       3.419582              1
      4157.5000         1.1014         0.3875         1.2051        -43.492       3.421581              1
      4158.0000          1.142         0.4026         1.2199        -43.489       3.424583              1
      4158.5000         1.1855         0.4179         1.2347       -43.7776       3.135983              1
      4159.0000         1.2411         0.4622         1.2202       -44.0647       2.848881              1
      4159.5000         1.3263         0.4918         1.2204       -44.0624       2.851181              1
      4160.0000         1.4144         0.5071         1.2352       -44.3513       2.562283              1
      4160.5000         1.4987         0.5077         1.2505       -44.9179       1.995682              1
      4161.0000         1.5365         0.4941         1.2661       -45.4896       1.423981              1
      4161.5000         1.5685         0.4947         1.2666       -46.3484      0.5651817              1
      4162.0000         1.5889         0.5245         1.2822       -47.2124     -0.2988167              1
      4162.5000         1.6178         0.5541         1.2975       -48.9464      -2.032818      0.9995898
      4163.0000         1.6351          0.613         1.3131       -50.1041      -3.190517      0.9851185
      4163.5000         1.6352         0.6715         1.3136        -51.552      -4.638416      0.9670198
      4164.0000         1.6154         0.7303         1.3145       -52.4215      -5.507919       0.956151
      4164.5000         1.5839         0.7599         1.3151       -53.2901      -6.376518      0.9452935
      4165.0000         1.5261         0.7898         1.3012         -53.87      -6.956417      0.9380448
      4165.5000         1.4711         0.8193         1.2874       -53.8648      -6.951218      0.9381098
      4166.0000         1.3723         0.8927         1.2733       -52.9844       -6.07082      0.9491147
      4166.5000         1.3048         0.9222         1.2594       -51.2231      -4.309517       0.971131
      4167.0000         1.2638         0.9666         1.2453         -50.34      -3.426418      0.9821697
      4167.5000         1.2022         1.0248         1.2168         -49.16      -2.246418      0.9969198
      4168.0000         1.1588         1.0685         1.2027       -49.4438       -2.53022      0.9933723
      4168.5000         1.1184         1.1262         1.1888       -49.7311      -2.817516       0.989781
      4169.0000          1.078         1.1842         1.1747       -50.3094      -3.395817      0.9825523
      4169.5000         1.0636         1.1848         1.1609       -50.0101      -3.096519      0.9862935
      4170.0000         1.0521         1.1711         1.1467       -49.4132      -2.499619      0.9937547
      4170.5000         1.0348         1.1286         1.1471       -49.1138      -2.200218      0.9974973
