#------------------------------------------------------------------------------
# Created by    : vladimir.rabinovich
# Created on    : 09/19/2023 17:20:52
#------------------------------------------------------------------------------
~Version Information Section
VERS.           2.0     :   CWLS log ASCII Standard - VERSION 2.0
WRAP.           NO      :   One line per depth step
~Well Information Section
#MNEM       .UNIT                                         VALUE :DESCRIPTION
#------------------------------------------------------------------------------
STRT        .FT                                             722 :START DEPTH
STOP        .FT                                            8710 :STOP DEPTH
STEP        .FT                                             0.5 :STEP      
NULL        .                                           -999.25 :NULL      
COMP        .                              BRUNER ARNOLD H & CO :COMPANY   
WELL        .                                              WEIR :WELL      
FLD         .                                           WILDCAT :FIELD     
LOC         .                                                   :LOCATION  
CNTY        .                                         JEFFERSON :LOCATION  
STAT        .                                             TEXAS :STATE     
CTRY        .                                     UNITED STATES :COUNTRY   
SRVC        .                                                   :SERVICE COMPANY
DATE        .                             9/13/2023 11:19:11 AM :LOG DATE  
API         .                                    42245021890000 :API NUMBER
UWI         .                                    42245021890000 :UNIQUE WELL ID
XCOORD      .                                  1215604.35578741 :SURFACE X 
YCOORD      .                                  10884998.9913957 :SURFACE Y 
LAT         .                                        29.9854781 :LATITUDE  
LON         .                                       -94.3422367 :LONGITUDE 
ELEV        .FT                                              36 :ELEVATION VALUE
ELEV_TYPE   .                                                DF :ELEVATION REFERENCE TYPE
~Curve Information Section
#MNEM       .UNIT                                      API CODE :CURVE DESCRIPTION
#------------------------------------------------------------------------------
DEPT        .FT                                                 :DEPTH     
ASN         .OHMM                                               :          
LAT         .OHMM                                               :          
LN          .OHMM                                               :          
SP          .MV                                                 :          
SP_NORM     .MV                                                 :SP Normalized
VSH_SP      .V/V                                                :Volume of Shale from SP
~A        DEPTH            ASN            LAT             LN             SP        SP_NORM         VSH_SP
       722.0000         0.0251              0              0      -104.3676       1.684337              1
       722.5000         1.9841              0              0       -104.391     0.04334498              1
       723.0000         1.9841              0              0      -103.6966      0.3080202              1
       723.5000         1.9841              0              0      -102.6416     -0.4694887              1
       724.0000         1.9841              0              0       -101.574     -0.1208383              1
       724.5000         1.8676              0              0       -98.4809      0.1498483              1
       725.0000         2.0258              0         0.0169       -95.8307       1.948893              1
       725.5000         2.3676              0         0.0356       -94.1723      0.9112008              1
       726.0000          2.505              0         1.6549       -94.1798        2.93792              1
       726.5000         2.6431              0         2.4538       -95.1924      0.1911586              1
       727.0000         2.7133              0         2.6096        -96.203      0.9573264              1
       727.5000         2.7488              0         2.7142        -97.222       2.859909              1
       728.0000         2.7845              0         2.8192       -97.9081       2.582552              1
       728.5000          2.803              0         3.0121       -98.2597       1.527161              1
       729.0000         2.8041              0         3.0137       -98.2748       3.485678              1
       729.5000         2.8402              0         3.0332       -98.2899       3.700452              1
       730.0000         2.8415              0         3.0349       -98.3051       2.604664              1
       730.5000         2.8596              0         3.0179       -97.9822       2.872369              1
       731.0000         2.8596              0              3       -97.6594      -1.191159              1
       731.5000         2.8772              0         2.9825       -97.6755     -0.6083667              1
       732.0000         2.8947              0         2.9825       -97.3527       1.429246              1
       732.5000         2.8947              0         2.9825       -97.0299      0.1674808              1
       733.0000         2.9123              0         2.9825        -97.046       2.984276              1
       733.5000         2.9474              0         2.9825       -96.7232     -0.8453015              1
       734.0000         2.9825              0              3       -96.4003      0.9638669              1
       734.5000         3.0357              0         3.0179       -96.4165       1.019467              1
       735.0000         3.0714              0         3.0536       -96.0936       1.649153              1
       735.5000         3.0893              0         3.0714       -96.1178     -0.1241782              1
       736.0000         3.1964              0         3.1071        -96.473       3.343586              1
       736.5000         3.2679              0         3.1429       -96.8281      -1.007228              1
       737.0000         3.4464              0         3.1786       -97.1832       2.316639              1
       737.5000         3.4464              0         3.2143       -97.5383     -0.2354549              1
       738.0000         3.4464              0         3.2321       -98.2324       1.960119              1
       738.5000         3.4107              0         3.2679       -98.5876      0.6565565              1
       739.0000         3.2679              0         3.3036       -98.6037        3.68574              1
       739.5000         3.1607              0         3.3393       -98.6199      0.2012309              1
       740.0000         3.0714              0          3.375        -98.636     -0.2557863              1
       740.5000         3.0353              0         3.3926       -98.3206      0.4448318              1
       741.0000         2.9111         0.0351         3.5172        -98.012      0.7534332              1
       741.5000         2.7527         0.1053         3.5347       -98.0427      0.7227325              1
       742.0000         2.6646         0.2281         3.5701       -98.0736      0.6918335              1
       742.5000         2.5941          0.386         3.5876        -97.763       1.002434              1
       743.0000         2.5412         0.5439         3.6052       -97.4513       1.314133              1
       743.5000         2.4884         0.7193         3.6048       -97.4813       1.284134              1
       744.0000         2.4357         1.3425         3.6225       -97.5114       1.254036              1
       744.5000         2.4179         1.7015         3.6401       -97.5416       1.223831              1
       745.0000         2.4002          1.906         3.6398       -97.5719       1.193535              1
       745.5000         2.3997         2.0611         3.6215       -97.6023       1.163132              1
       746.0000         2.4167         2.2199         3.6031       -97.6328       1.132637              1
       746.5000         2.4337         2.3789         3.5847       -97.6635       1.101936              1
       747.0000          2.468         2.5027         3.5843       -97.6942       1.071236              1
       747.5000         2.5022         2.6267         3.5839        -97.725       1.040436              1
       748.0000         2.5364         2.7153         3.6016       -97.7559       1.009537              1
       748.5000         2.5878         2.8219         3.6194       -97.7869      0.9785309              1
       749.0000         2.6564         2.8753          3.619       -97.8181      0.9473343              1
       749.5000         2.7248         2.9643         3.6187       -97.8493      0.9161377              1
       750.0000         2.7932         3.0526         3.6002       -97.8807      0.8847351              1
       750.5000         2.7929         3.1921         3.5813       -97.8947      0.8707352              1
       751.0000         2.7928         3.2966         3.5808       -97.8947      0.8707352              1
       751.5000         2.7753         3.3834         3.5621       -97.8947      0.8707352              1
       752.0000         2.7751         3.4528         3.5797       -97.8947      0.8707352              1
       752.5000         2.7749         3.5221         3.5973       -98.2456      0.5198364              1
       753.0000         2.7574         3.5563         3.6149       -98.5965      0.1689377              1
       753.5000         2.7399          3.573         3.6324       -98.5965      0.1689377              1
       754.0000         2.7223         3.5546         3.6679       -98.5965      0.1689377              1
       754.5000         2.7221         3.5538         3.6853       -98.9474     -0.1819687              1
       755.0000         2.7044         3.5354         3.7027       -98.9474     -0.1819687              1
       755.5000         2.6868          3.517         3.7201       -98.9474     -0.1819687              1
       756.0000         2.6865         3.4811         3.7554       -99.2982     -0.5327682              1
       756.5000         2.6514         3.4802         3.7727       -99.2982     -0.5327682              1
       757.0000         2.6336         3.4439          3.772       -99.2982     -0.5327682              1
       757.5000         2.6333         3.4255         3.8072       -99.2982     -0.5327682              1
       758.0000         2.6155         3.4071         3.8423       -99.2982     -0.5327682              1
       758.5000         2.5977         3.4238         3.8774       -99.2982     -0.5327682              1
       759.0000         2.5974         3.3704         3.8945       -99.2982     -0.5327682              1
       759.5000          2.597          3.352         3.9294       -99.2982     -0.5327682              1
