#------------------------------------------------------------------------------
# Created by    : vladimir.rabinovich
# Created on    : 09/19/2023 17:20:52
#------------------------------------------------------------------------------
~Version Information Section
VERS.           2.0     :   CWLS log ASCII Standard - VERSION 2.0
WRAP.           NO      :   One line per depth step
~Well Information Section
#MNEM       .UNIT                                         VALUE :DESCRIPTION
#------------------------------------------------------------------------------
STRT        .FT                                            1558 :START DEPTH
STOP        .FT                                           11266 :STOP DEPTH
STEP        .FT                                             0.5 :STEP      
NULL        .                                           -999.25 :NULL      
COMP        .                               MEREDITH & CO ET AL :COMPANY   
WELL        .                                 GRINNELL TEXAS CO :WELL      
FLD         .                                           WILDCAT :FIELD     
LOC         .                                                   :LOCATION  
CNTY        .                                         JEFFERSON :LOCATION  
STAT        .                                             TEXAS :STATE     
CTRY        .                                     UNITED STATES :COUNTRY   
SRVC        .                                                   :SERVICE COMPANY
DATE        .                             9/13/2023 11:19:11 AM :LOG DATE  
API         .                                    42245015300000 :API NUMBER
UWI         .                                    42245015300000 :UNIQUE WELL ID
XCOORD      .                                  1358778.50439977 :SURFACE X 
YCOORD      .                                  10877447.4356243 :SURFACE Y 
LAT         .                                        29.9685419 :LATITUDE  
LON         .                                       -93.8897358 :LONGITUDE 
ELEV        .FT                                              14 :ELEVATION VALUE
ELEV_TYPE   .                                                DF :ELEVATION REFERENCE TYPE
~Curve Information Section
#MNEM       .UNIT                                      API CODE :CURVE DESCRIPTION
#------------------------------------------------------------------------------
DEPT        .FT                                                 :DEPTH     
ASN         .OHMM                                               :          
LN          .OHMM                                               :          
SP          .MV                                                 :          
SP_NORM     .MV                                                 :SP Normalized
VSH_SP      .V/V                                                :Volume of Shale from SP
~A        DEPTH            ASN             LN             SP        SP_NORM         VSH_SP
# ...
      7366.0000         0.8245         0.5563       -68.2426      -48.48951        0.46641
      7366.5000          0.864         0.5595       -77.1055      -57.35241      0.3668268
      7367.0000         0.9055         0.5626       -86.0388      -66.28572      0.2664526
      7367.5000         0.8741         0.5658       -91.2124      -71.45932      0.2083222
      7368.0000         0.8232          0.569       -93.0009      -73.24782      0.1882268
      7368.5000         0.7581         0.5721       -94.3588      -74.60571      0.1729695
      7369.0000         0.6931         0.5735       -93.3918      -73.63872      0.1838346
      7369.5000          0.628         0.5699       -89.1575      -69.40442       0.231411
      7370.0000         0.5772         0.5662       -82.0654      -62.31231      0.3110976
      7370.5000         0.5469         0.5625       -61.5558      -41.80272      0.5415425
      7371.0000         0.5522         0.5589       -47.0723      -27.31921      0.7042785
      7371.5000         0.5601         0.5552       -33.5709      -13.81781      0.8559796
      7372.0000         0.5681         0.5516       -31.7715      -12.01841      0.8761976
      7372.5000          0.576         0.5479       -29.9721      -10.21901      0.8964156
      7373.0000          0.584         0.5442       -28.3092      -8.556114      0.9150999
      7373.5000          0.592         0.5485       -27.4403      -7.687214      0.9248627
      7374.0000         0.5999         0.5531       -26.5703      -6.817213      0.9346381
      7374.5000         0.6079         0.5576       -25.7014      -5.948315       0.944401
      7375.0000         0.6158         0.5621       -24.8326      -5.079514      0.9541628
      7375.5000         0.6203         0.5667       -24.4471      -4.694014      0.9584942
      7376.0000         0.6218         0.5712       -24.0859      -4.332813      0.9625527
      7376.5000         0.6233         0.5757       -23.7247      -3.971615      0.9666111
      7377.0000         0.6248         0.5803        -23.364      -3.610914      0.9706639
      7377.5000         0.6263         0.5851       -23.0028      -3.249714      0.9747223
      7378.0000         0.6278         0.5926       -22.9408      -3.187714      0.9754189
      7378.5000         0.6295         0.6001       -22.9023      -3.149214      0.9758515
      7379.0000         0.6341         0.6077       -22.8638      -3.110714      0.9762841
      7379.5000         0.6387         0.6152       -22.8253      -3.072214      0.9767167
      7380.0000         0.6434         0.6228       -22.7868      -3.033714      0.9771492
      7380.5000          0.648         0.6303       -22.7483      -2.995214      0.9775819
      7381.0000         0.6526         0.6378       -22.7528      -2.999714      0.9775313
      7381.5000         0.6573         0.6454         -22.87      -3.116915      0.9762145
      7382.0000         0.6677         0.6529       -22.9871      -3.234015      0.9748987
      7382.5000         0.6862         0.6605       -23.1041      -3.351013      0.9735841
      7383.0000         0.7047         0.6676       -23.2213      -3.468214      0.9722673
      7383.5000         0.7232         0.6726       -23.3384      -3.585314      0.9709516
      7384.0000         0.7417         0.6777       -23.4554      -3.702314      0.9696369
      7384.5000         0.7603         0.6827       -23.5726      -3.819513      0.9683201
      7385.0000         0.7898         0.6878       -23.6837      -3.930614      0.9670718
      7385.5000         0.8193         0.6929       -23.7934      -4.040314      0.9658391
      7386.0000         0.8236         0.6979        -23.903      -4.149914      0.9646077
      7386.5000         0.8118         0.7048       -24.0127      -4.259613      0.9633752
      7387.0000            0.8         0.7133       -24.1224      -4.369314      0.9621425
      7387.5000         0.7882         0.7033       -24.2321      -4.479013        0.96091
      7388.0000         0.7764         0.6914       -24.3305      -4.577414      0.9598044
      7388.5000         0.7646         0.6795       -24.3635      -4.610415      0.9594336
      7389.0000         0.7531          0.672       -24.3965      -4.643414      0.9590628
      7389.5000         0.7449         0.6651       -24.4295      -4.676414       0.958692
      7390.0000         0.7367         0.6583       -24.4625      -4.709414      0.9583212
      7390.5000         0.7285         0.6514       -24.4731      -4.720015      0.9582021
      7391.0000         0.7204         0.6446       -24.4333      -4.680214      0.9586493
      7391.5000         0.7122         0.6377       -24.3934      -4.640314      0.9590976
      7392.0000          0.704         0.6309       -24.3456      -4.592514      0.9596347
      7392.5000         0.6958          0.624       -24.2095      -4.456413      0.9611639
      7393.0000         0.6876         0.6172       -24.0451      -4.292013      0.9630111
      7393.5000         0.6818         0.6103       -23.4984      -3.745314      0.9691538
      7394.0000         0.6778         0.6064       -22.9521      -3.199015       0.975292
      7394.5000         0.6737         0.6178       -22.4059      -2.652813       0.981429
      7395.0000         0.6696         0.6293       -21.8597      -2.106613      0.9875662
      7395.5000         0.6655         0.6407       -21.4313      -1.678213      0.9923796
      7396.0000         0.6615         0.6521       -21.1431      -1.390015      0.9956178
      7396.5000         0.6574         0.6636       -20.8548      -1.101713      0.9988571
      7397.0000          0.655          0.675       -20.5666     -0.8135147              1
      7397.5000         0.6528         0.6852       -20.2783     -0.5252132              1
      7398.0000         0.6505         0.6942       -20.0647     -0.3116131              1
      7398.5000         0.6565         0.7031       -19.8934     -0.1403141              1
      7399.0000         0.6661         0.7121       -19.8125    -0.05941391              1
      7399.5000         0.6758          0.721       -20.0586     -0.3055134              1
      7400.0000         0.6854           0.73       -20.3047     -0.5516148              1
      7400.5000         0.6951          0.739       -20.5506      -0.797514              1
      7401.0000         0.7063         0.7479       -20.7968      -1.043715      0.9995088
      7401.5000         0.7212         0.7569       -21.0426      -1.289515       0.996747
      7402.0000         0.7362         0.7658       -21.2887      -1.535614      0.9939818
      7402.5000         0.7511         0.7689       -21.5349      -1.781815      0.9912156
      7403.0000         0.7661         0.7662       -21.7807      -2.027615      0.9884537
      7403.5000          0.781         0.7636       -22.0268      -2.273714      0.9856886
      7404.0000         0.7946         0.7609       -22.2735      -2.520414      0.9829167
      7404.5000         0.8007         0.7583       -22.5213      -2.768213      0.9801325
      7405.0000         0.8069         0.7556       -22.7688      -3.015715      0.9773515
      7405.5000         0.8131         0.7529       -23.0166      -3.263514      0.9745672
      7406.0000         0.8209         0.7503       -23.2641      -3.511013      0.9717864
      7406.5000         0.8288         0.7476       -23.4733      -3.720215      0.9694358
      7407.0000         0.8367          0.744        -23.364      -3.610914      0.9706639
      7407.5000         0.8494         0.7399       -23.2546      -3.501514      0.9718931
      7408.0000         0.8655         0.7358       -23.1451      -3.392014      0.9731234
      7408.5000         0.8815         0.7317       -23.0359      -3.282814      0.9743504
      7409.0000         0.8978         0.7276       -22.9264      -3.173313      0.9755808
      7409.5000         0.8905         0.7235        -22.817      -3.063913        0.97681
