#------------------------------------------------------------------------------
# Created by    : vladimir.rabinovich
# Created on    : 09/19/2023 17:20:52
#------------------------------------------------------------------------------
~Version Information Section
VERS.           2.0     :   CWLS log ASCII Standard - VERSION 2.0
WRAP.           NO      :   One line per depth step
~Well Information Section
#MNEM       .UNIT                                         VALUE :DESCRIPTION
#------------------------------------------------------------------------------
STRT        .FT                                             722 :START DEPTH
STOP        .FT                                            8710 :STOP DEPTH
STEP        .FT                                             0.5 :STEP      
NULL        .                                           -999.25 :NULL      
COMP        .                              BRUNER ARNOLD H & CO :COMPANY   
WELL        .                                              WEIR :WELL      
FLD         .                                           WILDCAT :FIELD     
LOC         .                                                   :LOCATION  
CNTY        .                                         JEFFERSON :LOCATION  
STAT        .                                             TEXAS :STATE     
CTRY        .                                     UNITED STATES :COUNTRY   
SRVC        .                                                   :SERVICE COMPANY
DATE        .                             9/13/2023 11:19:11 AM :LOG DATE  
API         .                                    42245021890000 :API NUMBER
UWI         .                                    42245021890000 :UNIQUE WELL ID
XCOORD      .                                  1215604.35578741 :SURFACE X 
YCOORD      .                                  10884998.9913957 :SURFACE Y 
LAT         .                                        29.9854781 :LATITUDE  
LON         .                                       -94.3422367 :LONGITUDE 
ELEV        .FT                                              36 :ELEVATION VALUE
ELEV_TYPE   .                                                DF :ELEVATION REFERENCE TYPE
~Curve Information Section
#MNEM       .UNIT                                      API CODE :CURVE DESCRIPTION
#------------------------------------------------------------------------------
DEPT        .FT                                                 :DEPTH     
ASN         .OHMM                                               :          
LAT         .OHMM                                               :          
LN          .OHMM                                               :          
SP          .MV                                                 :          
SP_NORM     .MV                                                 :SP Normalized
VSH_SP      .V/V                                                :Volume of Shale from SP
~A        DEPTH            ASN            LAT             LN             SP        SP_NORM         VSH_SP
# ...
      6004.0000          0.386         0.1804          0.193      -145.8621      -69.68501      0.2308522
      6004.5000         0.4336         0.1987          0.193      -135.4028      -59.22054      0.3497666
      6005.0000         0.4806         0.2171          0.193      -127.9678      -51.78037       0.434314
      6005.5000         0.5312         0.2704         0.2105      -146.5517      -70.35912      0.2231919
      6006.0000         0.5515         0.2889         0.2456      -149.3103      -73.11256      0.1919027
      6006.5000         0.5415           0.29         0.2807      -154.8276      -78.62471      0.1292647
      6007.0000          0.518         0.2911         0.3158      -160.3704      -84.16235     0.06633689
      6007.5000         0.4877         0.2747         0.3333      -164.8148      -88.60159     0.01589108
      6008.0000         0.5216         0.2408         0.3333      -165.5556      -89.33723    0.007531513
      6008.5000         0.5589         0.2069         0.3333      -165.5556      -89.33207    0.007590121
      6009.0000         0.6069         0.1729         0.3333      -165.5556      -89.32691    0.007648728
      6009.5000         0.5389         0.1564         0.2982      -164.4444      -88.21055     0.02033468
      6010.0000         0.4712         0.1574         0.2632      -158.2759      -82.03689     0.09048991
      6010.5000         0.3965         0.1583         0.2281      -146.8966      -70.65244      0.2198587
      6011.0000         0.3965         0.1592         0.2105      -139.2857      -63.03638      0.3064048
      6011.5000         0.4068         0.1776         0.2105      -131.7857      -55.53122      0.3916907
      6012.0000         0.4576         0.2311         0.2105      -123.9286      -47.66895      0.4810346
      6012.5000         0.5356         0.2496         0.2105      -116.1404       -39.8756      0.5695954
      6013.0000         0.6545          0.268         0.2105      -111.2281      -34.95815      0.6254756
      6013.5000         0.7345         0.2689         0.2105      -119.6491      -43.37399      0.5298411
      6014.0000         0.8167         0.2697         0.2105      -124.2857      -48.00542      0.4772112
      6014.5000           0.98         0.2706         0.2281      -124.2857      -48.00026      0.4772698
      6015.0000         1.2365         0.2715         0.2632      -121.4286        -45.138      0.5097954
      6015.5000         1.6343         0.2373         0.2807      -117.8947      -41.59895       0.550012
      6016.0000         1.6345         0.2382         0.2982       -117.193      -40.89209      0.5580444
      6016.5000         1.6274         0.2215         0.3158      -131.4286      -55.12254      0.3963348
      6017.0000         1.1221         0.2048         0.3158      -145.5172      -69.20596      0.2362959
      6017.5000            0.6         0.2057         0.3509      -147.2414        -70.925      0.2167613
      6018.0000         0.5932         0.2066         0.3509      -144.8276      -68.50606      0.2442493
      6018.5000         0.5831         0.2075         0.3509      -138.9286       -62.6019      0.3113421
      6019.0000         0.5797         0.2083         0.3509      -127.8571      -51.52524      0.4372132
      6019.5000         0.5797         0.2092         0.3509      -111.9298      -35.59278      0.6182638
      6020.0000            0.6         0.2276         0.3684       -91.8678      -15.52562      0.8462998
      6020.5000         0.6655         0.2632         0.3684       -87.1074      -10.76006      0.9004539
      6021.0000         0.7091         0.2982         0.3684       -83.7025      -7.349998      0.9392046
      6021.5000         0.7527         0.3158         0.3684       -80.6281      -4.270439      0.9741995
      6022.0000         0.7564         0.3158          0.386       -78.5285      -2.165688      0.9981172
      6022.5000         0.7564         0.3158         0.4035       -77.1083     -0.7403259              1
      6023.0000         0.7564         0.3158         0.4211       -77.0912      -0.718071              1
      6023.5000         0.7564         0.3158         0.4737        -77.074     -0.6957016              1
      6024.0000         0.7164         0.3158         0.4912       -77.0568     -0.6733475              1
      6024.5000         0.7164         0.3158         0.5088       -77.0397     -0.6510925              1
      6025.0000         0.7164         0.3158         0.5263       -78.4257      -2.031929      0.9996372
      6025.5000         0.7418         0.2982         0.5439       -80.1626      -3.763672      0.9799583
      6026.0000         0.7564         0.2982         0.5614       -81.4959       -5.09182      0.9648657
      6026.5000         0.7745         0.2982         0.5614       -82.8347      -6.425453      0.9497108
      6027.0000         0.7927         0.2982         0.5614       -82.8182      -6.403793      0.9499569
      6027.5000           0.81         0.2632         0.5614       -82.8017      -6.382133       0.950203
      6028.0000         0.8267         0.2632         0.5614       -82.7851      -6.360382      0.9504502
      6028.5000         0.8433         0.2632         0.5263       -81.4132      -4.983322      0.9660986
      6029.0000         0.8467         0.2807         0.5263       -81.0579      -4.622864      0.9701948
      6029.5000           0.85         0.2982         0.5263       -84.0909      -7.650703      0.9225931
      6030.0000         0.8367         0.2982         0.5088       -85.4237       -8.97834      0.9044063
      6030.5000         0.8233         0.3162         0.5263       -87.1186      -10.66808      0.8812591
      6031.0000         0.8067         0.3346         0.5439       -88.4746      -12.01893      0.8627544
      6031.5000         0.7927         0.3355         0.5789       -89.4915      -13.03067       0.848895
      6032.0000         0.7782         0.3364         0.5965       -90.1695      -13.70351      0.8396779
      6032.5000         0.7636         0.3373          0.614       -90.5085      -14.03735      0.8351048
      6033.0000         0.7491         0.3382          0.614       -91.1864      -14.71009      0.8258892
      6033.5000         0.7418          0.339          0.614       -91.1864      -14.70493      0.8259598
      6034.0000         0.7309         0.3399          0.614       -91.1864      -14.69978      0.8260305
      6034.5000         0.7273         0.3408          0.614       -91.1864      -14.69462      0.8261011
      6035.0000           0.72         0.3417          0.614       -90.8475      -14.35056      0.8308142
      6035.5000         0.7091         0.3425         0.5965       -90.1695       -13.6674      0.8401725
      6036.0000         0.6873          0.361         0.5789       -89.4915      -12.98425      0.8495309
      6036.5000         0.6691         0.3794         0.5614       -88.8136      -12.30118       0.858888
      6037.0000         0.6582         0.3803         0.5439       -87.7966      -11.27902      0.8728901
      6037.5000         0.6473         0.3987         0.5088       -87.1186      -10.59586      0.8822485
      6038.0000         0.6436         0.4171         0.4912       -86.4407      -9.912804      0.8916054
      6038.5000         0.6436          0.418         0.4912       -85.7627      -9.229652      0.9009637
      6039.0000         0.6509         0.4539         0.4737       -85.4237       -8.88549      0.9056782
      6039.5000         0.6582         0.4548         0.4737       -85.0847      -8.541489      0.9103906
      6040.0000         0.6473         0.4908         0.4737       -84.4133      -7.870087      0.9195879
      6040.5000         0.6364         0.5088         0.4741       -84.0577      -7.514488       0.924459
      6041.0000         0.6327         0.5263          0.475       -83.7019      -7.158684      0.9293331
      6041.5000         0.6291         0.5439         0.4759       -83.0074      -6.464188      0.9388468
