#------------------------------------------------------------------------------
# Created by    : vladimir.rabinovich
# Created on    : 09/19/2023 17:22:41
#------------------------------------------------------------------------------
~Version Information Section
VERS.           2.0     :   CWLS log ASCII Standard - VERSION 2.0
WRAP.           NO      :   One line per depth step
~Well Information Section
#MNEM       .UNIT                                         VALUE :DESCRIPTION
#------------------------------------------------------------------------------
STRT        .FT                                             190 :START DEPTH
STOP        .FT                                            7751 :STOP DEPTH
STEP        .FT                                             0.5 :STEP      
NULL        .                                           -999.25 :NULL      
COMP        .                       GOLDEN TRIANGLE STORAGE LLC :COMPANY   
WELL        .                         GOLDEN TRIANGLE STORAGE 2 :WELL      
FLD         .                                        SPINDLETOP :FIELD     
LOC         .                                                   :LOCATION  
CNTY        .                                         JEFFERSON :LOCATION  
STAT        .                                             TEXAS :STATE     
CTRY        .                                     UNITED STATES :COUNTRY   
SRVC        .                                                   :SERVICE COMPANY
DATE        .                             9/13/2023 11:18:46 AM :LOG DATE  
API         .                                    42245325580000 :API NUMBER
UWI         .                                    42245325580000 :UNIQUE WELL ID
XCOORD      .                                  1288599.33875083 :SURFACE X 
YCOORD      .                                  10896379.1240251 :SURFACE Y 
LAT         .                                        30.0189256 :LATITUDE  
LON         .                                       -94.1119908 :LONGITUDE 
ELEV        .FT                                            12.2 :ELEVATION VALUE
ELEV_TYPE   .                                                GL :ELEVATION REFERENCE TYPE
~Curve Information Section
#MNEM       .UNIT                                      API CODE :CURVE DESCRIPTION
#------------------------------------------------------------------------------
DEPT        .FT                                                 :DEPTH     
DCAL        .IN                                                 :          
DPSS        .V/V                                                :          
DRHO        .G/CM3                                              :          
GR          .GAPI                                               :          
GR_NORM     .GAPI                                               :GammaRay Normalized
ILD         .OHMM                                               :          
ILM         .OHMM                                               :          
NPSS        .V/V                                                :Neutron Porosity Sandstone
SFL         .OHMM                                               :          
SP          .MV                                                 :          
SP_NORM     .MV                                                 :SP Normalized
TENS        .LB                                                 :          
VSH_GR      .V/V                                                :Volume of Shale from GR
VSH_SP      .V/V                                                :Volume of Shale from SP
~A        DEPTH           DCAL           DPSS           DRHO             GR        GR_NORM            ILD            ILM           NPSS            SFL             SP        SP_NORM           TENS         VSH_GR         VSH_SP
# ...
      4222.0000         3.2653         0.3588         0.0653           48.9        34.8679         0.2711         0.3527         0.4764         0.7517           -114      -62.14815           2120     0.03974249       0.152843
      4222.5000         3.6735         0.3612         0.0816           48.3       33.88246         0.2541         0.3342         0.4716         0.7584         -116.4      -64.54815           2120      0.0187757      0.1190402
      4223.0000         3.9184         0.3624         0.0816           48.6       34.37347         0.2405         0.3082         0.4704          0.772         -117.6      -65.74815           2120     0.02922277      0.1021388
      4223.5000         3.8776         0.3637         0.0633           50.1       36.83308         0.2275         0.2891         0.4704         0.7652         -118.4      -66.54815           2120     0.08155482     0.09087114
      4224.0000         3.7551         0.3649         0.0469           51.9       39.78485         0.2234         0.2839          0.468         0.7189         -119.2      -67.34814           2120      0.1443585      0.0796036
      4224.5000         3.5102         0.3661         0.0347             54       43.22876         0.2193         0.2761         0.4716         0.6812           -120      -68.14815           2120      0.2176332     0.06833595
      4225.0000         3.1429         0.3661         0.0306           55.8       46.18053         0.2213         0.2761         0.4812          0.651         -120.8      -68.94815           2120      0.2804369      0.0570683
      4225.5000         3.1429         0.3612         0.0388           60.9       54.54596         0.2193         0.2736         0.5008          0.651         -121.6      -69.74815           2120      0.4584247     0.04580076
      4226.0000         3.2245         0.3551         0.0531           65.4       61.92708         0.2133         0.2661         0.5155          0.669         -122.8      -70.94815           2120      0.6154698     0.02889929
      4226.5000         3.2245         0.3514         0.0612             66       62.91025         0.2114         0.2661         0.5278            0.7         -123.6      -71.74815           2120      0.6363882     0.01763174
      4227.0000         3.2245         0.3612         0.0612           60.3       53.55824         0.2133         0.2661         0.5302          0.745         -125.2      -73.34814           2160      0.4374094              0
      4227.5000         3.2245          0.371         0.0633           55.2       45.19053         0.2173         0.2711         0.5216         0.7859         -126.4      -74.54815           2120       0.259373              0
      4228.0000         3.2245         0.3784         0.0633           52.8       41.25219         0.2173         0.2761         0.5008          0.822         -126.8      -74.94815           2120      0.1755785              0
      4228.5000         3.2653         0.3808         0.0592           52.5        40.7589         0.2153         0.2711         0.4788            0.8         -126.8      -74.94815           2120       0.165083              0
      4229.0000         3.3061         0.3735         0.0531             54       43.21851         0.2094         0.2637         0.4596         0.7319         -126.8      -74.94815           2120      0.2174152              0
      4229.5000         3.3061         0.3661         0.0531           54.3       43.70952         0.2075         0.2613         0.4452          0.669         -125.6      -73.74815           2120      0.2278622              0
      4230.0000         3.3061         0.3612          0.051           53.7       42.72407         0.2075         0.2637         0.4296          0.611         -124.4      -72.54815           2120      0.2068951    0.006364097
      4230.5000         3.3061         0.3588         0.0531           53.7       42.72293         0.2153         0.2761         0.4041            0.6         -122.8      -70.94815           2120      0.2068708     0.02889929
      4231.0000         3.3061         0.3576          0.049           54.3       43.70609         0.2275         0.2918         0.3918            0.6         -122.8      -70.94815           2120      0.2277891     0.02889929
      4231.5000         3.2653         0.3576         0.0429           55.2       45.18141         0.2318            0.3         0.3857          0.611         -123.2      -71.34814           2120      0.2591789     0.02326557
      4232.0000          3.102         0.3588         0.0429             54       43.21167         0.2339            0.3         0.3869          0.611         -123.2      -71.34814           2080      0.2172695     0.02326557
      4232.5000         2.8571         0.3588          0.049           53.1       41.73407         0.2296         0.2972         0.3943         0.6055         -121.6      -69.74815           2120      0.1858313     0.04580076
      4233.0000         2.5714         0.3576         0.0653           52.8       41.24078         0.2275         0.2972         0.4078         0.6055         -119.2      -67.34814           2120      0.1753357      0.0796036
      4233.5000         2.2857         0.3576         0.0714           53.7       42.71609         0.2275         0.2972           0.42          0.611         -118.4      -66.54815           2120      0.2067254     0.09087114
      4234.0000         2.2041         0.3588         0.0694             54       43.20711         0.2275         0.2972          0.432         0.6569         -118.8      -66.94815           2120      0.2171726     0.08523732
      4234.5000         2.8163         0.3624         0.0633           53.1       41.72952         0.2275         0.2972         0.4452            0.7         -120.4      -68.54815           2120      0.1857344     0.06270213
      4235.0000         3.7143         0.3673         0.0571           51.9       39.75977         0.2275         0.2945         0.4464          0.745         -121.2      -69.34814           2120       0.143825     0.05143458
      4235.5000           4.36         0.3722         0.0633           50.1       36.80573         0.2255         0.2891         0.4476         0.7517         -121.6      -69.74815           2120     0.08097287     0.04580076
      4236.0000           4.68         0.3747         0.0653           49.2       35.32814         0.2234         0.2865         0.4488         0.7319         -120.8      -68.94815           2120     0.04953482      0.0570683
      4236.5000           4.96         0.3759         0.0714           48.3       33.85053         0.2255         0.2891         0.4536         0.7063         -119.6      -67.74815           2120     0.01809644     0.07396977
      4237.0000           5.08         0.3759         0.0673           48.9       34.83369         0.2275         0.2945         0.4596         0.6874         -119.2      -67.34814           2120     0.03901478      0.0796036
      4237.5000              5         0.3747         0.0592           51.3       38.76976         0.2318            0.3         0.4728          0.651         -119.2      -67.34814           2120      0.1227609      0.0796036
      4238.0000           4.56          0.371         0.0551           53.4       42.21369         0.2318         0.3027         0.4861         0.6278         -119.2      -67.34814           2120      0.1960359      0.0796036
      4238.5000           4.08         0.3661         0.0551           54.9       44.67331         0.2339         0.3082         0.4971            0.6         -119.2      -67.34814           2120      0.2483682      0.0796036
      4239.0000         3.7551         0.3612         0.0592           55.2       45.16431         0.2339          0.311         0.4971         0.6055         -119.2      -67.34814           2160      0.2588152      0.0796036
      4239.5000         3.6735           0.36         0.0612           54.6       44.17886         0.2339          0.311         0.4788         0.6278           -120      -68.14815           2160      0.2378481     0.06833595
