#------------------------------------------------------------------------------
# Created by    : vladimir.rabinovich
# Created on    : 09/19/2023 17:19:39
#------------------------------------------------------------------------------
~Version Information Section
VERS.           2.0     :   CWLS log ASCII Standard - VERSION 2.0
WRAP.           NO      :   One line per depth step
~Well Information Section
#MNEM       .UNIT                                         VALUE :DESCRIPTION
#------------------------------------------------------------------------------
STRT        .FT                                            1969 :START DEPTH
STOP        .FT                                            7841 :STOP DEPTH
STEP        .FT                                             0.5 :STEP      
NULL        .                                           -999.25 :NULL      
COMP        .                           NEWFIELD EXPLORATION CO :COMPANY   
WELL        .                                   PHELAN GAS UNIT :WELL      
FLD         .                                          BINDWEED :FIELD     
LOC         .                                                   :LOCATION  
CNTY        .                                         JEFFERSON :LOCATION  
STAT        .                                             TEXAS :STATE     
CTRY        .                                     UNITED STATES :COUNTRY   
SRVC        .                                                   :SERVICE COMPANY
DATE        .                             9/13/2023 11:18:46 AM :LOG DATE  
API         .                                    42245322670000 :API NUMBER
UWI         .                                    42245322670000 :UNIQUE WELL ID
XCOORD      .                                  1272550.81244857 :SURFACE X 
YCOORD      .                                  10898469.5255822 :SURFACE Y 
LAT         .                                        30.0242363 :LATITUDE  
LON         .                                        -94.162774 :LONGITUDE 
ELEV        .FT                                              24 :ELEVATION VALUE
ELEV_TYPE   .                                                KB :ELEVATION REFERENCE TYPE
~Curve Information Section
#MNEM       .UNIT                                      API CODE :CURVE DESCRIPTION
#------------------------------------------------------------------------------
DEPT        .FT                                                 :DEPTH     
AHT20       .OHMM                                               :          
AHT30       .OHMM                                               :          
AHT60       .OHMM                                               :          
AHT90       .OHMM                                               :          
DCAL        .IN                                                 :          
DPHZSS      .V/V                                                :          
DT          .US/FT                                              :          
GR_NORM     .GAPI                                               :GammaRay Normalized
GRR         .GAPI                                               :          
HDRA        .G/CM3                                              :          
NPORSS      .V/V                                                :          
SP          .MV                                                 :          
SP_NORM     .MV                                                 :SP Normalized
TENR        .LB                                                 :          
VSH_GR      .V/V                                                :Volume of Shale from GR
VSH_SP      .V/V                                                :Volume of Shale from SP
~A        DEPTH          AHT20          AHT30          AHT60          AHT90           DCAL         DPHZSS             DT        GR_NORM            GRR           HDRA         NPORSS             SP        SP_NORM           TENR         VSH_GR         VSH_SP
# ...
      5521.0000         0.8601         0.9262         0.9578         0.9857         5.0095         0.2657          132.6       63.48849        70.0904         -0.013          0.417       -13.8721      -2.108656           2860      0.6486912      0.9986909
      5521.5000         0.9043         0.9717         0.9952         1.0329         5.1943         0.2576            131       59.75222        67.1745         -0.015         0.4081       -14.2757       -2.48387           2860      0.5691962      0.9941702
      5522.0000         0.9043         1.0093         1.0329          1.107         5.1731         0.2471       129.3939       56.60397        64.7177         -0.011         0.4238       -14.6791      -2.858885           2860      0.5022121       0.989652
      5522.5000         0.8959         0.9952          1.057         1.1865         5.0491          0.237       129.0909       56.39624        64.5567         -0.001         0.4159       -14.2897      -2.441099           2820      0.4977923      0.9946855
      5523.0000         0.8798         0.9442         1.0329         1.1277         4.9046         0.2284        129.899       55.79745        64.0904          0.011         0.4052       -13.7013      -1.824313           2820      0.4850522              1
      5523.5000         0.8524         0.9043         0.9717         1.0473         4.7192         0.2278          131.1       51.47303        60.7153          0.011         0.4034       -13.3103      -1.404928           2820      0.3930433              1
      5524.0000         0.8183          0.864         0.9307         0.9717         4.7599         0.2359          132.2       47.37685        57.5184          0.009         0.4148       -13.3172      -1.383442           2820      0.3058904              1
      5524.5000          0.789          0.864         0.9717         1.0046         5.1496         0.2478          132.2       45.23059        55.8439          0.002         0.4394       -13.9207      -1.958557           2800      0.2602253              1
      5525.0000         0.8109         0.8879         1.0234         1.0425         5.3952         0.2618          131.3       45.22009        55.8369         -0.006         0.4363       -13.9271      -1.936571           2780      0.2600019              1
      5525.5000         0.8485          0.913         1.0281          1.057         5.2714         0.2671            131        46.9551        57.1927         -0.006         0.4332       -14.1334      -2.114486           2800      0.2969171      0.9986206
      5526.0000         0.8563         0.9043         0.9763         1.0046         4.9018         0.2683            132       48.69101        58.5492         -0.006         0.4456       -14.5382        -2.4909           2800      0.3338513      0.9940856
      5526.5000         0.8183         0.8601         0.9174         0.9442         4.5736         0.2701            133       50.42603         59.905         -0.005         0.4523       -15.1435      -3.067815           2820      0.3707665      0.9871348
      5527.0000         0.7782         0.8146         0.8759            0.9         4.5733         0.2748          133.6       55.31391        63.7224         -0.002         0.4431         -15.55       -3.44593           2820       0.474764      0.9825792
      5527.5000         0.7466         0.7818          0.864         0.8879         4.5526         0.2777          133.2       56.67555        64.7867         -0.001         0.4315       -15.5573      -3.424843           2800      0.5037351      0.9828332
      5528.0000         0.7466          0.789          0.864         0.8879         4.5318         0.2801          132.6       58.62421        66.3093          0.001         0.4211       -15.3658      -3.204958           2800      0.5451961      0.9854825
      5528.5000         0.7711          0.822          0.864         0.8879         4.5111         0.2801          131.9       60.37779        67.6796          0.003         0.4103       -15.5734      -3.384171           2800      0.5825062      0.9833232
      5529.0000         0.8036         0.8524         0.8719          0.913         4.4291          0.279          131.7       62.32645        69.2022          0.005         0.4163       -15.7804      -3.562787           2780      0.6239671      0.9811713
      5529.5000         0.8258         0.8798         0.8879         0.9352         4.3676         0.2877          131.8       64.08015        70.5726          0.007         0.4322       -16.1883        -3.9423           2800      0.6612797      0.9765988
      5530.0000         0.8258         0.8601            0.9         0.9578         4.2449         0.3085          133.9       66.61681        72.5543          0.009         0.4488       -16.7965      -4.522115           2800      0.7152513      0.9696131
      5530.5000         0.8145         0.8484         0.9129         0.9809         3.9995         0.3473          136.4       68.95844        74.3837          0.006         0.4708       -16.8053       -4.50253       2800.526      0.7650732      0.9698491
      5531.0000          0.807         0.8482         0.9259         0.9807         3.9402         0.3828          139.2       71.26803        76.1881        -0.0031         0.4946       -16.0159      -3.684744       2801.579      0.8142134      0.9797019
      5531.5000         0.8068         0.8635         0.9213         0.9618         4.0587         0.4164            140       72.21802         76.931        -0.0151         0.5115       -15.2254      -2.869529       2782.526      0.8344259      0.9895238
      5532.0000         0.8103         0.8752         0.8992         0.9433         4.6506         0.4164          139.4       71.62988         76.473        -0.0162         0.5046       -14.6359      -2.259159       2783.579      0.8219124      0.9968776
      5532.5000         0.8249         0.8829          0.895         0.9386         5.0999         0.3527          137.5       71.04288        76.0159        -0.0132         0.4789       -14.2454       -1.84779       2804.526      0.8094231              1
      5533.0000         0.8475         0.8827         0.8948         0.9429         4.7721         0.3158          135.7       70.84002        75.8587        -0.0093         0.4734        -14.656       -2.23752       2805.579      0.8051068      0.9971383
      5533.5000         0.8434         0.8589         0.8865         0.9609         4.4847         0.2883          136.5       74.28658        78.5508        -0.0043         0.4716       -14.4655       -2.02615       2806.526      0.8784379      0.9996849
      5534.0000         0.8023         0.8206         0.8587         0.9379         4.2176         0.2674          138.3       75.04446        79.1437        -0.0014         0.4673        -13.875      -1.414781       2827.579      0.8945629              1
      5534.5000         0.7625         0.7985         0.8279         0.8781         4.0528         0.2627          140.5        75.9933        79.8857        -0.0014          0.463       -13.6856      -1.204512       2828.526      0.9147511              1
      5535.0000         0.7247         0.7801         0.8429         0.8661         3.9713         0.2668          141.5        76.1748        80.0286        -0.0065         0.4741       -14.2951      -1.793141       2829.579      0.9186128              1
      5535.5000         0.7482         0.7981         0.8698         0.8979         3.9315          0.279          141.1       76.35516        80.1706        -0.0055         0.4809       -14.9057      -2.382872       2830.526      0.9224503      0.9953871
      5536.0000         0.7942         0.8501         0.9061         0.9326         3.9111         0.2936            140       76.72878        80.4635        -0.0016          0.473       -15.9152      -3.371502       2831.579      0.9303997      0.9834759
      5536.5000         0.8347         0.8853         0.9103         0.9458          3.949         0.3042          138.5        76.3329        80.1556         0.0014         0.4329       -16.7258      -4.161232       2872.526      0.9219766      0.9739611
