#------------------------------------------------------------------------------
# Created by    : vladimir.rabinovich
# Created on    : 09/19/2023 17:19:40
#------------------------------------------------------------------------------
~Version Information Section
VERS.           2.0     :   CWLS log ASCII Standard - VERSION 2.0
WRAP.           NO      :   One line per depth step
~Well Information Section
#MNEM       .UNIT                                         VALUE :DESCRIPTION
#------------------------------------------------------------------------------
STRT        .FT                                            1208 :START DEPTH
STOP        .FT                                            8860 :STOP DEPTH
STEP        .FT                                             0.5 :STEP      
NULL        .                                           -999.25 :NULL      
COMP        .                             WEAVER EXPLORATION CO :COMPANY   
WELL        .                                       BEAVERS W H :WELL      
FLD         .                                           WILDCAT :FIELD     
LOC         .                                                   :LOCATION  
CNTY        .                                         JEFFERSON :LOCATION  
STAT        .                                             TEXAS :STATE     
CTRY        .                                     UNITED STATES :COUNTRY   
SRVC        .                                                   :SERVICE COMPANY
DATE        .                             9/13/2023 11:18:46 AM :LOG DATE  
API         .                                    42245314920000 :API NUMBER
UWI         .                                    42245314920000 :UNIQUE WELL ID
XCOORD      .                                  1212655.17721247 :SURFACE X 
YCOORD      .                                  10886677.7304034 :SURFACE Y 
LAT         .                                        29.9899994 :LATITUDE  
LON         .                                       -94.3516153 :LONGITUDE 
ELEV        .FT                                            37.2 :ELEVATION VALUE
ELEV_TYPE   .                                                KB :ELEVATION REFERENCE TYPE
~Curve Information Section
#MNEM       .UNIT                                      API CODE :CURVE DESCRIPTION
#------------------------------------------------------------------------------
DEPT        .FT                                                 :DEPTH     
ALL         .OHMM                                               :          
CILD        .MMHO/M                                             :          
ILD         .OHMM                                               :          
SP          .MV                                                 :          
SP_NORM     .MV                                                 :SP Normalized
VSH_SP      .V/V                                                :Volume of Shale from SP
~A        DEPTH            ALL           CILD            ILD             SP        SP_NORM         VSH_SP
# ...
      7288.0000         0.8856       1923.232         0.5743       118.2178       -38.5509      0.4925555
      7288.5000         0.8797       1886.869         0.5545       121.8151      -34.95208      0.5411881
      7289.0000         0.6927       1830.303         0.5347       127.2651      -29.50059      0.6148569
      7289.5000         0.6908       1810.101          0.495       119.0099      -37.75427      0.5033206
      7290.0000          0.986       1810.124         0.4652       111.0888      -45.67388      0.3962989
      7290.5000         0.9861        1951.36          0.436        95.3328      -61.42837      0.1834004
      7291.0000         0.9001       2939.812          0.387        87.1779      -69.58177      0.0732193
      7291.5000         0.6747       2939.812         0.3181        79.1837      -77.57446              0
      7292.0000         0.6687       3946.998         0.2592        78.7755      -77.98117              0
      7292.5000         0.6586       3994.024         0.2597        78.5714      -78.18375              0
      7293.0000         0.6364        4346.07         0.2406        78.5714      -78.18226              0
      7293.5000         0.6061       4699.636         0.2311        78.9796      -77.77255              0
      7294.0000         0.5759       5057.502         0.2217        80.3869      -76.36375              0
      7294.5000         0.5517       5057.441         0.2122        81.7403      -75.00884              0
      7295.0000         0.5357       5057.319         0.2127        83.8648      -72.88285     0.02861013
      7295.5000         0.5236       4755.765         0.2033        85.2152      -71.53094     0.04687923
      7296.0000         0.5217       4149.724         0.2037        86.5643      -70.18034     0.06513049
      7296.5000         0.4495       3989.492         0.2242        87.9122      -68.83093     0.08336578
      7297.0000         0.5198       3725.294         0.2742        89.4519      -67.28973      0.1041929
      7297.5000         0.5378       3437.775         0.3241        90.7974      -65.94273      0.1223956
      7298.0000         0.5579       3400.864         0.3246        93.1025      -63.63612       0.153566
      7298.5000           0.57       3359.874          0.325        92.9039      -63.83322      0.1509024
      7299.0000           0.57       3359.682         0.3255        88.8551      -67.88051     0.09620935
      7299.5000           0.53       3988.156         0.3559        84.6177      -72.11642     0.03896734
      7300.0000          0.446       4379.592         0.3663             80       -76.7326              0
      7300.5000         0.3253       4771.541         0.3762        79.6017      -77.12941              0
      7301.0000         0.3253       5163.958         0.3861        79.6114       -77.1182              0
      7301.5000         0.3434       5167.956         0.2526        79.4171        -77.311              0
      7302.0000         0.3636       5139.889         0.2526        79.4268      -77.29979              0
      7302.5000         0.3737       5079.729         0.2526        79.4365       -77.2886              0
      7303.0000         0.3717       4991.399         0.2566        79.4462      -77.27739              0
      7303.5000         0.3434       4931.111         0.2566         79.864      -76.85809              0
      7304.0000         0.3354       4838.576         0.2566        80.8393      -75.88128              0
      7304.5000         0.3212       4697.697         0.2606        83.3375      -73.38158     0.02187048
      7305.0000         0.3152       4560.819         0.2606        85.8368      -70.88078     0.05566519
      7305.5000          0.303       4468.321         0.2606         87.565      -69.15108      0.0790395
      7306.0000         0.2929       4335.085         0.2646        89.2916      -67.42297      0.1023924
      7306.5000         0.2909       4327.006         0.2646        91.0167      -65.69637      0.1257247
      7307.0000         0.2869       4322.988         0.2646        93.3133      -63.39826      0.1567802
      7307.5000         0.2848       4318.974         0.2686        92.7435      -63.96657      0.1491004
      7308.0000         0.2788       4319.013         0.2686        92.1743      -64.53426       0.141429
      7308.5000         0.2747       4319.052         0.2686        91.6055      -65.10155      0.1337629
      7309.0000         0.2747       4323.136         0.2727        91.0373      -65.66825      0.1261047
      7309.5000         0.2667       4371.696         0.2727         90.279      -66.42504      0.1158778
      7310.0000         0.2626           4584         0.2767        89.7119      -66.99065      0.1082345
      7310.5000         0.2566           4608         0.2727        88.7619      -67.93913     0.09541713
      7311.0000         0.2424           4680         0.2646        88.7619      -67.93764     0.09543733
      7311.5000         0.2222           4784         0.2606             92      -64.69803      0.1392158
      7312.0000         0.2061       4884.849         0.2526        95.2381      -61.45844      0.1829941
      7312.5000         0.2061       4937.374         0.2772        97.9048      -58.79022       0.219051
      7313.0000         0.2141       5042.424         0.2673        99.8095      -56.88403      0.2448105
      7313.5000         0.2222       5167.677         0.2574        100.202      -56.49001      0.2501349
      7314.0000         0.2303           5296         0.2475       100.8081      -55.88242      0.2583456
      7314.5000         0.2343           5360         0.2376       101.4141      -55.27491      0.2665553
      7315.0000         0.2343           5488         0.2376       101.8182      -54.86932      0.2720363
      7315.5000         0.2222           5552         0.2277       102.4242       -54.2618      0.2802459
      7316.0000         0.2141       5680.808         0.2178       103.0303      -53.65421      0.2884566
      7316.5000         0.2081       5818.182         0.2079       103.4343       -53.2487      0.2939366
      7317.0000          0.204       5991.919          0.198       104.0404      -52.64111      0.3021472
      7317.5000         0.1762       6330.769          0.198       104.6465      -52.03349      0.3103582
      7318.0000         0.1525       6330.769          0.198       106.8687       -49.8098      0.3404081
      7318.5000         0.1267       6330.769         0.1881       108.4848      -48.19218      0.3622678
      7319.0000         0.1149       5729.293         0.1782        110.101      -46.57449      0.3841285
      7319.5000         0.1248       5713.131         0.1782       111.1111      -45.56288      0.3977989
      7320.0000         0.1742       5680.808         0.1782       112.1212      -44.55127      0.4114693
      7320.5000          0.295        4197.98         0.2183        110.303      -46.36797      0.3869193
      7321.0000         0.3314           4000         0.2583       108.6869      -47.98257      0.3651004
      7321.5000         0.2971       4024.242         0.3083       102.2222      -54.44577      0.2777599
      7322.0000         0.2246       4270.707         0.2692        99.0476      -57.61886      0.2348803
      7322.5000          0.151           4520         0.2202        99.0476      -57.61736      0.2349005
      7323.0000         0.1491           4764          0.191         99.619      -57.04445      0.2426426
      7323.5000         0.1452           5264         0.2014       102.4242      -54.23775      0.2805709
      7324.0000         0.1651           5264         0.2216       106.8687      -49.79175       0.340652
      7324.5000          0.187           5264         0.2419        109.697      -46.96195      0.3788925
      7325.0000          0.201           5264         0.2919       112.7273      -43.93014       0.419863
      7325.5000         0.2031           4000         0.3518          124.4      -32.25594      0.5776224
