#------------------------------------------------------------------------------
# Created by    : vladimir.rabinovich
# Created on    : 09/19/2023 17:20:52
#------------------------------------------------------------------------------
~Version Information Section
VERS.           2.0     :   CWLS log ASCII Standard - VERSION 2.0
WRAP.           NO      :   One line per depth step
~Well Information Section
#MNEM       .UNIT                                         VALUE :DESCRIPTION
#------------------------------------------------------------------------------
STRT        .FT                                            1558 :START DEPTH
STOP        .FT                                           11266 :STOP DEPTH
STEP        .FT                                             0.5 :STEP      
NULL        .                                           -999.25 :NULL      
COMP        .                               MEREDITH & CO ET AL :COMPANY   
WELL        .                                 GRINNELL TEXAS CO :WELL      
FLD         .                                           WILDCAT :FIELD     
LOC         .                                                   :LOCATION  
CNTY        .                                         JEFFERSON :LOCATION  
STAT        .                                             TEXAS :STATE     
CTRY        .                                     UNITED STATES :COUNTRY   
SRVC        .                                                   :SERVICE COMPANY
DATE        .                             9/13/2023 11:19:11 AM :LOG DATE  
API         .                                    42245015300000 :API NUMBER
UWI         .                                    42245015300000 :UNIQUE WELL ID
XCOORD      .                                  1358778.50439977 :SURFACE X 
YCOORD      .                                  10877447.4356243 :SURFACE Y 
LAT         .                                        29.9685419 :LATITUDE  
LON         .                                       -93.8897358 :LONGITUDE 
ELEV        .FT                                              14 :ELEVATION VALUE
ELEV_TYPE   .                                                DF :ELEVATION REFERENCE TYPE
~Curve Information Section
#MNEM       .UNIT                                      API CODE :CURVE DESCRIPTION
#------------------------------------------------------------------------------
DEPT        .FT                                                 :DEPTH     
ASN         .OHMM                                               :          
LN          .OHMM                                               :          
SP          .MV                                                 :          
SP_NORM     .MV                                                 :SP Normalized
VSH_SP      .V/V                                                :Volume of Shale from SP
~A        DEPTH            ASN             LN             SP        SP_NORM         VSH_SP
# ...
      5430.0000         0.4295         0.2521       -85.3914      -69.69745      0.2011925
      5430.5000         0.4264         0.2505       -77.3104      -61.61346      0.2951924
      5431.0000         0.4259         0.2489       -72.3729      -56.67296        0.35264
      5431.5000         0.4311         0.2473       -68.7446      -53.04167      0.3948643
      5432.0000         0.4363         0.2457       -67.2094      -51.50348      0.4127503
      5432.5000         0.4414         0.2441       -65.6752      -49.96629      0.4306246
      5433.0000         0.4466         0.2425       -70.5212       -54.8093      0.3743105
      5433.5000         0.4508         0.2409       -84.6639      -68.94901      0.2098953
      5434.0000         0.4481         0.2393       -90.4545      -74.73661      0.1425976
      5434.5000         0.4332         0.2377       -92.5067      -76.78581      0.1187696
      5435.0000         0.4183         0.2361       -94.5588      -78.83492     0.09494276
      5435.5000         0.4034         0.2341       -96.5846      -80.85773     0.07142169
      5436.0000         0.3989          0.232        -97.981      -82.25114     0.05521925
      5436.5000         0.3949           0.23       -99.3785      -83.64565     0.03900404
      5437.0000         0.3908         0.2279       -97.9579      -82.22206     0.05555743
      5437.5000         0.3868         0.2259       -95.8771      -80.13827     0.07978759
      5438.0000         0.3828         0.2238       -92.2598      -76.51797       0.121884
      5438.5000         0.3787         0.2217       -88.6228      -72.87798      0.1642095
      5439.0000         0.3747         0.2197       -84.9901      -69.24229       0.206485
      5439.5000         0.3707         0.2176       -82.4144       -66.6636      0.2364698
      5440.0000         0.3667         0.2155       -80.7491      -64.99531      0.2558685
      5440.5000         0.3627         0.2135       -82.0937      -66.33691      0.2402684
      5441.0000         0.3587         0.2125       -86.3215      -70.56172      0.1911428
      5441.5000         0.3547         0.2162       -90.5493      -74.78653      0.1420171
      5442.0000         0.3508         0.2199       -93.4347      -77.66894      0.1085007
      5442.5000         0.3468         0.2237       -95.6544      -79.88565       0.082725
      5443.0000         0.3655         0.2274       -96.2804      -80.50866     0.07548071
      5443.5000         0.3914         0.2311       -94.8939      -79.11916     0.09163763
      5444.0000         0.4239         0.2348       -93.5074      -77.72968      0.1077945
      5444.5000         0.4573         0.2385       -92.1221      -76.34138      0.1239374
      5445.0000         0.4908         0.2422       -91.4949      -75.71119      0.1312652
      5445.5000         0.5134         0.2459       -94.2283       -78.4416     0.09951632
      5446.0000         0.5086         0.2496       -96.9594       -81.1697     0.06779418
      5446.5000         0.4984         0.2533       -98.6875      -82.89481     0.04773473
      5447.0000         0.5009          0.257      -100.0839      -84.28822     0.03153229
      5447.5000         0.5035         0.2643      -100.2744      -84.47572     0.02935206
      5448.0000          0.506         0.2729      -100.3708      -84.56913     0.02826593
      5448.5000         0.5085         0.2815      -100.4672      -84.66254     0.02717972
      5449.0000         0.5394         0.2901      -100.5636      -84.75595     0.02609359
      5449.5000         0.5956         0.2986      -100.6029      -84.79226      0.0256714
      5450.0000         0.6518         0.3072      -100.4821      -84.66847     0.02711079
      5450.5000         0.6857         0.3158      -100.2745      -84.45788     0.02955956
      5451.0000          0.652         0.3244        -97.636      -81.81638     0.06027461
      5451.5000         0.6258         0.3451       -94.9886      -79.16599     0.09109311
      5452.0000         0.6301         0.3693       -91.3076        -75.482      0.1339302
      5452.5000         0.6483         0.3935       -87.6265      -71.79791      0.1767685
      5453.0000         0.6664         0.4178       -85.0872      -69.25562      0.2063301
      5453.5000         0.6846         0.4399       -79.5764      -63.74183      0.2704439
      5454.0000         0.7003         0.4595       -47.7864      -31.94883      0.6401299
      5454.5000         0.7138         0.4791       -41.6982      -25.85764      0.7109576
      5455.0000         0.7274         0.4987        -36.527      -20.68345      0.7711227
      5455.5000         0.7409         0.5183       -32.2067      -16.36016      0.8213935
      5456.0000         0.7544          0.538       -29.9836      -14.13407      0.8472783
      5456.5000         0.7679         0.5576       -28.6974      -12.84487      0.8622689
      5457.0000         0.7814         0.5772       -27.4102      -11.55468      0.8772711
      5457.5000         0.7892         0.5881       -26.0391      -10.18059       0.893249
      5458.0000         0.7807         0.5951       -24.6526      -8.791098      0.9094058
      5458.5000         0.7716         0.6021       -23.2672      -7.402707      0.9255499
      5459.0000         0.7625          0.609       -18.3859      -2.518414       0.982344
      5459.5000         0.7534          0.616       -15.6923      0.1781778              1
      5460.0000         0.7443         0.6229       -15.0478      0.8256693              1
      5460.5000         0.7352         0.6299       -14.6141       1.262361              1
      5461.0000         0.7323         0.6368       -14.1799       1.699553              1
      5461.5000         0.7309         0.6438       -13.7462       2.136246              1
      5462.0000         0.7294         0.6463       -13.3585       2.526937              1
      5462.5000         0.7393         0.6483       -13.0659       2.822529              1
      5463.0000         0.7528         0.6503       -12.7733       3.118121              1
      5463.5000         0.7663         0.6523       -12.9915       2.902913              1
      5464.0000         0.7798         0.6543       -13.7464       2.151005              1
      5464.5000         0.7933         0.6564       -14.5014       1.398996              1
      5465.0000         0.8077         0.6584       -17.8789      -1.975512      0.9886568
      5465.5000         0.8221         0.6604       -21.7099      -5.803519      0.9441451
      5466.0000         0.8365         0.6624       -26.0435      -10.13413      0.8937892
      5466.5000         0.8276         0.6644       -30.9987      -15.08634      0.8362054
      5467.0000         0.8153         0.6664       -35.8746      -19.95924      0.7795437
      5467.5000          0.803         0.6684       -40.2787      -24.36035       0.728368
      5468.0000         0.7915         0.6681       -44.1714      -28.25006      0.6831388
      5468.5000         0.7804          0.665       -46.1663      -30.24197      0.6599771
      5469.0000         0.7694          0.662       -44.4161      -28.48878      0.6803631
      5469.5000         0.7583         0.6589       -41.2045      -25.27418      0.7177421
      5470.0000         0.7699         0.6558       -37.9355      -22.00219      0.7557884
      5470.5000          0.786         0.6527       -34.6666       -18.7303      0.7938337
      5471.0000         0.8021         0.6497       -31.2544      -15.31511      0.8335453
      5471.5000         0.8179         0.6466       -27.4675      -11.52522      0.8776138
      5472.0000         0.8312         0.6435       -23.8304      -7.885125      0.9199404
      5472.5000         0.8444         0.6405       -28.6181      -12.66983      0.8643043
      5473.0000         0.8576         0.6374       -33.4102      -17.45894       0.808617
      5473.5000         0.8708         0.6343       -38.1979      -22.24365      0.7529808
