#------------------------------------------------------------------------------
# Created by    : vladimir.rabinovich
# Created on    : 09/19/2023 17:20:52
#------------------------------------------------------------------------------
~Version Information Section
VERS.           2.0     :   CWLS log ASCII Standard - VERSION 2.0
WRAP.           NO      :   One line per depth step
~Well Information Section
#MNEM       .UNIT                                         VALUE :DESCRIPTION
#------------------------------------------------------------------------------
STRT        .FT                                             722 :START DEPTH
STOP        .FT                                            8710 :STOP DEPTH
STEP        .FT                                             0.5 :STEP      
NULL        .                                           -999.25 :NULL      
COMP        .                              BRUNER ARNOLD H & CO :COMPANY   
WELL        .                                              WEIR :WELL      
FLD         .                                           WILDCAT :FIELD     
LOC         .                                                   :LOCATION  
CNTY        .                                         JEFFERSON :LOCATION  
STAT        .                                             TEXAS :STATE     
CTRY        .                                     UNITED STATES :COUNTRY   
SRVC        .                                                   :SERVICE COMPANY
DATE        .                             9/13/2023 11:19:11 AM :LOG DATE  
API         .                                    42245021890000 :API NUMBER
UWI         .                                    42245021890000 :UNIQUE WELL ID
XCOORD      .                                  1215604.35578741 :SURFACE X 
YCOORD      .                                  10884998.9913957 :SURFACE Y 
LAT         .                                        29.9854781 :LATITUDE  
LON         .                                       -94.3422367 :LONGITUDE 
ELEV        .FT                                              36 :ELEVATION VALUE
ELEV_TYPE   .                                                DF :ELEVATION REFERENCE TYPE
~Curve Information Section
#MNEM       .UNIT                                      API CODE :CURVE DESCRIPTION
#------------------------------------------------------------------------------
DEPT        .FT                                                 :DEPTH     
ASN         .OHMM                                               :          
LAT         .OHMM                                               :          
LN          .OHMM                                               :          
SP          .MV                                                 :          
SP_NORM     .MV                                                 :SP Normalized
VSH_SP      .V/V                                                :Volume of Shale from SP
~A        DEPTH            ASN            LAT             LN             SP        SP_NORM         VSH_SP
# ...
      5472.0000         0.8133         0.3892         0.4265       -86.0382      -24.30981      0.6943862
      5472.5000         0.7491         0.3725         0.4615        -83.649      -21.92061       0.727115
      5473.0000         0.6836         0.3559         0.4794       -79.5504      -17.82201      0.7832602
      5473.5000         0.6473         0.3216         0.4802       -75.3237      -13.59531      0.8411602
      5474.0000         0.6727         0.2874         0.4811       -68.6331      -6.904709      0.9328122
      5474.5000         0.7127         0.2532         0.4819       -64.4065      -2.678108      0.9907109
      5475.0000         0.7382         0.2365         0.4828       -60.1815       1.546894              1
      5475.5000         0.7636         0.2198         0.4832       -59.8096       1.918793              1
      5476.0000         0.7636         0.2207          0.484        -60.145       1.583393              1
      5476.5000         0.7455          0.204         0.4849       -63.2824      -1.554005              1
      5477.0000         0.7345         0.2049         0.4511        -65.018      -3.289604      0.9823342
      5477.5000         0.7164         0.2233         0.4345       -69.5683      -7.839905      0.9200013
      5478.0000         0.6727         0.2596         0.4179       -68.4982      -6.769806      0.9346602
      5478.5000         0.6255         0.2605         0.4186       -64.2716      -2.543205      0.9925588
      5479.0000         0.5833         0.2789         0.4194       -59.6847       2.043694              1
      5479.5000         0.5433         0.2973         0.4026       -58.9648       2.763592              1
      5480.0000         0.5233         0.2984          0.386            -60       1.728394              1
      5480.5000         0.5201         0.2799         0.3684       -60.3509       1.377495              1
      5481.0000         0.5502         0.2614         0.3684       -69.4737      -7.745308      0.9212971
      5481.5000         0.5837          0.243         0.3684        -77.193      -15.46461      0.8155533
      5482.0000         0.6371         0.2425         0.3684       -78.2456       -16.5172      0.8011342
      5482.5000         0.6373          0.224          0.386       -75.0877      -13.35931      0.8443931
      5483.0000         0.6265         0.2231         0.4211       -71.9298      -10.20141      0.8876519
      5483.5000         0.6194         0.2397         0.4386       -69.4737      -7.745308      0.9212971
      5484.0000          0.656         0.2388         0.4737       -68.0702      -6.341805      0.9405232
      5484.5000         0.6925         0.2379         0.4912       -66.3158       -4.58741       0.964556
      5485.0000          0.729         0.2194         0.5263       -65.2632      -3.534805      0.9789753
      5485.5000         0.7765         0.2185         0.5614       -63.5088      -1.780407              1
      5486.0000         0.7839         0.2176         0.5614       -61.7544    -0.02600479              1
      5486.5000         0.7877         0.2171         0.5614            -60       1.728394              1
      5487.0000         0.7915         0.2162         0.5614       -60.7018       1.026592              1
      5487.5000         0.7917         0.2328         0.5614       -63.5088      -1.780407              1
      5488.0000         0.7919         0.2494         0.5614       -65.9649      -4.236504       0.969363
      5488.5000         0.7812         0.2661         0.5614       -67.0175      -5.289108      0.9549437
      5489.0000         0.7632         0.2827         0.5614       -69.4737      -7.745308      0.9212971
      5489.5000         0.7488         0.2993         0.5439       -70.1754      -8.447006      0.9116849
      5490.0000         0.7345         0.3509         0.5261       -58.2143       3.514095              1
      5490.5000           0.72         0.3684         0.5094        -57.849       3.879395              1
      5491.0000         0.7055         0.3684         0.4928       -62.0774     -0.3490067              1
      5491.5000         0.6909          0.386         0.4761       -66.2684      -4.540009      0.9652054
      5492.0000         0.6909          0.386         0.4594       -70.4595       -8.73111       0.907793
      5492.5000         0.6836         0.3684         0.4428       -75.7032      -13.97481      0.8359615
      5493.0000         0.6727         0.3684         0.4261       -79.1932      -17.46481      0.7881534
      5493.5000         0.6691         0.3509          0.427       -81.9229       -20.1945      0.7507602
      5494.0000         0.6582         0.3333         0.4279       -86.9886      -25.26021       0.681367
      5494.5000         0.6545         0.2982         0.4288       -92.3931       -30.6647      0.6073328
      5495.0000         0.6473         0.2807         0.4296       -97.4587      -35.73031       0.537941
      5495.5000           0.64         0.2632          0.448      -100.8765      -39.14811      0.4911218
      5496.0000         0.6291         0.2281          0.484      -108.6575      -46.92911      0.3845328
      5496.5000         0.6218         0.2105         0.5024      -116.4523      -54.72391      0.2777547
      5497.0000         0.6109          0.193         0.5033           -120      -58.27161      0.2291561
      5497.5000         0.6036          0.193         0.4866           -120      -58.27161      0.2291561
      5498.0000         0.5967         0.2105         0.4524      -119.6443      -57.91591      0.2340287
      5498.5000         0.5833         0.2281         0.4182      -119.2879      -57.55951      0.2389108
      5499.0000         0.5499         0.2456          0.384      -112.1604      -50.43201      0.3365479
      5499.5000         0.5433         0.2982         0.3498      -104.6634      -42.93501      0.4392465
      5500.0000         0.5433         0.3507         0.3509       -93.5593      -31.83091      0.5913574
      5500.5000         0.5567         0.4042         0.3333       -86.4407       -24.7123      0.6888726
      5501.0000         0.6257         0.4577         0.3509       -76.8421      -15.11371      0.8203602
      5501.5000          0.655         0.4936         0.3684       -67.0175      -5.289108      0.9549437
      5502.0000         0.6843         0.5296         0.4035       -57.5353       4.193092              1
      5502.5000         0.7172         0.5655         0.4561       -57.5331       4.195293              1
      5503.0000         0.7537          0.584         0.4912       -58.2364       3.491993              1
      5503.5000         0.7866         0.6024         0.5439            -60       1.728394              1
      5504.0000         0.8182         0.6032         0.5789       -61.0526      0.6757927              1
      5504.5000         0.8385         0.6041          0.614       -62.1053     -0.3769073              1
      5505.0000         0.8588         0.5875         0.6491       -62.1053     -0.3769073              1
      5505.5000         0.8421         0.5708         0.6842       -61.7544    -0.02600479              1
      5506.0000         0.8255         0.5541         0.7193       -61.0526      0.6757927              1
      5506.5000         0.8156         0.5375         0.7193       -60.7018       1.026592              1
      5507.0000         0.8057         0.5384         0.7193            -60       1.728394              1
      5507.5000         0.7992         0.5392         0.7193       -58.5778       3.150593              1
      5508.0000         0.7919         0.5401         0.7193       -57.8648       3.863594              1
      5508.5000         0.7812          0.541         0.7193       -57.1505       4.577892              1
      5509.0000         0.7741         0.5419         0.7193       -56.7915       4.936893              1
      5509.5000          0.767         0.5603         0.7018       -57.8591       3.869293              1
