#------------------------------------------------------------------------------
# Created by    : vladimir.rabinovich
# Created on    : 09/19/2023 17:19:40
#------------------------------------------------------------------------------
~Version Information Section
VERS.           2.0     :   CWLS log ASCII Standard - VERSION 2.0
WRAP.           NO      :   One line per depth step
~Well Information Section
#MNEM       .UNIT                                         VALUE :DESCRIPTION
#------------------------------------------------------------------------------
STRT        .FT                                            1208 :START DEPTH
STOP        .FT                                            8860 :STOP DEPTH
STEP        .FT                                             0.5 :STEP      
NULL        .                                           -999.25 :NULL      
COMP        .                             WEAVER EXPLORATION CO :COMPANY   
WELL        .                                       BEAVERS W H :WELL      
FLD         .                                           WILDCAT :FIELD     
LOC         .                                                   :LOCATION  
CNTY        .                                         JEFFERSON :LOCATION  
STAT        .                                             TEXAS :STATE     
CTRY        .                                     UNITED STATES :COUNTRY   
SRVC        .                                                   :SERVICE COMPANY
DATE        .                             9/13/2023 11:18:46 AM :LOG DATE  
API         .                                    42245314920000 :API NUMBER
UWI         .                                    42245314920000 :UNIQUE WELL ID
XCOORD      .                                  1212655.17721247 :SURFACE X 
YCOORD      .                                  10886677.7304034 :SURFACE Y 
LAT         .                                        29.9899994 :LATITUDE  
LON         .                                       -94.3516153 :LONGITUDE 
ELEV        .FT                                            37.2 :ELEVATION VALUE
ELEV_TYPE   .                                                KB :ELEVATION REFERENCE TYPE
~Curve Information Section
#MNEM       .UNIT                                      API CODE :CURVE DESCRIPTION
#------------------------------------------------------------------------------
DEPT        .FT                                                 :DEPTH     
ALL         .OHMM                                               :          
CILD        .MMHO/M                                             :          
ILD         .OHMM                                               :          
SP          .MV                                                 :          
SP_NORM     .MV                                                 :SP Normalized
VSH_SP      .V/V                                                :Volume of Shale from SP
~A        DEPTH            ALL           CILD            ILD             SP        SP_NORM         VSH_SP
# ...
      3754.0000         1.0041        2930.96           0.37        92.4988      -61.21845      0.1272688
      3754.5000         1.0041        2722.29           0.37        93.0872      -60.63885      0.1356689
      3755.0000         1.0226       2802.048           0.37        95.2142      -58.52065      0.1663675
      3755.5000         1.0431       2962.669           0.37        96.9527      -56.79094      0.1914357
      3756.0000         1.0719       3043.064           0.37        98.5013      -55.25113      0.2137517
      3756.5000         1.0575       3123.517           0.37        99.4768      -54.28442      0.2277621
      3757.0000         1.0185       3042.912           0.36        99.8751      -53.89491      0.2334072
      3757.5000         0.9385       2958.237           0.36       103.2487      -50.53009      0.2821726
      3758.0000         0.9464        2833.12           0.36       105.6244       -48.1632      0.3164754
      3758.5000         0.9742       2708.649           0.35       109.1811      -44.61529      0.3678944
      3759.0000         1.1648       2564.458           0.35       111.1549      -42.65028      0.3963728
      3759.5000         1.2259       2380.851           0.35       112.3529      -41.46107      0.4136077
      3760.0000           1.32       2147.573           0.35        112.549      -41.27375      0.4163225
      3760.5000          1.318       2015.534           0.42       118.0392      -35.79234      0.4957632
      3761.0000          1.165       1889.109           0.57       116.2745      -37.56585      0.4700602
      3761.5000         1.1506       1873.267           0.57       114.5098      -39.33933      0.4443575
      3762.0000         1.1485       1881.188           0.57       113.5294      -40.32852      0.4300214
      3762.5000          1.128       1972.277           0.55       107.2549      -46.61182      0.3389592
      3763.0000         1.1054       2054.369           0.53       105.4902      -48.38531      0.3132564
      3763.5000         1.0911       2139.806           0.51       101.9608      -51.92351      0.2619781
      3764.0000         1.1137       2174.757           0.49            100       -53.8931      0.2334334
      3764.5000         1.1589       2314.563           0.47        91.1538      -62.74809      0.1051002
      3765.0000         1.1672           2440           0.45        90.1923      -63.71838     0.09103803
      3765.5000         1.1877           2512           0.44        88.2692      -65.65026      0.0630397
      3766.0000         1.1939           2656           0.44        87.8846      -66.04366     0.05733833
      3766.5000         1.2141           2728           0.42        87.3077      -66.62936     0.04884991
      3767.0000         1.2544        2804.04           0.39        86.7308      -67.21505      0.0403616
      3767.5000         1.2383       2949.495           0.37        86.7308      -67.22384     0.04023422
      3768.0000          1.206       3022.222           0.36        86.5385      -67.42493      0.0373199
      3768.5000         1.1734       3167.677           0.35        86.5385      -67.43372     0.03719252
      3769.0000         1.1387       3248.979           0.34        86.3462       -67.6348     0.03427821
      3769.5000         1.1061       3330.808           0.34        86.3462      -67.64361     0.03415061
      3770.0000         1.0898       3477.543         0.3298        86.1538       -67.8448     0.03123485
      3770.5000         1.0572       3477.446         0.3303        85.9615      -68.04588     0.02832053
      3771.0000         1.0225       3477.155         0.3308        85.9615      -68.05467     0.02819316
      3771.5000         1.0082       3415.781         0.3313        85.9615      -68.06346     0.02806578
      3772.0000         0.9921        3321.68          0.332        86.5385      -67.49527     0.03630044
      3772.5000         0.9743       3260.306         0.3325        86.7308      -67.31176        0.03896
      3773.0000         0.9683       3178.654         0.3329        87.1154      -66.93594     0.04440662
      3773.5000         0.9663       3138.077         0.3434        87.8846      -66.17554       0.055427
      3774.0000         0.9604        3081.25         0.3439             90      -64.06892     0.08595762
      3774.5000         0.9604       3040.673         0.3444        88.2692      -65.80851     0.06074623
      3775.0000         0.9663       3020.289         0.3548           87.5      -66.58652     0.04947076
      3775.5000         0.9802       3020.096         0.3553        87.1154       -66.9799      0.0437695
      3776.0000         0.9941       3056.154         0.3658        86.5385       -67.5656      0.0352812
      3776.5000         1.0082       3108.558         0.3563        85.7692      -68.34368     0.02400462
      3777.0000         1.0082       3213.498          0.347        86.1538      -67.96787     0.02945112
      3777.5000         1.0082       3233.698         0.3475        86.7308      -67.39968     0.03768578
      3778.0000         1.0082       3253.896         0.3479        87.3077      -66.83157     0.04591934
      3778.5000         1.0082       3265.938         0.3484        88.0769      -66.07116     0.05693972
      3779.0000         1.0082       3269.823         0.3489        88.6538      -65.50304     0.06517328
      3779.5000         1.0062       3273.469         0.3494        88.0769      -66.08874     0.05668496
      3780.0000         1.0062       3179.798           0.35        87.3077      -66.86672     0.04540982
      3780.5000         1.0022       3062.626           0.35           87.5      -66.68323     0.04806917
      3781.0000         0.9982       3094.949           0.36        87.6923      -66.49972     0.05072873
      3781.5000         0.9805       3135.354           0.36        87.8846      -66.31621     0.05338829
      3782.0000         0.9529       3163.636           0.36        88.0769       -66.1327     0.05604785
      3782.5000         0.9233       3171.717           0.36        88.2692      -65.94918     0.05870753
      3783.0000         0.9234       3175.758           0.36        88.4615      -65.76567     0.06136709
      3783.5000         0.9235       3175.758           0.35        87.1154      -67.12057      0.0417308
      3784.0000         0.9255       3175.758           0.35        86.7308      -67.51397     0.03602943
      3784.5000         0.9573       3175.758           0.34        85.9615      -68.29205     0.02475285
      3785.0000         0.9831       3175.758           0.34        84.8077      -69.45464    0.007903721
      3785.5000         1.0442       3187.879           0.34        83.8462      -70.42493              0
      3786.0000         1.1057       3204.082           0.34        82.8846      -71.39534              0
      3786.5000         1.1467       3236.735           0.34        81.9231      -72.36562              0
      3787.0000          1.204       3322.449           0.34        80.7692      -73.52831              0
      3787.5000         1.2383       3359.184           0.33        80.5769      -73.72941              0
      3788.0000         1.2907       3461.225           0.32        81.1538      -73.16129              0
      3788.5000         1.2383       3514.286           0.32        81.9231      -72.40078              0
      3789.0000         1.1939           3756           0.32        83.4615      -70.87119              0
      3789.5000         1.1061           3760           0.31        84.4231      -69.91837    0.001182998
      3790.0000         1.0632       3764.017         0.3099         85.192      -69.15826     0.01219907
      3790.5000         0.9743       3763.827         0.3003        85.7715      -68.58755     0.02047022
      3791.0000         0.9268       3659.686         0.3008        86.5441      -67.82375     0.03153992
      3791.5000         0.8753       3574.945         0.3013        87.7024      -66.67425     0.04819931
