#------------------------------------------------------------------------------
# Created by    : vladimir.rabinovich
# Created on    : 09/19/2023 17:20:52
#------------------------------------------------------------------------------
~Version Information Section
VERS.           2.0     :   CWLS log ASCII Standard - VERSION 2.0
WRAP.           NO      :   One line per depth step
~Well Information Section
#MNEM       .UNIT                                         VALUE :DESCRIPTION
#------------------------------------------------------------------------------
STRT        .FT                                             722 :START DEPTH
STOP        .FT                                            8710 :STOP DEPTH
STEP        .FT                                             0.5 :STEP      
NULL        .                                           -999.25 :NULL      
COMP        .                              BRUNER ARNOLD H & CO :COMPANY   
WELL        .                                              WEIR :WELL      
FLD         .                                           WILDCAT :FIELD     
LOC         .                                                   :LOCATION  
CNTY        .                                         JEFFERSON :LOCATION  
STAT        .                                             TEXAS :STATE     
CTRY        .                                     UNITED STATES :COUNTRY   
SRVC        .                                                   :SERVICE COMPANY
DATE        .                             9/13/2023 11:19:11 AM :LOG DATE  
API         .                                    42245021890000 :API NUMBER
UWI         .                                    42245021890000 :UNIQUE WELL ID
XCOORD      .                                  1215604.35578741 :SURFACE X 
YCOORD      .                                  10884998.9913957 :SURFACE Y 
LAT         .                                        29.9854781 :LATITUDE  
LON         .                                       -94.3422367 :LONGITUDE 
ELEV        .FT                                              36 :ELEVATION VALUE
ELEV_TYPE   .                                                DF :ELEVATION REFERENCE TYPE
~Curve Information Section
#MNEM       .UNIT                                      API CODE :CURVE DESCRIPTION
#------------------------------------------------------------------------------
DEPT        .FT                                                 :DEPTH     
ASN         .OHMM                                               :          
LAT         .OHMM                                               :          
LN          .OHMM                                               :          
SP          .MV                                                 :          
SP_NORM     .MV                                                 :SP Normalized
VSH_SP      .V/V                                                :Volume of Shale from SP
~A        DEPTH            ASN            LAT             LN             SP        SP_NORM         VSH_SP
# ...
      1254.0000         3.2909         3.7091         3.2364      -103.2143      -6.508629      0.7853034
      1254.5000         3.3455         3.7091         3.2545      -103.9286      -7.228935      0.7510031
      1255.0000         3.3818         3.7091         3.2545           -105      -8.306351      0.6996976
      1255.5000         3.4364         3.7273         3.2364      -106.4286      -9.740952      0.6313832
      1256.0000         3.4727         3.7636            3.2      -107.8571      -11.17547      0.5630729
      1256.5000         3.5273         3.8182         3.1455      -109.2857      -12.61008      0.4947582
      1257.0000         3.6364         3.8909         3.0909      -110.3571      -13.68748      0.4434531
      1257.5000         3.6727         3.9273         3.0364      -111.4286      -14.76499      0.3921432
      1258.0000         3.7091         3.9818              3         -112.5      -15.84241      0.3408377
      1258.5000         3.7091         4.0345         2.9649      -113.2143      -16.56271      0.3065374
      1259.0000         3.6909          4.069         2.9474      -113.9286      -17.28302      0.2722372
      1259.5000         3.6727         4.1207         2.9474      -114.6429      -18.00333      0.2379365
      1260.0000         3.6364         4.1207         2.9474      -115.3571      -18.72354      0.2036409
      1260.5000         3.5818         3.9818         2.9474      -116.0714      -19.44386      0.1693402
      1261.0000         3.5455         3.8545         2.9474      -116.7857      -20.16415      0.1350403
      1261.5000         3.5091         3.7091         2.9474      -117.1429      -20.52737      0.1177444
      1262.0000         3.4545         3.5818         2.9649      -117.8571      -21.24758      0.0834485
      1262.5000         3.4182         3.4909         2.9649      -117.8571      -21.25359     0.08316258
      1263.0000         3.3818            3.4         2.9649      -118.2143       -21.6168     0.06586675
      1263.5000         3.3455         3.3455         2.9649      -118.2143      -21.62281     0.06558046
      1264.0000         3.3273         3.2909         2.9825      -118.2143      -21.62881     0.06529454
      1264.5000         3.3273         3.2364         2.9825      -118.2143      -21.63483     0.06500825
      1265.0000         3.3455         3.1636         2.9825      -118.2143      -21.64084     0.06472197
      1265.5000         3.3818         3.0727         2.9825      -118.2143      -21.64684     0.06443605
      1266.0000         3.3818         3.0364              3      -118.2143      -21.65285     0.06414977
      1266.5000            3.4         3.0364              3      -118.5714      -22.01597     0.04685865
      1267.0000         3.4182         3.0182              3      -118.5714      -22.02197     0.04657273
      1267.5000         3.4364         3.0182              3      -118.5714      -22.02798     0.04628645
      1268.0000         3.4545         3.0182              3      -118.9286      -22.39119     0.02899097
      1268.5000         3.4727         3.0364              3      -118.9286      -22.39719     0.02870505
      1269.0000         3.5091         3.0727              3      -118.5714      -22.04601     0.04542796
      1269.5000         3.5273         3.1091              3      -118.9286      -22.40922     0.02813248
      1270.0000         3.5455         3.1636              3      -118.5714      -22.05803     0.04485575
      1270.5000         3.6182            3.2         2.9825      -118.5714      -22.06404     0.04456947
      1271.0000         3.6182         3.2364         2.9825      -118.5714      -22.07005     0.04428355
      1271.5000         3.6182         3.2909         2.9825      -118.2143      -21.71896     0.06100209
      1272.0000         3.6182         3.3273         2.9825      -117.8571      -21.36777     0.07772537
      1272.5000         3.5818         3.3636         2.9474      -117.8571      -21.37377     0.07743944
      1273.0000         3.5455         3.4364         2.9474         -117.5      -21.02268     0.09415799
      1273.5000         3.4727         3.4364         2.9474      -116.7857      -20.31439      0.1278861
      1274.0000         3.4182         3.4545         2.9123      -115.7143        -19.249       0.178619
      1274.5000         3.3636         3.4182         2.9123      -114.2857      -17.82641      0.2463615
      1275.0000         3.2909         3.3273         2.9123      -112.1429      -15.68962      0.3481133
      1275.5000         3.2364         3.2909         2.9123           -110      -13.55273      0.4498702
      1276.0000         3.1818         3.2182         2.8947      -108.5714      -12.13014      0.5176123
      1276.5000         3.1091         3.2182         2.8772      -108.5714      -12.13615       0.517326
      1277.0000         3.0545         3.2182         2.8596      -108.5714      -12.14216      0.5170401
      1277.5000         3.0182         3.2364         2.8246      -110.3571      -13.93387      0.4317206
      1278.0000         2.9825         3.2545          2.807      -111.7857      -15.36848      0.3634059
      1278.5000         2.9825         3.2727         2.7895      -112.1429      -15.73168      0.3461104
      1279.0000         2.9825         3.2909         2.7719      -112.8571       -16.4519      0.3118145
      1279.5000         3.0727         3.3091         2.7544      -113.5714       -17.1722      0.2775141
      1280.0000         3.1636         3.3091         2.7368      -114.2857      -17.89251      0.2432138
      1280.5000            3.2         3.3273         2.7193           -115      -18.61282      0.2089132
      1281.0000         3.2182         3.3455         2.6842      -115.7143      -19.33313      0.1746129
      1281.5000         3.2364         3.3273         2.6667      -116.0714      -19.69624      0.1573218
      1282.0000         3.2545         3.3455         2.6491      -116.0714      -19.70226      0.1570355
      1282.5000         3.2545         3.3273         2.6316      -116.0714      -19.70826      0.1567495
      1283.0000         3.2545         3.3273         2.5965      -116.0714      -19.71427      0.1564633
      1283.5000         3.1636         3.2909         2.5789      -116.0714      -19.72028       0.156177
      1284.0000         3.0909         3.2545         2.5614      -116.0714      -19.72629      0.1558911
      1284.5000         3.0364         3.2364         2.5439      -116.0714       -19.7323      0.1556048
      1285.0000         2.9649            3.2         2.5088      -115.3571      -19.02401      0.1893329
      1285.5000         2.8596         3.1273         2.5088      -114.6429      -18.31581      0.2230566
      1286.0000         2.7193         3.0727         2.4912      -113.5714      -17.25033      0.2737939
      1286.5000         2.5789         3.0364         2.4737         -112.5      -16.18494      0.3245268
      1287.0000         2.4386              3         2.4561      -110.3571      -14.04804      0.4262837
      1287.5000         2.2456         2.9661         2.4386      -108.2143      -11.91125      0.5280355
      1288.0000         2.0702         2.8983         2.4386      -106.0714      -9.774368       0.629792
      1288.5000         1.9661         2.8305         2.4386      -104.6429      -8.351204      0.6975617
      1289.0000         1.8807         2.7797         2.4211         -102.5      -6.213562      0.7993542
      1289.5000         1.8211         2.7119         2.4035       -98.6441      -2.362915      0.9827183
      1290.0000         1.7964         2.6441         2.3684       -96.6102     -0.3342743              1
      1290.5000         1.8316         2.6949         2.3509       -96.6102     -0.3395233              1
      1291.0000         1.8877         2.7119         2.3158       -96.6102       -0.34478              1
      1291.5000         1.9661         2.7458         2.2982       -98.9831      -2.722939      0.9655744
