#------------------------------------------------------------------------------
# Created by    : vladimir.rabinovich
# Created on    : 09/19/2023 17:19:40
#------------------------------------------------------------------------------
~Version Information Section
VERS.           2.0     :   CWLS log ASCII Standard - VERSION 2.0
WRAP.           NO      :   One line per depth step
~Well Information Section
#MNEM       .UNIT                                         VALUE :DESCRIPTION
#------------------------------------------------------------------------------
STRT        .FT                                            1208 :START DEPTH
STOP        .FT                                            8860 :STOP DEPTH
STEP        .FT                                             0.5 :STEP      
NULL        .                                           -999.25 :NULL      
COMP        .                             WEAVER EXPLORATION CO :COMPANY   
WELL        .                                       BEAVERS W H :WELL      
FLD         .                                           WILDCAT :FIELD     
LOC         .                                                   :LOCATION  
CNTY        .                                         JEFFERSON :LOCATION  
STAT        .                                             TEXAS :STATE     
CTRY        .                                     UNITED STATES :COUNTRY   
SRVC        .                                                   :SERVICE COMPANY
DATE        .                             9/13/2023 11:18:46 AM :LOG DATE  
API         .                                    42245314920000 :API NUMBER
UWI         .                                    42245314920000 :UNIQUE WELL ID
XCOORD      .                                  1212655.17721247 :SURFACE X 
YCOORD      .                                  10886677.7304034 :SURFACE Y 
LAT         .                                        29.9899994 :LATITUDE  
LON         .                                       -94.3516153 :LONGITUDE 
ELEV        .FT                                            37.2 :ELEVATION VALUE
ELEV_TYPE   .                                                KB :ELEVATION REFERENCE TYPE
~Curve Information Section
#MNEM       .UNIT                                      API CODE :CURVE DESCRIPTION
#------------------------------------------------------------------------------
DEPT        .FT                                                 :DEPTH     
ALL         .OHMM                                               :          
CILD        .MMHO/M                                             :          
ILD         .OHMM                                               :          
SP          .MV                                                 :          
SP_NORM     .MV                                                 :SP Normalized
VSH_SP      .V/V                                                :Volume of Shale from SP
~A        DEPTH            ALL           CILD            ILD             SP        SP_NORM         VSH_SP
# ...
      8314.0000          0.901       1377.778           0.74       151.3131      -1.644699      0.9912878
      8314.5000         0.9131       1377.778           0.74       151.3131      -1.646973      0.9912571
      8315.0000         0.9172       1381.818           0.74       151.1111      -1.851242      0.9884967
      8315.5000         0.9152       1385.859           0.74       150.9091      -2.055527      0.9857361
      8316.0000         0.9051       1389.899           0.75       150.5051      -2.461807      0.9802458
      8316.5000          0.899        1397.98           0.75        150.101      -2.868179      0.9747543
      8317.0000         0.8949       1422.222           0.75        149.899      -3.072449      0.9719939
      8317.5000         0.8828       1450.505           0.75        149.899      -3.074738       0.971963
      8318.0000         0.8768       1458.586           0.75        149.899      -3.077011      0.9719323
      8318.5000         0.8788       1462.626           0.74        149.697      -3.281281      0.9691719
      8319.0000         0.8828       1462.626           0.72        149.697      -3.283569      0.9691409
      8319.5000         0.8869       1466.667           0.71        149.697      -3.285843      0.9691103
      8320.0000         0.9111       1466.667         0.7002        149.697      -3.288116      0.9690795
      8320.5000         0.9151       1377.778         0.6997       149.4852      -3.502197      0.9661865
      8321.0000          0.923       1288.889         0.7392       149.2734      -3.716278      0.9632936
      8321.5000         0.9977       1195.918         0.7787       149.2637      -3.728256      0.9631317
      8322.0000         0.9936       1195.918         0.8182        149.254      -3.740234      0.9629698
      8322.5000         0.9793       1195.918         0.8675       149.2442      -3.752304      0.9628067
      8323.0000         0.9651       1195.918          0.867       149.4365      -3.562302      0.9653743
      8323.5000         0.9508           1200         0.8666       149.4268      -3.574265      0.9652126
      8324.0000         0.9366        1204.04         0.8661        149.619      -3.384338      0.9677792
      8324.5000         0.9224       1216.162         0.8656       150.0134      -2.992233       0.973078
      8325.0000         0.9061       1232.323         0.8651       150.4077      -2.600204      0.9783756
      8325.5000         0.8837       1240.404         0.8646       150.8021      -2.208084      0.9836745
      8326.0000         0.8857       1256.566         0.8541       151.1965      -1.815948      0.9889737
      8326.5000         0.8937       1264.646         0.8536       151.5908      -1.423935      0.9942712
      8327.0000         0.9117       1268.687         0.8531       152.1824       -0.83461              1
      8327.5000         0.9419       1268.687         0.8526       152.7789      -0.240387              1
      8328.0000          0.954       1268.687         0.8422       153.3754      0.3538361              1
      8328.5000          0.968       1260.606         0.8417       153.9718      0.9479523              1
      8329.0000         0.9679       1252.525         0.8412        153.558      0.5318756              1
      8329.5000         0.9698       1244.444         0.8207       152.7401     -0.2882996              1
      8330.0000         0.9718       1236.364           0.82       152.1212     -0.9094849              1
      8330.5000         0.9778       1224.242           0.82       152.1212     -0.9117584              1
      8331.0000         0.9798       1216.162           0.82       152.3232     -0.7120361              1
      8331.5000         0.9859       1216.162           0.82       152.5253      -0.512207              1
      8332.0000              1       1208.081           0.85       152.5253     -0.5144958              1
      8332.5000         1.0041        1204.04           0.86       152.1212     -0.9208679              1
      8333.0000         1.0061       1195.918           0.88       151.7172      -1.327148      0.9955791
      8333.5000         1.0102       1191.837           0.88       151.3131      -1.733521      0.9900876
      8334.0000         1.0163       1183.673           0.88       152.1212     -0.9277039              1
      8334.5000         1.0163        1175.51           0.88       153.3333      0.2821198              1
      8335.0000         1.0122        1175.51           0.88       153.9394      0.8859558              1
      8335.5000         1.0061        1175.51           0.88       153.9394       0.883667              1
      8336.0000         0.9939        1175.51           0.88       153.9394      0.8813934              1
      8336.5000         0.9879        1175.51           0.88       153.9394      0.8791199              1
      8337.0000         0.9838       1179.592           0.88       153.7374      0.6748352              1
      8337.5000         0.9818       1191.837           0.88       153.3333      0.2684479              1
      8338.0000         0.9818       1195.918           0.88       153.1313     0.06417847              1
      8338.5000         0.9899       1208.081           0.88       152.9293     -0.1400909              1
      8339.0000         1.0041       1224.242           0.88       152.9293     -0.1423645              1
      8339.5000         0.9879       1264.646           0.86       153.3333      0.2593384              1
      8340.0000         0.9596        1301.01         0.8302       154.5483       1.472061              1
      8340.5000         0.9313       1361.732         0.7997       155.7524       2.673889              1
      8341.0000          0.911       1398.176         0.7692       156.5514       3.470612              1
      8341.5000         0.8908       1511.242         0.7387       156.5424       3.459335              1
      8342.0000         0.8706        1519.35         0.7082       156.3318        3.24646              1
      8342.5000         0.8484       1535.512         0.6777       156.3229       3.231659              1
      8343.0000         0.8363         1571.8         0.6672       156.3141       3.213669              1
      8343.5000         0.8362       1575.841         0.6667       156.3097       3.200073              1
      8344.0000         0.8362       1575.853         0.6862       154.8919       1.773102              1
      8344.5000         0.8825       1531.615         0.7057       154.6827       1.554703              1
      8345.0000         0.9005       1435.148         0.7352       153.8706       0.733429              1
      8345.5000         0.9467       1342.787         0.7547       152.8585     -0.2878571              1
      8346.0000         0.9687       1254.609         0.7842       151.6467       -1.50885      0.9931237
      8346.5000         1.0232       1177.988         0.8237        151.242      -1.922729      0.9875307
      8347.0000         1.0823       1153.508         0.8732       150.2328      -2.941116      0.9737687
      8347.5000         1.1169       1100.215         0.9227       149.2246      -3.958511      0.9600201
      8348.0000          1.127       1059.216         0.9722       148.6184      -4.573883      0.9517043
      8348.5000         1.1391       1046.994         0.9617       148.0128       -5.18866      0.9433965
      8349.0000          1.139       1047.117         0.9512       148.0085      -5.202148      0.9432142
      8349.5000         1.1389       1067.842         0.9307        147.604      -5.615829      0.9376239
      8350.0000         1.1205       1113.325           0.91            147      -6.229019      0.9293376
      8350.5000         1.0776       1171.149           0.87       144.5926      -8.645599      0.8966811
      8351.0000         1.0388        1240.03           0.82       142.1828      -11.06459       0.863992
      8351.5000         1.0184       1232.047           0.82       139.7687      -13.48787       0.831245
