#------------------------------------------------------------------------------
# Created by    : vladimir.rabinovich
# Created on    : 09/19/2023 17:20:52
#------------------------------------------------------------------------------
~Version Information Section
VERS.           2.0     :   CWLS log ASCII Standard - VERSION 2.0
WRAP.           NO      :   One line per depth step
~Well Information Section
#MNEM       .UNIT                                         VALUE :DESCRIPTION
#------------------------------------------------------------------------------
STRT        .FT                                            1017 :START DEPTH
STOP        .FT                                            8855 :STOP DEPTH
STEP        .FT                                             0.5 :STEP      
NULL        .                                           -999.25 :NULL      
COMP        .                               MEREDITH & CO ET AL :COMPANY   
WELL        .                               BROUSSARD J JR ETAL :WELL      
FLD         .                                           WILDCAT :FIELD     
LOC         .                                                   :LOCATION  
CNTY        .                                         JEFFERSON :LOCATION  
STAT        .                                             TEXAS :STATE     
CTRY        .                                     UNITED STATES :COUNTRY   
SRVC        .                                                   :SERVICE COMPANY
DATE        .                             9/13/2023 11:19:11 AM :LOG DATE  
API         .                                    42245021880000 :API NUMBER
UWI         .                                    42245021880000 :UNIQUE WELL ID
XCOORD      .                                  1215343.11980964 :SURFACE X 
YCOORD      .                                  10882366.7587642 :SURFACE Y 
LAT         .                                        29.9782309 :LATITUDE  
LON         .                                       -94.3429645 :LONGITUDE 
ELEV        .FT                                              36 :ELEVATION VALUE
ELEV_TYPE   .                                                DF :ELEVATION REFERENCE TYPE
~Curve Information Section
#MNEM       .UNIT                                      API CODE :CURVE DESCRIPTION
#------------------------------------------------------------------------------
DEPT        .FT                                                 :DEPTH     
ASN         .OHMM                                               :          
LAT         .OHMM                                               :          
LN          .OHMM                                               :          
SP          .MV                                                 :          
SP_NORM     .MV                                                 :SP Normalized
VSH_SP      .V/V                                                :Volume of Shale from SP
~A        DEPTH            ASN            LAT             LN             SP        SP_NORM         VSH_SP
# ...
      7781.0000         0.4143         0.4336         0.4626       -87.8488      -40.56892       0.523266
      7781.5000         0.4286         0.4618         0.4617        -91.634      -44.35947      0.4775967
      7782.0000         0.4545         0.4757         0.4611       -87.0077      -39.73853      0.5332708
      7782.5000         0.4718         0.5183         0.4602       -83.2566      -35.99278      0.5784003
      7783.0000         0.4919          0.532         0.4596       -80.3751      -33.11663      0.6130526
      7783.5000         0.5092         0.5459         0.4735       -79.8068      -32.55369       0.619835
      7784.0000         0.5235         0.5305         0.4726       -79.8239      -32.57614      0.6195645
      7784.5000         0.5465           0.53          0.472       -78.6761       -31.4337      0.6333289
      7785.0000         0.5551         0.5581         0.4712       -76.9545      -29.71745      0.6540067
      7785.5000         0.5637         0.5865         0.4706       -75.2273      -27.99561      0.6747517
      7786.0000          0.578         0.6292         0.4697       -73.2102      -25.98386      0.6989896
      7786.5000         0.5837         0.6431         0.4691       -68.3011      -21.08012      0.7580709
      7787.0000         0.6009         0.6712         0.4682       -63.3864      -16.17077      0.8172197
      7787.5000         0.6153         0.6996         0.4676       -57.6016      -10.39132      0.8868515
      7788.0000          0.647         0.6988         0.4525        -66.892      -19.68708      0.7748545
      7788.5000          0.699         0.6689         0.4371       -74.1534      -26.95383      0.6873033
      7789.0000         0.7308         0.6539         0.4221       -82.5746      -35.38039      0.5857785
      7789.5000         0.7596          0.624         0.4212       -90.1279      -42.93904      0.4947104
      7790.0000         0.7798          0.609         0.4061        -84.632       -37.4485      0.5608615
      7790.5000         0.7942         0.5942         0.4052       -89.5767      -42.39855      0.5012223
      7791.0000         0.7942         0.5652         0.4047       -97.1242       -49.9514      0.4102241
      7791.5000         0.6957         0.5362         0.4183      -106.4163      -59.24886      0.2982066
      7792.0000         0.6116         0.5072         0.4322      -114.2589      -67.09682      0.2036528
      7792.5000         0.4866         0.4783         0.4314       -119.777      -72.62027      0.1371052
      7793.0000         0.3586         0.4493          0.445      -126.1693      -79.01791     0.06002513
      7793.5000         0.3208         0.3913         0.4589       -127.925      -80.77898     0.03880751
      7794.0000         0.2917         0.3623         0.4726      -127.6464      -80.50573     0.04209964
      7794.5000         0.2828         0.3188          0.472       -126.504      -79.36868       0.055799
      7795.0000         0.2797         0.3043         0.4712      -125.6458      -78.51584     0.06607423
      7795.5000         0.2767         0.2899         0.4706      -125.3728       -78.2482      0.0692988
      7796.0000         0.2765         0.2899         0.4697      -125.3896      -78.27035     0.06903195
      7796.5000         0.2764         0.3043         0.4692      -125.9804       -78.8665     0.06184939
      7797.0000         0.2792         0.3333         0.4538      -125.9973      -78.88875     0.06158135
      7797.5000         0.2819         0.3768         0.4533      -125.7186       -78.6154     0.06487467
      7798.0000         0.2876         0.3478         0.4524      -124.5761      -77.47827     0.07857504
      7798.5000         0.2932         0.2319         0.4371      -122.8482      -75.75571     0.09932874
      7799.0000         0.2989         0.1594         0.4365       -119.387      -72.29987      0.1409654
      7799.5000         0.3045         0.2174         0.4356      -117.0799      -69.99812      0.1686973
      7800.0000          0.316         0.2899         0.4351      -113.9091      -66.83269      0.2068351
      7800.5000         0.3275         0.3907         0.4348      -111.5942      -64.52313      0.2346611
      7801.0000          0.342         0.4336         0.4348      -109.2754      -62.20969      0.2625339
      7801.5000         0.3594         0.4328         0.4493      -108.4058      -61.34544      0.2729464
      7802.0000         0.3739         0.3452         0.4493      -106.9565      -59.90149      0.2903435
      7802.5000         0.3971         0.3009         0.4638      -106.3768      -59.32715      0.2972632
      7803.0000         0.4381         0.3293         0.4783      -104.6377      -57.59341      0.3181517
      7803.5000         0.5258         0.4443         0.4783      -102.3188      -55.27986      0.3460258
      7804.0000         0.5726         0.4438         0.4928       -98.8656      -51.83202      0.3875661
      7804.5000         0.6306         0.4139         0.5072       -93.4942      -46.46597      0.4522173
      7805.0000         0.6711         0.4133         0.5072       -90.1352      -43.11232      0.4926226
      7805.5000          0.697         0.5139         0.5217       -91.8439      -44.82638      0.4719714
      7806.0000         0.6621         0.5133         0.5217       -94.3932      -47.38103      0.4411924
      7806.5000         0.6097         0.3675         0.5217       -96.9262      -49.91938      0.4106098
      7807.0000          0.566         0.3525         0.5217       -98.6058      -51.60434      0.3903092
      7807.5000           0.56         0.3951         0.5217       -90.8227       -43.8266      0.4840169
      7808.0000         0.5803          0.467         0.5072       -83.6351      -36.64435        0.57055
      7808.5000         0.6092          0.582         0.4928        -67.922       -20.9366         0.7598
      7809.0000         0.6438         0.6539         0.4783       -57.7352      -10.75515       0.882468
      7809.5000          0.664           0.74         0.4638       -50.1116      -3.136909      0.9742541
      7810.0000         0.6841         0.7829         0.4638       -49.5732      -2.603867      0.9806763
      7810.5000         0.6986         0.8406         0.4638       -51.2676      -4.303619      0.9601973
      7811.0000         0.7188         0.8841         0.4638       -54.9296      -7.970974      0.9160123
      7811.5000         0.7217         0.9275         0.4783       -54.6479      -7.694626      0.9193419
      7812.0000          0.713          0.913         0.4928       -53.8028      -6.854881      0.9294593
      7812.5000         0.7101         0.8261         0.5217       -52.3944      -5.451836      0.9463634
      7813.0000         0.7072         0.7681         0.5362       -50.7042      -3.766991      0.9666628
      7813.5000         0.7072         0.7101         0.5362       -49.5775      -2.645645      0.9801729
      7814.0000         0.6986         0.7101         0.5507       -48.7324      -1.805897      0.9902904
      7814.5000         0.6928         0.7101         0.5652       -48.4507      -1.529552      0.9936199
      7815.0000         0.6783         0.7101         0.5797       -48.4507      -1.534904      0.9935554
      7815.5000         0.6957         0.6522         0.5797       -48.4507      -1.537117      0.9935287
      7816.0000         0.7014         0.6232         0.5797        -48.169      -1.255417      0.9969227
      7816.5000         0.7072         0.5507         0.5942        -48.169      -1.255417      0.9969227
      7817.0000         0.7101         0.5072         0.6087        -48.169      -1.255417      0.9969227
      7817.5000         0.7101         0.4928         0.6087       -47.8873     -0.9737167              1
      7818.0000         0.7101         0.5072         0.6232       -47.8873     -0.9737167              1
      7818.5000         0.7101         0.5362         0.6232       -47.6056     -0.6920166              1
