#------------------------------------------------------------------------------
# Created by    : vladimir.rabinovich
# Created on    : 09/19/2023 17:20:51
#------------------------------------------------------------------------------
~Version Information Section
VERS.           2.0     :   CWLS log ASCII Standard - VERSION 2.0
WRAP.           NO      :   One line per depth step
~Well Information Section
#MNEM       .UNIT                                         VALUE :DESCRIPTION
#------------------------------------------------------------------------------
STRT        .FT                                            1028 :START DEPTH
STOP        .FT                                            9325 :STOP DEPTH
STEP        .FT                                             0.5 :STEP      
NULL        .                                           -999.25 :NULL      
COMP        .                     HUNT LAMAR TRUST ESTATE ET AL :COMPANY   
WELL        .                                   BROUSSARD TRUST :WELL      
FLD         .                                           WILDCAT :FIELD     
LOC         .                                                   :LOCATION  
CNTY        .                                         JEFFERSON :LOCATION  
STAT        .                                             TEXAS :STATE     
CTRY        .                                     UNITED STATES :COUNTRY   
SRVC        .                                                   :SERVICE COMPANY
DATE        .                             9/13/2023 11:19:11 AM :LOG DATE  
API         .                                    42245021920000 :API NUMBER
UWI         .                                    42245021920000 :UNIQUE WELL ID
XCOORD      .                                  1218474.36862613 :SURFACE X 
YCOORD      .                                   10882715.986693 :SURFACE Y 
LAT         .                                        29.9792918 :LATITUDE  
LON         .                                       -94.3330868 :LONGITUDE 
ELEV        .FT                                              36 :ELEVATION VALUE
ELEV_TYPE   .                                                DF :ELEVATION REFERENCE TYPE
~Curve Information Section
#MNEM       .UNIT                                      API CODE :CURVE DESCRIPTION
#------------------------------------------------------------------------------
DEPT        .FT                                                 :DEPTH     
ASN         .OHMM                                               :          
LAT         .OHMM                                               :          
LN          .OHMM                                               :          
SP          .MV                                                 :          
SP_NORM     .MV                                                 :SP Normalized
VSH_SP      .V/V                                                :Volume of Shale from SP
~A        DEPTH            ASN            LAT             LN             SP        SP_NORM         VSH_SP
# ...
      1560.0000         2.6549          1.886          2.177       -81.2281      0.2533798              1
      1560.5000         2.6637         1.8684         2.1681       -81.7544     -0.2729187              1
      1561.0000         2.6814         1.8596         2.1593       -82.6316      -1.150116              1
      1561.5000          2.708         1.8596         2.1593       -83.3333      -1.851814              1
      1562.0000         2.7522         1.8596         2.1504       -83.8596      -2.378113      0.9928658
      1562.5000         2.7965         1.9211         2.1504        -84.386      -2.904518      0.9829336
      1563.0000         2.8584         1.9649         2.1504       -85.0877      -3.606216       0.969694
      1563.5000         2.9027          2.027         2.1504       -85.2632      -3.781715      0.9663827
      1564.0000         2.9646         2.0541         2.1504       -88.9474      -7.465919      0.8968694
      1564.5000         3.0268         2.0631         2.1504       -90.3509      -8.869415      0.8703884
      1565.0000         3.0982         2.0721         2.1504       -91.7544      -10.27292      0.8439072
      1565.5000         3.1696         2.0721         2.1416       -93.3333      -11.85181      0.8141167
      1566.0000         3.2589         2.0991         2.1239       -95.0877      -13.60622      0.7810148
      1566.5000         3.3482         2.0991         2.1062       -97.3684      -15.88692      0.7379827
      1567.0000         3.4554         2.0811         2.0796       -99.6491      -18.16762      0.6949506
      1567.5000         3.5179          2.036         2.0442      -101.7857      -20.30421      0.6546375
      1568.0000         3.5804              2         2.0088      -103.5714      -22.08992      0.6209449
      1568.5000         3.6429         1.9649         1.9911        -106.25      -24.76852      0.5704054
      1569.0000         3.7054         1.9649         1.9464        -108.75      -27.26852      0.5232356
      1569.5000         3.7679         1.9649         1.8929        -111.25      -29.76852      0.4760657
      1570.0000         3.8304         1.9649         1.8393      -114.1071      -32.62562      0.4221582
      1570.5000          4.307         2.1081         1.7946      -116.9589      -35.47742      0.3683506
      1571.0000         4.6228         2.2432           1.75      -119.0928      -37.61131      0.3280884
      1571.5000         4.9474         2.3784         1.7232      -120.8692      -39.38772      0.2945713
      1572.0000         5.4286         2.5135         1.7054       -122.288      -40.80652      0.2678015
      1572.5000         5.7589         2.6577         1.6875      -124.0639      -42.58242       0.234294
      1573.0000         5.7768         2.7928         1.6696      -125.4827      -44.00121      0.2075243
      1573.5000         5.7946         2.9099         1.6518      -126.9016      -45.42012      0.1807524
      1574.0000         5.7054         2.9279         1.6339      -127.9681      -46.48662      0.1606299
      1574.5000         5.5268         2.9279         1.6071      -129.0298      -47.54832      0.1405978
      1575.0000         5.3482         2.8739         1.5893      -130.0916      -48.61012      0.1205639
      1575.5000         5.1696         2.7207         1.5714      -130.7963      -49.31481      0.1072677
      1576.0000         4.9912         2.3784         1.5536      -131.8581      -50.37661     0.08723377
      1576.5000         4.9035         2.1622         1.5357      -132.5628      -51.08132     0.07393733
      1577.0000         4.7281          2.018         1.5268       -133.089      -51.60752     0.06400903
      1577.5000         4.5526         1.9561         1.5089      -133.2629      -51.78141     0.06072811
      1578.0000         4.3772         1.7544            1.5      -133.9676      -52.48612     0.04743166
      1578.5000         4.2018         1.6491         1.4911      -134.4938      -53.01232     0.03750337
      1579.0000         4.0263         1.5526         1.4821      -134.8414      -53.35992     0.03094497
      1579.5000         3.9286         1.4561         1.4643      -135.1891      -53.70762     0.02438455
      1580.0000         3.6518         1.3333         1.4554      -135.3571      -53.87562     0.02121476
      1580.5000         3.5625         1.2544         1.4464      -135.5357      -54.05422     0.01784487
      1581.0000         3.4911         1.2193         1.4286      -135.5357      -54.05422     0.01784487
      1581.5000         3.4554         1.2018         1.4196      -135.8929      -54.41142     0.01110538
      1582.0000         3.4554         1.2018         1.4107      -135.8929      -54.41142     0.01110538
      1582.5000         3.4554         1.2018         1.4107      -136.0714      -54.58991    0.007737502
      1583.0000         3.5625         1.2018         1.4196      -135.8929      -54.41142     0.01110538
      1583.5000         3.6786         1.2105         1.4464      -135.7143      -54.23281     0.01447526
      1584.0000         3.7857         1.2281         1.4643      -135.7143      -54.23281     0.01447526
      1584.5000         3.9018         1.3158         1.4911      -135.7143      -54.23281     0.01447526
      1585.0000         4.0614         1.3509         1.5179      -135.5357      -54.05422     0.01784487
      1585.5000         4.1404         1.3684         1.5446      -135.5357      -54.05422     0.01784487
      1586.0000         4.1491          1.386         1.5536      -135.5357      -54.05422     0.01784487
      1586.5000         4.1491         1.3772         1.5714      -135.5357      -54.05422     0.01784487
      1587.0000         4.1316         1.3158         1.5893      -135.3571      -53.87562     0.02121476
      1587.5000         4.0965         1.2895         1.5982      -135.1786      -53.69712     0.02458263
      1588.0000         3.9821         1.2632         1.6161           -135      -53.51852     0.02795252
      1588.5000         3.9732         1.2368          1.625      -134.6429      -53.16142     0.03469028
      1589.0000         3.9375         1.2193         1.6518      -134.2857      -52.80422     0.04142977
      1589.5000         3.8839         1.2105         1.6875      -127.8571      -46.37562      0.1627242
      1590.0000         3.7946         1.2105         1.7232      -124.8214      -43.33992      0.2200015
      1590.5000         3.7054         1.2284          1.759      -121.9643      -40.48282      0.2739091
      1591.0000         3.6163         1.2725         1.7859      -118.9278      -37.44632      0.3312015
      1591.5000         3.0635         1.3604         1.8038       -115.888      -34.40652      0.3885563
      1592.0000         2.9395         1.4308         1.8217      -113.0241      -31.54262      0.4425921
      1592.5000         2.7626         1.5273         1.8485       -99.4299      -17.94842      0.6990865
      1593.0000         2.7097         1.5975         1.8842         -94.51      -13.02852      0.7919148
      1593.5000         2.6923         1.6676          1.911       -90.6424      -9.160919      0.8648883
      1594.0000         2.6926         1.7377         1.9377       -87.8272      -6.345718      0.9180053
      1594.5000         2.7107         1.7903         1.9644       -86.0645      -4.583015      0.9512638
      1595.0000         2.7288         1.8602         1.9911       -85.3541       -3.87262      0.9646676
      1595.5000         2.7647         1.9389         2.0267       -84.9945      -3.513016      0.9714525
      1596.0000         2.9518         1.9651         2.0534       -84.9857      -3.504219      0.9716185
      1596.5000           2.97         1.9826         2.0801        -84.977      -3.495514      0.9717827
      1597.0000         2.9882              2         2.1158       -86.0206      -4.539116      0.9520922
      1597.5000         2.9886              2         2.1425       -87.0642      -5.582718      0.9324015
