#------------------------------------------------------------------------------
# Created by    : vladimir.rabinovich
# Created on    : 09/19/2023 17:22:41
#------------------------------------------------------------------------------
~Version Information Section
VERS.           2.0     :   CWLS log ASCII Standard - VERSION 2.0
WRAP.           NO      :   One line per depth step
~Well Information Section
#MNEM       .UNIT                                         VALUE :DESCRIPTION
#------------------------------------------------------------------------------
STRT        .FT                                             190 :START DEPTH
STOP        .FT                                            7751 :STOP DEPTH
STEP        .FT                                             0.5 :STEP      
NULL        .                                           -999.25 :NULL      
COMP        .                       GOLDEN TRIANGLE STORAGE LLC :COMPANY   
WELL        .                         GOLDEN TRIANGLE STORAGE 2 :WELL      
FLD         .                                        SPINDLETOP :FIELD     
LOC         .                                                   :LOCATION  
CNTY        .                                         JEFFERSON :LOCATION  
STAT        .                                             TEXAS :STATE     
CTRY        .                                     UNITED STATES :COUNTRY   
SRVC        .                                                   :SERVICE COMPANY
DATE        .                             9/13/2023 11:18:46 AM :LOG DATE  
API         .                                    42245325580000 :API NUMBER
UWI         .                                    42245325580000 :UNIQUE WELL ID
XCOORD      .                                  1288599.33875083 :SURFACE X 
YCOORD      .                                  10896379.1240251 :SURFACE Y 
LAT         .                                        30.0189256 :LATITUDE  
LON         .                                       -94.1119908 :LONGITUDE 
ELEV        .FT                                            12.2 :ELEVATION VALUE
ELEV_TYPE   .                                                GL :ELEVATION REFERENCE TYPE
~Curve Information Section
#MNEM       .UNIT                                      API CODE :CURVE DESCRIPTION
#------------------------------------------------------------------------------
DEPT        .FT                                                 :DEPTH     
DCAL        .IN                                                 :          
DPSS        .V/V                                                :          
DRHO        .G/CM3                                              :          
GR          .GAPI                                               :          
GR_NORM     .GAPI                                               :GammaRay Normalized
ILD         .OHMM                                               :          
ILM         .OHMM                                               :          
NPSS        .V/V                                                :Neutron Porosity Sandstone
SFL         .OHMM                                               :          
SP          .MV                                                 :          
SP_NORM     .MV                                                 :SP Normalized
TENS        .LB                                                 :          
VSH_GR      .V/V                                                :Volume of Shale from GR
VSH_SP      .V/V                                                :Volume of Shale from SP
~A        DEPTH           DCAL           DPSS           DRHO             GR        GR_NORM            ILD            ILM           NPSS            SFL             SP        SP_NORM           TENS         VSH_GR         VSH_SP
# ...
       712.0000            2.4         0.4469         0.0673           33.6       45.19807         3.2312         3.1135         0.5424         2.7868          -50.8      -12.82719           1280      0.2595333      0.2440626
       712.5000           2.24         0.4457         0.0816           31.5       42.15612         3.0847              3          0.534         2.6859          -50.4      -12.40911           1280       0.194811      0.2762225
       713.0000           1.84         0.4396          0.102        29.0816       38.65263         3.0847              3         0.5232         2.7108          -50.4      -12.39103           1280      0.1202686      0.2776134
       713.5000           1.44         0.4359           0.11        28.4694       37.76732         3.2014         3.0562          0.516         2.7359            -50      -11.97294           1280      0.1014324      0.3097737
       714.0000           1.28         0.4273            0.1        28.7755       38.21312         3.3224         3.2014         0.5064         2.8126            -50      -11.95486           1280      0.1109175      0.3111646
       714.5000           1.08          0.409         0.0714        29.3878       39.10279         3.4481         3.3534          0.504         2.9452            -50      -11.93678           1280      0.1298465      0.3125555
       715.0000           0.68         0.3894         0.0531             30        39.9923         3.6118         3.4802         0.5028              3          -50.4       -12.3187           1280      0.1487724       0.283177
       715.5000           0.24         0.3747         0.0531        29.0816       38.66314         3.7138         3.5785         0.5028         3.0847          -51.6      -13.50061           1280      0.1204922      0.1922604
       716.0000           0.24          0.371         0.0592        27.2449       36.00285         3.7138         3.6455         0.4992         3.2014          -51.6      -13.48253           1280     0.06389049      0.1936513
       716.5000           0.44         0.3698         0.0592        26.6327       35.11754         3.6795         3.6118         0.4968         3.2312          -52.4      -14.26445           1280     0.04505409      0.1335035
       717.0000           0.64         0.3735          0.051         27.551       36.45077         3.6118         3.5785         0.4944         3.2312          -52.8      -14.64637           1280     0.07342067      0.1041254
       717.5000           0.84         0.3784         0.0367        29.6939       39.55911         3.5785         3.5127         0.4944         3.2014          -52.8      -14.62829           1280      0.1395556      0.1055163
       718.0000           0.96         0.3796         0.0265             30       40.00492         3.5454         3.4802         0.4944         3.1425          -52.8      -14.61021           1280      0.1490408      0.1069072
       718.5000           1.08         0.3833         0.0265        29.6939       39.56332         3.4481         3.3847         0.4944         3.0847          -52.8      -14.59212           1280       0.139645      0.1082981
       719.0000           1.16         0.3869         0.0265        28.4694       37.79044         3.4162         3.3847          0.492         3.0562          -52.8      -14.57404           1280      0.1019242       0.109689
       719.5000           1.28         0.3882         0.0265         27.551       36.46127         3.4162         3.3534         0.2928          3.028          -52.8      -14.55596           1280     0.07364411      0.1110799
       720.0000           1.32         0.3906         0.0306        26.9388       35.57595         3.4162         3.3847         0.0492          3.028          -52.4      -14.13788           1280     0.05480754      0.1432398
       720.5000            1.4         0.3882         0.0347        26.6327       35.13435         3.4481         3.3847         0.0456         3.0562          -52.4       -14.1198       1278.812     0.04541178      0.1446307
       721.0000           1.64         0.3857         0.0429        26.6327       35.13645         3.4481         3.3847         0.0455         3.1135          -53.2      -14.90172       1276.832     0.04545642     0.08448322
       721.5000           1.84         0.3857         0.0469         27.551       36.46968         3.4481         3.3534         0.0454         3.1425          -53.6      -15.28363       1274.851     0.07382308     0.05510506
       722.0000           2.08         0.3882         0.0469        28.1633       37.35934         3.4481         3.2917         0.0454         3.1135            -54      -15.66555       1272.871     0.09275193     0.02572661
       722.5000           2.16         0.4004         0.0429        28.4694       37.80514         3.3847         3.2613         0.0453          3.028            -54      -15.64747       1270.891      0.1022371     0.02711751
       723.0000           2.16         0.4249         0.0449        28.1633       37.36354         3.2613         3.1425         0.0453         2.8914            -54      -15.62939       1268.911     0.09284121     0.02850841
       723.5000           2.16         0.4506         0.0633        28.1633       37.36564         3.1425          3.028         0.0452         2.7359          -51.2      -12.81131       1266.931     0.09288601      0.2452839
       724.0000           2.32         0.4482         0.0837        28.4694       37.81145          3.028         2.9725         0.0451         2.6369          -49.6      -11.19323        1264.95      0.1023714      0.3697519
       724.5000           2.44         0.4286          0.104        28.7755       38.25727          3.028         2.9452         0.0439         2.6859          -49.6      -11.17514        1262.97      0.1118568      0.3711427
       725.0000           2.72         0.4102            0.1        29.3878       39.14692         3.2014         3.0847         0.0438         2.8386          -49.6      -11.15706        1260.99      0.1307855      0.3725336
       725.5000              3         0.4151         0.0898        28.7755       38.26147         3.2917         3.2014         0.0438         2.9725            -50      -11.53898       1258.614      0.1119462      0.3431552
       726.0000              3         0.4286         0.0735        28.4694       37.81987         3.4162         3.3534         0.0437              3          -50.4       -11.9209       1256.634      0.1025504      0.3137768
       726.5000            2.8         0.4322         0.0571         27.551        36.4907         3.4162         3.3847         0.0436         2.9725          -50.4      -11.90282       1254.653     0.07427013      0.3151676
       727.0000           2.56         0.4237         0.0449        26.6327       35.16168         3.3224         3.2014         0.0436         2.7868          -50.4      -11.88474       1252.673     0.04599316      0.3165585
       727.5000           2.24         0.4163         0.0388        26.3265       34.71992          3.028         2.9182         0.0435         2.5415          -48.8      -10.26665       1250.693     0.03659415      0.4410265
       728.0000           1.52         0.4102         0.0347        26.6327       35.16588         2.8914         2.8126         0.0435         2.3827          -48.8      -10.24857       1248.713      0.0460826      0.4424174
       728.5000           1.08         0.4029         0.0367        27.2449        36.0554         2.9452         2.8914         0.0458         2.5182          -50.8      -12.23049       1246.733     0.06500853      0.2899622
       729.0000           0.28         0.4065         0.0429        29.6939       39.60744         3.2014         3.0847         0.0469         2.8386          -52.8      -14.21241       1244.752      0.1405838      0.1375069
       729.5000          -1.48         0.4469         0.0796           31.8       42.66244         3.4802         3.3224         0.0481         3.1718          -53.6      -14.99433       1242.772      0.2055838     0.07735942
