#------------------------------------------------------------------------------
# Created by    : vladimir.rabinovich
# Created on    : 09/19/2023 17:20:52
#------------------------------------------------------------------------------
~Version Information Section
VERS.           2.0     :   CWLS log ASCII Standard - VERSION 2.0
WRAP.           NO      :   One line per depth step
~Well Information Section
#MNEM       .UNIT                                         VALUE :DESCRIPTION
#------------------------------------------------------------------------------
STRT        .FT                                            1017 :START DEPTH
STOP        .FT                                            8855 :STOP DEPTH
STEP        .FT                                             0.5 :STEP      
NULL        .                                           -999.25 :NULL      
COMP        .                               MEREDITH & CO ET AL :COMPANY   
WELL        .                               BROUSSARD J JR ETAL :WELL      
FLD         .                                           WILDCAT :FIELD     
LOC         .                                                   :LOCATION  
CNTY        .                                         JEFFERSON :LOCATION  
STAT        .                                             TEXAS :STATE     
CTRY        .                                     UNITED STATES :COUNTRY   
SRVC        .                                                   :SERVICE COMPANY
DATE        .                             9/13/2023 11:19:11 AM :LOG DATE  
API         .                                    42245021880000 :API NUMBER
UWI         .                                    42245021880000 :UNIQUE WELL ID
XCOORD      .                                  1215343.11980964 :SURFACE X 
YCOORD      .                                  10882366.7587642 :SURFACE Y 
LAT         .                                        29.9782309 :LATITUDE  
LON         .                                       -94.3429645 :LONGITUDE 
ELEV        .FT                                              36 :ELEVATION VALUE
ELEV_TYPE   .                                                DF :ELEVATION REFERENCE TYPE
~Curve Information Section
#MNEM       .UNIT                                      API CODE :CURVE DESCRIPTION
#------------------------------------------------------------------------------
DEPT        .FT                                                 :DEPTH     
ASN         .OHMM                                               :          
LAT         .OHMM                                               :          
LN          .OHMM                                               :          
SP          .MV                                                 :          
SP_NORM     .MV                                                 :SP Normalized
VSH_SP      .V/V                                                :Volume of Shale from SP
~A        DEPTH            ASN            LAT             LN             SP        SP_NORM         VSH_SP
# ...
      3601.0000         1.6417         0.7849         1.1952       -42.0047       4.908882              1
      3601.5000         1.5689         0.7859         1.1676        -42.277       4.636581              1
      3602.0000         1.5313         0.7875         1.1556       -42.5552       4.358383              1
      3602.5000         1.4444         0.7885          1.128        -43.123       3.790581              1
      3603.0000         1.4008         0.7901         1.1004       -43.6851       3.228481              1
      3603.5000          1.319         0.7766          1.059       -43.9633       2.950283              1
      3604.0000         1.2374         0.7636         1.0461        -43.946       2.967583              1
      3604.5000         1.1443         0.7209         1.0341       -44.8036       2.109982              1
      3605.0000         1.1445         0.6787         1.0358       -51.4501      -4.536518      0.9666247
      3605.5000         1.1476         0.6505         1.0238        -58.682      -11.76842      0.8714682
      3606.0000         1.1975         0.6222         1.0109       -63.6315      -16.71792      0.8063432
      3606.5000         1.2649         0.5798         1.0136       -73.2715      -26.35792      0.6795011
      3607.0000          1.338         0.5515         1.0006       -83.4783      -36.56472      0.5452011
      3607.5000         1.4051         0.5236         0.9885        -95.942      -49.02842       0.381205
      3608.0000         1.3848         0.4952         0.9902       -97.3913      -50.47771      0.3621353
      3608.5000         1.3356         0.4818         0.9781       -97.3913      -50.47771      0.3621353
      3609.0000         1.2893         0.4534         0.9798       -91.5942      -44.68062      0.4384129
      3609.5000         1.2402         0.4693         0.9676       -86.6667      -39.75312      0.5032484
      3610.0000         1.2144         0.4997          0.955       -77.9419      -31.02832      0.6180484
      3610.5000         1.2291         0.5741         0.9409       -65.2853      -18.37172      0.7845826
      3611.0000         1.2814         0.6925         0.9415       -54.1761       -7.26252      0.9307563
      3611.5000         1.3337         0.7962         0.9722       -50.9773      -4.063717      0.9728459
      3612.0000         1.3513          0.885          0.988       -48.0625      -1.148918              1
      3612.5000         1.3688         0.9887         1.0034       -45.4375       1.476082              1
      3613.0000         1.3864         1.0766         1.0189       -44.5568       2.356781              1
      3613.5000         1.3981         1.1643         1.0195       -43.6705        3.24308              1
      3614.0000         1.4158         1.2228         1.0497       -43.3693       3.544281              1
      3614.5000         1.4336         1.2816         1.0653       -45.0909       1.822681              1
      3615.0000         1.4514         1.3549         1.0512       -46.8182     0.09538269              1
      3615.5000          1.481         1.4136         1.0079       -49.4091      -2.495518        0.99348
      3616.0000         1.5105         1.4432         0.9639       -51.4261       -4.51252      0.9669405
      3616.5000          1.546         1.4875          0.905       -55.1761       -8.26252      0.9175984
      3617.0000         1.5843         1.5318         0.8758        -57.483      -10.56942      0.8872445
      3617.5000         1.5816         1.5613         0.8319          -59.5      -12.58642       0.860705
      3618.0000         1.5405         1.6201         0.8026        -62.121      -15.20742      0.8262182
      3618.5000         1.5025         1.6499         0.7289       -64.4611      -17.54752      0.7954274
      3619.0000         1.4614         1.6359         0.7295        -67.389      -20.47542      0.7569024
      3619.5000         1.4204         1.5209         0.7154       -72.6628      -25.74922      0.6875103
      3620.0000         1.3826         1.4201         0.6865       -88.4067      -41.49312      0.4803537
      3620.5000         1.3363         1.3047          0.687       -91.8719      -44.95832      0.4347589
      3621.0000         1.3075         1.1752          0.673       -94.7577      -47.84412      0.3967879
      3621.5000         1.2931         1.0744         0.6586       -97.6435      -50.72992      0.3588169
      3622.0000         1.2759         0.9293         0.6595       -99.6546      -52.74102       0.332355
      3622.5000           1.25         0.8564         0.6302      -101.0919      -54.17832      0.3134431
      3623.0000         1.2327         0.7982         0.5863      -102.5237      -55.61012      0.2946037
      3623.5000         1.2097         0.7109         0.5723      -103.3816      -56.46802      0.2833156
      3624.0000         1.1806         0.6673         0.5579      -103.9443      -57.03072      0.2759116
      3624.5000         1.1395         0.6388         0.5439      -103.9331      -57.01952       0.276059
      3625.0000         1.0985         0.6099         0.5445      -104.4958      -57.58221      0.2686551
      3625.5000         1.0398         0.5667         0.5602      -105.6435      -58.72992      0.2535537
      3626.0000         0.9707         0.5529         0.5909      -107.9443      -61.03072      0.2232801
      3626.5000         0.9173          0.524         0.5915      -110.2507      -63.33712      0.1929326
      3627.0000          0.878         0.4955         0.5924      -112.2674      -65.35382      0.1663971
      3627.5000         0.8303         0.4666         0.5929      -114.2786      -67.36502      0.1399339
      3628.0000         0.8247         0.4381         0.5938      -114.8468      -67.93322      0.1324576
      3628.5000         0.8756         0.4387         0.5648      -114.2507      -67.33712       0.140301
      3629.0000          0.918         0.4395         0.5505       -110.468      -63.55442      0.1900734
      3629.5000         1.0233         0.4845         0.5215      -106.6852      -59.77162      0.2398471
      3630.0000         1.1058         0.5291         0.5221      -104.0613      -57.14772      0.2743721
      3630.5000         1.2204         0.5594         0.5229      -103.4706      -56.55701      0.2821445
      3631.0000         1.2264          0.619         0.5235      -102.5845      -55.67092      0.2938037
      3631.5000         1.1739         0.6343         0.5244      -103.7262      -56.81261      0.2787814
      3632.0000         1.1594         0.6645         0.4805      -104.5839      -57.67032      0.2674958
      3632.5000         1.1507         0.6653         0.4811      -105.1519      -58.23832      0.2600221
      3633.0000         1.2298         0.6659         0.4819      -104.5555      -57.64191      0.2678696
      3633.5000         1.3401         0.6815         0.4676      -102.8003      -55.88672      0.2909642
      3634.0000         1.3953         0.7114         0.4535      -101.9199      -55.00632      0.3025485
      3634.5000         1.4542         0.7564         0.4392      -101.3235      -54.40992      0.3103958
      3635.0000         1.5455          0.816         0.4102      -101.5961      -54.68252       0.306809
      3635.5000         1.5486          0.846         0.4111      -102.1642      -55.25062       0.299334
      3636.0000         1.5488         0.8909         0.3967      -103.3116      -56.39802      0.2842366
      3636.5000         1.4724          0.833         0.4125      -105.3224      -58.40882      0.2577787
      3637.0000         1.3672         0.7894          0.428      -107.0491      -60.13552      0.2350589
      3637.5000         1.2717         0.6727         0.4289      -110.5084      -63.59482      0.1895419
      3638.0000         1.1699         0.5998         0.4446      -112.5249      -65.61132      0.1630089
      3638.5000         1.1554         0.5269         0.4601      -113.9619      -67.04832      0.1441011
