#------------------------------------------------------------------------------
# Created by    : vladimir.rabinovich
# Created on    : 09/19/2023 17:20:52
#------------------------------------------------------------------------------
~Version Information Section
VERS.           2.0     :   CWLS log ASCII Standard - VERSION 2.0
WRAP.           NO      :   One line per depth step
~Well Information Section
#MNEM       .UNIT                                         VALUE :DESCRIPTION
#------------------------------------------------------------------------------
STRT        .FT                                            1558 :START DEPTH
STOP        .FT                                           11266 :STOP DEPTH
STEP        .FT                                             0.5 :STEP      
NULL        .                                           -999.25 :NULL      
COMP        .                               MEREDITH & CO ET AL :COMPANY   
WELL        .                                 GRINNELL TEXAS CO :WELL      
FLD         .                                           WILDCAT :FIELD     
LOC         .                                                   :LOCATION  
CNTY        .                                         JEFFERSON :LOCATION  
STAT        .                                             TEXAS :STATE     
CTRY        .                                     UNITED STATES :COUNTRY   
SRVC        .                                                   :SERVICE COMPANY
DATE        .                             9/13/2023 11:19:11 AM :LOG DATE  
API         .                                    42245015300000 :API NUMBER
UWI         .                                    42245015300000 :UNIQUE WELL ID
XCOORD      .                                  1358778.50439977 :SURFACE X 
YCOORD      .                                  10877447.4356243 :SURFACE Y 
LAT         .                                        29.9685419 :LATITUDE  
LON         .                                       -93.8897358 :LONGITUDE 
ELEV        .FT                                              14 :ELEVATION VALUE
ELEV_TYPE   .                                                DF :ELEVATION REFERENCE TYPE
~Curve Information Section
#MNEM       .UNIT                                      API CODE :CURVE DESCRIPTION
#------------------------------------------------------------------------------
DEPT        .FT                                                 :DEPTH     
ASN         .OHMM                                               :          
LN          .OHMM                                               :          
SP          .MV                                                 :          
SP_NORM     .MV                                                 :SP Normalized
VSH_SP      .V/V                                                :Volume of Shale from SP
~A        DEPTH            ASN             LN             SP        SP_NORM         VSH_SP
# ...
      8026.0000         0.8093         0.7204       -19.0568      0.6962852              1
      8026.5000         0.8122          0.727       -19.1255      0.6275864              1
      8027.0000         0.8166         0.7337       -19.2263      0.5267868              1
      8027.5000         0.8236         0.7403       -19.3273       0.425787              1
      8028.0000         0.8307          0.747       -19.4282      0.3248863              1
      8028.5000         0.8378         0.7536       -19.5291      0.2239857              1
      8029.0000         0.8448         0.7603         -19.63      0.1230869              1
      8029.5000         0.8519         0.7669        -19.829    -0.07591438              1
      8030.0000          0.859         0.7736       -20.0694     -0.3163147              1
      8030.5000         0.8661         0.7802         -20.31     -0.5569134              1
      8031.0000         0.8731         0.7893       -20.5503     -0.7972145              1
      8031.5000         0.8802         0.8001        -20.791      -1.037914       0.999574
      8032.0000         0.8873          0.811       -21.0313      -1.278214       0.996874
      8032.5000         0.8956         0.8218       -21.2719      -1.518814      0.9941706
      8033.0000          0.907         0.8326        -21.411      -1.657913      0.9926077
      8033.5000         0.9184         0.8434       -21.4188      -1.665714      0.9925201
      8034.0000         0.9299         0.8542       -21.4265      -1.673414      0.9924335
      8034.5000         0.9413         0.8651       -21.4343      -1.681213      0.9923459
      8035.0000         0.9527         0.8759        -21.442      -1.688913      0.9922594
      8035.5000         0.9599         0.8867       -21.4498      -1.696714      0.9921718
      8036.0000         0.9615         0.8975       -21.4576      -1.704514      0.9920841
      8036.5000          0.959         0.9083       -21.4653      -1.712214      0.9919976
      8037.0000         0.9565         0.9192       -21.5218      -1.768713      0.9913628
      8037.5000          0.954           0.93       -21.6624      -1.909313       0.989783
      8038.0000         0.9514         0.9346       -21.8033      -2.050215      0.9881998
      8038.5000         0.9523         0.9366       -21.9441      -2.191013      0.9866178
      8039.0000         0.9674         0.9387       -22.0848      -2.331715      0.9850369
      8039.5000         0.9825         0.9407       -22.2256      -2.472513      0.9834549
      8040.0000         0.9976         0.9427       -22.3663      -2.613214       0.981874
      8040.5000         1.0243         0.9448       -22.5071      -2.754013       0.980292
      8041.0000         1.0603         0.9403       -22.6479      -2.894814      0.9787099
      8041.5000         1.0964         0.9349        -22.614      -2.860914      0.9790909
      8042.0000         1.1273         0.9295       -22.5582      -2.805115      0.9797178
      8042.5000         1.1512         0.9241       -22.5024      -2.749313      0.9803448
      8043.0000         1.1097         0.9186       -22.4466      -2.693514      0.9809718
      8043.5000         1.0682         0.9132       -22.3908      -2.637714      0.9815987
      8044.0000          1.033         0.9078       -22.3351      -2.582014      0.9822246
      8044.5000         1.0123         0.9034       -22.2182      -2.465115       0.983538
      8045.0000         0.9975         0.8993       -21.8983      -2.145214      0.9871324
      8045.5000         0.9961         0.8952       -21.5789      -1.825813      0.9907212
      8046.0000         0.9947          0.891        -21.259      -1.505915      0.9943156
      8046.5000         0.9933         0.8869       -20.9396      -1.186514      0.9979044
      8047.0000         0.9919         0.8828       -20.6197     -0.8666134              1
      8047.5000         0.9905         0.8786       -20.3004     -0.5473137              1
      8048.0000         0.9891         0.8745       -19.9804      -0.227314              1
      8048.5000         0.9901         0.8704       -19.6611      0.0919857              1
      8049.0000         0.9915          0.869       -19.3412      0.4118862              1
      8049.5000         0.9929          0.872       -19.2411      0.5119858              1
      8050.0000         0.9942         0.8749       -19.2101      0.5429859              1
      8050.5000         0.9956         0.8779        -19.179      0.5740852              1
      8051.0000         0.9969         0.8808        -19.148      0.6050854              1
      8051.5000         0.9983         0.8838       -19.1169      0.6361866              1
      8052.0000         0.9997         0.8868       -19.0858      0.6672859              1
      8052.5000         1.0007         0.8897       -19.0547      0.6983852              1
      8053.0000          0.982         0.8927       -19.0431      0.7099857              1
      8053.5000         0.9571         0.8872       -19.0508      0.7022858              1
      8054.0000         0.9321         0.8812       -19.0586      0.6944866              1
      8054.5000         0.9072         0.8752       -19.0663      0.6867867              1
      8055.0000         0.8828         0.8692       -19.0741      0.6789856              1
      8055.5000         0.8726         0.8631       -19.0818      0.6712856              1
      8056.0000         0.8758         0.8562       -19.0896      0.6634865              1
      8056.5000         0.8867         0.8492       -19.1051      0.6479855              1
      8057.0000         0.8977         0.8422       -19.1454       0.607687              1
      8057.5000         0.9086          0.839       -19.1855      0.5675869              1
      8058.0000         0.9223         0.8375       -19.2258      0.5272865              1
      8058.5000         0.9404         0.8359       -19.2661      0.4869862              1
      8059.0000         0.9585         0.8344       -19.3063      0.4467869              1
      8059.5000         0.9629         0.8328       -19.3465      0.4065857              1
      8060.0000         0.9422         0.8312       -19.3867      0.3663864              1
      8060.5000         0.9254         0.8211        -19.427       0.326086              1
      8061.0000         0.9152         0.8066       -19.3615      0.3915863              1
      8061.5000          0.905         0.7921        -19.214      0.5390854              1
      8062.0000         0.8948         0.7777       -19.0664      0.6866856              1
      8062.5000         0.8847         0.7632       -18.9188      0.8342857              1
      8063.0000         0.8745         0.7508       -18.7713      0.9817867              1
      8063.5000         0.8643         0.7395       -18.6165       1.136585              1
      8064.0000         0.8541         0.7283       -18.4092       1.343885              1
      8064.5000          0.844         0.7171       -18.2019       1.551186              1
      8065.0000         0.8322         0.7059       -17.9944       1.758686              1
      8065.5000         0.8204         0.7081        -17.787       1.966085              1
      8066.0000         0.8085          0.729       -17.5797       2.173386              1
      8066.5000         0.8482           0.75       -17.8672       1.885885              1
      8067.0000          0.891         0.7709       -18.3429       1.410187              1
      8067.5000         0.9709         0.7919       -19.1545       0.598587              1
      8068.0000         1.0523         0.8128       -19.9661     -0.2130146              1
      8068.5000         1.1252         0.8527       -22.5232      -2.770113      0.9801111
      8069.0000         1.1626         0.8981       -29.4699      -9.716814      0.9020582
      8069.5000         1.1998         0.9434       -45.0635      -25.31041      0.7268493
