#------------------------------------------------------------------------------
# Created by    : vladimir.rabinovich
# Created on    : 09/19/2023 17:20:52
#------------------------------------------------------------------------------
~Version Information Section
VERS.           2.0     :   CWLS log ASCII Standard - VERSION 2.0
WRAP.           NO      :   One line per depth step
~Well Information Section
#MNEM       .UNIT                                         VALUE :DESCRIPTION
#------------------------------------------------------------------------------
STRT        .FT                                            1017 :START DEPTH
STOP        .FT                                            8855 :STOP DEPTH
STEP        .FT                                             0.5 :STEP      
NULL        .                                           -999.25 :NULL      
COMP        .                               MEREDITH & CO ET AL :COMPANY   
WELL        .                               BROUSSARD J JR ETAL :WELL      
FLD         .                                           WILDCAT :FIELD     
LOC         .                                                   :LOCATION  
CNTY        .                                         JEFFERSON :LOCATION  
STAT        .                                             TEXAS :STATE     
CTRY        .                                     UNITED STATES :COUNTRY   
SRVC        .                                                   :SERVICE COMPANY
DATE        .                             9/13/2023 11:19:11 AM :LOG DATE  
API         .                                    42245021880000 :API NUMBER
UWI         .                                    42245021880000 :UNIQUE WELL ID
XCOORD      .                                  1215343.11980964 :SURFACE X 
YCOORD      .                                  10882366.7587642 :SURFACE Y 
LAT         .                                        29.9782309 :LATITUDE  
LON         .                                       -94.3429645 :LONGITUDE 
ELEV        .FT                                              36 :ELEVATION VALUE
ELEV_TYPE   .                                                DF :ELEVATION REFERENCE TYPE
~Curve Information Section
#MNEM       .UNIT                                      API CODE :CURVE DESCRIPTION
#------------------------------------------------------------------------------
DEPT        .FT                                                 :DEPTH     
ASN         .OHMM                                               :          
LAT         .OHMM                                               :          
LN          .OHMM                                               :          
SP          .MV                                                 :          
SP_NORM     .MV                                                 :SP Normalized
VSH_SP      .V/V                                                :Volume of Shale from SP
~A        DEPTH            ASN            LAT             LN             SP        SP_NORM         VSH_SP
      1017.0000         0.0836              0              0       -38.2857       2.914655              1
      1017.5000         0.1552              0              0       -42.9098      -1.151351              1
      1018.0000         0.3629              0              0       -48.4332      0.6169263              1
      1018.5000         2.0725              0              0       -57.7219     -0.3724907              1
      1019.0000         2.2174              0         0.0149       -60.6207      -1.225917              1
      1019.5000         2.6957              0         0.0597       -63.8342       3.708302              1
      1020.0000         3.0145              0         0.1493       -67.3545     0.07545858              1
      1020.5000         3.4928              0         0.4179       -68.2353       2.332303              1
      1021.0000          3.971              0         0.9403       -67.6471      -1.059425              1
      1021.5000         4.3623              0         1.9733       -67.9412      -1.091277              1
      1022.0000         4.3768              0          2.494       -67.9412     -0.3375861              1
      1022.5000         4.3913              0         3.0725       -67.6471       3.531621              1
      1023.0000         4.3913              0         3.2899       -67.6471       1.023726              1
      1023.5000         4.3913              0         3.5072       -67.6471       1.112195              1
      1024.0000         4.3623              0         3.6522       -67.6471     -0.8878073              1
      1024.5000         4.3333              0         3.6812       -67.9412      -0.468651              1
      1025.0000         4.2174              0         3.6522       -68.2353      0.7776891              1
      1025.5000         4.1739              0         3.6232       -68.2353      -1.568634              1
      1026.0000              4              0         3.6232       -68.2353      -1.568634              1
      1026.5000          3.913              0         3.6377       -68.5294       -1.86274              1
      1027.0000         3.7971              0         3.6957       -68.8235      -2.156837              1
      1027.5000         3.7101              0         3.7246       -68.8235      -2.156837              1
      1028.0000         3.5942              0         3.7536       -69.1176      -2.450935              1
      1028.5000         3.4638              0         3.7826       -69.1176      -2.450935              1
      1029.0000         3.4203              0         3.8116       -69.4118      -2.745132              1
      1029.5000         3.4058              0         3.8551       -69.4118      -2.745132              1
      1030.0000         3.3767              0         3.8403       -69.4118      -2.745132              1
      1030.5000         3.4352              0         3.8412       -69.7116      -3.044937      0.9935804
      1031.0000         3.5375              0         3.8417       -69.7173      -3.050636      0.9927663
      1031.5000         3.6397              0          3.857       -70.0204      -3.353737      0.9494662
      1032.0000         3.6982              0         3.8578       -70.3211      -3.654434      0.9065094
      1032.5000         3.8004              0         3.8729       -70.6252      -3.958534      0.8630666
      1033.0000         3.9606              0         3.8302       -70.6315      -3.964836      0.8621663
      1033.5000         3.9615              0         3.8166       -70.9363      -4.269638      0.8186231
      1034.0000          3.962              0         3.8171       -70.9428      -4.276138      0.8176945
      1034.5000         3.8469              0         3.8034       -70.6564      -3.989738      0.8586088
      1035.0000          3.746              0          3.804       -70.3696      -3.702934      0.8995808
      1035.5000         3.5875         0.0223         3.7758       -70.3757      -3.709038      0.8987089
      1036.0000         3.4721         0.0809         3.7622       -70.0881      -3.421432      0.9397954
      1036.5000         3.3136         0.2267         3.7482       -69.7972      -3.130539      0.9813516
      1037.0000         3.1695         0.3577         3.7346       -69.5087      -2.842033              1
      1037.5000         3.0831         0.6774         3.7354       -69.5143      -2.847633              1
      1038.0000          2.997         0.9099         3.7359       -69.5227      -2.856033              1
      1038.5000         2.9831         2.2367         3.7367        -69.826      -3.159332      0.9772382
      1039.0000         3.0128          2.378         3.7665       -70.1328      -3.466133      0.9334096
      1039.5000         3.1441         2.5902         3.8106       -70.1388      -3.472137      0.9325518
      1040.0000          3.246         2.7319         3.8261       -70.4491      -3.782433      0.8882239
      1040.5000         3.4058         2.7744          3.942       -70.4435      -3.776833      0.8890239
      1041.0000         3.5797         2.8024         4.0278        -71.033      -4.366333      0.8048096
      1041.5000         3.6522         2.8445          4.167       -71.0278      -4.361137      0.8055518
      1042.0000         3.6957         2.9009         4.2646       -71.0199      -4.353233       0.806681
      1042.5000         3.7101         2.8866         4.4041       -70.7126      -4.045937      0.8505805
      1043.0000         3.7101         2.8439         4.5299       -70.4074      -3.740738      0.8941803
      1043.5000         3.7101         2.7867         4.7117        -70.099      -3.432335      0.9382378
      1044.0000         3.7246         2.7436         4.8377       -69.7931      -3.126434      0.9819379
      1044.5000         3.7681         2.6863         4.9222       -69.7841      -3.117439       0.983223
      1045.0000         3.8406         2.6572         4.9649       -69.4776      -2.810936              1
      1045.5000          3.942         2.6711         4.9515       -69.4683      -2.801636              1
      1046.0000              4         2.7279         4.9103       -69.4591      -2.792435              1
      1046.5000         4.1121         2.8136         4.8827       -69.4529       -2.78624              1
      1047.0000         4.1963         2.9282         4.8274       -69.7453      -3.078636      0.9887663
      1047.5000         4.3227         3.0597         4.7998       -70.3428      -3.676132      0.9034097
      1048.0000         4.4213         3.2537         4.8005       -70.9384      -4.271736      0.8183234
      1048.5000         4.4777          3.403         4.8431       -71.5375      -4.870834       0.732738
      1049.0000         4.5203         3.4925         4.8578       -71.8326      -5.165939      0.6905801
      1049.5000         4.5206         3.5821         4.9005       -72.7337      -6.067039      0.5618515
      1050.0000         4.4789         3.6269         4.9997       -72.7294      -6.062737      0.5624662
      1050.5000         4.4366          3.717         5.1044       -72.7196      -6.052933      0.5638667
      1051.0000         4.3662         3.7624         5.1638       -73.0145      -6.347839      0.5217372
      1051.5000         4.3099         3.7632         5.2378       -73.0027      -6.336037      0.5234233
      1052.0000         4.2676         3.7638         5.2821       -72.9949      -6.328239      0.5245372
      1052.5000         4.2535         3.7796         5.3409        -73.285       -6.61834      0.4830944
      1053.0000         4.2676         3.7805         5.3847        -73.277      -6.610336      0.4842377
      1053.5000         4.2958         3.7811          5.399       -73.5665      -6.899834      0.4428809
      1054.0000         4.3662         3.8118         5.4131       -73.5583      -6.891632      0.4440525
      1054.5000          4.493         3.8423         5.4126       -73.8471      -7.180435       0.402795
