#------------------------------------------------------------------------------
# Created by    : vladimir.rabinovich
# Created on    : 09/19/2023 17:20:50
#------------------------------------------------------------------------------
~Version Information Section
VERS.           2.0     :   CWLS log ASCII Standard - VERSION 2.0
WRAP.           NO      :   One line per depth step
~Well Information Section
#MNEM       .UNIT                                         VALUE :DESCRIPTION
#------------------------------------------------------------------------------
STRT        .FT                                            1769 :START DEPTH
STOP        .FT                                           14822 :STOP DEPTH
STEP        .FT                                             0.5 :STEP      
NULL        .                                           -999.25 :NULL      
COMP        .                                      SHELL OIL CO :COMPANY   
WELL        .                                 MCFADDEN CEE CRSS :WELL      
FLD         .                                           WILDCAT :FIELD     
LOC         .                                                   :LOCATION  
CNTY        .                                         JEFFERSON :LOCATION  
STAT        .                                             TEXAS :STATE     
CTRY        .                                     UNITED STATES :COUNTRY   
SRVC        .                                                   :SERVICE COMPANY
DATE        .                             9/13/2023 11:19:11 AM :LOG DATE  
API         .                                    42245030100000 :API NUMBER
UWI         .                                    42245030100000 :UNIQUE WELL ID
XCOORD      .                                  1300794.63996209 :SURFACE X 
YCOORD      .                                  10796706.8159759 :SURFACE Y 
LAT         .                                        29.7451097 :LATITUDE  
LON         .                                       -94.0705183 :LONGITUDE 
ELEV        .FT                                            17.6 :ELEVATION VALUE
ELEV_TYPE   .                                                KB :ELEVATION REFERENCE TYPE
~Curve Information Section
#MNEM       .UNIT                                      API CODE :CURVE DESCRIPTION
#------------------------------------------------------------------------------
DEPT        .FT                                                 :DEPTH     
ASN         .OHMM                                               :          
DT          .US/F                                               :          
ILD         .OHMM                                               :          
SP          .MV                                                 :          
SP_NORM     .MV                                                 :SP Normalized
VSH_SP      .V/V                                                :Volume of Shale from SP
~A        DEPTH            ASN             DT            ILD             SP        SP_NORM         VSH_SP
# ...
      2643.0000         1.0863       150.9334         0.9604       -47.5729      -1.145275      0.9946194
      2643.5000         1.0964       152.5387         0.9524       -47.0153     -0.5923691              1
      2644.0000          1.103       155.5358         0.9427       -46.4844    -0.06616211              1
      2644.5000         1.1074       151.2107         0.9317       -46.6659     -0.2523499              1
      2645.0000         1.1089       148.9394         0.9241       -46.8621     -0.4532394              1
      2645.5000          1.108       147.8028         0.9175       -47.9094      -1.505234      0.9812877
      2646.0000         1.1085       144.5827         0.9143       -49.1509      -2.751427      0.9351323
      2646.5000         1.1101       140.2204         0.9163       -50.5263      -4.131516      0.8840179
      2647.0000         1.1146       136.3655         0.9234       -51.4745      -5.084408      0.8487256
      2647.5000         1.1221       132.5106         0.9384       -52.4023      -6.016903      0.8141888
      2648.0000         1.1331       128.6556         0.9534       -53.2796      -6.898891      0.7815225
      2648.5000         1.1441       130.7331         0.9704       -53.8425       -7.46648      0.7605007
      2649.0000          1.156       135.2227         0.9873       -53.3558      -6.984474      0.7783528
      2649.5000         1.1718       140.1485         1.0043       -52.7582      -6.391567      0.8003123
      2650.0000         1.1874       136.3699         1.0215        -52.161      -5.799057      0.8222572
      2650.5000         1.2077       132.1846         1.0386       -51.7106      -5.353352      0.8387647
      2651.0000         1.2305       128.3937         1.0513       -51.3121      -4.959541      0.8533503
      2651.5000         1.2467       133.4134         1.0608       -51.2299      -4.882034       0.856221
      2652.0000          1.259       137.5977         1.0568       -51.1674      -4.824226       0.858362
      2652.5000         1.2702       130.5135         1.0527       -51.1995      -4.861019      0.8569993
      2653.0000         1.2775       124.0016         1.0439       -51.4155      -5.081707      0.8488257
      2653.5000         1.2755       117.4897         1.0336       -51.6316      -5.302498      0.8406482
      2654.0000         1.2658       114.0876         1.0187       -51.8476       -5.52319      0.8324745
      2654.5000         1.2473       118.7832          0.997       -52.0964      -5.776684      0.8230858
      2655.0000         1.2246       123.1444          0.968       -52.4111      -6.096073      0.8112565
      2655.5000         1.1868        128.087         0.9245        -52.726      -6.415668      0.7994197
      2656.0000         1.0716       125.3863         0.8691       -53.0322      -6.726559      0.7879052
      2656.5000          1.028       122.2701         0.8147       -53.3206       -7.01965        0.77705
      2657.0000         0.9959       125.4568         0.7614       -53.6092      -7.312943      0.7661873
      2657.5000           0.97       137.6009          0.704       -53.9173      -7.625732      0.7546025
      2658.0000         0.9493       143.9846         0.6532       -54.2672      -7.980324      0.7414695
      2658.5000         0.9322       148.1889         0.6092       -54.6141      -8.331917      0.7284475
      2659.0000         0.9134       144.0983         0.5722       -54.9586      -8.681107      0.7155146
      2659.5000         0.8973       146.0398         0.5424       -55.5859      -9.313099      0.6921074
      2660.0000         0.8816       147.8953         0.5193       -56.2996      -10.03149      0.6655003
      2660.5000          0.862       150.0543         0.4977       -57.0725      -10.80908      0.6367007
      2661.0000         0.8413       145.9434         0.4828       -58.1802      -11.92147      0.5955009
      2661.5000         0.8511       142.0116          0.472       -59.5073      -13.25327      0.5461752
      2662.0000         0.8766       139.0902         0.4624       -61.3821      -15.13276      0.4765646
      2662.5000         0.8952       138.2074         0.4545       -63.0716      -16.82695      0.4138167
      2663.0000         0.9224        144.312         0.4488        -65.017      -18.77704      0.3415911
      2663.5000         0.9525       151.5255          0.446       -66.6526      -20.41734      0.2808394
      2664.0000          0.973       164.8192         0.4432       -68.1686      -21.93803      0.2245175
      2664.5000          0.941       175.9612         0.4478        -69.079      -22.85312      0.1906252
      2665.0000         0.9102       168.3479         0.4567       -68.6807      -22.45951      0.2052033
      2665.5000         0.8876       160.7346         0.4713       -68.0391       -21.8226      0.2287925
      2666.0000         0.8709       153.1488         0.4876       -67.0739      -20.86209      0.2643671
      2666.5000         0.8498       152.2233         0.5194       -66.2106      -20.00348      0.2961673
      2667.0000         0.8382       151.9142         0.5566       -65.0684      -18.86597      0.3382974
      2667.5000         0.8555        156.532            0.6       -63.3876      -17.18987      0.4003754
      2668.0000          0.876       161.1589         0.6464       -61.5642      -15.37116      0.4677349
      2668.5000         0.9005       165.7858         0.6955       -60.0154      -13.82705      0.5249241
      2669.0000         0.9227       170.4127         0.7281       -58.4492      -12.26554      0.5827577
      2669.5000         0.9354       162.5521         0.7431       -57.3091      -11.13013      0.6248098
      2670.0000         0.9482       145.4967         0.7458       -55.9133      -9.739025      0.6763324
      2670.5000         0.9558       144.1314         0.7473        -54.717      -8.547413      0.7204662
      2671.0000         0.9634       142.8678         0.7473       -53.7077      -7.542805      0.7576739
      2671.5000         0.9677       141.7085          0.736       -53.0817      -6.921497      0.7806853
      2672.0000          0.972        140.703         0.7246       -52.9485      -6.792992      0.7854447
      2672.5000         0.9762       141.5065         0.7117       -53.0349      -6.884083       0.782071
      2673.0000         0.9799       141.1196         0.6955       -53.6572      -7.511074      0.7588491
      2673.5000         0.9695       138.6466         0.6792       -54.4474      -8.305965      0.7294087
      2674.0000         0.9592       136.0636         0.6622       -55.5069      -9.370159      0.6899941
      2674.5000         0.9489       138.7988         0.6383       -56.6865      -10.55445      0.6461315
      2675.0000         0.9345       141.6611         0.6139       -57.8668      -11.73944      0.6022431
      2675.5000         0.9226       144.5235         0.5913       -59.0947      -12.97203      0.5565915
      2676.0000         0.9131       147.3858         0.5689       -60.2173      -14.09932      0.5148399
      2676.5000         0.9047       150.2481         0.5466       -61.2006      -15.08731      0.4782476
      2677.0000         0.8975       139.3385         0.5243       -62.1367      -16.02811      0.4434035
      2677.5000         0.8904       133.3678         0.5269       -63.0115       -16.9076      0.4108296
      2678.0000         0.8849       135.8352         0.5316       -63.9371      -17.83789      0.3763744
      2678.5000         0.8976       132.7002          0.538       -64.8342      -18.73968      0.3429748
      2679.0000         0.9104       135.2706          0.548       -65.5238      -19.43398        0.31726
      2679.5000         0.9282       141.8263         0.5563       -66.1826      -20.09747      0.2926865
      2680.0000         0.9537       143.9637          0.564       -66.8226      -20.74216       0.268809
      2680.5000         0.9823       136.7673         0.5722       -67.3735      -21.29774      0.2482317
