#------------------------------------------------------------------------------
# Created by    : vladimir.rabinovich
# Created on    : 09/19/2023 17:22:41
#------------------------------------------------------------------------------
~Version Information Section
VERS.           2.0     :   CWLS log ASCII Standard - VERSION 2.0
WRAP.           NO      :   One line per depth step
~Well Information Section
#MNEM       .UNIT                                         VALUE :DESCRIPTION
#------------------------------------------------------------------------------
STRT        .FT                                             190 :START DEPTH
STOP        .FT                                            7751 :STOP DEPTH
STEP        .FT                                             0.5 :STEP      
NULL        .                                           -999.25 :NULL      
COMP        .                       GOLDEN TRIANGLE STORAGE LLC :COMPANY   
WELL        .                         GOLDEN TRIANGLE STORAGE 2 :WELL      
FLD         .                                        SPINDLETOP :FIELD     
LOC         .                                                   :LOCATION  
CNTY        .                                         JEFFERSON :LOCATION  
STAT        .                                             TEXAS :STATE     
CTRY        .                                     UNITED STATES :COUNTRY   
SRVC        .                                                   :SERVICE COMPANY
DATE        .                             9/13/2023 11:18:46 AM :LOG DATE  
API         .                                    42245325580000 :API NUMBER
UWI         .                                    42245325580000 :UNIQUE WELL ID
XCOORD      .                                  1288599.33875083 :SURFACE X 
YCOORD      .                                  10896379.1240251 :SURFACE Y 
LAT         .                                        30.0189256 :LATITUDE  
LON         .                                       -94.1119908 :LONGITUDE 
ELEV        .FT                                            12.2 :ELEVATION VALUE
ELEV_TYPE   .                                                GL :ELEVATION REFERENCE TYPE
~Curve Information Section
#MNEM       .UNIT                                      API CODE :CURVE DESCRIPTION
#------------------------------------------------------------------------------
DEPT        .FT                                                 :DEPTH     
DCAL        .IN                                                 :          
DPSS        .V/V                                                :          
DRHO        .G/CM3                                              :          
GR          .GAPI                                               :          
GR_NORM     .GAPI                                               :GammaRay Normalized
ILD         .OHMM                                               :          
ILM         .OHMM                                               :          
NPSS        .V/V                                                :Neutron Porosity Sandstone
SFL         .OHMM                                               :          
SP          .MV                                                 :          
SP_NORM     .MV                                                 :SP Normalized
TENS        .LB                                                 :          
VSH_GR      .V/V                                                :Volume of Shale from GR
VSH_SP      .V/V                                                :Volume of Shale from SP
~A        DEPTH           DCAL           DPSS           DRHO             GR        GR_NORM            ILD            ILM           NPSS            SFL             SP        SP_NORM           TENS         VSH_GR         VSH_SP
# ...
      2206.0000         1.4975         0.3782         0.0245           60.3       49.72925         0.5261         0.7568          0.566         1.0387          -75.2      -20.15409           1320      0.3559414      0.6638131
      2206.5000         1.7016         0.3963         0.0245           61.2       50.79658         0.5161         0.7358         0.5526         0.9908            -74      -18.94444           1320      0.3786507       0.686214
      2207.0000         1.8655         0.3987         0.0245           63.9       54.03106         0.5111         0.7087         0.5428         0.9545          -72.4      -17.33479           1320      0.4474693      0.7160225
      2207.5000         1.8674         0.3902         0.0367           64.8       55.09837          0.506         0.7084         0.5234         0.9107          -71.2      -16.12513           1320      0.4701782      0.7384236
      2208.0000         1.9099         0.3757         0.0449           65.1       55.44331         0.5058         0.7081         0.5077         0.8935          -69.6      -14.51547           1320      0.4775172       0.768232
      2208.5000         1.4237         0.3636          0.049           65.4       55.78825         0.5056         0.7011         0.4957         0.8689          -68.8      -13.70582           1320      0.4848565      0.7832255
      2209.0000         1.0587         0.3516          0.049           66.3       56.85559         0.5102         0.7074          0.486         0.8766          -69.2      -14.09616           1320      0.5075657      0.7759971
      2209.5000         0.6929         0.3372         0.0469           66.9       57.56171           0.51         0.7139         0.4812         0.9179          -69.6       -14.4865           1320      0.5225896      0.7687684
      2210.0000         0.3672         0.3288         0.0469           67.5       58.26784         0.5147         0.7204         0.4812         0.9625          -70.4      -15.27685           1320      0.5376136      0.7541324
      2210.5000         0.0816          0.324         0.0469           67.2        57.8904         0.5196         0.7203         0.4812              1          -71.2      -16.06719         1318.8      0.5295829      0.7394965
      2211.0000         0.0408         0.3288          0.051           66.6       57.15175         0.5146         0.7272         0.4788          0.981          -71.2      -16.05753         1356.8      0.5138671      0.7396753
      2211.5000         0.0408         0.3324         0.0551           66.9        57.4967         0.5048         0.7135         0.4776         0.9442          -70.4      -15.24788         1354.8      0.5212064      0.7546688
      2212.0000         0.0408          0.336         0.0633           69.6       60.73117            0.5            0.7         0.4739         0.9087          -70.4      -15.23823         1352.8       0.590025      0.7548476
      2212.5000         0.2449         0.3408         0.0653           71.1       62.52088         0.4954         0.6874         0.4702         0.8838          -71.2      -16.02857         1350.8      0.6281039      0.7402117
      2213.0000         0.3673         0.3504         0.0633           71.1       62.50462         0.4908         0.6874         0.4702            0.9          -72.8      -17.61892         1348.8      0.6277578      0.7107608
      2213.5000         0.4898          0.366         0.0571           67.5       58.15408         0.4862         0.6874         0.4763         0.9174          -73.6      -18.40926         1306.8      0.5351931      0.6961249
      2214.0000         0.7347         0.3816          0.049           64.5       54.52591         0.4954            0.7         0.4824         0.9352          -75.2       -19.9996         1304.8      0.4579982      0.6666741
      2214.5000         1.1837         0.3936         0.0449           64.8       54.87085         0.4954         0.7203         0.4896         0.9532          -75.2      -19.98994         1302.8      0.4653372      0.6668529
      2215.0000         1.7143         0.4008         0.0449             66       56.29936         0.4954         0.7272         0.4932         0.9717          -75.2      -19.98029         1300.8      0.4957311      0.6670318
      2215.5000         1.2245         0.4128         0.0449           67.2       57.72787         0.4954         0.7203         0.4956         0.9624          -74.8      -19.57064         1298.8       0.526125      0.6746178
      2216.0000         0.7755         0.4237         0.0449           66.9       57.35043         0.4954         0.7203          0.492         0.9442          -74.8      -19.56098         1296.8      0.5180942      0.6747966
      2216.5000         1.0204         0.4237          0.051           67.2       57.69537         0.4954         0.7067         0.4836         0.9352          -75.6      -20.35132         1294.8      0.5254333      0.6601607
      2217.0000         1.6327          0.408         0.0571           67.8       58.40151         0.4862         0.6937         0.4788         0.9262          -76.8      -21.54167         1292.8      0.5404576      0.6381173
      2217.5000           2.24         0.3996         0.0633             69       59.83002         0.4729         0.6812         0.4776         0.9087          -79.2      -23.93201         1290.8      0.5708515      0.5938517
      2218.0000           2.72         0.4249         0.0755             69       59.81376         0.4599         0.6629         0.4788            0.9       -81.2245      -25.94686         1288.8      0.5705056      0.5565397
      2218.5000           3.28         0.4531         0.0816           68.4       59.07513         0.4472          0.651         0.4824            0.9        -82.449       -27.1617         1286.8        0.55479      0.5340427
      2219.0000           3.96         0.4641         0.0837           67.5       57.97531         0.4349         0.6335         0.4836            0.9       -82.8571      -27.56014         1284.8      0.5313896       0.526664
      2219.5000           3.72         0.4543         0.0755           67.2       57.59785         0.4309         0.6335         0.4812         0.9352       -84.4898      -29.18319         1282.8      0.5233586      0.4966077
      2220.0000           2.32         0.4092         0.0714           67.8       58.30399         0.4309         0.6335         0.4824         0.9624       -85.3061      -29.98983         1280.8      0.5383828      0.4816698
      2220.5000         1.6327         0.3924         0.0653           68.4       59.01012         0.4309         0.6335         0.4872          0.981       -86.9388      -31.61287           1280      0.5534069      0.4516135
      2221.0000         1.4286         0.3936         0.0633           68.1       58.63268         0.4309         0.6335         0.4956         0.9717       -88.1633      -32.82772           1280      0.5453762      0.4291164
      2221.5000         1.7959         0.4249         0.0592           66.9       57.17166         0.4269         0.6278         0.5196         0.9352       -89.7959      -34.45066           1280      0.5142907      0.3990618
      2222.0000            2.4         0.4567         0.0592           65.1       54.98825          0.419          0.611         0.5498         0.8919       -91.0204      -35.66551           1280      0.4678352      0.3765647
      2222.5000           3.04         0.4956         0.0551           62.7       52.08248         0.4037         0.5886         0.5988         0.8447       -92.6531      -37.28855           1280      0.4060102      0.3465083
      2223.0000           3.68          0.522         0.0551           59.7        48.4543         0.3824         0.5504         0.6312         0.7849       -93.0612        -37.687           1280      0.3288149      0.3391297
      2223.5000         4.0816         0.5473         0.0633           56.4       44.46495         0.3623         0.5097         0.6648         0.7555       -94.2857      -38.90184           1280       0.243935      0.3166327
