#------------------------------------------------------------------------------
# Created by    : vladimir.rabinovich
# Created on    : 09/19/2023 17:20:52
#------------------------------------------------------------------------------
~Version Information Section
VERS.           2.0     :   CWLS log ASCII Standard - VERSION 2.0
WRAP.           NO      :   One line per depth step
~Well Information Section
#MNEM       .UNIT                                         VALUE :DESCRIPTION
#------------------------------------------------------------------------------
STRT        .FT                                            1025 :START DEPTH
STOP        .FT                                            8930 :STOP DEPTH
STEP        .FT                                             0.5 :STEP      
NULL        .                                           -999.25 :NULL      
COMP        .                                     MEREDITH & CO :COMPANY   
WELL        .                                 BROUSSARD JR ETAL :WELL      
FLD         .                                           WILDCAT :FIELD     
LOC         .                                                   :LOCATION  
CNTY        .                                         JEFFERSON :LOCATION  
STAT        .                                             TEXAS :STATE     
CTRY        .                                     UNITED STATES :COUNTRY   
SRVC        .                                                   :SERVICE COMPANY
DATE        .                             9/13/2023 11:19:11 AM :LOG DATE  
API         .                                    42245021860000 :API NUMBER
UWI         .                                    42245021860000 :UNIQUE WELL ID
XCOORD      .                                  1217776.66937412 :SURFACE X 
YCOORD      .                                  10884677.7702762 :SURFACE Y 
LAT         .                                        29.9846645 :LATITUDE  
LON         .                                       -94.3353628 :LONGITUDE 
ELEV        .FT                                              34 :ELEVATION VALUE
ELEV_TYPE   .                                                DF :ELEVATION REFERENCE TYPE
~Curve Information Section
#MNEM       .UNIT                                      API CODE :CURVE DESCRIPTION
#------------------------------------------------------------------------------
DEPT        .FT                                                 :DEPTH     
ASN         .OHMM                                               :          
LAT         .OHMM                                               :          
LN          .OHMM                                               :          
SP          .MV                                                 :          
SP_NORM     .MV                                                 :SP Normalized
VSH_SP      .V/V                                                :Volume of Shale from SP
~A        DEPTH            ASN            LAT             LN             SP        SP_NORM         VSH_SP
# ...
      3115.0000         0.8982         1.2857         0.9091       -54.5455      -2.098827      0.9876536
      3115.5000         0.9368           1.25         0.8727       -64.0741      -11.64141      0.8804336
      3116.0000         0.9754         1.1964         0.8727       -72.5926       -20.1739      0.7845629
      3116.5000         1.0143         1.1607         0.8727       -87.7193       -35.3146      0.6144427
      3117.0000         1.0321         1.0179         0.8909       -97.5439      -45.15319      0.5038968
      3117.5000         1.0607         0.9464         0.9091      -113.0909      -60.71418      0.3290542
      3118.0000         0.9018          0.875         0.9091      -114.5455      -62.18277      0.3125531
      3118.5000            0.7         0.8036         0.9273      -110.9091      -58.56036      0.3532543
      3119.0000         0.6556         0.7679         0.9455      -102.5455      -50.21075      0.4470702
      3119.5000         0.6778           0.75         0.9455       -96.8421      -44.52134      0.5109962
      3120.0000         0.7296         0.7679         0.9636       -85.2632      -32.95643      0.6409389
      3120.5000         0.7815         0.8214         0.9818       -79.2408      -26.94802      0.7084492
      3121.0000         0.8175         0.8571         0.9818       -54.5455      -2.266716      0.9857672
      3121.5000         0.8526         0.8929              1       -53.4545      -1.189701      0.9978685
      3122.0000         0.8737         0.9464         1.0179       -52.3636     -0.1127968              1
      3122.5000         0.9018         0.9643         1.0179       -51.2727      0.9641151              1
      3123.0000         0.9228         0.9821         1.0357       -51.2727      0.9501228              1
      3123.5000         0.9368         1.0179         1.0536       -51.6364      0.5724335              1
      3124.0000         0.9474         1.0179         1.0714       -52.3636     -0.1687584              1
      3124.5000         0.9614         1.0357         1.1071       -52.7273     -0.5464478              1
      3125.0000         0.9754         1.0536         1.1429       -52.3636     -0.1967392              1
      3125.5000         0.9895         1.0714         1.1607            -52      0.1528702              1
      3126.0000              1         1.0893         1.1786            -52      0.1388817              1
      3126.5000         1.0071         1.0893         1.1964       -51.6364      0.4884911              1
      3127.0000         1.0143         1.0893         1.2321       -52.3636     -0.2527046              1
      3127.5000          1.025         1.0893           1.25       -52.3636     -0.2666931              1
      3128.0000         1.0286         1.0893         1.2679       -52.7273     -0.6443825              1
      3128.5000         1.0321         1.0893         1.2679       -52.7273      -0.658371              1
      3129.0000         1.0321         1.0893         1.2857       -52.7273     -0.6723633              1
      3129.5000         1.0393         1.0893         1.2857       -52.7273     -0.6863518              1
      3130.0000         1.0429         1.0714         1.3036       -52.7273     -0.7003441              1
      3130.5000         1.0464         1.0714         1.3214       -52.7273     -0.7143364              1
      3131.0000         1.0536         1.0714         1.3214       -52.7273     -0.7283249              1
      3131.5000         1.0571         1.0536         1.3393       -53.0909      -1.105919      0.9988099
      3132.0000         1.0607         1.0357         1.3393       -53.4545      -1.483505      0.9945673
      3132.5000         1.0714         1.0357         1.3393       -53.8182      -1.861198      0.9903236
      3133.0000         1.0857         1.0357         1.3393       -54.1818      -2.238789       0.986081
      3133.5000         1.1179         1.0536         1.3393       -54.9091       -2.98008      0.9777519
      3134.0000         1.1821         1.0893         1.3393       -55.2727      -3.357674      0.9735093
      3134.5000         1.2182         1.1071         1.3393       -55.2727      -3.371662      0.9733521
      3135.0000         1.2691          1.125         1.3571       -54.9091      -3.022053      0.9772803
      3135.5000         1.3055         1.1429         1.3571       -54.1818      -2.308743      0.9852951
      3136.0000         1.3345         1.1429          1.375       -54.1818      -2.322735      0.9851378
      3136.5000           1.36         1.1429          1.375       -53.8182      -1.967331      0.9891311
      3137.0000         1.3818         1.1429         1.3929       -53.8182      -1.969368      0.9891082
      3137.5000         1.3927         1.1429         1.4107       -53.8182      -1.971405      0.9890853
      3138.0000            1.4         1.1429         1.4107       -53.8182      -1.973438      0.9890625
      3138.5000         1.4036         1.1429         1.4107       -53.8182      -1.975475      0.9890396
      3139.0000         1.4036         1.1429         1.4107       -54.1818      -2.341114      0.9849313
      3139.5000         1.3891         1.1607          1.375       -54.5455      -2.706848      0.9808219
      3140.0000         1.3782         1.1786         1.3571       -54.9091      -3.072483      0.9767137
      3140.5000         1.3636         1.2143         1.3395       -55.6292      -3.794617      0.9685998
      3141.0000         1.3527         1.2321         1.3219       -56.3413      -4.508755      0.9605758
      3141.5000         1.3382           1.25         1.2864       -57.7777      -5.947189      0.9444136
      3142.0000         1.3309           1.25         1.2687       -59.2115      -7.383022      0.9282807
      3142.5000         1.3236           1.25         1.2331       -61.7047      -9.878262      0.9002442
      3143.0000           1.32           1.25         1.2154       -64.5617      -12.73729      0.8681203
      3143.5000         1.3091         1.2321         1.1796       -67.7829      -15.96053      0.8319042
      3144.0000         1.2836         1.2321         1.1618       -70.6497      -18.82936        0.79967
      3144.5000         1.2291         1.2143          1.126       -73.5213        -21.703       0.767382
      3145.0000         1.1929         1.2143         1.1081       -74.5964      -22.78014      0.7552794
      3145.5000         1.1643         1.2321         1.0721       -74.2309      -22.41668      0.7593632
      3146.0000         1.1429         1.2321         1.0541       -72.4209      -20.60871      0.7796775
      3146.5000         1.1179           1.25         1.0361       -70.9688      -19.15865      0.7959702
      3147.0000         1.1036         1.2679              1       -71.6839      -19.87578      0.7879126
      3147.5000         1.0929         1.2857         0.9641       -72.4003      -20.59422      0.7798403
      3148.0000         1.0786         1.3036         0.9462       -71.6689      -19.86485      0.7880353
      3148.5000         1.0607         1.3036         0.9284       -65.8586      -14.05658      0.8532968
      3149.0000         1.0286         1.3036         0.9284       -60.7626      -8.962624      0.9105323
      3149.5000         1.0071         1.2857         0.9464       -59.3027      -7.504757      0.9269128
      3150.0000          0.925         1.2679         0.9643       -57.8643      -6.068394      0.9430518
      3150.5000         0.9286           1.25         0.9821       -57.1429       -5.34903      0.9511345
      3151.0000         0.9464         1.2321              1       -56.4286      -4.636765      0.9591375
      3151.5000         0.9607         1.1964         1.0364       -55.7143        -3.9245      0.9671404
      3152.0000         0.9643         1.1607         1.0727       -55.3571       -3.56934       0.971131
      3152.5000         0.9679          1.125         1.1091       -53.2143       -1.42857      0.9951846
