#------------------------------------------------------------------------------
# Created by    : vladimir.rabinovich
# Created on    : 09/19/2023 17:20:51
#------------------------------------------------------------------------------
~Version Information Section
VERS.           2.0     :   CWLS log ASCII Standard - VERSION 2.0
WRAP.           NO      :   One line per depth step
~Well Information Section
#MNEM       .UNIT                                         VALUE :DESCRIPTION
#------------------------------------------------------------------------------
STRT        .FT                                            1818 :START DEPTH
STOP        .FT                                            9030 :STOP DEPTH
STEP        .FT                                             0.5 :STEP      
NULL        .                                           -999.25 :NULL      
COMP        .                               CONCHO PETROLEUM CO :COMPANY   
WELL        .                                  J E BROUSSARD JR :WELL      
FLD         .                                           WILDCAT :FIELD     
LOC         .                                                   :LOCATION  
CNTY        .                                         JEFFERSON :LOCATION  
STAT        .                                             TEXAS :STATE     
CTRY        .                                     UNITED STATES :COUNTRY   
SRVC        .                                                   :SERVICE COMPANY
DATE        .                             9/13/2023 11:19:11 AM :LOG DATE  
API         .                                    42245021900000 :API NUMBER
UWI         .                                    42245021900000 :UNIQUE WELL ID
XCOORD      .                                  1213918.99973078 :SURFACE X 
YCOORD      .                                  10884047.8383225 :SURFACE Y 
LAT         .                                         29.982808 :LATITUDE  
LON         .                                       -94.3475252 :LONGITUDE 
ELEV        .FT                                              35 :ELEVATION VALUE
ELEV_TYPE   .                                                GL :ELEVATION REFERENCE TYPE
~Curve Information Section
#MNEM       .UNIT                                      API CODE :CURVE DESCRIPTION
#------------------------------------------------------------------------------
DEPT        .FT                                                 :DEPTH     
ASN         .OHMM                                               :          
LAT         .OHMM                                               :          
LN          .OHMM                                               :          
SP          .MV                                                 :          
SP_NORM     .MV                                                 :SP Normalized
VSH_SP      .V/V                                                :Volume of Shale from SP
~A        DEPTH            ASN            LAT             LN             SP        SP_NORM         VSH_SP
# ...
      6606.0000         0.7288         0.7544         0.6071       -56.8966      -0.457695              1
      6606.5000         0.7254         0.7544         0.6071       -57.2414     -0.7542152              1
      6607.0000          0.722         0.7719         0.6071       -57.5862      -1.050735      0.9994603
      6607.5000          0.722         0.7719         0.6071        -57.931      -1.347256      0.9963058
      6608.0000          0.722         0.7719         0.6071       -58.2759      -1.643879      0.9931502
      6608.5000          0.722         0.7719          0.625       -58.2759        -1.5956      0.9936638
      6609.0000         0.7288         0.7895          0.625       -58.2759      -1.547318      0.9941775
      6609.5000         0.7288         0.7895          0.625       -58.6207      -1.843838       0.991023
      6610.0000         0.7356         0.7895          0.625       -58.6207      -1.895615      0.9904722
      6610.5000          0.739         0.7719          0.625       -59.3103      -2.674873      0.9821822
      6611.0000         0.7424         0.7719          0.625       -59.6552       -3.10944      0.9775591
      6611.5000         0.7458         0.7544          0.625       -59.6552        -3.1991      0.9766053
      6612.0000         0.7492         0.7544         0.6429       -59.6552      -3.288765      0.9756514
      6612.5000         0.7525         0.7368         0.6429       -59.3103      -3.033524      0.9783668
      6613.0000         0.7525         0.7193         0.6429       -59.3103      -3.123188      0.9774129
      6613.5000         0.7559         0.7193         0.6429       -59.3103      -3.212849      0.9764591
      6614.0000         0.7559         0.7018         0.6429       -58.9655      -2.957714      0.9791732
      6614.5000         0.7559         0.7018         0.6429       -58.2759      -2.357777      0.9855556
      6615.0000         0.7492         0.6842         0.6429       -58.2759      -2.447437      0.9846017
      6615.5000         0.7492         0.6842         0.6607        -57.931        -2.1922       0.987317
      6616.0000         0.7424         0.6842         0.6607       -57.5862      -1.937061      0.9900312
      6616.5000         0.7424         0.6842         0.6607       -57.5862      -2.026726      0.9890774
      6617.0000         0.7525         0.6842         0.6607       -57.5862      -2.116386      0.9881235
      6617.5000         0.7559         0.6842         0.6607       -57.5862      -2.206051      0.9871697
      6618.0000         0.7729         0.7018         0.6607       -57.5862      -2.295712      0.9862158
      6618.5000         0.7898         0.7018         0.6786       -57.5862      -2.385376       0.985262
      6619.0000            0.8         0.7018         0.6786       -57.2414      -2.130238      0.9879762
      6619.5000          0.807         0.7193         0.6786       -56.8966      -1.875099      0.9906904
      6620.0000          0.807         0.7193         0.6786       -56.8966       -1.96476      0.9897366
      6620.5000            0.8         0.7368         0.6786       -56.5517      -1.709522      0.9924519
      6621.0000         0.7898         0.7368         0.6786       -55.8621      -1.109585      0.9988342
      6621.5000         0.7864         0.7368         0.6786       -55.5172     -0.8543472              1
      6622.0000         0.7864         0.7368         0.6964       -55.1724     -0.5992126              1
      6622.5000         0.7797         0.7368         0.6964       -55.1724     -0.6888733              1
      6623.0000         0.7797         0.7368         0.6964       -55.1724     -0.7785378              1
      6623.5000         0.7763         0.7368         0.6964       -55.1724     -0.8681984              1
      6624.0000         0.7763         0.7368         0.6964       -55.5172      -1.302662      0.9967802
      6624.5000         0.7797         0.7368         0.6964       -55.5172      -1.392323      0.9958264
      6625.0000         0.7797         0.7368         0.7143       -55.1724      -1.137188      0.9985406
      6625.5000         0.7831         0.7368         0.6964       -54.4828     -0.5372467              1
      6626.0000         0.7831         0.7368         0.6964       -54.1379     -0.2820091              1
      6626.5000         0.7898         0.7368         0.7143       -54.1379     -0.3716736              1
      6627.0000         0.7932         0.7544         0.7143       -54.1379     -0.4613342              1
      6627.5000         0.7966         0.7544         0.7143       -53.7931     -0.2061958              1
      6628.0000         0.8035         0.7544         0.7143       -53.4483     0.04894257              1
      6628.5000          0.807         0.7544         0.7321       -53.4483    -0.04072189              1
      6629.0000         0.8105         0.7719         0.7321       -53.1034      0.2145157              1
      6629.5000         0.8175         0.7719         0.7321       -53.4483      -0.220047              1
      6630.0000         0.8316         0.7895           0.75       -53.7931     -0.6545067              1
      6630.5000         0.8491         0.8246           0.75       -53.7931     -0.7441673              1
      6631.0000         0.8772         0.8421           0.75       -53.4483     -0.4890327              1
      6631.5000         0.9018         0.8772           0.75       -53.4483     -0.5786934              1
      6632.0000         0.9158         0.8772           0.75       -53.4483     -0.6683578              1
      6632.5000         0.8877         0.8947           0.75       -53.1034     -0.4131203              1
      6633.0000         0.8596         0.8947         0.7321       -53.1034     -0.5027847              1
      6633.5000         0.8281         0.8947         0.7321       -52.7586     -0.2476425              1
      6634.0000            0.8         0.8947         0.7143       -52.4138    0.007492065              1
      6634.5000         0.7831         0.8772         0.6964        -52.069      0.2626305              1
      6635.0000         0.7627         0.8596         0.6964       -51.7241       0.517868              1
      6635.5000         0.7559         0.8421         0.6786       -51.0345       1.117805              1
      6636.0000         0.7559         0.8246         0.6607       -50.3448       1.717846              1
      6636.5000         0.7525         0.8246         0.6607       -49.6552        2.31778              1
      6637.0000         0.7458         0.8246         0.6607       -48.9655        2.91782              1
      6637.5000         0.7424         0.8246         0.6607       -48.9655       2.828156              1
      6638.0000         0.7424         0.8421         0.6607       -49.3103       2.393696              1
      6638.5000         0.7492         0.8421         0.6607       -50.6897      0.9246292              1
      6639.0000         0.7627         0.8421         0.6786        -52.069     -0.5443306              1
      6639.5000         0.7729         0.8421         0.6786       -53.1034      -1.668396      0.9928894
      6640.0000         0.7831         0.8421         0.6786       -54.1379      -2.792557      0.9809303
      6640.5000         0.7966         0.8246         0.6786       -54.8356      -3.579922       0.972554
      6641.0000          0.807          0.807         0.6964       -54.8483      -3.682281      0.9714651
      6641.5000         0.8246         0.7895         0.7143        -54.861      -3.784641      0.9703761
      6642.0000         0.8351         0.7719         0.7143       -54.8738      -3.887104      0.9692861
      6642.5000         0.8316         0.7544         0.7321       -55.2327      -4.335667      0.9645142
      6643.0000         0.8316         0.7544         0.7321       -54.8994       -4.09203       0.967106
      6643.5000         0.8316         0.7368         0.7321       -54.5655       -3.84779      0.9697044
