#------------------------------------------------------------------------------
# Created by    : vladimir.rabinovich
# Created on    : 09/19/2023 17:19:39
#------------------------------------------------------------------------------
~Version Information Section
VERS.           2.0     :   CWLS log ASCII Standard - VERSION 2.0
WRAP.           NO      :   One line per depth step
~Well Information Section
#MNEM       .UNIT                                         VALUE :DESCRIPTION
#------------------------------------------------------------------------------
STRT        .FT                                            1969 :START DEPTH
STOP        .FT                                            7841 :STOP DEPTH
STEP        .FT                                             0.5 :STEP      
NULL        .                                           -999.25 :NULL      
COMP        .                           NEWFIELD EXPLORATION CO :COMPANY   
WELL        .                                   PHELAN GAS UNIT :WELL      
FLD         .                                          BINDWEED :FIELD     
LOC         .                                                   :LOCATION  
CNTY        .                                         JEFFERSON :LOCATION  
STAT        .                                             TEXAS :STATE     
CTRY        .                                     UNITED STATES :COUNTRY   
SRVC        .                                                   :SERVICE COMPANY
DATE        .                             9/13/2023 11:18:46 AM :LOG DATE  
API         .                                    42245322670000 :API NUMBER
UWI         .                                    42245322670000 :UNIQUE WELL ID
XCOORD      .                                  1272550.81244857 :SURFACE X 
YCOORD      .                                  10898469.5255822 :SURFACE Y 
LAT         .                                        30.0242363 :LATITUDE  
LON         .                                        -94.162774 :LONGITUDE 
ELEV        .FT                                              24 :ELEVATION VALUE
ELEV_TYPE   .                                                KB :ELEVATION REFERENCE TYPE
~Curve Information Section
#MNEM       .UNIT                                      API CODE :CURVE DESCRIPTION
#------------------------------------------------------------------------------
DEPT        .FT                                                 :DEPTH     
AHT20       .OHMM                                               :          
AHT30       .OHMM                                               :          
AHT60       .OHMM                                               :          
AHT90       .OHMM                                               :          
DCAL        .IN                                                 :          
DPHZSS      .V/V                                                :          
DT          .US/FT                                              :          
GR_NORM     .GAPI                                               :GammaRay Normalized
GRR         .GAPI                                               :          
HDRA        .G/CM3                                              :          
NPORSS      .V/V                                                :          
SP          .MV                                                 :          
SP_NORM     .MV                                                 :SP Normalized
TENR        .LB                                                 :          
VSH_GR      .V/V                                                :Volume of Shale from GR
VSH_SP      .V/V                                                :Volume of Shale from SP
~A        DEPTH          AHT20          AHT30          AHT60          AHT90           DCAL         DPHZSS             DT        GR_NORM            GRR           HDRA         NPORSS             SP        SP_NORM           TENR         VSH_GR         VSH_SP
# ...
      7793.0000         0.8371          0.822         0.8073         0.7927        -5.7289        -999.25       104.4676        -999.25        -999.25        -999.25        -999.25       -52.6554       1.718742       3888.856        -999.25              1
      7793.5000         0.8295         0.8146            0.8         0.7854        -5.7269        -999.25       104.3707        -999.25        -999.25        -999.25        -999.25       -53.0653       1.719658       3906.866        -999.25              1
      7794.0000         0.8295         0.8146            0.8         0.7854         -5.725        -999.25       105.3666        -999.25        -999.25        -999.25        -999.25       -52.8752       2.320576       3924.875        -999.25              1
      7794.5000         0.8295         0.8146            0.8         0.7854         -5.723        -999.25       107.2584        -999.25        -999.25        -999.25        -999.25       -53.0851       2.521492       3902.885        -999.25              1
      7795.0000         0.8295         0.8146            0.8         0.7854         -5.721        -999.25       116.4817        -999.25        -999.25        -999.25        -999.25        -53.295       2.722408       3900.896        -999.25              1
      7795.5000         0.8485         0.8333         0.8183         0.8036        -5.7188        -999.25            129        -999.25        -999.25        -999.25        -999.25       -53.9059       2.522324       3898.906        -999.25              1
      7796.0000         0.8563         0.8409         0.8258         0.8109        -5.7368        -999.25            130        -999.25        -999.25        -999.25        -999.25       -54.1158       2.728134       3896.915        -999.25              1
      7796.5000          0.864         0.8485         0.8333         0.8183        -5.7349        -999.25       110.3642        -999.25        -999.25        -999.25        -999.25       -54.3257       2.970131       3894.925        -999.25              1
      7797.0000         0.8759         0.8601         0.8447         0.8295        -5.7329        -999.25       105.0835        -999.25        -999.25        -999.25        -999.25       -54.7356       3.012131       3872.935        -999.25              1
      7797.5000         0.9042         0.8879         0.8719         0.8563        -5.7309        -999.25        -999.25        -999.25        -999.25        -999.25        -999.25       -54.5455       3.654125       3850.945        -999.25              1
      7798.0000         0.9426         0.9253         0.9084         0.8919        -5.7289        -999.25        -999.25        -999.25        -999.25        -999.25        -999.25       -54.7554       3.896126       3828.955        -999.25              1
      7798.5000         0.9735         0.9557         0.9382          0.921        -5.7269        -999.25        -999.25        -999.25        -999.25        -999.25        -999.25       -55.7653       3.338123       3826.965        -999.25              1
      7799.0000         0.9555         0.9381          0.921         0.9042         -5.725        -999.25        -999.25        -999.25        -999.25        -999.25        -999.25       -56.5752       2.980125       3804.975        -999.25              1
      7799.5000         0.9252         0.9083         0.8919         0.8759         -5.723        -999.25        -999.25        -999.25        -999.25        -999.25        -999.25       -57.1851       2.822121       3802.985        -999.25              1
      7800.0000            0.9         0.8838          0.868         0.8524         -5.721        -999.25        -999.25        -999.25        -999.25        -999.25        -999.25        -57.995       2.464123       3820.995        -999.25              1
      7800.5000         0.8759         0.8601         0.8447         0.8295        -5.7215        -999.25        -999.25        -999.25        -999.25        -999.25        -999.25       -58.8054       2.105618       3841.015        -999.25              1
      7801.0000         0.8524         0.8371          0.822         0.8073        -5.7245        -999.25        -999.25        -999.25        -999.25        -999.25        -999.25       -59.6156       1.747318       3843.046        -999.25              1
      7801.5000         0.8295         0.8146            0.8         0.7854        -5.7275        -999.25        -999.25        -999.25        -999.25        -999.25        -999.25        -59.626       2.188816       3865.076        -999.25              1
      7802.0000         0.8073         0.7927         0.7782          0.764        -5.7305        -999.25        -999.25        -999.25        -999.25        -999.25        -999.25       -59.6364       2.630314       3867.107        -999.25              1
      7802.5000         0.7963         0.7818         0.7675         0.7535        -5.7335        -999.25        -999.25        -999.25        -999.25        -999.25        -999.25       -59.8463       2.872314       3869.137        -999.25              1
      7803.0000          0.822         0.8073         0.7927         0.7782        -5.7365        -999.25        -999.25        -999.25        -999.25        -999.25        -999.25       -60.4597       2.710808       3871.167        -999.25              1
      7803.5000         0.8485         0.8333         0.8183         0.8036        -5.7395        -999.25        -999.25        -999.25        -999.25        -999.25        -999.25       -61.4801       2.142311       3893.198        -999.25              1
      7804.0000         0.8759         0.8601         0.8447         0.8295        -5.7425        -999.25        -999.25        -999.25        -999.25        -999.25        -999.25       -63.5105      0.5638084       3915.025        -999.25              1
      7804.5000         0.9041         0.8879         0.8719         0.8563        -5.7455        -999.25        -999.25        -999.25        -999.25        -999.25        -999.25        -64.935     -0.4087906       3917.056        -999.25              1
      7805.0000         0.9336         0.9166            0.9         0.8838        -5.7485        -999.25        -999.25        -999.25        -999.25        -999.25        -999.25       -64.9453      0.0328064       3919.086        -999.25              1
      7805.5000          0.964         0.9465         0.9293         0.9125        -5.7515        -999.25        -999.25        -999.25        -999.25        -999.25        -999.25       -64.5515      0.8785019       3901.117        -999.25              1
      7806.0000         0.9774         0.9684         0.9509         0.9336        -5.7545        -999.25        -999.25        -999.25        -999.25        -999.25        -999.25       -64.9648      0.9171066       3843.147        -999.25              1
      7806.5000          0.964         0.9684         0.9509         0.9336        -5.7575        -999.25        -999.25        -999.25        -999.25        -999.25        -999.25       -65.7832      0.5505981       3865.178        -999.25              1
      7807.0000         0.9293         0.9379         0.9209         0.9041        -5.7605        -999.25        -999.25        -999.25        -999.25        -999.25        -999.25       -66.1975      0.5881958       3867.005        -999.25              1
      7807.5000         0.8879         0.9041         0.8879         0.8719        -5.7835        -999.25        -999.25        -999.25        -999.25        -999.25        -999.25       -66.2078       1.029793       3849.035        -999.25              1
      7808.0000         0.8485         0.8563         0.8409         0.8258        -5.7865        -999.25        -999.25        -999.25        -999.25        -999.25        -999.25       -66.4201       1.269402       3851.066        -999.25              1
      7808.5000         0.8183         0.8524         0.8371          0.822        -5.7895        -999.25        -999.25        -999.25        -999.25        -999.25        -999.25       -68.0465     0.09489441       3853.096        -999.25              1
