#------------------------------------------------------------------------------
# Created by    : vladimir.rabinovich
# Created on    : 09/19/2023 17:20:50
#------------------------------------------------------------------------------
~Version Information Section
VERS.           2.0     :   CWLS log ASCII Standard - VERSION 2.0
WRAP.           NO      :   One line per depth step
~Well Information Section
#MNEM       .UNIT                                         VALUE :DESCRIPTION
#------------------------------------------------------------------------------
STRT        .FT                                            1769 :START DEPTH
STOP        .FT                                           14822 :STOP DEPTH
STEP        .FT                                             0.5 :STEP      
NULL        .                                           -999.25 :NULL      
COMP        .                                      SHELL OIL CO :COMPANY   
WELL        .                                 MCFADDEN CEE CRSS :WELL      
FLD         .                                           WILDCAT :FIELD     
LOC         .                                                   :LOCATION  
CNTY        .                                         JEFFERSON :LOCATION  
STAT        .                                             TEXAS :STATE     
CTRY        .                                     UNITED STATES :COUNTRY   
SRVC        .                                                   :SERVICE COMPANY
DATE        .                             9/13/2023 11:19:11 AM :LOG DATE  
API         .                                    42245030100000 :API NUMBER
UWI         .                                    42245030100000 :UNIQUE WELL ID
XCOORD      .                                  1300794.63996209 :SURFACE X 
YCOORD      .                                  10796706.8159759 :SURFACE Y 
LAT         .                                        29.7451097 :LATITUDE  
LON         .                                       -94.0705183 :LONGITUDE 
ELEV        .FT                                            17.6 :ELEVATION VALUE
ELEV_TYPE   .                                                KB :ELEVATION REFERENCE TYPE
~Curve Information Section
#MNEM       .UNIT                                      API CODE :CURVE DESCRIPTION
#------------------------------------------------------------------------------
DEPT        .FT                                                 :DEPTH     
ASN         .OHMM                                               :          
DT          .US/F                                               :          
ILD         .OHMM                                               :          
SP          .MV                                                 :          
SP_NORM     .MV                                                 :SP Normalized
VSH_SP      .V/V                                                :Volume of Shale from SP
~A        DEPTH            ASN             DT            ILD             SP        SP_NORM         VSH_SP
# ...
      6975.0000         0.3482       100.8103         0.1989       -84.9478      -51.05297              0
      6975.5000         0.3405        95.1867         0.2087       -84.7443      -50.85215              0
      6976.0000         0.3329       108.6522         0.2185       -84.5408      -50.65133              0
      6976.5000         0.3267       127.9297         0.2383       -84.3165      -50.42971              0
      6977.0000         0.3264       127.5767         0.2595       -83.9263      -50.04219              0
      6977.5000          0.326       121.1816         0.2819        -83.536      -49.65457    0.007049638
      6978.0000         0.3369       114.7865         0.3076       -83.1464      -49.26765     0.01494598
      6978.5000         0.3577       108.3914         0.3333        -82.756      -48.87992     0.02285876
      6979.0000         0.3905       110.0135         0.3728       -82.1199      -48.24651      0.0357856
      6979.5000         0.4248       114.1437         0.4191       -81.3739      -47.50318     0.05095548
      6980.0000         0.4797       118.2738         0.4638       -80.4667      -46.59866     0.06941519
      6980.5000         0.5357       117.0296         0.4829       -79.0488      -45.18343     0.09829728
      6981.0000         0.6052       111.5553         0.4872       -73.2858      -39.42311      0.2158549
      6981.5000         0.6463        106.081         0.4537       -67.3967      -33.53669      0.3359859
      6982.0000         0.6701       100.3715         0.4133       -64.2866      -30.42927      0.3994026
      6982.5000         0.6649       114.6793         0.3711       -63.1757      -29.32105      0.4220193
      6983.0000         0.6427         99.866         0.3233       -62.5075      -28.65553      0.4356014
      6983.5000          0.598        87.0653         0.2695       -72.2037       -38.3544      0.2376652
      6984.0000          0.519        73.6896         0.2279       -77.3468      -43.50019      0.1326492
      6984.5000         0.4814        96.1966         0.2169       -80.0962      -46.25226     0.07648445
      6985.0000         0.4391       120.8668         0.2059       -82.2688      -48.42754     0.03209103
      6985.5000         0.3955       118.1789          0.211       -83.0432      -49.20462     0.01623232
      6986.0000         0.3764       115.2212         0.2166       -83.8188       -49.9829    0.000348928
      6986.5000         0.3793       119.5522          0.223       -84.3613      -50.52808              0
      6987.0000         0.4019       116.6907         0.2328       -84.6958      -50.86526              0
      6987.5000         0.4228       118.9963         0.2426       -84.9338      -51.10593              0
      6988.0000         0.4438       121.4202         0.2524        -84.587      -50.76181              0
      6988.5000         0.4653        123.844         0.2609       -84.0042      -50.18169              0
      6989.0000         0.4881       126.2679         0.2685       -82.9506      -49.13077     0.01773943
      6989.5000         0.5271       123.5664         0.2761        -81.598      -47.78085     0.04528886
      6990.0000         0.5453       116.6347         0.2837       -80.0468      -46.23233      0.0768913
      6990.5000         0.5517        109.703         0.2849       -78.2706      -44.45881      0.1130856
      6991.0000         0.5582       106.5165         0.2861       -78.6857      -44.87658      0.1045595
      6991.5000          0.571       110.4184         0.2872       -80.4346      -46.62816     0.06881301
      6992.0000         0.5881        112.647           0.28       -81.7673      -47.96354     0.04156035
      6992.5000         0.6374        111.681         0.2729       -82.9098      -49.10872     0.01818949
      6993.0000         0.6635       110.7149         0.2657       -83.9263       -50.1279              0
      6993.5000         0.6806       109.8857         0.2554       -84.6908      -50.89508              0
      6994.0000         0.6908       118.6013         0.2433       -85.2911      -51.49805              0
      6994.5000         0.6827       118.8826         0.2311       -85.5983      -51.80793              0
      6995.0000         0.6746       112.9257          0.219       -85.9055      -52.11781              0
      6995.5000         0.6583       106.9688         0.2093       -86.2125      -52.42749              0
      6996.0000           0.64       101.0119         0.2008       -86.0729      -52.29057              0
      6996.5000         0.4239         95.055         0.1923       -85.9227      -52.14304              0
      6997.0000         0.3533        98.8022         0.1838       -85.7723      -51.99532              0
      6997.5000         0.3348       106.0069         0.1905       -85.4034       -51.6291              0
      6998.0000           0.32       113.2115         0.1989        -84.668      -50.89638              0
      6998.5000         0.3068       120.4162          0.211       -83.6694      -49.90046    0.002031365
      6999.0000         0.3342       127.6209         0.2526        -82.459      -48.69274     0.02667882
      6999.5000         0.3604       133.8617         0.3013       -80.7087      -46.94512     0.06234453
      7000.0000         0.3814       131.8898         0.3575       -78.7474      -44.98649      0.1023165
      7000.5000          0.413       130.1506         0.4255       -76.1882      -42.42997      0.1544903
      7001.0000         0.4505       128.4113         0.5076       -71.8234      -38.06785      0.2435132
      7001.5000         0.4845       126.7232         0.5955       -67.0657      -33.31282      0.3405546
      7002.0000         0.6291       126.4798         0.6581       -63.3134      -29.56321      0.4170774
      7002.5000         0.6932       125.2796         0.7074       -60.2281      -26.48059       0.479988
      7003.0000         0.7586       122.0751         0.7396       -57.2119      -23.46706      0.5414885
      7003.5000         0.8393       118.8706         0.7574       -55.1616      -21.41944      0.5832767
      7004.0000         0.8661       115.6662         0.7672       -53.8191      -20.07962        0.61062
      7004.5000         0.8862       112.4617         0.7756       -51.9133       -18.1765      0.6494592
      7005.0000         0.8999        112.388         0.7719        -49.774      -16.03988      0.6930638
      7005.5000         0.8883       114.2669         0.7683       -47.7979      -14.06646      0.7333376
      7006.0000         0.8739        114.837         0.7288       -45.9724      -12.24364       0.770538
      7006.5000         0.8584       113.7641         0.6811       -44.3544      -10.62831      0.8035038
      7007.0000         0.8482       113.5342         0.6294       -43.3786      -9.655193      0.8233634
      7007.5000         0.8396       115.2405         0.5786       -43.1733      -9.452572      0.8274986
      7008.0000         0.8311       117.0801         0.5313       -43.4144      -9.696346      0.8225235
      7008.5000         0.8374        121.892         0.4978       -44.1963      -10.48093      0.8065117
      7009.0000         0.8562       127.1116         0.4664       -45.3659       -11.6532      0.7825877
      7009.5000         0.8892       124.8347         0.4386       -52.1257      -18.41568      0.6445779
      7010.0000         0.9075        115.679         0.4363       -55.6335      -21.92616      0.5729355
      7010.5000         0.9249       109.8281         0.4402       -61.8979      -28.19324      0.4450359
      7011.0000         0.9398       106.7944         0.4641       -64.9017      -31.19972      0.3836792
      7011.5000          0.951       107.1321         0.4877       -66.6062       -32.9069      0.3488388
      7012.0000         0.9394       108.6782         0.5109       -66.0109      -32.31428      0.3609331
      7012.5000         0.9234       106.0916         0.5343       -63.5505      -29.85655      0.4110908
