#------------------------------------------------------------------------------
# Created by    : vladimir.rabinovich
# Created on    : 09/19/2023 17:22:03
#------------------------------------------------------------------------------
~Version Information Section
VERS.           2.0     :   CWLS log ASCII Standard - VERSION 2.0
WRAP.           NO      :   One line per depth step
~Well Information Section
#MNEM       .UNIT                                         VALUE :DESCRIPTION
#------------------------------------------------------------------------------
STRT        .FT                                             959 :START DEPTH
STOP        .FT                                            9240 :STOP DEPTH
STEP        .FT                                             0.5 :STEP      
NULL        .                                           -999.25 :NULL      
COMP        .                                  SAMEDAN OIL CORP :COMPANY   
WELL        .                                            WILBER :WELL      
FLD         .                                     HAMSHIRE WEST :FIELD     
LOC         .                                                   :LOCATION  
CNTY        .                                         JEFFERSON :LOCATION  
STAT        .                                             TEXAS :STATE     
CTRY        .                                     UNITED STATES :COUNTRY   
SRVC        .                                                   :SERVICE COMPANY
DATE        .                             9/13/2023 11:18:46 AM :LOG DATE  
API         .                                    42245321080000 :API NUMBER
UWI         .                                    42245321080000 :UNIQUE WELL ID
XCOORD      .                                  1220512.54732583 :SURFACE X 
YCOORD      .                                  10829820.5318697 :SURFACE Y 
LAT         .                                        29.8338887 :LATITUDE  
LON         .                                       -94.3247224 :LONGITUDE 
ELEV        .FT                                              24 :ELEVATION VALUE
ELEV_TYPE   .                                                KB :ELEVATION REFERENCE TYPE
~Curve Information Section
#MNEM       .UNIT                                      API CODE :CURVE DESCRIPTION
#------------------------------------------------------------------------------
DEPT        .FT                                                 :DEPTH     
CALI        .IN                                                 :          
DPSS        .%                                                  :          
DRHO        .G/CM3                                              :          
GR          .GAPI                                               :          
GR_NORM     .GAPI                                               :GammaRay Normalized
ILD         .OHMM                                               :          
ILM         .OHMM                                               :          
NPSS        .%                                                  :Neutron Porosity Sandstone
SGRD        .OHMM                                               :          
SP          .MV                                                 :          
SP_NORM     .MV                                                 :SP Normalized
TENS        .LB                                                 :          
VSH_GR      .V/V                                                :Volume of Shale from GR
VSH_SP      .V/V                                                :Volume of Shale from SP
~A        DEPTH           CALI           DPSS           DRHO             GR        GR_NORM            ILD            ILM           NPSS           SGRD             SP        SP_NORM           TENS         VSH_GR         VSH_SP
# ...
      8645.0000         9.2508        31.2352         0.0254        64.9575       51.52139         3.1489         3.3586        23.9691         5.2105       -100.987      -26.91293       4589.596       0.394072      0.5951105
      8645.5000          9.249        29.0115         0.0323        73.9416       60.49821         2.6566         2.7057        25.1715         3.4834       -96.4274      -22.35332       4630.505      0.5850682      0.6663543
      8646.0000          9.107        26.7345         0.0382        79.6068       66.15613         2.3681          2.412        26.4345         2.6926       -91.4673      -17.39323       4671.515      0.7054495      0.7438558
      8646.5000         9.1049        25.1176         0.0451        79.5951       66.13715         2.1011         2.2098        27.4576           2.14       -91.0849      -17.01083       4672.525      0.7050458      0.7498308
      8647.0000         9.1029        25.0006          0.046        78.0869       64.62167         2.1098         2.1887        28.2406         2.0619       -93.4914      -19.41733       4673.535      0.6728016      0.7122293
      8647.5000         9.0609        25.6636         0.0459        77.4748        64.0023          2.208         2.2182        28.5436         2.1579       -94.7053      -20.63123       4614.545      0.6596233      0.6932621
      8648.0000         9.0789        26.2067         0.0419         76.862       63.38222         2.2793         2.3216        28.0067         2.5451       -96.3196      -22.24553       4595.556      0.6464301      0.6680386
      8648.5000         9.0969        26.8097         0.0389        75.3517       61.86464         2.3638         2.3856        26.8697         3.0161       -99.3331      -25.25903       4596.566      0.6141413      0.6209527
      8649.0000         9.1548        27.5927         0.0358        74.7369       61.24256         2.4403         2.4403        25.7327         3.4119      -100.1492      -26.07513       4617.576      0.6009055      0.6082011
      8649.5000         9.1928        27.8958         0.0338        75.1714       61.66978         2.5077         2.5899        25.1358         3.3185       -99.3716      -25.29752       4638.586      0.6099954      0.6203512
      8650.0000         9.2508        28.1388         0.0317        76.6558        63.1469         2.5185         2.5301        25.5588         2.8652        -98.792      -24.71793       4619.596      0.6414235      0.6294074
      8650.5000         9.3095        27.9615         0.0316        77.9954       64.47923         2.3174         2.4154        26.6415         2.5061       -97.0058      -22.93172       4520.516      0.6697708      0.6573168
      8651.0000         9.4085        27.7846         0.0316         79.635       66.11155          2.182         2.3273        27.8446          2.162       -94.6194      -20.54533       4501.546       0.704501      0.6946043
      8651.5000         9.5274        27.6077         0.0325        78.5763       65.04557         2.0643         2.1815        27.9077         2.1318       -94.2327      -20.15862       4582.577      0.6818206      0.7006465
      8652.0000         9.5265        27.2505         0.0354        75.2727       61.73469         1.8722         1.9891        27.9105         2.2418       -93.4473      -19.37323       4603.505      0.6113763      0.7129183
      8652.5000         9.5255        26.8936         0.0353        73.1613       59.61601         1.6582         1.7535        28.1536         2.2827       -91.8644      -17.79033       4624.536      0.5662981      0.7376511
      8653.0000         9.5844        26.0567         0.0372        76.1555       62.60294         1.5172         1.5386        28.6967           2.22       -89.8843      -15.81023       4605.567      0.6298497      0.7685902
      8653.5000         9.7434        24.3798         0.0431        81.5297       67.96986         1.3817         1.4342        29.1798         1.9509       -86.9079      -12.83382       4586.598      0.7440395      0.8150965
      8654.0000         9.9625        22.8936         0.0529        86.3007       72.73357         1.3369         1.3942        29.4826         1.4675       -82.7406      -8.666527       4567.526      0.8453952      0.8802105
      8654.5000        10.1214         22.362         0.0588        90.0213        76.4469         1.3055         1.3679        30.8657         1.1088       -79.7727      -5.698624       4568.557      0.9244021       0.926584
      8655.0000        10.1204        23.0185         0.0587        89.1104       75.52872         1.2989          1.361        30.2088         1.1083       -80.3899      -6.315826       4609.587      0.9048663      0.9169402
      8655.5000        10.1595        23.6748         0.0547        85.6651       72.07614         1.2985         1.3669        28.1715         1.3927       -82.9943      -8.920227       4650.516      0.8314072      0.8762465
      8656.0000        10.2385        23.8561         0.0476        84.6081       71.01186         1.3163         1.3857        25.9546         1.7999       -85.9957      -11.92162       4651.546      0.8087631      0.8293496
      8656.5000        10.2774        23.3839         0.0446        83.7013       70.09779         1.3282         1.3982        23.5621          2.136       -85.6155      -11.54143       4672.577      0.7893146      0.8352902
      8657.0000        10.2765        22.6146         0.0485        81.9014        68.2906         1.3464         1.4108        23.8025         2.1451        -84.441      -10.36693       4653.505      0.7508639      0.8536417
      8657.5000        10.2955        22.2609         0.0534        81.1457       67.52763         1.3649         1.4302        24.4636         1.9022        -81.878      -7.803925       4614.536      0.7346303      0.8936887
      8658.0000        10.2944        22.7392         0.0553        81.1361       67.51075         1.3772         1.4432        25.2467         1.7319       -81.4985      -7.424423       4575.567      0.7342713      0.8996184
      8658.5000        10.2734        22.8017         0.0513        81.2742       67.64157         1.3703         1.4359        25.8498         1.6369        -82.708      -8.633926       4556.598      0.7370547      0.8807199
      8659.0000        10.2525        22.2701         0.0522        84.8321       71.19219         1.3571         1.4088        26.4526         1.5543       -81.5374      -7.463326       4537.526      0.8125998      0.8990105
      8659.5000        10.2914        21.6788         0.0591        91.5203       77.87312         1.3314         1.3693        27.5957         1.4083       -80.1698      -6.095726       4538.557      0.9547471      0.9203793
      8660.0000        10.3104         21.266          0.065        91.2059       77.55143          1.294         1.3371        29.0988         1.2641       -81.1802      -7.106125       4499.587      0.9479027      0.9045918
      8660.5000        10.1495        21.0314          0.071        87.3229       73.66115         1.2578         1.3242        30.2415         1.3812       -78.8051      -4.731026        4500.51      0.8651308      0.9417027
      8661.0000        10.1085        21.5691         0.0689        85.5332       71.86417         1.2055         1.3238        29.4646         1.8371       -78.8153      -4.741226       4501.531      0.8268973      0.9415433
      8661.5000        10.1874        21.9877         0.0599        85.8226       72.14629         1.1554         1.2988        27.3677         2.1687       -82.2034      -8.129326       4542.551      0.8328999      0.8886043
      8662.0000        10.2664        21.8719         0.0578        86.7062       73.02261         1.1179         1.1935        28.1507         2.0059       -82.2135      -8.139427       4583.571       0.851545      0.8884465
      8662.5000        10.3454         20.865         0.0718        89.3718       75.68094         1.1124         1.1387        30.8537         1.5288       -80.0459      -5.971825       4584.592      0.9081051      0.9223152
