#------------------------------------------------------------------------------
# Created by    : vladimir.rabinovich
# Created on    : 09/19/2023 17:20:51
#------------------------------------------------------------------------------
~Version Information Section
VERS.           2.0     :   CWLS log ASCII Standard - VERSION 2.0
WRAP.           NO      :   One line per depth step
~Well Information Section
#MNEM       .UNIT                                         VALUE :DESCRIPTION
#------------------------------------------------------------------------------
STRT        .FT                                            1818 :START DEPTH
STOP        .FT                                            9030 :STOP DEPTH
STEP        .FT                                             0.5 :STEP      
NULL        .                                           -999.25 :NULL      
COMP        .                               CONCHO PETROLEUM CO :COMPANY   
WELL        .                                  J E BROUSSARD JR :WELL      
FLD         .                                           WILDCAT :FIELD     
LOC         .                                                   :LOCATION  
CNTY        .                                         JEFFERSON :LOCATION  
STAT        .                                             TEXAS :STATE     
CTRY        .                                     UNITED STATES :COUNTRY   
SRVC        .                                                   :SERVICE COMPANY
DATE        .                             9/13/2023 11:19:11 AM :LOG DATE  
API         .                                    42245021900000 :API NUMBER
UWI         .                                    42245021900000 :UNIQUE WELL ID
XCOORD      .                                  1213918.99973078 :SURFACE X 
YCOORD      .                                  10884047.8383225 :SURFACE Y 
LAT         .                                         29.982808 :LATITUDE  
LON         .                                       -94.3475252 :LONGITUDE 
ELEV        .FT                                              35 :ELEVATION VALUE
ELEV_TYPE   .                                                GL :ELEVATION REFERENCE TYPE
~Curve Information Section
#MNEM       .UNIT                                      API CODE :CURVE DESCRIPTION
#------------------------------------------------------------------------------
DEPT        .FT                                                 :DEPTH     
ASN         .OHMM                                               :          
LAT         .OHMM                                               :          
LN          .OHMM                                               :          
SP          .MV                                                 :          
SP_NORM     .MV                                                 :SP Normalized
VSH_SP      .V/V                                                :Volume of Shale from SP
~A        DEPTH            ASN            LAT             LN             SP        SP_NORM         VSH_SP
# ...
      3262.0000          1.242          0.807         0.9286       -61.0909      -5.499954      0.9430386
      3262.5000         1.2594          0.807         0.9643       -63.6364      -8.051029      0.9107465
      3263.0000         1.2768          0.807         0.9643       -65.8182      -10.23841      0.8830581
      3263.5000         1.2804          0.807         0.9643            -68      -12.42579      0.8553698
      3264.0000         1.2875         0.7895         0.9643       -70.1818      -14.61316      0.8276815
      3264.5000         1.2842         0.7895         0.9464       -72.3636      -16.80054      0.7999932
      3265.0000         1.2672         0.7544         0.9286       -74.1818      -18.62431      0.7769074
      3265.5000          1.257         0.7368         0.8929       -73.8182      -18.26629      0.7814394
      3266.0000         1.2399         0.7368          0.875       -72.3636      -16.81727      0.7997814
      3266.5000         1.2159         0.7368         0.8393       -70.5455      -15.00474      0.8227248
      3267.0000         1.1989         0.7368         0.8393       -69.0909      -13.55571      0.8410669
      3267.5000         1.1856         0.7368         0.8214       -67.2727      -11.74309      0.8640115
      3268.0000         1.1824         0.7368         0.7857       -69.0909      -13.56687      0.8409258
      3268.5000         1.1689         0.7368         0.7679       -77.4545      -21.93604      0.7349868
      3269.0000         1.1487         0.7368         0.7679       -85.4237      -29.91082      0.6340402
      3269.5000         1.1015         0.7193         0.7679       -93.2203        -37.713      0.5352785
      3270.0000         1.0711         0.6842         0.7857      -100.7018      -45.20007      0.4405054
      3270.5000         1.0473         0.6839         0.7862      -100.7018      -45.20565      0.4404348
      3271.0000         1.0336         0.6482         0.8049       -96.6102      -41.11963      0.4921567
      3271.5000         1.0165         0.6127         0.8058       -89.8305       -34.3455      0.5779051
      3272.0000         1.0028         0.6121         0.8246        -80.339      -24.85958        0.69798
      3272.5000         1.0128         0.6116         0.8254       -70.1818      -14.70796      0.8264815
      3273.0000         1.0467          0.611         0.8442       -60.3636      -4.895332       0.950692
      3273.5000          1.067         0.6105         0.8451       -61.8182      -6.355507      0.9322088
      3274.0000          1.101         0.6448         0.8638       -63.6364      -8.179283       0.909123
      3274.5000          1.118         0.6616         0.8647       -65.4545      -10.00296      0.8860385
      3275.0000         1.1351         0.6784         0.8835       -66.9091      -11.46314      0.8675551
      3275.5000         1.1453         0.7126         0.9022       -68.7273      -13.28691      0.8444694
      3276.0000         1.1589         0.7119          0.921       -70.5455      -15.11069      0.8213837
      3276.5000         1.1623         0.7113         0.9219            -72      -16.57077      0.8029017
      3277.0000         1.1623         0.7453         0.9228       -73.8182      -18.39454      0.7798159
      3277.5000         1.1554         0.7447         0.9237       -74.9091      -19.49102      0.7659364
      3278.0000         1.1278         0.7786         0.9246       -74.5455        -19.133      0.7704684
      3278.5000         1.0797         0.7779         0.9254       -72.3636      -16.95667      0.7980168
      3279.0000         1.0279         0.8118         0.9263       -69.8182      -14.41685      0.8301665
      3279.5000         0.9721         0.8283         0.9272       -67.6364      -12.24062      0.8577136
      3280.0000         0.9614         0.8621         0.9281       -65.0909      -9.700695      0.8898646
      3280.5000         0.9439         0.8793         0.9285       -62.9091      -7.524475      0.9174117
      3281.0000         0.9229         0.8966         0.9285            -60      -4.620953      0.9541652
      3281.5000          0.909         0.9138         0.9284       -59.6552      -4.281731      0.9584591
      3282.0000         0.9021          0.931         0.9283       -58.9655      -3.597603       0.967119
      3282.5000         0.8987         0.9483         0.9641       -58.9655       -3.60318      0.9670483
      3283.0000         0.8988         0.9483         0.9821       -58.6207      -3.263958      0.9713423
      3283.5000         0.9023          0.931              1       -58.2759      -2.924736      0.9756362
      3284.0000         0.9094         0.9138         1.0345        -57.931      -2.585411      0.9799315
      3284.5000         0.9234         0.8966         1.0517       -57.5862      -2.246185      0.9842255
      3285.0000         0.9304         0.8793          1.069       -57.2414      -1.906963      0.9885194
      3285.5000         0.9444         0.8448         1.1034       -56.5517      -1.222839      0.9971793
      3286.0000         0.9583         0.8276         1.1207       -56.2069     -0.8836174              1
      3286.5000         0.9653         0.7931         1.1379       -55.8621     -0.5443878              1
      3287.0000         0.9723         0.7759         1.1724       -55.1724      0.1397324              1
      3287.5000         0.9792         0.7586         1.1897       -54.8276      0.4789581              1
      3288.0000         0.9827         0.7586         1.1897       -54.4828      0.8181801              1
      3288.5000         0.9827         0.7759         1.1897       -54.4828       0.812603              1
      3289.0000         0.9827         0.7931         1.1897       -54.4828      0.8070297              1
      3289.5000         0.9793         0.8103         1.1724       -54.8276      0.4566536              1
      3290.0000         0.9724         0.8276         1.1724       -55.1724      0.1062737              1
      3290.5000         0.9621         0.8448         1.1725       -55.5152     -0.2421036              1
      3291.0000         0.9552         0.8621         1.1554       -55.8565      -0.588974              1
      3291.5000         0.9448         0.8793         1.1555       -56.1985      -0.936554              1
      3292.0000         0.9379         0.8793         1.1383        -56.541       -1.28463      0.9963971
      3292.5000         0.9241         0.8793         1.1385       -56.8841      -1.633308      0.9919834
      3293.0000         0.9172         0.8793         1.1386       -56.8813      -1.636082      0.9919483
      3293.5000         0.9103         0.8966         1.1214       -57.2254      -1.985756      0.9875221
      3294.0000         0.9138         0.9138         1.1215       -57.9172      -2.683132      0.9786946
      3294.5000         0.9241         0.9138         1.1042       -58.6102       -3.38171      0.9698518
      3295.0000         0.9345         0.9138         1.1043        -58.609      -3.386089      0.9697964
      3295.5000         0.9448          0.931         1.1044       -58.6077      -3.390362      0.9697422
      3296.0000         0.9552         0.9483         1.1045       -58.6065      -3.394737      0.9696869
      3296.5000         0.9621         0.9655         1.1046       -57.9078      -2.701614      0.9784606
      3297.0000         0.9759         0.9828         1.1047       -57.2079      -2.007294      0.9872494
      3297.5000         0.9931              1         1.1222       -56.1574     -0.9623642              1
      3298.0000         1.0069         1.0175         1.1573       -55.1049     0.08455658              1
      3298.5000         1.0414         1.0351         1.1749       -54.7529      0.4309807              1
      3299.0000         1.0552         1.0526         1.2101       -53.6976       1.480701              1
      3299.5000         1.0897         1.0702         1.2628       -52.6404       2.532326              1
