#------------------------------------------------------------------------------
# Created by    : vladimir.rabinovich
# Created on    : 09/19/2023 17:20:51
#------------------------------------------------------------------------------
~Version Information Section
VERS.           2.0     :   CWLS log ASCII Standard - VERSION 2.0
WRAP.           NO      :   One line per depth step
~Well Information Section
#MNEM       .UNIT                                         VALUE :DESCRIPTION
#------------------------------------------------------------------------------
STRT        .FT                                            1818 :START DEPTH
STOP        .FT                                            9030 :STOP DEPTH
STEP        .FT                                             0.5 :STEP      
NULL        .                                           -999.25 :NULL      
COMP        .                               CONCHO PETROLEUM CO :COMPANY   
WELL        .                                  J E BROUSSARD JR :WELL      
FLD         .                                           WILDCAT :FIELD     
LOC         .                                                   :LOCATION  
CNTY        .                                         JEFFERSON :LOCATION  
STAT        .                                             TEXAS :STATE     
CTRY        .                                     UNITED STATES :COUNTRY   
SRVC        .                                                   :SERVICE COMPANY
DATE        .                             9/13/2023 11:19:11 AM :LOG DATE  
API         .                                    42245021900000 :API NUMBER
UWI         .                                    42245021900000 :UNIQUE WELL ID
XCOORD      .                                  1213918.99973078 :SURFACE X 
YCOORD      .                                  10884047.8383225 :SURFACE Y 
LAT         .                                         29.982808 :LATITUDE  
LON         .                                       -94.3475252 :LONGITUDE 
ELEV        .FT                                              35 :ELEVATION VALUE
ELEV_TYPE   .                                                GL :ELEVATION REFERENCE TYPE
~Curve Information Section
#MNEM       .UNIT                                      API CODE :CURVE DESCRIPTION
#------------------------------------------------------------------------------
DEPT        .FT                                                 :DEPTH     
ASN         .OHMM                                               :          
LAT         .OHMM                                               :          
LN          .OHMM                                               :          
SP          .MV                                                 :          
SP_NORM     .MV                                                 :SP Normalized
VSH_SP      .V/V                                                :Volume of Shale from SP
~A        DEPTH            ASN            LAT             LN             SP        SP_NORM         VSH_SP
# ...
      2312.0000         1.6276         0.7586         0.5789      -100.3571      -41.09784      0.4188718
      2312.5000         1.6586         0.7414         0.5789       -98.3051      -39.04584       0.448611
      2313.0000         1.6897         0.7241         0.5614       -98.6441      -39.38484       0.443698
      2313.5000         1.7241         0.7241         0.5614      -101.0714      -41.81215      0.4085196
      2314.0000         1.7552         0.7069         0.5789      -109.6429      -50.38364      0.2842951
      2314.5000         1.7862         0.6724         0.5789      -113.2143      -53.95504      0.2325356
      2315.0000         1.8034         0.6207         0.5789      -116.4286      -57.16934      0.1859516
      2315.5000         1.7172          0.569         0.5965      -118.2143      -58.95504      0.1600718
      2316.0000         1.6276         0.5172         0.5965           -120      -60.74074      0.1341922
      2316.5000          1.586         0.4655          0.614      -121.0345      -61.77524      0.1191994
      2317.0000         1.4947          0.431          0.614      -121.3793      -62.12004      0.1142023
      2317.5000         1.4035         0.3966         0.5965      -121.0345      -61.77524      0.1191994
      2318.0000         1.3754         0.3966         0.5965      -120.3448      -61.08554       0.129195
      2318.5000         1.3474          0.431         0.5789      -118.9286      -59.66934      0.1497197
      2319.0000         1.3158         0.4483         0.5614      -117.8571      -58.59784      0.1652486
      2319.5000         1.3333         0.4828         0.5439      -116.0714      -56.81215      0.1911283
      2320.0000         1.3825         0.5345         0.5439      -114.2857      -55.02644      0.2170081
      2320.5000         1.4456          0.569         0.5439      -111.7857      -52.52644        0.25324
      2321.0000         1.4456         0.6034         0.5088      -109.2857      -50.02644      0.2894719
      2321.5000          1.407         0.5862         0.5088      -106.7857      -47.52644      0.3257038
      2322.0000         1.3649         0.5517         0.5088      -104.2857      -45.02644      0.3619356
      2322.5000         1.3228         0.5345         0.5263      -101.4286      -42.16934      0.4033429
      2323.0000         1.2877         0.5172         0.5439      -101.7857      -42.52644      0.3981676
      2323.5000         1.3333         0.4828         0.5614      -102.8571      -43.59784      0.3826399
      2324.0000         1.3825         0.4655         0.5614      -103.9286      -44.66934       0.367111
      2324.5000         1.4316         0.4483         0.5789           -105      -45.74074      0.3515835
      2325.0000         1.4772         0.4483         0.5789      -106.0714      -46.81215      0.3360559
      2325.5000         1.5263          0.431         0.5789         -107.5      -48.24074      0.3153516
      2326.0000         1.5754          0.431         0.5965         -107.5      -48.24074      0.3153516
      2326.5000         1.6241          0.431         0.5965         -107.5      -48.24074      0.3153516
      2327.0000         1.6621          0.431          0.614         -107.5      -48.24074      0.3153516
      2327.5000         1.5579         0.4483         0.6491      -106.7857      -47.52644      0.3257038
      2328.0000         1.5053         0.4483         0.6842      -105.7143      -46.45504      0.3412313
      2328.5000            1.4          0.431         0.7368      -103.9286      -44.66934       0.367111
      2329.0000         1.2947         0.4483         0.7895       -96.6102      -37.35094      0.4731748
      2329.5000         1.1895         0.4655         0.8246       -88.4746      -29.21534       0.591082
      2330.0000         1.1719         0.4828         0.8421        -80.678      -21.41874      0.7040762
      2330.5000         1.1684            0.5         0.8772       -76.3636      -17.10434      0.7666037
      2331.0000         1.1684         0.5345         0.8947       -70.9091      -11.64985      0.8456544
      2331.5000         1.1789         0.5517         0.9298       -68.7273      -9.468044      0.8772747
      2332.0000          1.186          0.569         0.9649       -66.1818      -6.922543       0.914166
      2332.5000         1.1965         0.5862         0.9825            -64      -4.740742      0.9457864
      2333.0000         1.2105         0.6207         1.0172       -63.6364       -4.37714      0.9510559
      2333.5000         1.2281         0.6379         1.0345       -62.9091      -3.649841      0.9615965
      2334.0000         1.2456         0.6552          1.069       -62.5455      -3.286243       0.966866
      2334.5000         1.2632         0.6897         1.0862       -61.8182      -2.558941      0.9774067
      2335.0000         1.2772         0.6897         1.1207       -61.0909      -1.831642      0.9879472
      2335.5000         1.3053         0.7069         1.1379       -60.7273       -1.46804      0.9932168
      2336.0000         1.3228         0.7241         1.1724       -60.7273       -1.46804      0.9932168
      2336.5000         1.3368         0.7241         1.2069       -60.7273       -1.46804      0.9932168
      2337.0000         1.3439         0.7241         1.2241       -60.7273       -1.46804      0.9932168
      2337.5000         1.3509         0.7241         1.2586       -62.1818      -2.922543      0.9721371
      2338.0000         1.3579         0.7241         1.2759       -64.3636      -5.104343      0.9405168
      2338.5000         1.3614         0.7241         1.2759       -66.1818      -6.922543       0.914166
      2339.0000         1.3719         0.7069         1.2759       -68.7273      -9.468044      0.8772747
      2339.5000         1.3825         0.6897         1.2759       -70.1818      -10.92254       0.856195
      2340.0000          1.393         0.6897         1.2759            -72      -12.74074      0.8298443
      2340.5000         1.4105         0.6897         1.2759       -73.4544      -14.19514      0.8087661
      2341.0000         1.4246         0.6897         1.2586       -73.8162      -14.55694      0.8035226
      2341.5000         1.3448         0.6897         1.2414       -74.1761      -14.91684      0.7983066
      2342.0000         1.3966         0.7069         1.1897       -74.1738      -14.91454        0.79834
      2342.5000         1.4138         0.7069         1.1379       -74.5308      -15.27154       0.793166
      2343.0000         1.5172         0.7414         1.0862       -74.8858      -15.62654      0.7880211
      2343.5000         1.6897         0.7759         1.0517       -75.2389      -15.97964      0.7829037
      2344.0000         1.8621         0.8276         0.9825       -76.3029      -17.04364      0.7674834
      2344.5000         2.1228         0.8793         0.9474       -79.1382      -19.87894      0.7263921
      2345.0000         2.2982         0.9483         0.9123       -81.8729      -22.61364      0.6867588
      2345.5000         2.4035         1.0351         0.8772       -83.5508      -24.29154      0.6624415
      2346.0000         2.4737         1.1404          0.807       -85.9068      -26.64754      0.6282965
      2346.5000         2.5439         1.2456         0.7544       -89.6186      -30.35934      0.5745023
      2347.0000          2.614         1.3333         0.7018       -94.3475      -35.08825      0.5059674
      2347.5000         2.4561         1.3509         0.6842       -99.4153      -40.15604      0.4325212
      2348.0000         2.2807         1.3509         0.6667      -104.3661      -45.10684      0.3607705
      2348.5000         1.9655         1.3158         0.6491      -109.7054      -50.44614      0.2833893
      2349.0000         1.8793         1.2807         0.6491      -116.1161      -56.85684      0.1904806
      2349.5000         1.4316         1.1404         0.6316      -122.0619      -62.80264      0.1043096
