#------------------------------------------------------------------------------
# Created by    : vladimir.rabinovich
# Created on    : 09/19/2023 17:20:50
#------------------------------------------------------------------------------
~Version Information Section
VERS.           2.0     :   CWLS log ASCII Standard - VERSION 2.0
WRAP.           NO      :   One line per depth step
~Well Information Section
#MNEM       .UNIT                                         VALUE :DESCRIPTION
#------------------------------------------------------------------------------
STRT        .FT                                            1769 :START DEPTH
STOP        .FT                                           14822 :STOP DEPTH
STEP        .FT                                             0.5 :STEP      
NULL        .                                           -999.25 :NULL      
COMP        .                                      SHELL OIL CO :COMPANY   
WELL        .                                 MCFADDEN CEE CRSS :WELL      
FLD         .                                           WILDCAT :FIELD     
LOC         .                                                   :LOCATION  
CNTY        .                                         JEFFERSON :LOCATION  
STAT        .                                             TEXAS :STATE     
CTRY        .                                     UNITED STATES :COUNTRY   
SRVC        .                                                   :SERVICE COMPANY
DATE        .                             9/13/2023 11:19:11 AM :LOG DATE  
API         .                                    42245030100000 :API NUMBER
UWI         .                                    42245030100000 :UNIQUE WELL ID
XCOORD      .                                  1300794.63996209 :SURFACE X 
YCOORD      .                                  10796706.8159759 :SURFACE Y 
LAT         .                                        29.7451097 :LATITUDE  
LON         .                                       -94.0705183 :LONGITUDE 
ELEV        .FT                                            17.6 :ELEVATION VALUE
ELEV_TYPE   .                                                KB :ELEVATION REFERENCE TYPE
~Curve Information Section
#MNEM       .UNIT                                      API CODE :CURVE DESCRIPTION
#------------------------------------------------------------------------------
DEPT        .FT                                                 :DEPTH     
ASN         .OHMM                                               :          
DT          .US/F                                               :          
ILD         .OHMM                                               :          
SP          .MV                                                 :          
SP_NORM     .MV                                                 :SP Normalized
VSH_SP      .V/V                                                :Volume of Shale from SP
~A        DEPTH            ASN             DT            ILD             SP        SP_NORM         VSH_SP
# ...
      8723.0000         0.8426       133.7517         0.6519       -41.5158      -2.107224      0.9774036
      8723.5000         0.8546       132.0325          0.651        -41.494      -2.080883      0.9779412
      8724.0000         0.8648       129.0401         0.6501       -41.4722      -2.054543      0.9784787
      8724.5000         0.8722        119.561         0.6492       -41.4504      -2.028202      0.9790163
      8725.0000         0.8746       122.0712         0.6482       -41.4286      -2.001862      0.9795538
      8725.5000         0.8687        134.392         0.6454       -41.4069       -1.97562      0.9800894
      8726.0000         0.8628       132.5999         0.6398       -41.3851       -1.94928      0.9806269
      8726.5000         0.8558       130.7312         0.6342       -41.3633      -1.922939      0.9811645
      8727.0000         0.8486       128.8625         0.6286       -41.3416      -1.896698      0.9817001
      8727.5000         0.8414       128.9664          0.623       -41.3198      -1.870358      0.9822376
      8728.0000         0.8341       132.6776         0.6174        -41.298      -1.844017      0.9827752
      8728.5000         0.8273       133.6551         0.6113       -41.2762      -1.817677      0.9833127
      8729.0000         0.8252       129.5469         0.6048       -41.2544      -1.791332      0.9838504
      8729.5000          0.823       125.4388         0.5983       -41.2327      -1.765095      0.9843858
      8730.0000         0.8209       121.9244         0.5918        -41.205      -1.732857      0.9850438
      8730.5000         0.8188       130.4454         0.5854       -41.1448       -1.66811      0.9863651
      8731.0000         0.8167       127.6837         0.5792       -41.0847      -1.603474      0.9876842
      8731.5000         0.8145       128.1999         0.5733       -41.0247      -1.538933      0.9890014
      8732.0000         0.8124       128.7443         0.5674       -40.9645       -1.47419      0.9903226
      8732.5000         0.8065       129.5175         0.5615       -40.9044       -1.40955      0.9916418
      8733.0000         0.8001       130.1891         0.5556       -40.8442       -1.34481      0.9929631
      8733.5000         0.7946       135.1098         0.5523       -40.7841      -1.280167      0.9942823
      8734.0000         0.7938       130.5151         0.5495       -40.7239      -1.215427      0.9956035
      8734.5000          0.793       125.9204         0.5467       -40.6639      -1.150887      0.9969207
      8735.0000         0.7927       121.3258         0.5438       -40.6038      -1.086246      0.9982399
      8735.5000         0.7954       125.1299         0.5423       -40.5436      -1.021503      0.9995611
      8736.0000         0.7981       132.0948         0.5421       -40.4835     -0.9568672              1
      8736.5000         0.8009       135.8033          0.542       -40.4233     -0.8921242              1
      8737.0000         0.8036       132.7243         0.5419       -40.3632     -0.8274841              1
      8737.5000         0.8063       129.6453         0.5414       -40.3032     -0.7629433              1
      8738.0000         0.8068       126.5663         0.5403        -40.243     -0.6982002              1
      8738.5000          0.806       123.4873         0.5393       -40.1829     -0.6335602              1
      8739.0000         0.7975       120.4083         0.5383       -40.1375      -0.583622              1
      8739.5000         0.7889       127.6553         0.5371       -40.0923     -0.5338783              1
      8740.0000         0.7803       137.7338         0.5337       -40.0471     -0.4841385              1
      8740.5000         0.7736        135.584         0.5303        -40.002     -0.4344978              1
      8741.0000         0.7674        133.653         0.5268       -39.9568     -0.3847542              1
      8741.5000         0.7612       135.8727         0.5236       -39.9116     -0.3350143              1
      8742.0000          0.755       139.8124         0.5205       -39.8665     -0.2853775              1
      8742.5000         0.7512       143.7522         0.5174       -39.8214      -0.235733              1
      8743.0000         0.7504        143.651         0.5143       -39.7762     -0.1859932              1
      8743.5000         0.7495       139.1309         0.5114        -39.731     -0.1362534              1
      8744.0000         0.7487       141.3587         0.5087       -39.6859     -0.0866127              1
      8744.5000         0.7473       144.0891         0.5059       -39.6407    -0.03687286              1
      8745.0000         0.7452       140.5499         0.5032       -39.5955     0.01286697              1
      8745.5000          0.743       136.6021         0.5005       -39.5503     0.06261063              1
      8746.0000         0.7407       132.6543         0.4987       -39.5051      0.1123505              1
      8746.5000         0.7359       128.7065          0.497       -39.4612      0.1607895              1
      8747.0000          0.731       139.9081         0.4953       -39.4655      0.1610336              1
      8747.5000         0.7262       138.2228         0.4936       -39.4698       0.161274              1
      8748.0000         0.7214       136.6765         0.4919       -39.4742      0.1614113              1
      8748.5000         0.7167        134.952         0.4885       -39.4786      0.1615562              1
      8749.0000         0.7134        137.612         0.4848       -39.4829      0.1617966              1
      8749.5000           0.71       140.6185         0.4812       -39.4872      0.1620369              1
      8750.0000         0.7066        143.625         0.4788       -39.4916       0.162178              1
      8750.5000         0.7047       145.1834         0.4775        -39.496      0.1623192              1
      8751.0000         0.7056       142.9688         0.4762       -39.5003      0.1625595              1
      8751.5000         0.7065       140.7542         0.4751       -39.5046      0.1627998              1
      8752.0000         0.7075       138.5396          0.475        -39.509       0.162941              1
      8752.5000         0.7104       136.0395         0.4748       -39.5133      0.1631813              1
      8753.0000         0.7135       137.3398         0.4747       -39.5177      0.1633224              1
      8753.5000         0.7165       140.1019         0.4746       -39.5414      0.1441612              1
      8754.0000         0.7196       142.8641         0.4772       -39.5682      0.1219063              1
      8754.5000         0.7229       146.4205         0.4824        -39.595     0.09964371              1
      8755.0000         0.7266       149.4312         0.4876       -39.6218     0.07738495              1
      8755.5000         0.7302       151.5112         0.5002       -39.6486     0.05512619              1
      8756.0000         0.7339       147.8746         0.5198       -39.6754     0.03286743              1
      8756.5000         0.7426       144.2379         0.5394       -39.7021     0.01070786              1
      8757.0000         0.7526       140.6013         0.5676       -39.7289     -0.0115509              1
      8757.5000         0.7642       141.3703         0.5996       -39.7557    -0.03380966              1
      8758.0000         0.7758       154.8223         0.6338       -39.7825    -0.05607224              1
      8758.5000         0.7874       162.9235         0.6706       -39.8125    -0.08152771              1
      8759.0000          0.799       155.3012         0.6936       -39.8499     -0.1143875              1
      8759.5000         0.8106        147.679         0.7093       -39.8873     -0.1472473              1
      8760.0000         0.8262       140.0567         0.7249       -39.9247     -0.1801071              1
      8760.5000         0.8565       134.8063         0.7328       -39.9622     -0.2130661              1
