#------------------------------------------------------------------------------
# Created by    : vladimir.rabinovich
# Created on    : 09/19/2023 17:20:50
#------------------------------------------------------------------------------
~Version Information Section
VERS.           2.0     :   CWLS log ASCII Standard - VERSION 2.0
WRAP.           NO      :   One line per depth step
~Well Information Section
#MNEM       .UNIT                                         VALUE :DESCRIPTION
#------------------------------------------------------------------------------
STRT        .FT                                            1769 :START DEPTH
STOP        .FT                                           14822 :STOP DEPTH
STEP        .FT                                             0.5 :STEP      
NULL        .                                           -999.25 :NULL      
COMP        .                                      SHELL OIL CO :COMPANY   
WELL        .                                 MCFADDEN CEE CRSS :WELL      
FLD         .                                           WILDCAT :FIELD     
LOC         .                                                   :LOCATION  
CNTY        .                                         JEFFERSON :LOCATION  
STAT        .                                             TEXAS :STATE     
CTRY        .                                     UNITED STATES :COUNTRY   
SRVC        .                                                   :SERVICE COMPANY
DATE        .                             9/13/2023 11:19:11 AM :LOG DATE  
API         .                                    42245030100000 :API NUMBER
UWI         .                                    42245030100000 :UNIQUE WELL ID
XCOORD      .                                  1300794.63996209 :SURFACE X 
YCOORD      .                                  10796706.8159759 :SURFACE Y 
LAT         .                                        29.7451097 :LATITUDE  
LON         .                                       -94.0705183 :LONGITUDE 
ELEV        .FT                                            17.6 :ELEVATION VALUE
ELEV_TYPE   .                                                KB :ELEVATION REFERENCE TYPE
~Curve Information Section
#MNEM       .UNIT                                      API CODE :CURVE DESCRIPTION
#------------------------------------------------------------------------------
DEPT        .FT                                                 :DEPTH     
ASN         .OHMM                                               :          
DT          .US/F                                               :          
ILD         .OHMM                                               :          
SP          .MV                                                 :          
SP_NORM     .MV                                                 :SP Normalized
VSH_SP      .V/V                                                :Volume of Shale from SP
~A        DEPTH            ASN             DT            ILD             SP        SP_NORM         VSH_SP
# ...
      4391.0000         0.4418       140.7655         0.2447       -83.4873      -43.24687     0.03984391
      4391.5000         0.4351       140.2085         0.2459       -83.6724      -43.43071     0.03566577
      4392.0000         0.4402       139.5114         0.2472       -83.8577      -43.61473      0.0314833
      4392.5000         0.4498       137.1154           0.25       -83.9868      -43.74257     0.02857789
      4393.0000         0.4721       135.5688          0.253       -84.0928       -43.8473     0.02619769
      4393.5000         0.5002       137.1931         0.2571       -84.1017      -43.85494     0.02602413
      4394.0000         0.5115       138.6105         0.2643       -84.0126      -43.76458     0.02807782
      4394.5000         0.5196       139.0497         0.2709       -83.9235      -43.67421     0.03013169
      4395.0000          0.524       138.9009         0.2718       -83.8344      -43.58384     0.03218547
      4395.5000         0.5192       137.5807         0.2727       -83.7452      -43.49338     0.03424142
      4396.0000           0.51       134.6936         0.2735        -83.656      -43.40291     0.03629754
      4396.5000         0.4974       131.0846         0.2744        -83.567      -43.31264     0.03834898
      4397.0000         0.4864       127.8365         0.2745        -83.424      -43.16838     0.04162771
      4397.5000         0.4775       131.0077         0.2744       -83.1198      -42.86291     0.04857029
      4398.0000         0.4687       131.0852         0.2744       -82.8152      -42.55704      0.0555217
      4398.5000         0.4614       131.1628         0.2743       -82.4709      -42.21148     0.06337538
      4399.0000         0.4542       131.2576         0.2734       -82.1039      -41.84321     0.07174518
      4399.5000         0.4479       131.4726         0.2712       -81.7371      -41.47515     0.08011029
      4400.0000         0.4423       133.4209          0.269       -81.2241      -40.96088     0.09179818
      4400.5000         0.4368       135.7267         0.2668       -81.4307      -41.16622     0.08713141
      4401.0000         0.4316       135.8317         0.2645       -82.3848      -42.11905     0.06547607
      4401.5000         0.4265       136.5778         0.2623       -83.4603      -43.19328     0.04106183
      4402.0000         0.4246       137.5671           0.26       -84.4504      -44.18212     0.01858815
      4402.5000          0.425       138.6664         0.2582       -85.3165      -45.04695              0
      4403.0000         0.4292        139.765         0.2571       -82.0763      -41.80549     0.07260253
      4403.5000         0.4392       140.8324          0.256       -79.8051      -39.53302      0.1242495
      4404.0000         0.4482       141.6065         0.2551       -77.8719      -37.59856      0.1682146
      4404.5000         0.4558        142.403         0.2552       -76.4891      -36.21449      0.1996708
      4405.0000         0.4627        138.332         0.2553         -75.47      -35.19412      0.2228609
      4405.5000         0.4667        134.261         0.2574       -75.0109      -34.73376      0.2333237
      4406.0000         0.4731       132.8766         0.2594       -74.9589      -34.68049      0.2345343
      4406.5000         0.4834        135.058         0.2675       -75.3003      -35.02063       0.226804
      4407.0000         0.5013       137.1989         0.2755       -75.8009      -35.51996      0.2154554
      4407.5000         0.5163       136.5804         0.2839       -76.3175      -36.03529      0.2037434
      4408.0000         0.5306       136.1939         0.2923       -77.1342      -36.85073      0.1852107
      4408.5000         0.5403       136.1941         0.2981       -77.9296      -37.64486      0.1671622
      4409.0000         0.5423       136.2718         0.3021       -78.6161      -38.33009      0.1515889
      4409.5000         0.5299       136.6572         0.3003       -79.3057      -39.01843      0.1359447
      4410.0000         0.5119       137.5095         0.2944       -80.0219      -39.73336      0.1196964
      4410.5000         0.4923       137.7417         0.2878       -80.6246       -40.3348      0.1060273
      4411.0000         0.4976       137.2779         0.2807       -80.4119      -40.12083      0.1108901
      4411.5000         0.5016       134.9744         0.2748       -80.1991      -39.90676      0.1157554
      4412.0000         0.5001       133.7207          0.271       -79.7394       -39.4458      0.1262318
      4412.5000           0.49       133.2469         0.2663       -79.0547      -38.75983       0.141822
      4413.0000         0.4519       132.4837         0.2604         -78.71      -38.41386      0.1496849
      4413.5000         0.4309       132.3292         0.2585       -79.0718       -38.7744      0.1414908
      4414.0000         0.4152       134.1083         0.2626       -79.4336      -39.13494      0.1332969
      4414.5000         0.4011       134.3994         0.2667       -79.7954      -39.49547      0.1251029
      4415.0000         0.3887       136.0422         0.2734       -80.1572      -39.85601      0.1169089
      4415.5000         0.3777       136.9486         0.2842       -80.6445      -40.34204      0.1058628
      4416.0000         0.3689         137.28          0.295       -81.1417      -40.83797     0.09459157
      4416.5000         0.3697       137.6679         0.3088       -81.5103       -41.2053     0.08624311
      4417.0000         0.3768       138.2085         0.3234       -81.7662      -41.45994     0.08045595
      4417.5000          0.384       138.5181         0.3362       -82.0222      -41.71468     0.07466646
      4418.0000          0.392       137.9769         0.3479       -81.9855       -41.6767     0.07552945
      4418.5000         0.4006       136.8491         0.3587       -81.8446      -41.53454      0.0787605
      4419.0000         0.4092       132.0222          0.366       -81.7036      -41.39227      0.0819938
      4419.5000         0.4185       131.4953         0.3734       -81.3851      -41.07251     0.08926114
      4420.0000         0.4278       130.7852         0.3697       -81.0555      -40.74164     0.09678095
      4420.5000         0.4371       130.4374         0.3661       -80.7257      -40.41058       0.104305
      4421.0000          0.449       129.2388         0.3625       -80.3418      -40.02541      0.1130589
      4421.5000         0.4609        128.206         0.3503       -79.8546      -39.53695      0.1241603
      4422.0000         0.4715       126.7644          0.336       -79.3669      -39.04798      0.1352732
      4422.5000           0.48         129.59         0.3218       -78.7412      -38.42102      0.1495223
      4423.0000         0.4886         132.78          0.307       -78.0677      -37.74625       0.164858
      4423.5000         0.4992       135.7364         0.2894       -77.1874      -36.86468      0.1848936
      4424.0000         0.5124       130.9515         0.2759       -76.1187      -35.79471      0.2092111
      4424.5000         0.5254       126.4931         0.2683       -76.0756      -35.75035      0.2102193
      4425.0000         0.5215       126.3386         0.2608        -76.399      -36.07249       0.202898
      4425.5000         0.4992       128.3803         0.2567       -76.7222      -36.39442      0.1955814
      4426.0000         0.4557       128.7885         0.2535       -77.1771      -36.84805      0.1852715
      4426.5000         0.4314       128.3337         0.2542       -77.7406      -37.41029      0.1724935
      4427.0000         0.4296       127.8789          0.261       -78.2676      -37.93602       0.160545
      4427.5000         0.4424        127.424         0.2746       -78.5909      -38.25805      0.1532262
      4428.0000         0.4602       127.8312         0.2929       -78.9144      -38.58029      0.1459025
      4428.5000         0.4903        131.039         0.3103       -79.2375      -38.90213       0.138588
