#------------------------------------------------------------------------------
# Created by    : vladimir.rabinovich
# Created on    : 09/19/2023 17:20:52
#------------------------------------------------------------------------------
~Version Information Section
VERS.           2.0     :   CWLS log ASCII Standard - VERSION 2.0
WRAP.           NO      :   One line per depth step
~Well Information Section
#MNEM       .UNIT                                         VALUE :DESCRIPTION
#------------------------------------------------------------------------------
STRT        .FT                                             722 :START DEPTH
STOP        .FT                                            8710 :STOP DEPTH
STEP        .FT                                             0.5 :STEP      
NULL        .                                           -999.25 :NULL      
COMP        .                              BRUNER ARNOLD H & CO :COMPANY   
WELL        .                                              WEIR :WELL      
FLD         .                                           WILDCAT :FIELD     
LOC         .                                                   :LOCATION  
CNTY        .                                         JEFFERSON :LOCATION  
STAT        .                                             TEXAS :STATE     
CTRY        .                                     UNITED STATES :COUNTRY   
SRVC        .                                                   :SERVICE COMPANY
DATE        .                             9/13/2023 11:19:11 AM :LOG DATE  
API         .                                    42245021890000 :API NUMBER
UWI         .                                    42245021890000 :UNIQUE WELL ID
XCOORD      .                                  1215604.35578741 :SURFACE X 
YCOORD      .                                  10884998.9913957 :SURFACE Y 
LAT         .                                        29.9854781 :LATITUDE  
LON         .                                       -94.3422367 :LONGITUDE 
ELEV        .FT                                              36 :ELEVATION VALUE
ELEV_TYPE   .                                                DF :ELEVATION REFERENCE TYPE
~Curve Information Section
#MNEM       .UNIT                                      API CODE :CURVE DESCRIPTION
#------------------------------------------------------------------------------
DEPT        .FT                                                 :DEPTH     
ASN         .OHMM                                               :          
LAT         .OHMM                                               :          
LN          .OHMM                                               :          
SP          .MV                                                 :          
SP_NORM     .MV                                                 :SP Normalized
VSH_SP      .V/V                                                :Volume of Shale from SP
~A        DEPTH            ASN            LAT             LN             SP        SP_NORM         VSH_SP
# ...
      3382.0000         1.4035         1.2931         1.2759        -74.386      -2.144753      0.9981442
      3382.5000         1.4386         1.3448         1.2759       -74.7368      -2.500259      0.9935864
      3383.0000         1.4737         1.3966         1.2586       -74.7368      -2.504967       0.993526
      3383.5000         1.5018         1.4483         1.2414       -75.0877      -2.860573       0.988967
      3384.0000         1.5193         1.5172         1.2069       -75.4386      -3.216179       0.984408
      3384.5000         1.5333         1.6897         1.1897       -76.4912      -4.273491      0.9708527
      3385.0000         1.5509         1.7586         1.1552        -77.193      -4.979996      0.9617949
      3385.5000         1.5684         1.7759         1.1207       -77.8947      -5.686401      0.9527385
      3386.0000          1.586         1.7586         1.1034       -77.8947      -5.691109      0.9526781
      3386.5000         1.5263         1.7069         1.1034       -77.8947      -5.695816      0.9526178
      3387.0000         1.4632         1.6207         1.1034       -77.8947      -5.700523      0.9525574
      3387.5000            1.4         1.5345         1.1034       -77.8947      -5.705231      0.9524971
      3388.0000         1.4281         1.4483         1.1207       -78.5965      -6.411736      0.9434393
      3388.5000         1.4842         1.3966         1.1207       -79.2982      -7.118149      0.9343827
      3389.0000         1.5368         1.3793         1.1207       -81.3559      -9.180557      0.9079416
      3389.5000         1.6107         1.3793         1.1379       -84.4068      -12.23616      0.8687672
      3390.0000           1.75         1.3275         1.1379       -88.4746      -16.30867      0.8165555
      3390.5000         1.8421         1.2761         1.1544       -92.8814      -20.72018      0.7599977
      3391.0000         1.8947         1.2245         1.1537       -96.9492      -24.79269      0.7077861
      3391.5000         1.8421         1.1728         1.1703      -101.0714      -28.91959       0.654877
      3392.0000         1.7893         1.1384         1.1696      -104.2857       -32.1386      0.6136078
      3392.5000         1.7354         1.1039         1.1862      -105.3571      -33.21471      0.5998114
      3393.0000         1.7246          1.104         1.1855      -106.0714      -33.93372      0.5905934
      3393.5000         1.7425         1.1388         1.1848      -100.3571      -28.22412      0.6637933
      3394.0000         1.8316         1.2083         1.1841           -100      -27.87173      0.6683112
      3394.5000         2.0168          1.278         1.0443      -100.3571      -28.23354      0.6636726
      3395.0000         2.0841         1.3999         0.9741         -102.5      -30.38114      0.6361392
      3395.5000         2.2184         1.5047         0.8153           -105      -32.88585      0.6040276
      3396.0000         2.3525         1.6792         0.7092           -105      -32.89056      0.6039672
      3396.5000         2.4696         1.9064         0.6732      -103.5714      -31.46667      0.6222222
      3397.0000         2.4692         2.1331         0.6723      -101.0714      -28.97137      0.6542131
      3397.5000          2.452         2.4283          0.689       -98.3051      -26.20978      0.6896182
      3398.0000         2.3346         2.7404         0.6881       -96.6102      -24.51958      0.7112874
      3398.5000         2.2173         2.4639         0.7048       -94.9153      -22.82939      0.7329565
      3399.0000         2.1002         2.1706         0.7039       -96.2712         -24.19      0.7155128
      3399.5000         1.9825         1.8936         0.8083      -101.0714      -28.99491      0.6539114
      3400.0000         1.3825         1.2457         0.9127       -96.9492      -24.87742      0.7066998
      3400.5000         1.2772         1.1219         1.0702       -92.5424      -20.47532      0.7631369
      3401.0000         1.1474         0.9982         1.0351       -88.1356      -16.07323       0.819574
      3401.5000         1.0386         0.9452              1       -83.7288      -11.67113      0.8760111
      3402.0000         0.9966         0.8741         0.9825       -76.8529      -4.799942      0.9641033
      3402.5000         0.9695         0.8732         0.9474       -76.8557      -4.807449      0.9640071
      3403.0000         0.9525         0.9075         0.8947       -76.5093      -4.465759      0.9683877
      3403.5000         0.9356         0.9417         0.8596       -76.5124      -4.473564      0.9682876
      3404.0000          0.922         0.9759         0.8246       -76.5154      -4.481277      0.9681888
      3404.5000         0.9119          1.027         0.7544       -76.5184      -4.488983      0.9680899
      3405.0000         0.9051         1.0435         0.7544       -76.5215      -4.496788      0.9679899
      3405.5000         0.8983         1.0426         0.7544       -76.5245      -4.504494      0.9678911
      3406.0000         0.8949         1.0417         0.7544       -76.8748      -4.859505      0.9633397
      3406.5000         0.8915         1.0408         0.7544       -76.8775      -4.866913      0.9632447
      3407.0000         0.8915         1.0052         0.7895       -76.8802      -4.874321      0.9631497
      3407.5000         0.8915         0.9873         0.7544       -77.2293      -5.228127      0.9586138
      3408.0000         0.8881         0.9513         0.7544       -77.2317      -5.235229      0.9585227
      3408.5000         0.8915         0.9154         0.7544       -77.2341       -5.24234      0.9584315
      3409.0000         0.8915         0.8794         0.7544       -77.2364      -5.249344      0.9583417
      3409.5000         0.8915         0.8434         0.7544       -76.8937      -4.911354       0.962675
      3410.0000         0.8915         0.8075         0.7544       -76.2069      -4.229263      0.9714197
      3410.5000         0.8949         0.7719         0.7544       -75.8621      -3.889168      0.9757799
      3411.0000         0.8983         0.7368         0.7544       -75.5172      -3.548973      0.9801413
      3411.5000         0.9051         0.7018         0.7544       -75.5172       -3.55368       0.980081
      3412.0000         0.9153         0.6667         0.7544       -75.8621       -3.90329      0.9755989
      3412.5000         0.9356         0.6491         0.7719       -77.2414        -5.2873      0.9578551
      3413.0000         0.9627         0.6316         0.7719       -78.6207      -6.671303      0.9401115
      3413.5000         1.0035         0.5965         0.7895        -80.339       -8.39431      0.9180217
      3414.0000         1.0035         0.5789         0.7895       -81.0169       -9.07692      0.9092703
      3414.5000         1.0035         0.5789         0.7895       -82.7119      -10.77663      0.8874791
      3415.0000         0.9763         0.5789         0.7895       -83.7288      -11.79823      0.8743816
      3415.5000         0.9559         0.5965         0.7895       -84.4068      -12.48094       0.865629
      3416.0000         0.9356          0.614          0.807       -83.7288      -11.80765      0.8742609
      3416.5000         0.9186         0.6491         0.8246        -80.678      -8.761559      0.9133133
      3417.0000         0.9186         0.6842         0.8246            -80      -8.088264      0.9219453
      3417.5000         0.9288         0.7193          0.807       -81.3559      -9.448875      0.9045016
      3418.0000         0.9356         0.7368         0.7895       -82.7119      -10.80958      0.8870567
      3418.5000          0.939         0.7544         0.7719       -83.7288      -11.83118      0.8739592
      3419.0000          0.939         0.7719         0.7544       -83.7288      -11.83589      0.8738988
      3419.5000         0.9186          0.807         0.7368       -82.7119       -10.8237      0.8868756
