#------------------------------------------------------------------------------
# Created by    : vladimir.rabinovich
# Created on    : 09/19/2023 17:20:52
#------------------------------------------------------------------------------
~Version Information Section
VERS.           2.0     :   CWLS log ASCII Standard - VERSION 2.0
WRAP.           NO      :   One line per depth step
~Well Information Section
#MNEM       .UNIT                                         VALUE :DESCRIPTION
#------------------------------------------------------------------------------
STRT        .FT                                             722 :START DEPTH
STOP        .FT                                            8710 :STOP DEPTH
STEP        .FT                                             0.5 :STEP      
NULL        .                                           -999.25 :NULL      
COMP        .                              BRUNER ARNOLD H & CO :COMPANY   
WELL        .                                              WEIR :WELL      
FLD         .                                           WILDCAT :FIELD     
LOC         .                                                   :LOCATION  
CNTY        .                                         JEFFERSON :LOCATION  
STAT        .                                             TEXAS :STATE     
CTRY        .                                     UNITED STATES :COUNTRY   
SRVC        .                                                   :SERVICE COMPANY
DATE        .                             9/13/2023 11:19:11 AM :LOG DATE  
API         .                                    42245021890000 :API NUMBER
UWI         .                                    42245021890000 :UNIQUE WELL ID
XCOORD      .                                  1215604.35578741 :SURFACE X 
YCOORD      .                                  10884998.9913957 :SURFACE Y 
LAT         .                                        29.9854781 :LATITUDE  
LON         .                                       -94.3422367 :LONGITUDE 
ELEV        .FT                                              36 :ELEVATION VALUE
ELEV_TYPE   .                                                DF :ELEVATION REFERENCE TYPE
~Curve Information Section
#MNEM       .UNIT                                      API CODE :CURVE DESCRIPTION
#------------------------------------------------------------------------------
DEPT        .FT                                                 :DEPTH     
ASN         .OHMM                                               :          
LAT         .OHMM                                               :          
LN          .OHMM                                               :          
SP          .MV                                                 :          
SP_NORM     .MV                                                 :SP Normalized
VSH_SP      .V/V                                                :Volume of Shale from SP
~A        DEPTH            ASN            LAT             LN             SP        SP_NORM         VSH_SP
# ...
      7600.0000         0.6892         0.7018         0.5785       -70.5455       1.089264              1
      7600.5000            0.7         0.7018         0.5789       -70.5455       1.082375              1
      7601.0000         0.7179         0.7018         0.5789       -70.5455       1.075485              1
      7601.5000          0.725         0.7018         0.5789       -70.5455       1.068596              1
      7602.0000         0.7286         0.6842         0.5789       -70.5455       1.061707              1
      7602.5000         0.7286         0.6667         0.5789       -70.9091       0.692543              1
      7603.0000         0.7286         0.6667         0.5789       -70.9091      0.6876297              1
      7603.5000         0.7286         0.6667         0.5789       -70.9091      0.6827164              1
      7604.0000         0.7286         0.6491         0.5614       -70.9091      0.6778107              1
      7604.5000         0.7286         0.6491         0.5614       -70.9091      0.6728973              1
      7605.0000         0.7286         0.6316         0.5439       -70.9091       0.667984              1
      7605.5000         0.7286         0.6316         0.5439       -70.9091      0.6630707              1
      7606.0000         0.7143         0.6316         0.5263       -70.9091      0.6581573              1
      7606.5000         0.6929         0.6316         0.5439       -70.5455       1.016846              1
      7607.0000          0.675          0.614         0.5439       -70.5455        1.01194              1
      7607.5000         0.6571          0.614         0.5439       -70.5455       1.007027              1
      7608.0000         0.6357          0.614         0.5439       -70.5455       1.002113              1
      7608.5000         0.6321          0.614         0.5263       -70.5455         0.9972              1
      7609.0000         0.6286         0.5965         0.5088       -70.5455      0.9922867              1
      7609.5000         0.6464         0.5965         0.4912       -70.5455       0.987381              1
      7610.0000         0.6643         0.5965         0.4912       -70.9091       0.618866              1
      7610.5000         0.6786         0.5965         0.4912       -70.9091      0.6139526              1
      7611.0000         0.6857         0.5965         0.5088       -70.9091      0.6090393              1
      7611.5000         0.6786         0.5965         0.5263       -71.2727      0.2405319              1
      7612.0000         0.6714         0.5965         0.5439       -70.9091      0.5992126              1
      7612.5000         0.6571         0.5965         0.5439       -70.9091      0.5943069              1
      7613.0000           0.65         0.5965         0.5439       -70.5455      0.9529953              1
      7613.5000         0.6393         0.5965         0.5439       -70.5455       0.948082              1
      7614.0000         0.6286          0.614         0.5439       -70.5455      0.9431686              1
      7614.5000         0.6179          0.614         0.5263       -70.5455      0.9382553              1
      7615.0000         0.6071         0.5965         0.5263       -70.1818        1.29705              1
      7615.5000         0.5966         0.5965         0.5263       -70.1818       1.292137              1
      7616.0000         0.5864         0.5965         0.5263       -70.5455      0.9235229              1
      7616.5000         0.5831         0.5965         0.5263       -70.5455      0.9186096              1
      7617.0000         0.6786         0.5965         0.5263       -70.5455      0.9136963              1
      7617.5000         0.6786         0.5965         0.5263       -70.5455       0.908783              1
      7618.0000         0.6786         0.5965         0.5439       -70.5455      0.9038773              1
      7618.5000         0.7107         0.5965         0.5439       -70.5455      0.8989639              1
      7619.0000         0.7357         0.5789         0.5439       -70.5455      0.8940506              1
      7619.5000         0.7643         0.5614         0.5439       -70.9091      0.5255356              1
      7620.0000         0.7893         0.5439         0.5263       -70.9091      0.5206223              1
      7620.5000         0.8136         0.5439         0.5088       -70.9091      0.5157166              1
      7621.0000         0.8271         0.5439         0.4912       -70.9091      0.5108032              1
      7621.5000         0.8305         0.5439         0.4737       -71.2727      0.1422958              1
      7622.0000         0.8407         0.5614         0.4561       -71.2727      0.1373825              1
      7622.5000         0.8475          0.614         0.4561       -71.2727      0.1324692              1
      7623.0000         0.8508         0.6667         0.4561       -71.2727      0.1275558              1
      7623.5000         0.8339         0.7368         0.4561       -71.2727      0.1226501              1
      7624.0000         0.8203         0.8246         0.4561       -71.2727      0.1177368              1
      7624.5000         0.8034         0.8947         0.4561       -70.9091      0.4764175              1
      7625.0000         0.7857         0.8947         0.4561       -70.5455      0.8351059              1
      7625.5000         0.7714         0.8596         0.4737       -70.1818       1.193893              1
      7626.0000         0.7643          0.807         0.4912       -69.4545        1.91629              1
      7626.5000         0.7571         0.7544         0.5088       -69.0909       2.274979              1
      7627.0000           0.75         0.6842         0.5088       -68.7273       2.633659              1
      7627.5000         0.7464         0.6316         0.5088       -68.3636       2.992447              1
      7628.0000         0.7679          0.614         0.4912            -68       3.351135              1
      7628.5000         0.7857         0.5789         0.4737       -66.9091       4.437126              1
      7629.0000         0.7929         0.5789         0.4561       -66.9091       4.432213              1
      7629.5000         0.7643         0.5789         0.4211       -68.7273         2.6091              1
      7630.0000         0.7536         0.5789         0.4211       -73.0909      -1.759407              1
      7630.5000         0.7429         0.5789         0.4035       -77.8182      -6.491623      0.9541671
      7631.0000         0.7393         0.5789          0.386       -82.3729      -11.05124      0.9076404
      7631.5000         0.7857         0.5614          0.386       -85.7627      -14.44595      0.8730006
      7632.0000         0.8305         0.5263          0.386      -101.0909      -29.77905      0.7165403
      7632.5000         0.8542         0.4912         0.4035      -117.8182      -46.51127      0.5458034
      7633.0000         0.8542         0.4561         0.4035      -134.0351      -62.73308      0.3802747
      7633.5000         0.7464         0.4211         0.4035           -150       -78.7029      0.2173174
      7634.0000         0.5966         0.3684         0.4211       -162.963       -91.6708     0.08499184
      7634.5000         0.4305         0.3158         0.4211      -169.2593      -97.97201      0.0206938
      7635.0000         0.4237         0.2456         0.4035      -171.8519      -100.5695              0
      7635.5000         0.4203          0.193          0.386      -172.2222      -100.9447              0
      7636.0000         0.4203         0.1404         0.3684      -172.2222      -100.9497              0
      7636.5000         0.4508         0.1579         0.3684      -171.4815      -100.2139              0
      7637.0000         0.5085         0.2105         0.3509      -168.1481      -96.88538     0.03178188
      7637.5000         0.5695         0.2281         0.3333      -164.0741      -92.81628     0.07330322
