#------------------------------------------------------------------------------
# Created by    : vladimir.rabinovich
# Created on    : 09/19/2023 17:22:03
#------------------------------------------------------------------------------
~Version Information Section
VERS.           2.0     :   CWLS log ASCII Standard - VERSION 2.0
WRAP.           NO      :   One line per depth step
~Well Information Section
#MNEM       .UNIT                                         VALUE :DESCRIPTION
#------------------------------------------------------------------------------
STRT        .FT                                             959 :START DEPTH
STOP        .FT                                            9240 :STOP DEPTH
STEP        .FT                                             0.5 :STEP      
NULL        .                                           -999.25 :NULL      
COMP        .                                  SAMEDAN OIL CORP :COMPANY   
WELL        .                                            WILBER :WELL      
FLD         .                                     HAMSHIRE WEST :FIELD     
LOC         .                                                   :LOCATION  
CNTY        .                                         JEFFERSON :LOCATION  
STAT        .                                             TEXAS :STATE     
CTRY        .                                     UNITED STATES :COUNTRY   
SRVC        .                                                   :SERVICE COMPANY
DATE        .                             9/13/2023 11:18:46 AM :LOG DATE  
API         .                                    42245321080000 :API NUMBER
UWI         .                                    42245321080000 :UNIQUE WELL ID
XCOORD      .                                  1220512.54732583 :SURFACE X 
YCOORD      .                                  10829820.5318697 :SURFACE Y 
LAT         .                                        29.8338887 :LATITUDE  
LON         .                                       -94.3247224 :LONGITUDE 
ELEV        .FT                                              24 :ELEVATION VALUE
ELEV_TYPE   .                                                KB :ELEVATION REFERENCE TYPE
~Curve Information Section
#MNEM       .UNIT                                      API CODE :CURVE DESCRIPTION
#------------------------------------------------------------------------------
DEPT        .FT                                                 :DEPTH     
CALI        .IN                                                 :          
DPSS        .%                                                  :          
DRHO        .G/CM3                                              :          
GR          .GAPI                                               :          
GR_NORM     .GAPI                                               :GammaRay Normalized
ILD         .OHMM                                               :          
ILM         .OHMM                                               :          
NPSS        .%                                                  :Neutron Porosity Sandstone
SGRD        .OHMM                                               :          
SP          .MV                                                 :          
SP_NORM     .MV                                                 :SP Normalized
TENS        .LB                                                 :          
VSH_GR      .V/V                                                :Volume of Shale from GR
VSH_SP      .V/V                                                :Volume of Shale from SP
~A        DEPTH           CALI           DPSS           DRHO             GR        GR_NORM            ILD            ILM           NPSS           SGRD             SP        SP_NORM           TENS         VSH_GR         VSH_SP
# ...
      7007.0000          11.41        -999.25        -999.25        42.0201       34.73064          0.292         0.2494        -999.25         0.8808      -168.0386      -81.61885       3846.436     0.03682222              0
      7007.5000          11.51        -999.25        -999.25        41.8727       34.57169         0.2922         0.2519        -999.25          0.814      -167.6338      -81.21405       3845.416     0.03344021              0
      7008.0000          11.37        -999.25        -999.25        31.7531       23.80402         0.2938         0.2555        -999.25         0.6574      -165.4326      -79.01285       3844.498              0      0.0124956
      7008.5000          11.09        -999.25        -999.25        33.8424       26.02453         0.2993         0.2615        -999.25         0.5297       -159.234      -72.81424       3843.477              0     0.09095899
      7009.0000          10.97        -999.25        -999.25        37.7139       30.14101         0.3052         0.2664        -999.25         0.5324      -149.0241      -62.60434       3842.457              0      0.2201982
      7009.5000          11.25        -999.25        -999.25        39.9468       32.51429         0.3127         0.2702        -999.25         0.6491       -148.614      -62.19424       3841.437              0      0.2253893
      7010.0000          11.55        -999.25        -999.25        38.3153       30.77651         0.3189         0.2716        -999.25         0.7999       -152.204      -65.78424       3840.416              0      0.1799463
      7010.5000        11.7705        -999.25        -999.25        36.6874       29.04257          0.319         0.2693        -999.25         0.8507      -156.1949      -69.77515         3859.5              0      0.1294285
      7011.0000        11.8115        -999.25        -999.25        38.0315       30.47032          0.303         0.2634        -999.25         0.9003      -158.7847      -72.36494       3858.484              0     0.09664627
      7011.5000        11.9325        -999.25        -999.25        41.0092       33.63594         0.2988         0.2587        -999.25         0.8593      -159.9745      -73.55475       3857.469     0.01353065     0.08158546
      7012.0000        12.1535        -999.25        -999.25        42.7989       35.53773         0.2922         0.2553        -999.25         0.8203      -161.1642      -74.74445       3856.454     0.05399436       0.066526
      7012.5000        11.9945        -999.25        -999.25        43.1027       35.85878         0.2871         0.2519        -999.25         0.7874       -162.154      -75.73425       3855.439     0.06082518      0.0539968
      7013.0000        11.5956        -999.25        -999.25        43.1103       35.86472         0.2807         0.2497        -999.25         0.7737      -163.1447      -76.72495       3834.425     0.06095156     0.04145639
      7013.5000        11.5565        -999.25        -999.25        40.7418        33.3429         0.2733         0.2487        -999.25         0.8062      -163.9345      -77.51474       3873.407     0.00729573     0.03145899
      7014.0000        11.7575        -999.25        -999.25        35.6993        27.9764         0.2673         0.2487        -999.25         0.8527      -164.7242      -78.30444       3932.491              0     0.02146274
      7014.5000        12.2786        -999.25        -999.25         36.895       29.24628         0.2602         0.2488        -999.25         0.8852       -164.914      -78.49425       3971.473              0     0.01906016
      7015.0000        12.1396        -999.25        -999.25        43.4369        36.2036         0.2545         0.2522        -999.25         0.8416      -163.9049      -77.48515        3930.46     0.06816174      0.0318335
      7015.5000        11.2206        -999.25        -999.25         43.296       36.05157         0.2511         0.2568        -999.25         0.7544      -161.8948      -75.47505       3929.445     0.06492696     0.05727782
      7016.0000        10.7416        -999.25        -999.25        40.3334       32.89772         0.2546         0.2604        -999.25         0.6673      -158.6847      -72.26494        3928.43              0     0.09791217
      7016.5000        10.5226        -999.25        -999.25        42.7171       35.43143         0.2676         0.2664        -999.25         0.5252      -154.0745      -67.65474       3927.415     0.05173249      0.1562691
      7017.0000        10.3435        -999.25        -999.25        54.5513       48.01886          0.301         0.2955        -999.25         0.4902      -145.0643      -58.64455       3966.499      0.3195502      0.2703222
      7017.5000        10.1845        -999.25        -999.25        67.0094       61.27002          0.367         0.3339        -999.25         0.5159      -123.4549      -37.03515       3905.487      0.6014898      0.5438589
      7018.0000        10.0856        -999.25        -999.25        76.4663       71.32841         0.4729         0.3958        -999.25         0.5456       -98.6583      -12.23855       3824.476      0.8154982      0.8577399
      7018.5000        10.1066        -999.25        -999.25        84.5743       79.95181         0.6185         0.4861        -999.25         0.4884       -87.1632     -0.7434464       3823.461      0.9989746              1
      7019.0000        10.1276        -999.25        -999.25        91.1816       86.97871         0.7324         0.5883        -999.25         0.4419       -84.9748       1.444954       3842.445              1              1
      7019.5000        10.1885        -999.25        -999.25         96.289       93.20209         0.7849         0.6966        -999.25         0.4243       -84.5687       1.851051       3841.429              1              1
      7020.0000        10.2695        -999.25        -999.25        79.4967        74.1954         0.7064         0.6968        -999.25         0.5567        -89.311      -2.891243       3860.413      0.8764978      0.9760602
      7020.5000        10.3105        -999.25        -999.25        64.6538       57.39491         0.5943         0.6249        -999.25         0.7674       -98.8069      -12.38715       3999.498      0.5190405      0.8558589
      7021.0000        10.3715        -999.25        -999.25        58.0615        49.9319         0.4821         0.5619        -999.25         0.9076      -113.3841      -26.96435       3918.497      0.3602531      0.6713374
      7021.5000        10.5325        -999.25        -999.25        55.6693       47.22228         0.3998         0.4821        -999.25         0.7813      -133.7739      -47.35414       3897.493      0.3026018      0.4132387
      7022.0000        10.6535        -999.25        -999.25        51.9263       42.98392         0.3519         0.4089        -999.25         0.4399      -143.5645      -57.14474       3956.485      0.2124238       0.289307
      7022.5000        10.6345        -999.25        -999.25        51.3339       42.31121         0.3309         0.3485        -999.25         0.2943      -143.1543      -56.73454       3975.479      0.1981108      0.2944995
      7023.0000        10.5555        -999.25        -999.25        55.0914       46.56142         0.3231         0.3501        -999.25          0.424      -136.1444      -49.72464       3974.474      0.2885408      0.3832324
      7023.5000        10.5365        -999.25        -999.25        60.3495        52.5099          0.323         0.3686        -999.25         0.8596      -127.7346      -41.31484       3973.469      0.4151043      0.4896855
      7024.0000        10.4776        -999.25        -999.25        63.5063       56.08028         0.3354         0.3881        -999.25         1.3531      -122.7247      -36.30495       3952.465      0.4910699       0.553102
      7024.5000        10.4586        -999.25        -999.25         62.914       55.40768         0.3684         0.4161        -999.25         1.4308      -119.1148      -32.69505       3851.465      0.4767591      0.5987969
