#------------------------------------------------------------------------------
# Created by    : vladimir.rabinovich
# Created on    : 09/19/2023 17:19:39
#------------------------------------------------------------------------------
~Version Information Section
VERS.           2.0     :   CWLS log ASCII Standard - VERSION 2.0
WRAP.           NO      :   One line per depth step
~Well Information Section
#MNEM       .UNIT                                         VALUE :DESCRIPTION
#------------------------------------------------------------------------------
STRT        .FT                                            1969 :START DEPTH
STOP        .FT                                            7841 :STOP DEPTH
STEP        .FT                                             0.5 :STEP      
NULL        .                                           -999.25 :NULL      
COMP        .                           NEWFIELD EXPLORATION CO :COMPANY   
WELL        .                                   PHELAN GAS UNIT :WELL      
FLD         .                                          BINDWEED :FIELD     
LOC         .                                                   :LOCATION  
CNTY        .                                         JEFFERSON :LOCATION  
STAT        .                                             TEXAS :STATE     
CTRY        .                                     UNITED STATES :COUNTRY   
SRVC        .                                                   :SERVICE COMPANY
DATE        .                             9/13/2023 11:18:46 AM :LOG DATE  
API         .                                    42245322670000 :API NUMBER
UWI         .                                    42245322670000 :UNIQUE WELL ID
XCOORD      .                                  1272550.81244857 :SURFACE X 
YCOORD      .                                  10898469.5255822 :SURFACE Y 
LAT         .                                        30.0242363 :LATITUDE  
LON         .                                        -94.162774 :LONGITUDE 
ELEV        .FT                                              24 :ELEVATION VALUE
ELEV_TYPE   .                                                KB :ELEVATION REFERENCE TYPE
~Curve Information Section
#MNEM       .UNIT                                      API CODE :CURVE DESCRIPTION
#------------------------------------------------------------------------------
DEPT        .FT                                                 :DEPTH     
AHT20       .OHMM                                               :          
AHT30       .OHMM                                               :          
AHT60       .OHMM                                               :          
AHT90       .OHMM                                               :          
DCAL        .IN                                                 :          
DPHZSS      .V/V                                                :          
DT          .US/FT                                              :          
GR_NORM     .GAPI                                               :GammaRay Normalized
GRR         .GAPI                                               :          
HDRA        .G/CM3                                              :          
NPORSS      .V/V                                                :          
SP          .MV                                                 :          
SP_NORM     .MV                                                 :SP Normalized
TENR        .LB                                                 :          
VSH_GR      .V/V                                                :Volume of Shale from GR
VSH_SP      .V/V                                                :Volume of Shale from SP
~A        DEPTH          AHT20          AHT30          AHT60          AHT90           DCAL         DPHZSS             DT        GR_NORM            GRR           HDRA         NPORSS             SP        SP_NORM           TENR         VSH_GR         VSH_SP
# ...
      5137.0000         0.6055         0.5603          0.484         0.4729           0.14         0.2719        41.5325       46.10921        55.6061         0.0133         0.3156       -44.6602      -46.96442       2613.535      0.2789193      0.4379447
      5137.5000         0.6055         0.5707         0.5354         0.5209           0.12         0.2527        44.7275       54.48015        62.1429         0.0163          0.332       -28.8809      -31.19164       2614.545      0.4570244      0.6351045
      5138.0000         0.6167         0.6223         0.5973         0.5919           0.22         0.2368        48.2225       65.65303        70.8673         0.0082         0.3773       -12.7545      -15.07175       2615.556      0.6947453       0.836603
      5138.5000         0.6543         0.6633         0.6055         0.6573           0.44         0.2244        51.4175       80.27118        82.2816        -0.0018          0.434         0.3967       -1.92707       2616.566              1              1
      5139.0000         0.7101         0.7036         0.6251         0.7167           0.62         0.2257        53.6125       85.49233        86.3592        -0.0038         0.4769         2.7756      0.4453149       2617.576              1              1
      5139.5000         0.7713         0.7503         0.6571         0.7713           0.74         0.2319        54.5075       84.37161        85.4854        -0.0088         0.4739         4.7558       2.418999       2618.586              1              1
      5140.0000         0.8386         0.7927         0.7001         0.7964           0.78         0.2388        56.3025       82.13186        83.7379        -0.0148         0.4494         5.3476       3.004284       2639.596              1              1
      5140.5000         0.8915         0.8386         0.7746         0.8152         0.8394         0.2369        58.2974       80.44682        82.4235        -0.0208         0.4304         4.5505       2.200669       2640.036              1              1
      5141.0000         0.8788         0.8345         0.8152         0.8229         0.8384         0.2339         69.184       78.94353         81.251        -0.0208         0.4304         2.1647     -0.1916461       2640.108       0.977522              1
      5141.5000         0.8267         0.7927          0.764         0.7364         0.8375         0.2364        77.1872       76.69416         79.496        -0.0208         0.4366         -2.703      -5.065862        2640.18       0.929663      0.9616767
      5142.0000         0.8038         0.6627          0.639         0.6218         0.6965         0.2465         80.588       74.44478         77.741        -0.0169          0.431       -11.1501      -13.51948       2640.252      0.8818038      0.8560066
      5142.5000         0.7196         0.5806         0.5472         0.5324         0.5355         0.2594        85.2297       71.63583        75.5491         -0.005          0.405       -23.7708      -26.14669       2640.317      0.8220388      0.6981664
      5143.0000         0.5992         0.5179         0.4614         0.4487         0.3744         0.2786        90.6723       64.03443        69.6155          0.001         0.3822       -37.2749      -39.65731       2660.444       0.660307      0.5292836
      5143.5000         0.5015         0.4592         0.4145         0.3868         0.1934         0.2944         96.067       59.92339         66.407         -0.001          0.372       -44.9178      -47.30672       2660.527       0.572838      0.4336659
      5144.0000         0.4382         0.4202         0.4012         0.3482         0.0524         0.3014        94.2623       62.06621        68.0812        -0.0119         0.3696       -46.4811      -48.87654        2660.61        0.61843      0.4140433
      5144.5000          0.428         0.4124         0.3956         0.3561         0.1515         0.3057        85.5121        71.4061        75.3745        -0.0209         0.3828       -38.6932      -41.09515       2660.684       0.817151      0.5113106
      5145.0000         0.4653         0.4279         0.4142         0.4028         0.2704         0.2991        75.1525       77.55046        80.1729        -0.0249          0.396        -24.775      -27.18347       2660.767      0.9478821      0.6852067
      5145.5000          0.539         0.4919         0.4783         0.4652         0.4494         0.2822        76.9473       83.13615        84.5351        -0.0219          0.402       -10.9771      -13.39208        2660.85              1       0.857599
      5146.0000          0.618         0.5903         0.5692         0.5538         0.5485         0.2491        82.2648       85.36348        86.2753        -0.0139          0.402        -2.3728      -4.794299       2660.933              1      0.9650713
      5146.5000            0.7         0.6872         0.6684         0.6501         0.6475          0.223        74.0373       81.62184        83.3552         -0.001         0.3966         0.2735      -2.154514       2661.007              1      0.9980686
      5147.0000            0.8         0.8261         0.7963         0.7746         0.7664          0.203         64.073       75.45546         78.542          0.001           0.39         0.6621      -1.772429       2661.091      0.9033077              1
      5147.5000         0.9054         0.9184         0.8848         0.8491         0.8855         0.1912        54.1274       73.76556        77.2238              0          0.393         1.0512      -1.389844       2661.174      0.8673522              1
      5148.0000         0.9052         0.9009         0.8686         0.8148         1.0245         0.1894        54.5221       76.74003        79.5473          0.001         0.4026         2.2398     -0.2077596       2661.257      0.9306389              1
      5148.5000         0.8724         0.8684         0.8373            0.8         1.1234         0.1981        71.4173        80.8325        82.7437         -0.002         0.4188         3.0293      0.5752251       2661.332              1              1
      5149.0000         0.8221         0.8488         0.8184         0.7963         1.1424         0.2137        88.2954       82.12718        83.7557         -0.007         0.4342         3.2204        0.75981       2661.416              1              1
      5149.5000         0.7782         0.7927          0.764         0.7432         1.1615         0.2287       107.9015       81.55659        83.3114         -0.011         0.4423         2.0128     -0.4543054       2661.499              1              1
      5150.0000         0.7711         0.7535         0.7263         0.7065         1.1405         0.2375          113.7       80.05009        82.1389         -0.008         0.4435         0.0041      -2.474406       2661.583              1      0.9940699
      5150.5000         0.7745         0.8035         0.7745         0.7534         1.0194         0.2458        114.603       78.12134        80.5381         -0.005         0.4287        -1.8358      -4.327917       2662.087      0.9600285       0.970901
      5151.0000         0.8522         0.8798         0.8484         0.8256         0.8984         0.2528       113.6079       76.02113        78.7949        -0.0021          0.396        -2.0376      -4.543328       2663.029      0.9153433      0.9682084
      5151.5000         0.9394         0.9666         0.9305         0.9043         0.7774         0.2452       113.2128        73.2106        76.4617         0.0019         0.3607          0.799       -1.72034        2663.97      0.8555447              1
      5152.0000         1.0366         1.0318         0.9944         0.9573         0.6165         0.2288       113.9177       69.98734        73.7857         0.0018         0.3589         4.5918       2.058849       2664.909      0.7869646              1
      5152.5000         1.0851         1.0703         1.0316         0.9617         0.6555         0.2157       114.9227       66.69387        71.0514         0.0008         0.3679         5.7869       3.240337       2665.848      0.7168909              1
