#------------------------------------------------------------------------------
# Created by    : vladimir.rabinovich
# Created on    : 09/19/2023 17:19:40
#------------------------------------------------------------------------------
~Version Information Section
VERS.           2.0     :   CWLS log ASCII Standard - VERSION 2.0
WRAP.           NO      :   One line per depth step
~Well Information Section
#MNEM       .UNIT                                         VALUE :DESCRIPTION
#------------------------------------------------------------------------------
STRT        .FT                                            1208 :START DEPTH
STOP        .FT                                            8860 :STOP DEPTH
STEP        .FT                                             0.5 :STEP      
NULL        .                                           -999.25 :NULL      
COMP        .                             WEAVER EXPLORATION CO :COMPANY   
WELL        .                                       BEAVERS W H :WELL      
FLD         .                                           WILDCAT :FIELD     
LOC         .                                                   :LOCATION  
CNTY        .                                         JEFFERSON :LOCATION  
STAT        .                                             TEXAS :STATE     
CTRY        .                                     UNITED STATES :COUNTRY   
SRVC        .                                                   :SERVICE COMPANY
DATE        .                             9/13/2023 11:18:46 AM :LOG DATE  
API         .                                    42245314920000 :API NUMBER
UWI         .                                    42245314920000 :UNIQUE WELL ID
XCOORD      .                                  1212655.17721247 :SURFACE X 
YCOORD      .                                  10886677.7304034 :SURFACE Y 
LAT         .                                        29.9899994 :LATITUDE  
LON         .                                       -94.3516153 :LONGITUDE 
ELEV        .FT                                            37.2 :ELEVATION VALUE
ELEV_TYPE   .                                                KB :ELEVATION REFERENCE TYPE
~Curve Information Section
#MNEM       .UNIT                                      API CODE :CURVE DESCRIPTION
#------------------------------------------------------------------------------
DEPT        .FT                                                 :DEPTH     
ALL         .OHMM                                               :          
CILD        .MMHO/M                                             :          
ILD         .OHMM                                               :          
SP          .MV                                                 :          
SP_NORM     .MV                                                 :SP Normalized
VSH_SP      .V/V                                                :Volume of Shale from SP
~A        DEPTH            ALL           CILD            ILD             SP        SP_NORM         VSH_SP
# ...
      4248.0000         0.9896       2811.907         0.3879       112.8878      -42.22517      0.4025337
      4248.5000         0.9558           2588         0.3584       117.7437       -37.3875       0.472645
      4249.0000         0.9538       2294.234         0.3588       125.1763      -29.97311      0.5800998
      4249.5000         0.9539       2074.715         0.3793       132.5858      -22.58183      0.6872198
      4250.0000          0.976       1853.465         0.4898        140.197      -14.98885      0.7972631
      4250.5000         1.0102       1531.977           0.65       147.8822      -7.321884      0.9083785
      4251.0000         1.0327       1100.784           0.76        155.761      0.5386963              1
      4251.5000         1.0552       997.6608           0.93       156.3683       1.127777              1
      4252.0000           1.09       989.3382           1.01       157.3789       2.120163              1
      4252.5000         1.1023       981.0232           1.07       157.9847       2.707733              1
      4253.0000         1.1146       972.6754           1.11       158.3885       3.093323              1
      4253.5000         1.1372       960.2689           1.15       158.5906       3.277191              1
      4254.0000         1.1455       951.9805           1.19       158.5913       3.259659              1
      4254.5000         1.1517       927.2496           1.18        158.592       3.242142              1
      4255.0000           1.16       918.9856           1.17       158.5927       3.224625              1
      4255.5000         1.2252       898.4273           1.16       158.5933       3.207016              1
      4256.0000         1.2534       865.5901           1.16       158.3935       2.988968              1
      4256.5000         1.2936       828.6769           1.18       158.1936       2.770859              1
      4257.0000         1.3358       804.0949           1.25       157.7932       2.352234              1
      4257.5000         1.3579         767.76            1.3       157.5937       2.134521              1
      4258.0000         1.3719       743.5564           1.35        157.194       1.716599              1
      4258.5000          1.368       747.5637           1.38        156.995       1.499374              1
      4259.0000           1.36       751.5748           1.38       156.1955      0.6816406              1
      4259.5000           1.35       775.7753           1.37       155.9972      0.4651184              1
      4260.0000          1.326       804.1758         1.3499       154.1986        -1.3517      0.9949029
      4260.5000         1.2701       844.7923         1.3401       150.0048      -5.524628      0.9344257
      4261.0000         1.2402       885.4524              1        147.207       -8.28569      0.8944103
      4261.5000         1.2423       930.2419           0.93       144.4064      -11.04955      0.8543544
      4262.0000         1.2484       1044.588           0.86       138.5884      -16.83083      0.7705677
      4262.5000         1.2585       1903.487           0.77       126.9035      -28.47897       0.601754
      4263.0000         1.2626       1903.487            0.7       121.0686      -34.27713      0.5177227
      4263.5000         1.2627       1903.487           0.65       115.2235      -40.08549      0.4335437
      4264.0000         1.2628       1946.937            0.6       109.3753      -45.89695      0.3493196
      4264.5000         1.2629       1994.345           0.55        98.3772      -56.85832      0.1904591
      4265.0000          1.263       2083.549            0.5        98.3772      -56.82158      0.1909916
      4265.5000         1.3211       2172.643            0.5        98.3862      -56.77583      0.1916546
      4266.0000         1.3532       2378.188            0.5       101.5329      -53.59239      0.2377914
      4266.5000         1.3853       2378.096            0.5       106.3912      -48.69736      0.3087339
      4267.0000         1.3834       2342.976            0.5        109.433      -45.61882      0.3533504
      4267.5000         1.3735       2226.248            0.5       107.4195      -47.59557      0.3247018
      4268.0000         1.3216       2183.364           0.49       102.9889      -51.98943      0.2610227
      4268.5000         1.2957       2183.179           0.48       100.7737      -54.16789      0.2294508
      4269.0000         1.1854       2373.198           0.46        96.5503      -58.35456      0.1687745
      4269.5000         1.1278           2472           0.44        94.4651      -60.40302      0.1390867
      4270.0000         1.0701           2572           0.41        90.2857      -64.54568     0.07904816
      4270.5000         1.0124           3812           0.38        90.2857      -64.50893     0.07958066
      4271.0000         1.0103           3812           0.35             92       -62.7579      0.1049579
      4271.5000         1.0103           3812           0.32         95.619      -59.10216      0.1579397
      4272.0000         1.0103           3812           0.29        94.6667      -60.01772      0.1446708
      4272.5000         1.0103           3852           0.26         92.381      -62.26668      0.1120771
      4273.0000         1.0103           3892           0.23        91.2381      -63.37283      0.0960459
      4273.5000         1.0082       4002.659           0.23        90.6667       -63.9075     0.08829708
      4274.0000         1.0082       4534.845           0.23        90.2857      -64.25176     0.08330779
      4274.5000         1.0082       4534.845           0.23        89.5238      -64.97691     0.07279836
      4275.0000         1.0062       4655.273           0.23        89.5238      -64.94017     0.07333086
      4275.5000         1.0144       4715.548           0.23         88.381      -66.04625     0.05730074
      4276.0000         1.0227       4715.507           0.23        83.0476       -71.3429              0
      4276.5000          1.033       4715.467           0.24        83.0476      -71.30616              0
      4277.0000          1.033       4526.147           0.24        83.8095      -70.50751              0
      4277.5000          1.033       4271.756           0.25        86.2857      -67.99458     0.02906412
      4278.0000         1.0268       4081.655           0.25             88      -66.24355     0.05444137
      4278.5000         1.0165           3988           0.26        90.8571       -63.3497     0.09638114
      4279.0000         1.0082           3868           0.26             96      -58.17006      0.1714484
      4279.5000         1.0062           3736           0.26        95.2381      -58.89522      0.1609389
      4280.0000         1.0371           4000           0.25         93.903      -60.19359      0.1421219
      4280.5000         1.0908       4129.293         0.2401        92.5793      -61.48055      0.1234704
      4281.0000         1.1734       4250.505         0.2402        91.2557       -62.7674      0.1048203
      4281.5000         1.1735       4371.717         0.2403        91.0743      -62.91206      0.1027238
      4282.0000         1.1757       4379.798         0.2405        90.7026      -63.24702     0.09786932
      4282.5000         1.1778       4395.959         0.2406        90.1405      -63.77238      0.0902553
      4283.0000         1.1779       4408.058         0.2307        89.1976      -64.67854     0.07712256
      4283.5000         1.1801       4420.134         0.2308         87.874       -65.9654     0.05847245
      4284.0000         1.1822       4436.223         0.2309        86.3599      -67.44276      0.0370615
      4284.5000         1.1844       4452.295          0.221        85.6074      -68.15853     0.02668795
      4285.0000         1.1866       4613.062          0.211        85.0453      -68.68388     0.01907415
      4285.5000         1.1784       4697.382         0.2111        84.4832      -69.20924     0.01146024
