#------------------------------------------------------------------------------
# Created by    : vladimir.rabinovich
# Created on    : 09/19/2023 17:22:03
#------------------------------------------------------------------------------
~Version Information Section
VERS.           2.0     :   CWLS log ASCII Standard - VERSION 2.0
WRAP.           NO      :   One line per depth step
~Well Information Section
#MNEM       .UNIT                                         VALUE :DESCRIPTION
#------------------------------------------------------------------------------
STRT        .FT                                             959 :START DEPTH
STOP        .FT                                            9240 :STOP DEPTH
STEP        .FT                                             0.5 :STEP      
NULL        .                                           -999.25 :NULL      
COMP        .                                  SAMEDAN OIL CORP :COMPANY   
WELL        .                                            WILBER :WELL      
FLD         .                                     HAMSHIRE WEST :FIELD     
LOC         .                                                   :LOCATION  
CNTY        .                                         JEFFERSON :LOCATION  
STAT        .                                             TEXAS :STATE     
CTRY        .                                     UNITED STATES :COUNTRY   
SRVC        .                                                   :SERVICE COMPANY
DATE        .                             9/13/2023 11:18:46 AM :LOG DATE  
API         .                                    42245321080000 :API NUMBER
UWI         .                                    42245321080000 :UNIQUE WELL ID
XCOORD      .                                  1220512.54732583 :SURFACE X 
YCOORD      .                                  10829820.5318697 :SURFACE Y 
LAT         .                                        29.8338887 :LATITUDE  
LON         .                                       -94.3247224 :LONGITUDE 
ELEV        .FT                                              24 :ELEVATION VALUE
ELEV_TYPE   .                                                KB :ELEVATION REFERENCE TYPE
~Curve Information Section
#MNEM       .UNIT                                      API CODE :CURVE DESCRIPTION
#------------------------------------------------------------------------------
DEPT        .FT                                                 :DEPTH     
CALI        .IN                                                 :          
DPSS        .%                                                  :          
DRHO        .G/CM3                                              :          
GR          .GAPI                                               :          
GR_NORM     .GAPI                                               :GammaRay Normalized
ILD         .OHMM                                               :          
ILM         .OHMM                                               :          
NPSS        .%                                                  :Neutron Porosity Sandstone
SGRD        .OHMM                                               :          
SP          .MV                                                 :          
SP_NORM     .MV                                                 :SP Normalized
TENS        .LB                                                 :          
VSH_GR      .V/V                                                :Volume of Shale from GR
VSH_SP      .V/V                                                :Volume of Shale from SP
~A        DEPTH           CALI           DPSS           DRHO             GR        GR_NORM            ILD            ILM           NPSS           SGRD             SP        SP_NORM           TENS         VSH_GR         VSH_SP
# ...
      1031.0000         10.673        -999.25        -999.25        53.5734       71.43135           2000       2009.326        -999.25         0.2036       -96.9561       1.716133       1698.422      0.8176883              1
      1031.5000         10.915        -999.25        -999.25        61.2362       87.24464       625.7624        20.3446        -999.25         0.5864      -106.1746      -4.274521       1717.415              1      0.8943703
      1032.0000        11.2972        -999.25        -999.25        70.2351       105.8151        64.6296        20.3446        -999.25          1.112      -110.5643      -5.436371       1696.412              1      0.8568913
      1032.5000        11.5791        -999.25        -999.25         73.687       112.9386        20.4346         7.6049        -999.25         1.3643      -111.3542      -2.998428        1675.41              1      0.9355346
      1033.0000        11.7811        -999.25        -999.25         72.349       110.1775         1.2839         2.9144        -999.25         1.4423      -111.3442       0.239418       1734.499              1              1
      1033.5000        11.9031        -999.25        -999.25        70.4144       106.1852         0.8706         1.6502        -999.25         1.4219      -110.5341       3.060043        1773.49              1              1
      1034.0000        12.0451        -999.25        -999.25        68.7806       102.8136         0.7986         1.4619        -999.25         1.4283       -112.124       1.506592       1752.487              1              1
      1034.5000        12.1671        -999.25        -999.25        68.0434       101.2923         0.8469         1.4683        -999.25         1.4615       -111.715       1.952034       1711.486              1              1
      1035.0000        12.2691        -999.25        -999.25        68.8008       102.8553         1.2244         1.5523        -999.25         1.4886      -107.7041       5.999374       1670.485              1              1
      1035.5000        12.3511        -999.25        -999.25        68.0654       101.3377         1.6875         1.7192        -999.25         1.4952      -115.4947      -1.754776       1689.478              1      0.9756524
      1036.0000        12.1532        -999.25        -999.25        67.1817       99.51402          2.333         1.9307        -999.25         1.4741      -114.6847     -0.9083328       1688.474              1              1
      1036.5000        11.6151        -999.25        -999.25         70.025       105.3816         2.4089         2.1369        -999.25           1.42      -118.2745      -4.461693       1647.473              1      0.8883325
      1037.0000        11.2572        -999.25        -999.25        76.4517        118.644         2.3862         2.1266        -999.25         1.3742      -117.4644       -3.61515       1686.464              1      0.9156403
      1037.5000        11.5391        -999.25        -999.25         80.209       126.3977         2.2573         2.1261        -999.25         1.3298      -119.8543      -5.968605       1685.459              1      0.8397224
      1038.0000        11.7811        -999.25        -999.25        77.9667       121.7704         2.1257         2.1257        -999.25         1.3233      -110.4447       3.477432       1704.452              1              1
      1038.5000        11.9631        -999.25        -999.25        75.4244        116.524         2.1647          2.135        -999.25         1.3416      -114.2345     -0.2759171       1683.449              1              1
      1039.0000         12.385        -999.25        -999.25        75.2819         116.23         2.2978         2.1443        -999.25         1.3987      -114.4244     -0.4293747       1682.444              1              1
      1039.5000        12.7872        -999.25        -999.25        73.7999       113.1716         2.3185         2.1537        -999.25         1.4855      -118.8141      -4.782631       1681.439              1      0.8779796
      1040.0000        13.1492        -999.25        -999.25        74.4021       114.4143         2.3073         2.1732        -999.25         1.5777      -116.2042      -2.136292       1680.434              1      0.9633454
      1040.5000         13.371        -999.25        -999.25        78.7587       123.4048          2.318         2.1833        -999.25         1.6225      -115.1884      -1.084045       1679.426              1      0.9972889
      1041.0000        13.1129        -999.25        -999.25        81.7734       129.6261         2.3617         2.1538        -999.25         1.5419      -115.1683      -1.027496       1658.418              1       0.999113
      1041.5000        12.9548        -999.25        -999.25        75.3377       116.3451         2.3732         2.1642        -999.25          1.479      -114.7483     -0.5710526       1697.404              1              1
      1042.0000        13.0765        -999.25        -999.25        68.6549       102.5542         2.3957         2.1647        -999.25         1.4319      -114.5282     -0.3145142       1716.493              1              1
      1042.5000         13.218        -999.25        -999.25        71.7932       109.0305         2.3852         2.1652        -999.25         1.4256      -114.7081     -0.4579697       1695.485              1              1
      1043.0000        13.3394        -999.25        -999.25        73.7423       113.0528         2.3422         2.1657        -999.25          1.446       -114.488     -0.2014236       1714.473              1              1
      1043.5000        13.3411        -999.25        -999.25        73.4587       112.4675          2.332         2.1662        -999.25         1.4666      -114.4699     -0.1468887       1753.459              1              1
      1044.0000        13.3229        -999.25        -999.25        71.6843       108.8058         2.3217         2.1667        -999.25         1.4807      -114.8498     -0.4903412       1772.447              1              1
      1044.5000        13.2052        -999.25        -999.25        70.6538       106.6792         2.3223         2.1672        -999.25         1.4949      -114.8297     -0.4337921       1731.441              1              1
      1045.0000        13.1273        -999.25        -999.25        69.0242       103.3163         2.3551         2.1677        -999.25         1.5022      -115.0095     -0.5771484       1710.433              1              1
      1045.5000        13.2087        -999.25        -999.25        68.5884        102.417         2.3885         2.1984        -999.25         1.5237      -115.1894     -0.7206116       1749.419              1              1
      1046.0000        13.4093        -999.25        -999.25        69.6456       104.5987         2.4335         2.2398        -999.25         1.5527      -115.1693     -0.6640625       1748.409              1              1
      1046.5000        13.6097        -999.25        -999.25         70.405       106.1658         2.4793         2.2611        -999.25         1.5896      -115.1492     -0.6075211       1727.401              1              1
      1047.0000        13.9291        -999.25        -999.25        71.7632       108.9686          2.526         2.3036        -999.25         1.6426      -115.1291     -0.5509796       1686.496              1              1
      1047.5000         14.129        -999.25        -999.25        74.4701       114.5547         2.5736          2.347        -999.25         1.6894       -115.509     -0.8944397       1665.488              1              1
      1048.0000        14.3486        -999.25        -999.25        74.3353       114.2765         2.6221         2.4134        -999.25         1.7703      -116.0888       -1.43779       1624.482              1      0.9858778
      1048.5000        14.6276        -999.25        -999.25        67.3119       99.78271         2.6838         2.4931        -999.25         1.9076      -116.6687      -1.981247       1703.464              1      0.9683469
