#------------------------------------------------------------------------------
# Created by    : vladimir.rabinovich
# Created on    : 09/19/2023 17:20:51
#------------------------------------------------------------------------------
~Version Information Section
VERS.           2.0     :   CWLS log ASCII Standard - VERSION 2.0
WRAP.           NO      :   One line per depth step
~Well Information Section
#MNEM       .UNIT                                         VALUE :DESCRIPTION
#------------------------------------------------------------------------------
STRT        .FT                                            1028 :START DEPTH
STOP        .FT                                            9325 :STOP DEPTH
STEP        .FT                                             0.5 :STEP      
NULL        .                                           -999.25 :NULL      
COMP        .                     HUNT LAMAR TRUST ESTATE ET AL :COMPANY   
WELL        .                                   BROUSSARD TRUST :WELL      
FLD         .                                           WILDCAT :FIELD     
LOC         .                                                   :LOCATION  
CNTY        .                                         JEFFERSON :LOCATION  
STAT        .                                             TEXAS :STATE     
CTRY        .                                     UNITED STATES :COUNTRY   
SRVC        .                                                   :SERVICE COMPANY
DATE        .                             9/13/2023 11:19:11 AM :LOG DATE  
API         .                                    42245021920000 :API NUMBER
UWI         .                                    42245021920000 :UNIQUE WELL ID
XCOORD      .                                  1218474.36862613 :SURFACE X 
YCOORD      .                                   10882715.986693 :SURFACE Y 
LAT         .                                        29.9792918 :LATITUDE  
LON         .                                       -94.3330868 :LONGITUDE 
ELEV        .FT                                              36 :ELEVATION VALUE
ELEV_TYPE   .                                                DF :ELEVATION REFERENCE TYPE
~Curve Information Section
#MNEM       .UNIT                                      API CODE :CURVE DESCRIPTION
#------------------------------------------------------------------------------
DEPT        .FT                                                 :DEPTH     
ASN         .OHMM                                               :          
LAT         .OHMM                                               :          
LN          .OHMM                                               :          
SP          .MV                                                 :          
SP_NORM     .MV                                                 :SP Normalized
VSH_SP      .V/V                                                :Volume of Shale from SP
~A        DEPTH            ASN            LAT             LN             SP        SP_NORM         VSH_SP
# ...
      2662.0000         2.2655         0.4018         0.2655      -152.0354      -80.43047     0.07728864
      2662.5000         2.2478         0.4018         0.2655      -152.0354      -80.43047     0.07728864
      2663.0000         2.2389         0.3839         0.2566      -152.0354      -80.43047     0.07728864
      2663.5000         2.2389         0.3661         0.2478      -150.0885      -78.48357      0.1001933
      2664.0000         2.2478         0.3482         0.2478      -149.0265      -77.42157      0.1126874
      2664.5000         2.2832         0.3482         0.2478      -149.0265      -77.42157      0.1126874
      2665.0000         2.4159         0.3304         0.2566      -149.5575      -77.95256      0.1064405
      2665.5000          2.469         0.3214         0.2566      -150.4425      -78.83757     0.09602859
      2666.0000         2.4956         0.3125         0.2566      -150.9735      -79.36856     0.08978163
      2666.5000         2.5044         0.3125         0.2566      -153.4513      -81.84636     0.06063107
      2667.0000         2.5133         0.3125         0.2566      -154.8673      -83.26236     0.04397224
      2667.5000         2.5221         0.3214         0.2566      -156.2832      -84.67827     0.02731449
      2668.0000         2.5221         0.3214         0.2478      -156.9912      -85.38626     0.01898517
      2668.5000         2.5133         0.3393         0.2478      -157.5221      -85.91716     0.01273929
      2669.0000         2.5044         0.3393         0.2478      -158.0531      -86.44817    0.006492166
      2669.5000         2.4867         0.3571         0.2389      -158.4071      -86.80217    0.002327414
      2670.0000         2.4513         0.3571         0.2389      -158.9381      -87.33316              0
      2670.5000         2.3894         0.3661         0.2389       -159.292      -87.68707              0
      2671.0000         2.2832          0.375         0.2389       -159.469      -87.86406              0
      2671.5000         2.2655          0.375         0.2389       -159.469      -87.86406              0
      2672.0000         2.2301          0.375         0.2301       -159.292      -87.68707              0
      2672.5000         2.2124          0.375         0.2301      -158.9381      -87.33316              0
      2673.0000         2.2035          0.375         0.2301      -158.4071      -86.80217    0.002327414
      2673.5000         2.1947          0.375         0.2389      -157.8761      -86.27116    0.008574542
      2674.0000         2.1947          0.375         0.2389      -156.9912      -85.38626     0.01898517
      2674.5000         2.1947          0.375         0.2478      -156.4602      -84.85527     0.02523211
      2675.0000         2.1947         0.3839         0.2478      -156.1062      -84.50127     0.02939687
      2675.5000         2.1947         0.3929         0.2478      -155.5752      -83.97026     0.03564399
      2676.0000         2.1947         0.3929         0.2566      -155.3982      -83.79326     0.03772637
      2676.5000         2.1858         0.4018         0.2566      -155.3982      -83.79326     0.03772637
      2677.0000         2.1681         0.4107         0.2566      -155.3982      -83.79326     0.03772637
      2677.5000         2.1593         0.4018         0.2566      -155.5752      -83.97026     0.03564399
      2678.0000         2.1239         0.3929         0.2566      -155.7522      -84.14726     0.03356162
      2678.5000         2.0973         0.3839         0.2566      -156.4602      -84.85527     0.02523211
      2679.0000         2.0708          0.375         0.2566      -157.5221      -85.91716     0.01273929
      2679.5000         2.0708          0.375         0.2478      -158.4071      -86.80217    0.002327414
      2680.0000         2.1239          0.375         0.2478       -159.115      -87.51007              0
      2680.5000         2.1504          0.375         0.2478       -159.646      -88.04106              0
      2681.0000         2.2035          0.375         0.2478           -160      -88.39507              0
      2681.5000         2.1858         0.3661         0.2389      -160.3636      -88.75867              0
      2682.0000          2.115         0.3571         0.2301      -160.3636      -88.75867              0
      2682.5000         2.0442         0.3571         0.2301      -160.3636      -88.75867              0
      2683.0000         1.9375         0.3571         0.2301       -159.823      -88.21806              0
      2683.5000         1.8929         0.3571         0.2301       -159.115      -87.51007              0
      2684.0000         1.8214         0.3571         0.2389      -157.5221      -85.91716     0.01273929
      2684.5000         1.7857         0.3571         0.2389      -156.6372      -85.03227     0.02314974
      2685.0000         1.7321         0.3571         0.2389      -156.1062      -84.50127     0.02939687
      2685.5000         1.6786         0.3482         0.2478      -155.9292      -84.32426     0.03147924
      2686.0000         1.6679         0.3482         0.2478      -155.7522      -84.14726     0.03356162
      2686.5000         1.7214         0.3482         0.2478      -155.7522      -84.14726     0.03356162
      2687.0000          1.775         0.3393         0.2566      -155.9292      -84.32426     0.03147924
      2687.5000         1.8286         0.3393         0.2301      -156.1062      -84.50127     0.02939687
      2688.0000         1.8821         0.3393         0.2389      -156.6372      -85.03227     0.02314974
      2688.5000         2.0265         0.3393         0.2478      -157.1681      -85.56317     0.01690387
      2689.0000         2.0354         0.3304         0.2566      -157.6991      -86.09416     0.01065692
      2689.5000         2.0885         0.3304         0.2655      -158.5841      -86.97917   0.0002450382
      2690.0000          2.177         0.3304         0.2743       -159.469      -87.86406              0
      2690.5000         2.2476         0.3214         0.2742      -160.5544      -88.94946              0
      2691.0000         2.3181         0.3214         0.2739      -161.1088      -89.50386              0
      2691.5000         2.3178         0.3214         0.2735      -161.4815      -89.87657              0
      2692.0000         2.3175         0.3214         0.2643      -160.9452      -89.34027              0
      2692.5000         2.3261         0.3214         0.2551      -159.6903      -88.08537              0
      2693.0000         2.3169         0.3214         0.2371      -158.9868      -87.38187              0
      2693.5000         2.2989         0.3214         0.2279      -157.5798      -85.97487     0.01206037
      2694.0000          2.263         0.3214         0.2186       -155.465      -83.86006     0.03694045
      2694.5000         2.0584         0.3304         0.2005      -150.5186      -78.91367     0.09513334
      2695.0000         1.8533         0.3393         0.1913      -146.8111      -75.20616       0.138751
      2695.5000          1.693         0.3661         0.1909      -138.1323      -66.52736      0.2408546
      2696.0000         1.5151         0.3839         0.1906      -129.2149      -57.60997      0.3457651
      2696.5000         1.3196         0.4107         0.1902      -124.7562      -53.15127      0.3982204
      2697.0000         1.5766         0.4375         0.2076      -115.8017      -44.19676      0.5035675
      2697.5000         1.3897         0.4464          0.234      -111.3031      -39.69817      0.5564921
      2698.0000          1.204         0.4821         0.2426        -92.247      -20.64207      0.7806816
      2698.5000         1.1075         0.5268         0.2511       -92.2514      -20.64647      0.7806298
      2699.0000         1.1038         0.5714         0.2597       -96.6454      -25.04047      0.7289357
      2699.5000         1.1019         0.5982         0.2594      -106.2958      -34.69086      0.6154016
