#------------------------------------------------------------------------------
# Created by    : vladimir.rabinovich
# Created on    : 09/19/2023 17:20:52
#------------------------------------------------------------------------------
~Version Information Section
VERS.           2.0     :   CWLS log ASCII Standard - VERSION 2.0
WRAP.           NO      :   One line per depth step
~Well Information Section
#MNEM       .UNIT                                         VALUE :DESCRIPTION
#------------------------------------------------------------------------------
STRT        .FT                                            1025 :START DEPTH
STOP        .FT                                            8930 :STOP DEPTH
STEP        .FT                                             0.5 :STEP      
NULL        .                                           -999.25 :NULL      
COMP        .                                     MEREDITH & CO :COMPANY   
WELL        .                                 BROUSSARD JR ETAL :WELL      
FLD         .                                           WILDCAT :FIELD     
LOC         .                                                   :LOCATION  
CNTY        .                                         JEFFERSON :LOCATION  
STAT        .                                             TEXAS :STATE     
CTRY        .                                     UNITED STATES :COUNTRY   
SRVC        .                                                   :SERVICE COMPANY
DATE        .                             9/13/2023 11:19:11 AM :LOG DATE  
API         .                                    42245021860000 :API NUMBER
UWI         .                                    42245021860000 :UNIQUE WELL ID
XCOORD      .                                  1217776.66937412 :SURFACE X 
YCOORD      .                                  10884677.7702762 :SURFACE Y 
LAT         .                                        29.9846645 :LATITUDE  
LON         .                                       -94.3353628 :LONGITUDE 
ELEV        .FT                                              34 :ELEVATION VALUE
ELEV_TYPE   .                                                DF :ELEVATION REFERENCE TYPE
~Curve Information Section
#MNEM       .UNIT                                      API CODE :CURVE DESCRIPTION
#------------------------------------------------------------------------------
DEPT        .FT                                                 :DEPTH     
ASN         .OHMM                                               :          
LAT         .OHMM                                               :          
LN          .OHMM                                               :          
SP          .MV                                                 :          
SP_NORM     .MV                                                 :SP Normalized
VSH_SP      .V/V                                                :Volume of Shale from SP
~A        DEPTH            ASN            LAT             LN             SP        SP_NORM         VSH_SP
# ...
      6801.0000         0.7127          0.625         0.7679       -38.9091      0.1936874              1
      6801.5000         0.7127          0.625         0.7679       -33.8182       5.275623              1
      6802.0000         0.7018          0.625         0.7679       -34.9091       4.175758              1
      6802.5000           0.68          0.625         0.7321       -37.0909       1.984989              1
      6803.0000         0.6582         0.6429         0.7143       -38.9091      0.1578255              1
      6803.5000         0.6364         0.6607         0.6964       -40.3571      -1.299145      0.9971236
      6804.0000          0.525         0.6607         0.6607       -36.7273       2.321693              1
      6804.5000         0.4964         0.6964         0.6607       -34.9091       4.130924              1
      6805.0000         0.4821         0.6964         0.6607       -33.8182        5.21286              1
      6805.5000         0.4786         0.6964         0.6607       -33.8182       5.203892              1
      6806.0000         0.4893         0.6964         0.6607       -33.8182       5.194927              1
      6806.5000         0.5071         0.6964         0.6607       -33.8182       5.185959              1
      6807.0000          0.525         0.6786         0.6607       -33.4545       5.540695              1
      6807.5000         0.5464         0.6786         0.6607       -33.4545       5.531731              1
      6808.0000         0.5571         0.6607         0.6607       -33.8182       5.159061              1
      6808.5000         0.5607         0.6429         0.6607       -33.8182       5.150097              1
      6809.0000         0.5571         0.6429         0.6607       -34.1818       4.777527              1
      6809.5000           0.55          0.625         0.6429       -35.2727       3.677662              1
      6810.0000         0.5429          0.625         0.6429            -36       2.941395              1
      6810.5000         0.5286          0.625          0.625       -35.2727       3.659729              1
      6811.0000         0.5214          0.625          0.625       -34.5455        4.37796              1
      6811.5000         0.5179          0.625          0.625       -33.8182       5.096298              1
      6812.0000         0.5179         0.6071          0.625       -33.8182       5.087334              1
      6812.5000         0.5214         0.6071          0.625       -33.8182       5.078365              1
      6813.0000          0.525         0.6071          0.625       -33.8182       5.069401              1
      6813.5000         0.5214         0.6071          0.625       -33.4545       5.424133              1
      6814.0000         0.5179         0.5893          0.625       -33.4545       5.415169              1
      6814.5000         0.5179         0.5893          0.625       -33.0909       5.769798              1
      6815.0000         0.5179         0.5893          0.625       -33.4545       5.397236              1
      6815.5000          0.525         0.5714         0.6429       -33.4545       5.388268              1
      6816.0000         0.5321         0.5714         0.6429       -33.8182       5.015602              1
      6816.5000         0.5464         0.5536         0.6429       -34.1818       4.643036              1
      6817.0000         0.5571         0.5536         0.6429       -34.1818       4.634068              1
      6817.5000         0.5571         0.5536         0.6429       -34.1818       4.625103              1
      6818.0000         0.5536         0.5357         0.6429       -34.1818       4.616135              1
      6818.5000         0.5464         0.5357         0.6429       -34.1818        4.60717              1
      6819.0000         0.5393         0.5357         0.6429       -33.8182       4.961803              1
      6819.5000         0.5357         0.5179         0.6607       -33.0909       5.680138              1
      6820.0000         0.5464         0.5179         0.6607       -33.0909       5.671169              1
      6820.5000          0.575         0.5179         0.6607       -33.0909       5.662205              1
      6821.0000         0.5893            0.5         0.6429       -33.0909        5.65324              1
      6821.5000         0.6036         0.4821         0.6429       -33.8182       4.916973              1
      6822.0000         0.6073         0.4821         0.6607       -34.5455       4.180706              1
      6822.5000         0.6218         0.4821         0.6607       -35.6364       3.080841              1
      6823.0000         0.6218         0.4821         0.6607       -36.3636       2.344673              1
      6823.5000         0.6036         0.4821         0.6429       -37.0909       1.608406              1
      6824.0000         0.5893            0.5         0.6429       -37.0909       1.599442              1
      6824.5000          0.575         0.5179          0.625       -36.3636       2.317772              1
      6825.0000         0.5571         0.5357          0.625       -35.6364       3.036011              1
      6825.5000           0.55         0.5536          0.625       -34.9091       3.754345              1
      6826.0000           0.55         0.5536          0.625       -34.5455       4.108974              1
      6826.5000         0.5536         0.5893          0.625       -34.1818       4.463711              1
      6827.0000         0.5571         0.5893          0.625       -33.8182       4.818344              1
      6827.5000         0.5679         0.5893          0.625       -33.8182        4.80938              1
      6828.0000         0.5857         0.5893          0.625       -33.8182       4.800411              1
      6828.5000         0.6036         0.5714          0.625       -34.1818       4.427845              1
      6829.0000         0.6109         0.5536          0.625       -34.9091       3.691578              1
      6829.5000         0.6255         0.5536         0.6429       -35.2727       3.319012              1
      6830.0000         0.6364         0.5536         0.6429       -35.2727       3.310047              1
      6830.5000         0.6364         0.5536         0.6429       -35.6364       2.937382              1
      6831.0000         0.6327         0.5536          0.625       -36.3636       2.201214              1
      6831.5000         0.6145         0.5536          0.625       -36.7273       1.828548              1
      6832.0000         0.5643         0.5536         0.6071       -37.0909       1.455982              1
      6832.5000         0.5286         0.5536         0.5714       -37.4545       1.083416              1
      6833.0000         0.4929         0.5893         0.5714       -38.5455    -0.01655197              1
      6833.5000         0.4821         0.5714         0.5536            -40      -1.480019      0.9953845
      6834.0000         0.4857         0.5536         0.5536       -42.8571      -4.346085      0.9678261
      6834.5000            0.5         0.5357         0.5536       -52.1429      -13.64085      0.8784534
      6835.0000         0.5179         0.4821         0.5714       -61.4545      -22.96141      0.7888325
      6835.5000         0.5286         0.4286         0.5893       -74.5455      -36.06138      0.6628713
      6836.0000         0.5286          0.375         0.6071       -93.9286      -55.45345      0.4764092
      6836.5000         0.5214         0.3214          0.625      -110.7143      -72.24812       0.314922
      6837.0000         0.5143         0.2857          0.625           -115      -76.54279      0.2736271
      6837.5000            0.5         0.2857          0.625           -120      -81.55174       0.225464
      6838.0000         0.4857         0.2857          0.625           -120      -81.56071      0.2253777
      6838.5000          0.475         0.2857          0.625      -106.0714      -67.64108      0.3592204
