#------------------------------------------------------------------------------
# Created by    : vladimir.rabinovich
# Created on    : 09/19/2023 17:20:52
#------------------------------------------------------------------------------
~Version Information Section
VERS.           2.0     :   CWLS log ASCII Standard - VERSION 2.0
WRAP.           NO      :   One line per depth step
~Well Information Section
#MNEM       .UNIT                                         VALUE :DESCRIPTION
#------------------------------------------------------------------------------
STRT        .FT                                            1017 :START DEPTH
STOP        .FT                                            8855 :STOP DEPTH
STEP        .FT                                             0.5 :STEP      
NULL        .                                           -999.25 :NULL      
COMP        .                               MEREDITH & CO ET AL :COMPANY   
WELL        .                               BROUSSARD J JR ETAL :WELL      
FLD         .                                           WILDCAT :FIELD     
LOC         .                                                   :LOCATION  
CNTY        .                                         JEFFERSON :LOCATION  
STAT        .                                             TEXAS :STATE     
CTRY        .                                     UNITED STATES :COUNTRY   
SRVC        .                                                   :SERVICE COMPANY
DATE        .                             9/13/2023 11:19:11 AM :LOG DATE  
API         .                                    42245021880000 :API NUMBER
UWI         .                                    42245021880000 :UNIQUE WELL ID
XCOORD      .                                  1215343.11980964 :SURFACE X 
YCOORD      .                                  10882366.7587642 :SURFACE Y 
LAT         .                                        29.9782309 :LATITUDE  
LON         .                                       -94.3429645 :LONGITUDE 
ELEV        .FT                                              36 :ELEVATION VALUE
ELEV_TYPE   .                                                DF :ELEVATION REFERENCE TYPE
~Curve Information Section
#MNEM       .UNIT                                      API CODE :CURVE DESCRIPTION
#------------------------------------------------------------------------------
DEPT        .FT                                                 :DEPTH     
ASN         .OHMM                                               :          
LAT         .OHMM                                               :          
LN          .OHMM                                               :          
SP          .MV                                                 :          
SP_NORM     .MV                                                 :SP Normalized
VSH_SP      .V/V                                                :Volume of Shale from SP
~A        DEPTH            ASN            LAT             LN             SP        SP_NORM         VSH_SP
# ...
      6717.0000         0.8609         0.7246         0.8116       -44.9275      0.2046852              1
      6717.5000         0.8696         0.7246         0.8116       -45.5072     -0.3937378              1
      6718.0000          0.887         0.7246         0.8261       -46.6667      -1.571964              1
      6718.5000         0.9014         0.7246         0.8406       -47.8261      -2.750088      0.9909628
      6719.0000         0.9101         0.7246         0.8551       -49.5652      -4.507915      0.9697841
      6719.5000         0.9159         0.7101         0.8696       -50.7246      -5.686043      0.9555898
      6720.0000         0.9159         0.6957         0.8696       -52.1739      -7.154064      0.9379029
      6720.5000         0.9101         0.6957         0.8696       -52.4638      -7.462688      0.9341845
      6721.0000         0.9043         0.6957         0.8696       -51.8841      -6.901718      0.9409432
      6721.5000         0.8928         0.6957         0.8696       -51.8841      -6.920441      0.9407176
      6722.0000         0.8841         0.7101         0.8696       -51.3043      -6.359364      0.9474775
      6722.5000         0.8754         0.7246         0.8551       -51.3043       -6.37809      0.9472519
      6723.0000         0.8609         0.7391         0.8551       -50.4348      -5.527313      0.9575022
      6723.5000         0.8493         0.7536         0.8551       -49.5652      -4.676441      0.9677537
      6724.0000         0.8319         0.7536         0.8551       -48.6957      -3.825668       0.978004
      6724.5000         0.8203         0.7536         0.8406       -47.5362      -2.684891      0.9917483
      6725.0000         0.8087         0.7536         0.8551       -47.2464      -2.413815      0.9950143
      6725.5000         0.8087         0.7536         0.8551       -46.6667       -1.85284              1
      6726.0000         0.8087         0.7536         0.8551       -46.3768      -1.581665              1
      6726.5000         0.8087         0.7681         0.8551       -46.3768      -1.600391              1
      6727.0000         0.8174         0.7681         0.8551       -46.6667      -1.909016              1
      6727.5000          0.829         0.7681         0.8551       -46.6667      -1.927738              1
      6728.0000         0.8464         0.7681         0.8551       -46.9565      -2.236267      0.9971534
      6728.5000         0.8638         0.7536         0.8551       -46.9565      -2.254993      0.9969278
      6729.0000         0.8783         0.7391         0.8551       -46.6667      -1.983913              1
      6729.5000         0.8957         0.7391         0.8551       -46.3768      -1.712742              1
      6730.0000         0.9188         0.7681         0.8551        -46.087      -1.441669              1
      6730.5000         0.9565         0.7971         0.8406       -45.5072     -0.8805885              1
      6731.0000         0.9594         0.8261         0.8406       -44.9275     -0.3196182              1
      6731.5000         0.9391         0.8406         0.8406       -44.3478      0.2413559              1
      6732.0000         0.9275         0.8696         0.8406       -44.3478      0.2226334              1
      6732.5000          0.913         0.8841         0.8261       -44.3478       0.203907              1
      6733.0000         0.9072          0.913         0.8261       -44.3478      0.1851807              1
      6733.5000         0.9072          0.913         0.8261       -44.6377     -0.1234398              1
      6734.0000         0.9043          0.913         0.8261       -45.2174     -0.7218666              1
      6734.5000         0.9043          0.913         0.8116       -45.5072      -1.030392              1
      6735.0000         0.9043         0.9275         0.7971       -46.3768      -1.918716              1
      6735.5000         0.9014          0.942         0.7826       -46.9565      -2.517143      0.9937693
      6736.0000          0.887         0.9565         0.7826       -48.6957       -4.27507      0.9725895
      6736.5000         0.8783          0.971         0.7681       -51.0145      -6.612591      0.9444266
      6737.0000          0.858          0.971         0.7681       -53.0435      -8.660316      0.9197552
      6737.5000         0.8812          0.971         0.7681       -55.3623      -10.99784      0.8915922
      6738.0000         0.8928          0.971         0.7681       -56.2319      -11.88617      0.8808896
      6738.5000         0.8609         0.9565         0.7681       -55.0725      -10.74549      0.8946326
      6739.0000         0.8377          0.942         0.7826        -53.913      -9.604717      0.9083769
      6739.5000         0.8435          0.913         0.7971       -53.0435      -8.753941      0.9186272
      6740.0000          0.858         0.8986         0.8116       -52.4638      -8.192966       0.925386
      6740.5000         0.8812         0.8696         0.8261       -51.8841      -7.631996      0.9321446
      6741.0000         0.8957         0.8551         0.8261       -51.5942      -7.360817      0.9354119
      6741.5000         0.8696         0.8551         0.8261       -51.0145      -6.799843      0.9421706
      6742.0000         0.8522         0.8261         0.8261       -50.1449      -5.948971       0.952422
      6742.5000         0.8232         0.8261         0.8261       -49.5652      -5.387993      0.9591808
      6743.0000         0.8116         0.8116         0.8261       -49.2754      -5.116917      0.9624468
      6743.5000         0.8058         0.7971         0.8116       -48.9855      -4.845745      0.9657139
      6744.0000         0.8029         0.7971         0.8116       -48.9855      -4.864468      0.9654883
      6744.5000            0.8         0.7826         0.8116       -49.5652      -5.462894      0.9582784
      6745.0000         0.7971         0.7826         0.8116       -50.7246      -6.641022       0.944084
      6745.5000         0.7942         0.7826         0.8116       -51.8841      -7.819244      0.9298886
      6746.0000         0.7913         0.7971         0.7971       -54.7826      -10.73647      0.8947414
      6746.5000         0.7855         0.8116         0.7971       -57.6812      -13.65379      0.8595929
      6747.0000         0.7884         0.8116         0.7971        -61.194      -17.18532      0.8170444
      6747.5000         0.8029         0.8116         0.7971       -62.6866      -18.69664      0.7988356
      6748.0000         0.8029         0.8116         0.7826       -64.1791      -20.20787      0.7806281
      6748.5000         0.7768         0.8116         0.7826       -60.8955      -16.94299      0.8199639
      6749.0000         0.7739         0.7971         0.7826       -59.1304      -15.19662      0.8410046
      6749.5000         0.7768         0.7971         0.7826       -57.3913      -13.47625       0.861732
      6750.0000         0.7797         0.8114         0.7536       -56.5217      -12.62537      0.8719835
      6750.5000         0.7826         0.8122         0.7536       -54.4928       -10.6152      0.8962024
      6751.0000         0.7826         0.8127         0.7536       -53.3333      -9.474422      0.9099467
      6751.5000         0.7797         0.8136         0.7536       -52.4638      -8.623642      0.9201971
      6752.0000         0.7739         0.8289         0.7536       -51.3043      -7.482868      0.9339414
      6752.5000         0.7681         0.8294         0.7391       -50.4348      -6.632095      0.9441916
      6753.0000         0.7565         0.8013         0.7391       -49.8551      -6.071117      0.9509504
      6753.5000         0.7594         0.7876         0.7391       -49.2754      -5.510143      0.9577091
      6754.0000         0.7652         0.7736         0.7391       -48.6957      -4.949173      0.9644678
      6754.5000         0.7768         0.7745         0.7391       -48.4058      -4.677994       0.967735
