#------------------------------------------------------------------------------
# Created by    : vladimir.rabinovich
# Created on    : 09/19/2023 17:22:41
#------------------------------------------------------------------------------
~Version Information Section
VERS.           2.0     :   CWLS log ASCII Standard - VERSION 2.0
WRAP.           NO      :   One line per depth step
~Well Information Section
#MNEM       .UNIT                                         VALUE :DESCRIPTION
#------------------------------------------------------------------------------
STRT        .FT                                             190 :START DEPTH
STOP        .FT                                            7751 :STOP DEPTH
STEP        .FT                                             0.5 :STEP      
NULL        .                                           -999.25 :NULL      
COMP        .                       GOLDEN TRIANGLE STORAGE LLC :COMPANY   
WELL        .                         GOLDEN TRIANGLE STORAGE 2 :WELL      
FLD         .                                        SPINDLETOP :FIELD     
LOC         .                                                   :LOCATION  
CNTY        .                                         JEFFERSON :LOCATION  
STAT        .                                             TEXAS :STATE     
CTRY        .                                     UNITED STATES :COUNTRY   
SRVC        .                                                   :SERVICE COMPANY
DATE        .                             9/13/2023 11:18:46 AM :LOG DATE  
API         .                                    42245325580000 :API NUMBER
UWI         .                                    42245325580000 :UNIQUE WELL ID
XCOORD      .                                  1288599.33875083 :SURFACE X 
YCOORD      .                                  10896379.1240251 :SURFACE Y 
LAT         .                                        30.0189256 :LATITUDE  
LON         .                                       -94.1119908 :LONGITUDE 
ELEV        .FT                                            12.2 :ELEVATION VALUE
ELEV_TYPE   .                                                GL :ELEVATION REFERENCE TYPE
~Curve Information Section
#MNEM       .UNIT                                      API CODE :CURVE DESCRIPTION
#------------------------------------------------------------------------------
DEPT        .FT                                                 :DEPTH     
DCAL        .IN                                                 :          
DPSS        .V/V                                                :          
DRHO        .G/CM3                                              :          
GR          .GAPI                                               :          
GR_NORM     .GAPI                                               :GammaRay Normalized
ILD         .OHMM                                               :          
ILM         .OHMM                                               :          
NPSS        .V/V                                                :Neutron Porosity Sandstone
SFL         .OHMM                                               :          
SP          .MV                                                 :          
SP_NORM     .MV                                                 :SP Normalized
TENS        .LB                                                 :          
VSH_GR      .V/V                                                :Volume of Shale from GR
VSH_SP      .V/V                                                :Volume of Shale from SP
~A        DEPTH           DCAL           DPSS           DRHO             GR        GR_NORM            ILD            ILM           NPSS            SFL             SP        SP_NORM           TENS         VSH_GR         VSH_SP
# ...
      1720.0000           6.92         0.3924         0.0367           45.9       57.51617         0.4152         0.5629         0.4714              1       -92.2449      -40.39305           1080      0.5216208      0.1468211
      1720.5000         7.2407         0.3984         0.0367           45.6       57.05055          0.419         0.5629         0.5004         1.0678       -91.8367      -39.98485       1078.823      0.5117138      0.1558923
      1721.0000         7.6025         0.4056         0.0388           44.7       55.65968          0.419         0.5629         0.5196         1.0678       -91.0204      -39.16855       1076.863      0.4821208      0.1740323
      1721.5000         8.0051         0.4116         0.0408           42.9       52.88095         0.4152         0.5527         0.5244         1.0479       -90.2041      -38.35225       1074.902      0.4229989      0.1921722
      1722.0000         8.1698          0.414         0.0449           43.2       53.34056          0.419         0.5527         0.5171         1.0285       -88.1633      -36.31145       1072.941       0.432778      0.2375234
      1722.5000         8.2532          0.414         0.0469             45        56.1133         0.4229         0.5527         0.5074         1.0094       -85.3061      -33.45425        1070.98      0.4917723      0.3010167
      1723.0000          8.255          0.414          0.049           47.4       59.81128         0.4349         0.5578         0.5002          0.957       -81.2245      -29.37265       1068.627      0.5704527      0.3917189
      1723.5000         7.9328          0.414         0.0469           50.4       64.43449         0.4472         0.5785         0.4953            0.9          -75.6      -23.74815       1066.667       0.668819      0.5167078
      1724.0000         7.5316         0.4127         0.0429           54.9        71.3708         0.4685            0.6         0.4953         0.8239            -68      -16.14815       1064.706      0.8163999      0.6855967
      1724.5000         7.0086         0.4006         0.0449           60.6       80.15763         0.5233         0.6671         0.5001         0.7859          -60.4      -8.548149       1062.745              1      0.8544856
      1725.0000         6.4846         0.3788         0.0531           65.4       87.55657         0.5785         0.7652         0.5024         0.8159          -56.4      -4.548149       1060.784              1      0.9433745
      1725.5000         5.9192         0.3521         0.0653           67.5       90.79192         0.6866         0.9487         0.4927         0.9159            -54      -2.148148       1058.823              1      0.9967079
      1726.0000         5.9193         0.3339         0.0714           67.2       90.32629         0.8402         1.1837         0.4769         0.9913          -53.6      -1.748146       1056.863              1              1
      1726.5000         5.9194         0.3109         0.0755           67.2        90.3233         0.9487         1.4275         0.4551         1.1085            -54      -2.148148       1054.902              1      0.9967079
      1727.0000         5.9597          0.294         0.0714           68.1       91.70815              1         1.5531         0.4309         1.1401            -54      -2.148148       1052.941              1      0.9967079
      1727.5000         6.0812         0.2796         0.0694             69       93.09301              1         1.5531         0.4139         1.1948          -53.6      -1.748146        1050.98              1              1
      1728.0000         6.1625         0.2724         0.0633           67.5       90.77692         0.9826         1.5243         0.3993         1.2758          -53.6      -1.748146       1048.627              1              1
      1728.5000          6.244         0.2688         0.0592           63.9       85.22244          0.957          1.496         0.3797          1.388          -54.4      -2.548149       1046.667              1      0.9878189
      1729.0000         6.2443         0.2676         0.0531           60.3       79.66797         0.9404         1.4545          0.365          1.482          -55.6      -3.748146       1044.706      0.9929355      0.9611523
      1729.5000         6.2446         0.2688          0.051             57       74.57613         0.9322         1.4142         0.3589         1.5677            -56      -4.148148       1042.745      0.8845984      0.9522634
      1730.0000         6.2448         0.2724         0.0469           54.9       71.33477         0.9322          1.375         0.3588         1.5531          -57.2      -5.348148       1040.784      0.8156334      0.9255967
      1730.5000         6.2449         0.2772         0.0429           52.8        68.0934          0.924         1.3369         0.3637           1.51            -58      -6.148148           1040       0.746668      0.9078189
      1731.0000         6.2449          0.282         0.0388           52.2       67.16516          0.924         1.3369         0.3661          1.441          -58.4      -6.548149           1040      0.7269183        0.89893
      1731.5000         6.2449          0.282         0.0367           53.7       69.47527          0.924         1.3245         0.3698          1.401          -58.4      -6.548149           1040      0.7760696        0.89893
      1732.0000         6.1633         0.2772         0.0327           57.6       75.48635         0.9322         1.3369         0.3698          1.401          -57.6      -5.748146           1040      0.9039649      0.9167079
      1732.5000         6.0816         0.2724         0.0306           59.7       78.72169         0.9322         1.3495         0.3698          1.401          -56.8      -4.948147           1040       0.972802      0.9344856
      1733.0000         6.1224         0.2676         0.0306           60.6       80.10656         0.9322         1.3622         0.3686          1.401          -56.8      -4.948147           1040              1      0.9344856
      1733.5000         6.1224         0.2652         0.0327           60.9       80.56618         0.9322          1.375         0.3649          1.401          -57.2      -5.348148           1040              1      0.9255967
      1734.0000         6.1224         0.2664         0.0367             60        79.1753         0.9404          1.388         0.3612         1.4142          -58.4      -6.548149           1040      0.9824532        0.89893
      1734.5000         6.1224           0.27         0.0367           58.5       76.85919         0.9404          1.375         0.3588         1.4142          -59.6      -7.748146           1040      0.9331743      0.8722634
      1735.0000              6         0.2736         0.0367           58.5        76.8562          0.924         1.3495         0.3612         1.4275            -60      -8.148148           1040      0.9331107      0.8633745
      1735.5000           5.88         0.2784         0.0367           59.4       78.24106         0.9079         1.3245         0.3637         1.4142          -60.8      -8.948147           1040      0.9625757      0.8455967
      1736.0000            5.8         0.2832         0.0388           59.7       78.70068         0.8825         1.2758         0.3686         1.3245          -62.4      -10.54815           1040      0.9723549      0.8100411
      1736.5000            5.8         0.2868         0.0429           59.4       78.23505         0.8485         1.2288         0.3722         1.2404          -64.8      -12.94815           1040      0.9624478      0.7567078
      1737.0000           5.76         0.2928         0.0449           56.4       73.60581         0.8159         1.1726         0.3759         1.2404          -66.4      -14.54815           1040      0.8639535      0.7211522
      1737.5000           5.56            0.3         0.0449           54.3       70.36447         0.8079         1.1726         0.3771         1.2521          -67.2      -15.34814           1040      0.7949888      0.7033746
