#------------------------------------------------------------------------------
# Created by    : vladimir.rabinovich
# Created on    : 09/19/2023 17:22:03
#------------------------------------------------------------------------------
~Version Information Section
VERS.           2.0     :   CWLS log ASCII Standard - VERSION 2.0
WRAP.           NO      :   One line per depth step
~Well Information Section
#MNEM       .UNIT                                         VALUE :DESCRIPTION
#------------------------------------------------------------------------------
STRT        .FT                                             959 :START DEPTH
STOP        .FT                                            9240 :STOP DEPTH
STEP        .FT                                             0.5 :STEP      
NULL        .                                           -999.25 :NULL      
COMP        .                                  SAMEDAN OIL CORP :COMPANY   
WELL        .                                            WILBER :WELL      
FLD         .                                     HAMSHIRE WEST :FIELD     
LOC         .                                                   :LOCATION  
CNTY        .                                         JEFFERSON :LOCATION  
STAT        .                                             TEXAS :STATE     
CTRY        .                                     UNITED STATES :COUNTRY   
SRVC        .                                                   :SERVICE COMPANY
DATE        .                             9/13/2023 11:18:46 AM :LOG DATE  
API         .                                    42245321080000 :API NUMBER
UWI         .                                    42245321080000 :UNIQUE WELL ID
XCOORD      .                                  1220512.54732583 :SURFACE X 
YCOORD      .                                  10829820.5318697 :SURFACE Y 
LAT         .                                        29.8338887 :LATITUDE  
LON         .                                       -94.3247224 :LONGITUDE 
ELEV        .FT                                              24 :ELEVATION VALUE
ELEV_TYPE   .                                                KB :ELEVATION REFERENCE TYPE
~Curve Information Section
#MNEM       .UNIT                                      API CODE :CURVE DESCRIPTION
#------------------------------------------------------------------------------
DEPT        .FT                                                 :DEPTH     
CALI        .IN                                                 :          
DPSS        .%                                                  :          
DRHO        .G/CM3                                              :          
GR          .GAPI                                               :          
GR_NORM     .GAPI                                               :GammaRay Normalized
ILD         .OHMM                                               :          
ILM         .OHMM                                               :          
NPSS        .%                                                  :Neutron Porosity Sandstone
SGRD        .OHMM                                               :          
SP          .MV                                                 :          
SP_NORM     .MV                                                 :SP Normalized
TENS        .LB                                                 :          
VSH_GR      .V/V                                                :Volume of Shale from GR
VSH_SP      .V/V                                                :Volume of Shale from SP
~A        DEPTH           CALI           DPSS           DRHO             GR        GR_NORM            ILD            ILM           NPSS           SGRD             SP        SP_NORM           TENS         VSH_GR         VSH_SP
# ...
      5387.0000          10.67        -999.25        -999.25        61.9697        62.3703         1.2976         1.2678        -999.25         1.1659          -93.2      -6.780243           3180      0.6249001      0.9268324
      5387.5000        10.9893        -999.25        -999.25        61.9697        62.3745         1.3405         1.3036        -999.25         1.1768            -93      -6.580246           3200      0.6249894       0.929364
      5388.0000        11.2888        -999.25        -999.25        62.2727       62.79155         1.3849         1.3468        -999.25         1.1989            -93      -6.580246           3200      0.6338629       0.929364
      5388.5000        11.2292        -999.25        -999.25        58.3663       57.47299         1.4308         1.3849        -999.25         1.2214          -92.4      -5.980247           3220      0.5207019      0.9369589
      5389.0000        11.4691        -999.25        -999.25        57.3267       56.06065         1.4989         1.4441        -999.25         1.2619          -92.2      -5.780243           3220      0.4906522      0.9394906
      5389.5000        11.1697        -999.25        -999.25        59.8515       59.50508         1.5776         1.5129        -999.25         1.3343          -92.2      -5.780243           3240      0.5639378      0.9394906
      5390.0000          10.81        -999.25        -999.25        62.1212       62.60192         1.6298         1.5703        -999.25         1.4044          -92.2      -5.780243           3240       0.629828      0.9394906
      5390.5000        10.6895        -999.25        -999.25        60.4544       60.33496          1.645         1.6374        -999.25         1.4713       -92.2021      -5.782349           3240      0.5815949      0.9394639
      5391.0000        11.0285        -999.25        -999.25        63.9364       65.08366         1.6527         1.6604        -999.25         1.4781       -92.0063      -5.586548           3240      0.6826311      0.9419425
      5391.5000        11.1275        -999.25        -999.25        64.0857       65.29128         1.6298         1.6604        -999.25         1.3979       -91.8106      -5.390846           3240      0.6870484      0.9444197
      5392.0000        10.9864        -999.25        -999.25        61.6637       61.99531         1.5849         1.6222        -999.25         1.3281        -91.415      -4.995247           3240      0.6169215      0.9494272
      5392.5000        11.0854        -999.25        -999.25        61.5117       61.79239         1.5342         1.5776        -999.25         1.2856        -91.619      -5.199249           3240       0.612604      0.9468449
      5393.0000        11.0244        -999.25        -999.25        67.2523        69.6186         1.4576          1.527        -999.25         1.2214       -92.8199      -6.400146           3240      0.7791191      0.9316437
      5393.5000        10.6635        -999.25        -999.25        71.3259       75.17338         1.4109         1.4576        -999.25         1.1551       -92.4248      -6.005043           3240      0.8973059       0.936645
      5394.0000        10.1025        -999.25        -999.25        73.8867       78.66686         1.3594         1.4044        -999.25         1.1233       -92.2294      -5.809647           3240      0.9716354      0.9391184
      5394.5000        10.0415        -999.25        -999.25         77.336       83.37099         1.3097         1.3531        -999.25         1.1391       -92.8308      -6.411049           3260              1      0.9315057
      5395.0000        10.1404        -999.25        -999.25        76.5784        82.3429          1.256         1.2976        -999.25         1.1605       -93.0331      -6.613342           3260              1       0.928945
      5395.5000         9.9194        -999.25        -999.25         73.564       78.23975         1.2045         1.2444        -999.25         1.1878       -93.6335      -7.213745           3260      0.9625478       0.921345
      5396.0000         9.8784        -999.25        -999.25        73.2558       77.82398         1.1605         1.1989        -999.25         1.1498        -94.631      -8.211243           3260      0.9537017      0.9087185
      5396.5000         9.9975        -999.25        -999.25        71.4424       75.35728         1.1129         1.1498        -999.25         1.1233       -93.8387      -7.418945           3260      0.9012188      0.9187475
      5397.0000        10.0565        -999.25        -999.25        70.5342         74.124         1.0773         1.1181        -999.25         1.0975       -94.6364      -8.216644           3260      0.8749787      0.9086501
      5397.5000        10.1355        -999.25        -999.25        69.7768       73.09618         1.0428         1.0873        -999.25         1.0975       -96.6246      -10.20485           3260      0.8531101      0.8834829
      5398.0000        10.2745        -999.25        -999.25        68.5691        71.4548         1.0235         1.0574        -999.25         1.0975       -99.4046      -12.98485           3260      0.8181871      0.8482931
      5398.5000        10.3934        -999.25        -999.25        67.2124       69.61037         1.0093         1.0379        -999.25         1.1026      -100.9983      -14.57854           3280      0.7789441      0.8281197
      5399.0000        10.4324        -999.25        -999.25         64.956       66.54006         1.0047         1.0283        -999.25         1.0623      -100.1998      -13.78004           3280      0.7136183      0.8382273
      5399.5000        10.4514        -999.25        -999.25        62.5518       63.26834              1         1.0141        -999.25         1.0141       -97.6221      -11.20235           3280      0.6440073      0.8708563
      5400.0000        10.5504        -999.25        -999.25        63.0006       63.88407         0.9958         1.0093        -999.25          0.975       -95.2466      -8.826843           3280      0.6571079      0.9009261
      5400.5000          10.73        -999.25        -999.25        65.7023       67.56953         0.9916         1.0047        -999.25          0.975       -93.6615      -7.241745       3279.435       0.735522      0.9209906
      5401.0000          10.99        -999.25        -999.25        66.9061       69.21399         0.9874         1.0047        -999.25         0.9874       -94.0547      -7.634949       3278.433      0.7705104      0.9160133
      5401.5000          11.53        -999.25        -999.25         65.412       67.18237         0.9874         1.0047        -999.25              1       -95.4397      -9.019943       3277.431      0.7272846      0.8984817
      5402.0000          11.33        -999.25        -999.25         65.267       66.98899         0.9874         1.0047        -999.25              1       -96.4293      -10.00954        3276.43        0.72317      0.8859552
      5402.5000          11.13        -999.25        -999.25        65.1222       66.79589         0.9916         1.0047        -999.25          0.975        -96.626      -10.20625       3275.428      0.7190615      0.8834652
      5403.0000          11.11        -999.25        -999.25        61.2378       61.50729         0.9916         1.0093        -999.25         0.9916       -95.8301      -9.410347       3274.426      0.6065382      0.8935399
      5403.5000          10.99        -999.25        -999.25        58.7075       58.06376         0.9958         0.9958        -999.25              1       -95.0334      -8.613647       3273.424      0.5332715      0.9036247
      5404.0000          10.99        -999.25        -999.25        64.6887       66.21779         0.9958         1.0047        -999.25         0.9874       -94.4346      -8.014847       3252.423      0.7067615      0.9112045
      5404.5000          10.95        -999.25        -999.25        71.2659       75.18391         1.0047         1.0141        -999.25         0.9628        -94.233      -7.813248       3251.421      0.8975301      0.9137564
