#------------------------------------------------------------------------------
# Created by    : vladimir.rabinovich
# Created on    : 09/19/2023 17:19:39
#------------------------------------------------------------------------------
~Version Information Section
VERS.           2.0     :   CWLS log ASCII Standard - VERSION 2.0
WRAP.           NO      :   One line per depth step
~Well Information Section
#MNEM       .UNIT                                         VALUE :DESCRIPTION
#------------------------------------------------------------------------------
STRT        .FT                                            1969 :START DEPTH
STOP        .FT                                            7841 :STOP DEPTH
STEP        .FT                                             0.5 :STEP      
NULL        .                                           -999.25 :NULL      
COMP        .                           NEWFIELD EXPLORATION CO :COMPANY   
WELL        .                                   PHELAN GAS UNIT :WELL      
FLD         .                                          BINDWEED :FIELD     
LOC         .                                                   :LOCATION  
CNTY        .                                         JEFFERSON :LOCATION  
STAT        .                                             TEXAS :STATE     
CTRY        .                                     UNITED STATES :COUNTRY   
SRVC        .                                                   :SERVICE COMPANY
DATE        .                             9/13/2023 11:18:46 AM :LOG DATE  
API         .                                    42245322670000 :API NUMBER
UWI         .                                    42245322670000 :UNIQUE WELL ID
XCOORD      .                                  1272550.81244857 :SURFACE X 
YCOORD      .                                  10898469.5255822 :SURFACE Y 
LAT         .                                        30.0242363 :LATITUDE  
LON         .                                        -94.162774 :LONGITUDE 
ELEV        .FT                                              24 :ELEVATION VALUE
ELEV_TYPE   .                                                KB :ELEVATION REFERENCE TYPE
~Curve Information Section
#MNEM       .UNIT                                      API CODE :CURVE DESCRIPTION
#------------------------------------------------------------------------------
DEPT        .FT                                                 :DEPTH     
AHT20       .OHMM                                               :          
AHT30       .OHMM                                               :          
AHT60       .OHMM                                               :          
AHT90       .OHMM                                               :          
DCAL        .IN                                                 :          
DPHZSS      .V/V                                                :          
DT          .US/FT                                              :          
GR_NORM     .GAPI                                               :GammaRay Normalized
GRR         .GAPI                                               :          
HDRA        .G/CM3                                              :          
NPORSS      .V/V                                                :          
SP          .MV                                                 :          
SP_NORM     .MV                                                 :SP Normalized
TENR        .LB                                                 :          
VSH_GR      .V/V                                                :Volume of Shale from GR
VSH_SP      .V/V                                                :Volume of Shale from SP
~A        DEPTH          AHT20          AHT30          AHT60          AHT90           DCAL         DPHZSS             DT        GR_NORM            GRR           HDRA         NPORSS             SP        SP_NORM           TENR         VSH_GR         VSH_SP
# ...
      4385.0000         0.5452            0.4         0.3014         0.2555        10.2626         0.4626          154.1       35.69583        35.9694          0.064          0.504      -112.2449      -87.55354           2380     0.05735811    0.005191359
      4385.5000         0.5209         0.3868         0.2921         0.2499            9.2         0.4656          151.8       36.00074        36.2755          0.072         0.4674      -112.0408      -87.34944           2380     0.06384545    0.007564634
      4386.0000         0.4931         0.3687         0.2794         0.2433           8.38         0.4494          149.4       36.45874        36.7347          0.086         0.4404      -111.4286      -86.73724           2380      0.0735903      0.0146833
      4386.5000         0.4663         0.3481         0.2684         0.2338           7.82          0.423          146.6       36.91676        37.1939          0.091          0.414      -111.0204      -86.32904           2380     0.08333523     0.01942976
      4387.0000          0.441         0.3286          0.259         0.2246           7.76         0.3894          143.9       37.22166           37.5          0.089          0.387      -111.6327      -86.94134           2380     0.08982265     0.01231003
      4387.5000         0.4152         0.3117         0.2499         0.2186           7.82         0.3912          143.5       36.45517        36.7347          0.049          0.381      -111.8367      -87.14534           2380     0.07351417    0.009937908
      4388.0000         0.3887            0.3         0.2422         0.2148           8.08         0.4014          144.2       35.68867        35.9694          0.031         0.3804       -112.449      -87.75764           2380     0.05720585    0.002818174
      4388.5000         0.3758         0.2934         0.2412          0.211           8.28         0.4032          145.6       34.92219        35.2041           0.03          0.366      -112.8571      -88.16574           2380     0.04089761              0
      4389.0000         0.3758         0.2934         0.2401         0.2119           8.56         0.3924          147.2        32.6251        32.9082          0.036         0.3546      -112.8571      -88.16574           2380              0              0
      4389.5000         0.3758         0.2934         0.2401         0.2129           8.78          0.384            148        30.3279        30.6122          0.051         0.3726      -112.8571      -88.16574           2380              0              0
      4390.0000         0.3758         0.2934         0.2422         0.2138           9.06         0.3828          149.3       30.17371        30.4592          0.061         0.3996      -113.0612      -88.36984           2380              0              0
      4390.5000         0.3777         0.2935         0.2433         0.2157         9.3206         0.3906            150       31.55002        31.8367          0.073         0.4248      -113.0612      -88.36984       2379.409              0              0
      4391.0000         0.3795         0.2936         0.2434         0.2167         9.5816         0.4026          150.1       32.00803        32.2959          0.081         0.4266      -113.0612      -88.36984       2378.424              0              0
      4391.5000         0.3814         0.2937         0.2456         0.2176        10.3658         0.4241          150.2       32.00683        32.2959           0.08         0.4313      -113.0612      -88.36984       2377.438              0              0
      4392.0000         0.3814         0.2965         0.2478         0.2166        11.2135         0.4542            150       31.85264        32.1429          0.076         0.4445      -113.0612      -88.36984       2376.453              0              0
      4392.5000         0.3832         0.2979         0.2478         0.2186        11.3349         0.4662            149       31.54525        31.8367          0.091         0.4614      -113.0612      -88.36984       2375.468              0              0
      4393.0000         0.3888         0.3008         0.2479         0.2195        10.7912         0.4541          147.4       32.46246        32.7551          0.099         0.4668      -113.4694      -88.77804       2374.483              0              0
      4393.5000         0.3925         0.3038          0.249         0.2205        10.7717         0.4523          146.9       32.92047        33.2143          0.105          0.471      -113.4694      -88.77804       2373.498              0              0
      4394.0000            0.4         0.3068         0.2491         0.2205        10.9535          0.471          146.8       33.37847        33.6735          0.101         0.5076      -113.4694      -88.77804       2372.414    0.008052583              0
      4394.5000         0.4018         0.3099         0.2502         0.2225        11.1351          0.492          147.1       32.76498        33.0612          0.091         0.5322      -113.4694      -88.77804       2371.429              0              0
      4395.0000         0.4018           0.31         0.2503         0.2225        11.2963         0.5172          147.4       30.46789        30.7653          0.069          0.582      -113.4694      -88.77804       2370.443              0              0
      4395.5000         0.4018         0.3101         0.2514         0.2225        11.3771         0.5394          147.5        30.1606        30.4592          0.063         0.6222      -113.8776      -89.18624       2369.458              0              0
      4396.0000         0.3981         0.3103         0.2503         0.2225        11.3774         0.5688          150.3        30.6186        30.9184          0.047         0.6396      -113.8776      -89.18624       2368.473              0              0
      4396.5000         0.3981         0.3104         0.2492         0.2224        11.3777         0.5964          150.4       30.31121        30.6122          0.023         0.6054      -113.8776      -89.18624       2367.488              0              0
      4397.0000         0.3981         0.3076         0.2481         0.2224         11.378         0.5976          151.1       29.85092        30.1531         -0.007         0.5268      -113.8776      -89.18624       2366.404              0              0
      4397.5000         0.3963         0.3078          0.247         0.2224        11.3783         0.5976          151.8       29.40253        29.7059         -0.032         0.4968      -113.4694      -88.77804       2365.419              0              0
      4398.0000         0.3963         0.3065         0.2459         0.2224        11.3786         0.5976          152.5       28.96013        29.2647         -0.042         0.5292      -113.4694      -88.77804       2364.434              0              0
      4398.5000         0.3944         0.3037         0.2471         0.2224        11.3789         0.5976          151.5       27.63544        27.9412         -0.041         0.5628      -113.0612      -88.36984       2363.448              0              0
      4399.0000         0.3926         0.3039         0.2483         0.2224        11.3792         0.5976          150.2       26.89895        27.2059         -0.027         0.5904      -112.6531      -87.96174       2362.463              0   0.0004449002
      4399.5000         0.3926          0.304         0.2495         0.2234        11.3395          0.588          146.7       29.10366        29.4118         -0.014         0.5346      -111.8367      -87.14534       2361.478              0    0.009937908
      4400.0000         0.3926         0.3041         0.2495         0.2255        11.1798         0.5394          143.2       30.45597        30.7653         -0.007          0.483      -111.4286      -86.73724       2360.493              0      0.0146833
      4400.5000         0.3908         0.3042         0.2449         0.2234        10.5784         0.4758       139.5999       31.99567        32.3062         -0.001         0.4316      -111.2149      -86.52354       2363.002              0     0.01716818
