#------------------------------------------------------------------------------
# Created by    : vladimir.rabinovich
# Created on    : 09/19/2023 17:19:40
#------------------------------------------------------------------------------
~Version Information Section
VERS.           2.0     :   CWLS log ASCII Standard - VERSION 2.0
WRAP.           NO      :   One line per depth step
~Well Information Section
#MNEM       .UNIT                                         VALUE :DESCRIPTION
#------------------------------------------------------------------------------
STRT        .FT                                            1208 :START DEPTH
STOP        .FT                                            8860 :STOP DEPTH
STEP        .FT                                             0.5 :STEP      
NULL        .                                           -999.25 :NULL      
COMP        .                             WEAVER EXPLORATION CO :COMPANY   
WELL        .                                       BEAVERS W H :WELL      
FLD         .                                           WILDCAT :FIELD     
LOC         .                                                   :LOCATION  
CNTY        .                                         JEFFERSON :LOCATION  
STAT        .                                             TEXAS :STATE     
CTRY        .                                     UNITED STATES :COUNTRY   
SRVC        .                                                   :SERVICE COMPANY
DATE        .                             9/13/2023 11:18:46 AM :LOG DATE  
API         .                                    42245314920000 :API NUMBER
UWI         .                                    42245314920000 :UNIQUE WELL ID
XCOORD      .                                  1212655.17721247 :SURFACE X 
YCOORD      .                                  10886677.7304034 :SURFACE Y 
LAT         .                                        29.9899994 :LATITUDE  
LON         .                                       -94.3516153 :LONGITUDE 
ELEV        .FT                                            37.2 :ELEVATION VALUE
ELEV_TYPE   .                                                KB :ELEVATION REFERENCE TYPE
~Curve Information Section
#MNEM       .UNIT                                      API CODE :CURVE DESCRIPTION
#------------------------------------------------------------------------------
DEPT        .FT                                                 :DEPTH     
ALL         .OHMM                                               :          
CILD        .MMHO/M                                             :          
ILD         .OHMM                                               :          
SP          .MV                                                 :          
SP_NORM     .MV                                                 :SP Normalized
VSH_SP      .V/V                                                :Volume of Shale from SP
~A        DEPTH            ALL           CILD            ILD             SP        SP_NORM         VSH_SP
# ...
      8808.0000          1.052       1253.489           0.81       159.3953      -1.098526      0.9986686
      8808.5000          1.014       1253.516           0.81        159.395      -1.098816      0.9986647
      8809.0000         0.9778       1253.543           0.82       159.3947      -1.099121      0.9986605
      8809.5000         0.9394        1294.78           0.82       159.3944      -1.099426      0.9986564
      8810.0000          0.901       1336.041           0.81       159.3939      -1.099915      0.9986498
      8810.5000         0.8787        1381.52           0.74        159.596     -0.8978271              1
      8811.0000         0.8785       1422.832           0.68        159.596     -0.8978271              1
      8811.5000         0.8926       1464.102            0.7        159.596     -0.8978271              1
      8812.0000         0.9168       1488.865            0.7        159.596     -0.8978271              1
      8812.5000          0.933       1501.262           0.72        159.798      -0.695816              1
      8813.0000         0.9492       1501.333           0.73        159.596     -0.8978271              1
      8813.5000         0.9715       1472.613           0.74        159.596     -0.8978271              1
      8814.0000         0.9959       1415.166           0.74       159.3939      -1.099915      0.9986498
      8814.5000          1.022       1357.769           0.74       159.1919      -1.301926      0.9959199
      8815.0000          1.044        1271.77           0.74       159.1919      -1.301926      0.9959199
      8815.5000          1.072         1214.5           0.79       158.9899      -1.503922      0.9931902
      8816.0000          1.102       1162.105           0.83       158.7879      -1.705917      0.9904606
      8816.5000          1.132       1105.921           0.87       158.7879      -1.705917      0.9904606
      8817.0000          1.162       1021.546           0.89       158.7879      -1.705917      0.9904606
      8817.5000          1.192       965.2296         0.9383       158.5859      -1.907913      0.9877309
      8818.0000          1.222       908.8608         0.9944       158.5859      -1.907913      0.9877309
      8818.5000          1.252        852.439         1.0505       158.3838      -2.110016      0.9849998
      8819.0000          1.264       828.2496         1.1067       158.3838      -2.110016      0.9849998
      8819.5000          1.286       804.0376         1.1588       158.1818      -2.312027      0.9822699
      8820.0000          1.296       788.2325         1.1828       158.1818      -2.312027      0.9822699
      8820.5000         1.3379       776.6455         1.2069       157.9798      -2.514023      0.9795402
      8821.0000         1.3838       776.8258          1.231       157.9798      -2.514023      0.9795402
      8821.5000         1.3637       784.8624          1.255       157.9798      -2.514023      0.9795402
      8822.0000         1.3456       808.8517         1.1548       158.1818      -2.312027      0.9822699
      8822.5000         1.3095       837.2573         1.0585       158.3838      -2.110016      0.9849998
      8823.0000         1.2734        873.692         1.0366       158.5859      -1.907913      0.9877309
      8823.5000         1.2373       934.2499         1.0164       158.5859      -1.907913      0.9877309
      8824.0000         1.2012       982.6748          1.006       158.7879      -1.705917      0.9904606
      8824.5000         1.0471        1027.03         0.9756       158.7879      -1.705917      0.9904606
      8825.0000          1.045       1075.362         0.9451       158.9899      -1.503922      0.9931902
      8825.5000         1.0429       1123.646         0.9046       159.1919      -1.301926      0.9959199
      8826.0000         1.0748       1155.817         0.8741       159.3939      -1.099915      0.9986498
      8826.5000         1.0967       1171.897         0.8737        159.798      -0.695816              1
      8827.0000         1.1206       1183.949         0.8632            160     -0.4938202              1
      8827.5000         1.1425       1183.957         0.8427       160.2041     -0.2897186              1
      8828.0000         1.1664       1187.974         0.8422       160.2041     -0.2897186              1
      8828.5000         1.1663       1187.979         0.8517       160.2041     -0.2897186              1
      8829.0000         1.1642       1187.985         0.8912       160.2041     -0.2897186              1
      8829.5000         1.1361       1183.988         0.9207       160.2041     -0.2897186              1
      8830.0000          1.134       1179.995         0.9602       160.2041     -0.2897186              1
      8830.5000          1.184       1092.142           1.01       160.2041     -0.2897186              1
      8831.0000          1.218       1088.281           1.03       160.2041     -0.2897186              1
      8831.5000          1.284        1080.41           1.03            160     -0.4938202              1
      8832.0000          1.284       1072.532           1.03            160     -0.4938202              1
      8832.5000          1.282       1064.646           1.03            160     -0.4938202              1
      8833.0000           1.25       1056.751           1.01            160     -0.4938202              1
      8833.5000          1.218        1048.85           1.01            160     -0.4938202              1
      8834.0000          1.186       1044.956              1            160     -0.4938202              1
      8834.5000          1.154       1045.076           0.98            160     -0.4938202              1
      8835.0000          1.146       1053.235           0.98            160     -0.4938202              1
      8835.5000          1.138       1085.532           0.96        159.798      -0.695816              1
      8836.0000          1.126       1121.884           0.91        159.798      -0.695816              1
      8836.5000          1.108       1154.246            0.9            160     -0.4938202              1
      8837.0000          1.102       1190.668           0.87       160.2041     -0.2897186              1
      8837.5000          1.052       1223.464           0.86       160.2041     -0.2897186              1
      8838.0000          1.032       1260.477           0.84       160.4082    -0.08561707              1
      8838.5000           1.01       1293.361           0.84       160.6122      0.1183777              1
      8839.0000         0.9879       1330.298           0.83       160.8163      0.3224792              1
      8839.5000         0.9677       1330.433           0.83       161.0204      0.5265808              1
      8840.0000         0.9515       1330.589           0.82       161.2248      0.7309723              1
      8840.5000         0.9394       1330.657         0.7997       161.4196      0.9257813              1
      8841.0000         0.9373       1330.725         0.7892       161.4104      0.9165802              1
      8841.5000         0.9372       1330.793         0.7787       161.4011      0.9072723              1
      8842.0000         0.9371       1330.861         0.7682       161.3918      0.8979797              1
      8842.5000          0.935       1330.929         0.7677       161.3825      0.8886871              1
      8843.0000         0.9269       1335.091         0.7672       161.1684      0.6745758              1
      8843.5000         0.9168       1335.161         0.7567        161.159      0.6651764              1
      8844.0000         0.9127       1335.232         0.7562       161.1496       0.655777              1
      8844.5000         0.9126       1335.302         0.7556       161.1402      0.6463776              1
      8845.0000         0.9126       1339.475         0.7551       161.1307      0.6368866              1
      8845.5000         0.9105       1339.548         0.7646       161.1212      0.6273804              1
