#------------------------------------------------------------------------------
# Created by    : vladimir.rabinovich
# Created on    : 09/19/2023 17:20:52
#------------------------------------------------------------------------------
~Version Information Section
VERS.           2.0     :   CWLS log ASCII Standard - VERSION 2.0
WRAP.           NO      :   One line per depth step
~Well Information Section
#MNEM       .UNIT                                         VALUE :DESCRIPTION
#------------------------------------------------------------------------------
STRT        .FT                                            1558 :START DEPTH
STOP        .FT                                           11266 :STOP DEPTH
STEP        .FT                                             0.5 :STEP      
NULL        .                                           -999.25 :NULL      
COMP        .                               MEREDITH & CO ET AL :COMPANY   
WELL        .                                 GRINNELL TEXAS CO :WELL      
FLD         .                                           WILDCAT :FIELD     
LOC         .                                                   :LOCATION  
CNTY        .                                         JEFFERSON :LOCATION  
STAT        .                                             TEXAS :STATE     
CTRY        .                                     UNITED STATES :COUNTRY   
SRVC        .                                                   :SERVICE COMPANY
DATE        .                             9/13/2023 11:19:11 AM :LOG DATE  
API         .                                    42245015300000 :API NUMBER
UWI         .                                    42245015300000 :UNIQUE WELL ID
XCOORD      .                                  1358778.50439977 :SURFACE X 
YCOORD      .                                  10877447.4356243 :SURFACE Y 
LAT         .                                        29.9685419 :LATITUDE  
LON         .                                       -93.8897358 :LONGITUDE 
ELEV        .FT                                              14 :ELEVATION VALUE
ELEV_TYPE   .                                                DF :ELEVATION REFERENCE TYPE
~Curve Information Section
#MNEM       .UNIT                                      API CODE :CURVE DESCRIPTION
#------------------------------------------------------------------------------
DEPT        .FT                                                 :DEPTH     
ASN         .OHMM                                               :          
LN          .OHMM                                               :          
SP          .MV                                                 :          
SP_NORM     .MV                                                 :SP Normalized
VSH_SP      .V/V                                                :Volume of Shale from SP
~A        DEPTH            ASN             LN             SP        SP_NORM         VSH_SP
# ...
      9962.0000         0.3438         0.3126       -11.8653      -1.533259      0.9901248
      9962.5000         0.3448         0.3114       -11.8807      -1.554985      0.9897225
      9963.0000         0.3459         0.3089       -11.8961      -1.576711      0.9893202
      9963.5000          0.347         0.3043       -11.9115      -1.598436      0.9889178
      9964.0000          0.348         0.2997       -11.8441      -1.537361      0.9900489
      9964.5000         0.3491         0.2951       -11.7289      -1.428487      0.9920651
      9965.0000           0.35         0.2905       -11.6137      -1.319613      0.9940813
      9965.5000         0.3508         0.2859       -11.4984      -1.210638      0.9960993
      9966.0000         0.3516         0.2814       -11.3831      -1.101664      0.9981173
      9966.5000         0.3524         0.2778       -11.2639     -0.9887896              1
      9967.0000         0.3533         0.2742       -11.1255     -0.8567142              1
      9967.5000         0.3463         0.2706        -10.987     -0.7245407              1
      9968.0000          0.336         0.2672       -10.8485     -0.5923662              1
      9968.5000         0.3258         0.2656         -10.71     -0.4601917              1
      9969.0000         0.3155         0.2641       -10.6076     -0.3641176              1
      9969.5000         0.3053         0.2625       -10.7879     -0.5507431              1
      9970.0000         0.2971          0.261       -10.9683     -0.7374678              1
      9970.5000         0.3082           0.26       -11.1486     -0.9240932              1
      9971.0000         0.3193         0.2609       -11.3289       -1.11072      0.9979497
      9971.5000         0.3316         0.2618       -11.5092      -1.297345      0.9944936
      9972.0000         0.3446         0.2627       -11.6896      -1.484071      0.9910357
      9972.5000         0.3575         0.2637       -11.8106      -1.611397      0.9886779
      9973.0000         0.3705         0.2646       -11.8551      -1.662221      0.9877366
      9973.5000         0.3885         0.2655       -11.8995      -1.712947      0.9867973
      9974.0000          0.396         0.2672       -11.9439      -1.763673      0.9858579
      9974.5000         0.3846         0.2704       -11.9883      -1.814399      0.9849185
      9975.0000         0.3794         0.2736       -11.7909      -1.623324       0.988457
      9975.5000         0.3742         0.2768       -11.4187       -1.25745      0.9952324
      9976.0000         0.3689           0.28       -11.0465     -0.8915758              1
      9976.5000         0.3637         0.2831       -10.8226     -0.6740007              1
      9977.0000         0.3621         0.2863       -10.6495      -0.507226              1
      9977.5000         0.3683         0.2895        -10.476     -0.3400517              1
      9978.0000         0.3745         0.2927       -10.3029     -0.1732779              1
      9978.5000         0.3807         0.2959       -10.1297   -0.006402969              1
      9979.0000          0.387         0.2991       -10.0553     0.06167126              1
      9979.5000         0.3932         0.3017       -10.0852     0.02544594              1
      9980.0000         0.3994         0.3039        -10.155    -0.05067921              1
      9980.5000         0.4056         0.3062       -10.8521     -0.7541056              1
      9981.0000         0.4171         0.3085       -11.5503      -1.458631      0.9915068
      9981.5000         0.4294         0.3107       -12.3266      -2.241257      0.9770138
      9982.0000         0.4417          0.313       -13.3728      -3.293782      0.9575226
      9982.5000          0.454         0.3153       -14.4189      -4.346207      0.9380332
      9983.0000         0.4439         0.3176       -15.4629      -5.396533      0.9185827
      9983.5000         0.4347         0.3198       -15.9023      -5.842258      0.9103286
      9984.0000         0.4254          0.321       -15.3594      -5.305684      0.9202651
      9984.5000         0.4162         0.3219       -14.8154       -4.76801       0.930222
      9985.0000         0.4069         0.3228       -14.2196      -4.178535      0.9411382
      9985.5000         0.4041         0.3237       -13.3199       -3.28516      0.9576822
      9986.0000          0.403         0.3246       -12.4213      -2.392886      0.9742058
      9986.5000          0.402         0.3255       -12.3186      -2.296512      0.9759905
      9987.0000         0.3946         0.3264       -12.5284      -2.512638      0.9719882
      9987.5000         0.3869         0.3254       -12.7382      -2.728764      0.9679859
      9988.0000         0.3792         0.3235        -12.948      -2.944889      0.9639835
      9988.5000         0.3707         0.3217       -13.1578      -3.161014      0.9599812
      9989.0000         0.3605         0.3198       -13.0237      -3.033239      0.9623474
      9989.5000         0.3503         0.3139       -12.7115      -2.727365      0.9680117
      9990.0000         0.3401          0.306       -12.3988      -2.420991      0.9736853
      9990.5000         0.3299          0.298        -12.086      -2.114517      0.9793608
      9991.0000         0.3197           0.29       -11.7733      -1.808143      0.9850344
      9991.5000         0.3095          0.282       -11.4605      -1.501667      0.9907098
      9992.0000         0.2993         0.2741       -11.2282      -1.275693      0.9948946
      9992.5000         0.2958         0.2685       -11.0514      -1.105219      0.9980515
      9993.0000         0.2925         0.2667       -10.8747      -0.934844              1
      9993.5000         0.2892         0.2649       -10.6979       -0.76437              1
      9994.0000          0.286         0.2631       -10.5212      -0.593996              1
      9994.5000         0.2827         0.2613       -10.3447     -0.4238214              1
      9995.0000         0.2794         0.2595        -10.168     -0.2534466              1
      9995.5000         0.2827         0.2577        -9.9912    -0.08297253              1
      9996.0000         0.2868         0.2559        -9.8145     0.08740234              1
      9996.5000         0.2909         0.2546        -9.6377      0.2578764              1
      9997.0000          0.295         0.2576        -9.4796      0.4096508              1
      9997.5000         0.2991         0.2607        -9.3716      0.5113249              1
      9998.0000         0.3032         0.2637        -9.2637      0.6129007              1
      9998.5000         0.3073         0.2667        -9.1837      0.7098064              1
      9999.0000         0.3116         0.2698        -9.9249     -0.0142765              1
      9999.5000         0.3203         0.2728       -10.7376     -0.8098593              1
     10000.0000          0.329         0.2758       -11.6516      -1.706741      0.9869122
     10000.5000         0.3378         0.2789       -12.5667      -2.604724      0.9702829
     10001.0000         0.3465         0.2815       -12.8794      -2.900307      0.9648091
     10001.5000         0.3552         0.2827        -13.107      -3.110789      0.9609113
     10002.0000         0.3601         0.2839       -13.0386      -3.025272       0.962495
     10002.5000         0.3595         0.2851       -12.9702      -2.939754      0.9640786
     10003.0000         0.3589         0.2863       -12.9017      -2.854137      0.9656641
     10003.5000         0.3583         0.2875       -12.8333       -2.76862      0.9672478
     10004.0000         0.3577         0.2887       -12.7649      -2.683103      0.9688314
     10004.5000         0.3576         0.2899       -12.6965      -2.597585      0.9704151
     10005.0000         0.3595         0.2911       -12.6279      -2.511868      0.9720024
     10005.5000         0.3613         0.2923       -12.5583      -2.425151      0.9736083
