#------------------------------------------------------------------------------
# Created by    : vladimir.rabinovich
# Created on    : 09/19/2023 17:22:03
#------------------------------------------------------------------------------
~Version Information Section
VERS.           2.0     :   CWLS log ASCII Standard - VERSION 2.0
WRAP.           NO      :   One line per depth step
~Well Information Section
#MNEM       .UNIT                                         VALUE :DESCRIPTION
#------------------------------------------------------------------------------
STRT        .FT                                             959 :START DEPTH
STOP        .FT                                            9240 :STOP DEPTH
STEP        .FT                                             0.5 :STEP      
NULL        .                                           -999.25 :NULL      
COMP        .                                  SAMEDAN OIL CORP :COMPANY   
WELL        .                                            WILBER :WELL      
FLD         .                                     HAMSHIRE WEST :FIELD     
LOC         .                                                   :LOCATION  
CNTY        .                                         JEFFERSON :LOCATION  
STAT        .                                             TEXAS :STATE     
CTRY        .                                     UNITED STATES :COUNTRY   
SRVC        .                                                   :SERVICE COMPANY
DATE        .                             9/13/2023 11:18:46 AM :LOG DATE  
API         .                                    42245321080000 :API NUMBER
UWI         .                                    42245321080000 :UNIQUE WELL ID
XCOORD      .                                  1220512.54732583 :SURFACE X 
YCOORD      .                                  10829820.5318697 :SURFACE Y 
LAT         .                                        29.8338887 :LATITUDE  
LON         .                                       -94.3247224 :LONGITUDE 
ELEV        .FT                                              24 :ELEVATION VALUE
ELEV_TYPE   .                                                KB :ELEVATION REFERENCE TYPE
~Curve Information Section
#MNEM       .UNIT                                      API CODE :CURVE DESCRIPTION
#------------------------------------------------------------------------------
DEPT        .FT                                                 :DEPTH     
CALI        .IN                                                 :          
DPSS        .%                                                  :          
DRHO        .G/CM3                                              :          
GR          .GAPI                                               :          
GR_NORM     .GAPI                                               :GammaRay Normalized
ILD         .OHMM                                               :          
ILM         .OHMM                                               :          
NPSS        .%                                                  :Neutron Porosity Sandstone
SGRD        .OHMM                                               :          
SP          .MV                                                 :          
SP_NORM     .MV                                                 :SP Normalized
TENS        .LB                                                 :          
VSH_GR      .V/V                                                :Volume of Shale from GR
VSH_SP      .V/V                                                :Volume of Shale from SP
~A        DEPTH           CALI           DPSS           DRHO             GR        GR_NORM            ILD            ILM           NPSS           SGRD             SP        SP_NORM           TENS         VSH_GR         VSH_SP
# ...
      6467.0000        10.9636        -999.25        -999.25        71.5365       64.78142         0.5395         0.7353        -999.25         0.9615       -105.664      -19.24425       3706.415      0.6762004      0.7828066
      6467.5000        10.9446        -999.25        -999.25        69.6132       62.15944         0.5227         0.6798        -999.25         1.0318      -111.2547      -24.83495       3685.416      0.6204135      0.7162507
      6468.0000        10.7856        -999.25        -999.25        72.2939       65.81075         0.5087         0.6369        -999.25         1.0177      -115.4445      -29.02475       3664.417      0.6981011       0.666372
      6468.5000        11.0466        -999.25        -999.25        74.5291       68.85503         0.5019         0.5995        -999.25          0.946      -116.2344      -29.81464       3643.418      0.7628731      0.6569685
      6469.0000        11.1476        -999.25        -999.25        73.0514       66.84022          0.502         0.5969        -999.25         0.8675      -115.0244      -28.60464       3662.417      0.7200046      0.6713732
      6469.5000        11.2086        -999.25        -999.25        72.0193       65.43256         0.5184         0.6026        -999.25         0.7851      -117.0142      -30.59444       3681.416      0.6900545      0.6476852
      6470.0000        11.2496        -999.25        -999.25        73.2148       67.06017         0.5402         0.6465        -999.25         0.7229      -116.8042      -30.38445       3680.416      0.7246845      0.6501852
      6470.5000        11.3505        -999.25        -999.25        71.4394       64.63972         0.5707         0.6839        -999.25         0.7964      -112.7964      -26.37665       3699.409      0.6731856      0.6978971
      6471.0000        11.5115        -999.25        -999.25        70.5557       63.43425         0.6319         0.7232        -999.25          0.951      -109.1929      -22.77315       3698.399      0.6475373      0.7407959
      6471.5000        11.5725        -999.25        -999.25        75.4688        70.1274         0.6939         0.7644        -999.25         1.1504      -107.9898      -21.57005       3677.491      0.7899446      0.7551185
      6472.0000        11.6336        -999.25        -999.25        78.7769       74.63359         0.7576         0.8006        -999.25         1.2512      -107.9858      -21.56605       3656.482      0.8858211      0.7551661
      6472.5000        11.6746        -999.25        -999.25        73.2514       67.10334         0.8304         0.8456        -999.25         1.2058      -103.3923      -16.97255       3615.474       0.725603      0.8098506
      6473.0000        11.7956        -999.25        -999.25        71.7737       65.08849         0.9125          0.932        -999.25         1.1248       -98.4115      -11.99174       3614.464      0.6827337      0.8691459
      6473.5000        11.9766        -999.25        -999.25        70.7416       63.68085          0.993         0.9846        -999.25         1.0395       -94.8347      -8.414948       3673.451       0.652784      0.9117268
      6474.0000        12.0576        -999.25        -999.25        73.1253       66.92748          0.989         1.0206        -999.25         0.9562       -93.6395      -7.219749       3852.432      0.7218613      0.9259554
      6474.5000        11.9386        -999.25        -999.25        75.0641        69.5679         0.8657           1.04        -999.25         0.9365       -95.4261      -9.006348       3911.419      0.7780405      0.9046863
      6475.0000        11.7795        -999.25        -999.25        76.7215       71.82487         0.7692         1.0402        -999.25         1.0258      -100.3981      -13.97835       3870.411      0.8260612      0.8454959
      6475.5000        11.4206        -999.25        -999.25        75.3791       69.99442          0.676         0.9813        -999.25         1.1473      -107.9579      -21.53815       3849.402      0.7871152      0.7554982
      6476.0000        11.2816        -999.25        -999.25         72.264       65.74853         0.6101         0.8624        -999.25         1.2653      -115.3117      -28.89194       3828.493      0.6967772       0.667953
      6476.5000        11.3226        -999.25        -999.25         66.925       58.47239         0.5569         0.7592        -999.25          1.357      -122.6742      -36.25445       3807.485      0.5419657      0.5803042
      6477.0000        11.4236        -999.25        -999.25        64.1107       54.63633         0.5322         0.6702        -999.25         1.4286      -128.2649      -41.84514       3766.476      0.4603475      0.5137483
      6477.5000        11.5446        -999.25        -999.25        65.1577       56.06161         0.5275         0.5938        -999.25         1.3768      -131.2547      -44.83495       3705.469      0.4906726      0.4781554
      6478.0000        11.6455        -999.25        -999.25        68.1355       60.11774           0.53          0.594        -999.25         1.2664      -129.2448      -42.82504       3624.463      0.5769733      0.5020828
      6478.5000        11.6865        -999.25        -999.25         73.341       67.20929         0.5423         0.6051        -999.25         1.1488       -124.435      -38.01524       3623.453      0.7278572      0.5593423
      6479.0000        11.7275        -999.25        -999.25        80.8316       77.41444         0.5997         0.6553        -999.25         0.9953      -116.2572      -29.83745       3622.443      0.9449882       0.656697
      6479.5000        11.6685        -999.25        -999.25        85.4889       83.75904         0.6647         0.7194        -999.25         0.8796      -105.1523      -18.73254       3641.432              1      0.7888983
      6480.0000        11.7095        -999.25        -999.25        77.6968       73.14037         0.7397         0.8072        -999.25         0.8257       -95.8009      -9.381149       3640.422      0.8540503      0.9002244
      6480.5000        12.0305        -999.25        -999.25        72.0334       65.42222         0.8184         0.8921        -999.25          0.996       -91.5948      -5.175049       3659.417      0.6898344      0.9502971
      6481.0000        12.3115        -999.25        -999.25         73.526       67.45464         0.9237         0.9964        -999.25         1.2453       -87.3842      -0.964447       3678.416      0.7330775              1
      6481.5000        12.5525        -999.25        -999.25        77.8695       73.37166         1.0012         1.0586        -999.25         1.2931       -88.1741      -1.754349       3677.416      0.8589715      0.9910197
      6482.0000        12.6335        -999.25        -999.25        81.9268        78.8987         1.0993         1.1252        -999.25         1.2234       -88.9649      -2.545143       3696.415       0.976568      0.9816054
      6482.5000        12.6345        -999.25        -999.25        82.3843       79.52073         1.1522         1.1959        -999.25         1.1576       -88.3549      -1.935143       3695.415      0.9898027      0.9888673
      6483.0000        12.6355        -999.25        -999.25         79.242       75.23775         1.2076         1.2418        -999.25         1.0952        -86.944     -0.5242462       3714.414      0.8986756              1
      6483.5000        12.6365        -999.25        -999.25        75.9489       70.74932         1.2657         1.2835        -999.25         1.0606       -87.5339      -1.114143        3793.41      0.8031771      0.9986411
      6484.0000        12.6375        -999.25        -999.25        76.8564       71.98451         1.3021         1.3204        -999.25         1.0611       -88.3248      -1.905045       3852.407      0.8294577      0.9892257
      6484.5000        12.6385        -999.25        -999.25        78.0639       73.62849         1.3334         1.3521        -999.25         1.1544       -87.7148      -1.295044       3731.413      0.8644359      0.9964876
