#------------------------------------------------------------------------------
# Created by    : vladimir.rabinovich
# Created on    : 09/19/2023 17:20:51
#------------------------------------------------------------------------------
~Version Information Section
VERS.           2.0     :   CWLS log ASCII Standard - VERSION 2.0
WRAP.           NO      :   One line per depth step
~Well Information Section
#MNEM       .UNIT                                         VALUE :DESCRIPTION
#------------------------------------------------------------------------------
STRT        .FT                                            1028 :START DEPTH
STOP        .FT                                            9325 :STOP DEPTH
STEP        .FT                                             0.5 :STEP      
NULL        .                                           -999.25 :NULL      
COMP        .                     HUNT LAMAR TRUST ESTATE ET AL :COMPANY   
WELL        .                                   BROUSSARD TRUST :WELL      
FLD         .                                           WILDCAT :FIELD     
LOC         .                                                   :LOCATION  
CNTY        .                                         JEFFERSON :LOCATION  
STAT        .                                             TEXAS :STATE     
CTRY        .                                     UNITED STATES :COUNTRY   
SRVC        .                                                   :SERVICE COMPANY
DATE        .                             9/13/2023 11:19:11 AM :LOG DATE  
API         .                                    42245021920000 :API NUMBER
UWI         .                                    42245021920000 :UNIQUE WELL ID
XCOORD      .                                  1218474.36862613 :SURFACE X 
YCOORD      .                                   10882715.986693 :SURFACE Y 
LAT         .                                        29.9792918 :LATITUDE  
LON         .                                       -94.3330868 :LONGITUDE 
ELEV        .FT                                              36 :ELEVATION VALUE
ELEV_TYPE   .                                                DF :ELEVATION REFERENCE TYPE
~Curve Information Section
#MNEM       .UNIT                                      API CODE :CURVE DESCRIPTION
#------------------------------------------------------------------------------
DEPT        .FT                                                 :DEPTH     
ASN         .OHMM                                               :          
LAT         .OHMM                                               :          
LN          .OHMM                                               :          
SP          .MV                                                 :          
SP_NORM     .MV                                                 :SP Normalized
VSH_SP      .V/V                                                :Volume of Shale from SP
~A        DEPTH            ASN            LAT             LN             SP        SP_NORM         VSH_SP
# ...
      6538.0000         0.7263         0.8214         0.5804        -59.292       4.044041              1
      6538.5000         0.7439         0.8036         0.5804        -59.115       4.225632              1
      6539.0000         0.7632         0.7946         0.5804       -58.7611       4.584126              1
      6539.5000         0.7737         0.7768         0.5804       -58.5841        4.76572              1
      6540.0000         0.7684         0.7679         0.5804       -58.2304       5.124008              1
      6540.5000         0.7579           0.75         0.5808       -58.0457       5.313301              1
      6541.0000         0.7456         0.7411         0.5812       -57.6842       5.679394              1
      6541.5000         0.7386         0.7411         0.5817       -57.6766       5.691586              1
      6542.0000         0.7351         0.7411         0.5732        -57.669       5.703781              1
      6542.5000         0.7351         0.7411         0.5736       -57.6613       5.716072              1
      6543.0000         0.7526         0.7411         0.5651       -57.6537       5.728264              1
      6543.5000         0.7596         0.7411         0.5655       -57.6461       5.740459              1
      6544.0000         0.7474           0.75          0.566       -57.6385       5.752647              1
      6544.5000         0.7456         0.7679         0.5664       -57.6309       5.764839              1
      6545.0000         0.7333         0.7857         0.5669       -57.6233       5.777035              1
      6545.5000         0.7211         0.7857         0.5584       -57.6157       5.789227              1
      6546.0000         0.7088         0.7857         0.5588       -57.6081       5.801418              1
      6546.5000         0.6965         0.7946         0.5592       -57.7765       5.637611              1
      6547.0000         0.6842         0.7946         0.5597       -57.7689       5.649803              1
      6547.5000         0.7351         0.7946         0.5512       -57.7612       5.662098              1
      6548.0000         0.7298         0.7946         0.5695       -57.7536        5.67429              1
      6548.5000         0.6842         0.7857         0.5699       -57.7459       5.686581              1
      6549.0000         0.6807           0.75         0.5882       -57.7383       5.698772              1
      6549.5000         0.6772         0.7411         0.5886       -57.9063       5.535366              1
      6550.0000         0.7298         0.7232          0.598       -57.8986       5.547657              1
      6550.5000         0.7333         0.6786         0.5982       -58.2456        5.20525              1
      6551.0000         0.7263         0.6518         0.6071       -58.2456       5.209843              1
      6551.5000         0.7158          0.625         0.6161       -58.2456       5.214436              1
      6552.0000         0.6982         0.6071         0.6339       -58.2456       5.219028              1
      6552.5000         0.6895         0.5893         0.6429       -58.4211       5.048122              1
      6553.0000          0.686         0.5714         0.6518       -58.5965       4.877312              1
      6553.5000            0.7         0.5536         0.6518       -58.9474       4.531006              1
      6554.0000         0.7211         0.5357         0.6607       -59.1228       4.360199              1
      6554.5000         0.7439         0.5179         0.6607       -59.2982       4.189392              1
      6555.0000         0.7649            0.5         0.6786       -59.2982       4.193985              1
      6555.5000          0.786         0.4821         0.6875       -59.4737       4.023075              1
      6556.0000         0.8071         0.4643         0.6875       -59.6491       3.852268              1
      6556.5000         0.8286         0.4732         0.6875            -60       3.505962              1
      6557.0000           0.85         0.4732         0.6875       -60.1802       3.330357              1
      6557.5000          0.925         0.4911         0.6964       -60.5405       2.974644              1
      6558.0000         1.0536         0.5982         0.7232       -60.9009       2.618835              1
      6558.5000         1.1161         0.6339         0.7232       -61.2613       2.263031              1
      6559.0000         1.3125         0.6875         0.7321       -61.8018       1.727123              1
      6559.5000         1.3161         0.7054         0.7411       -64.8649      -1.331383      0.9966527
      6560.0000         1.3161         0.7411         0.7411       -68.2883      -4.750191      0.9621193
      6560.5000         1.2786         0.7679         0.7411       -73.1532      -9.610497      0.9130253
      6561.0000         1.2214         0.7857         0.7411       -75.4955       -11.9482      0.8894121
      6561.5000         1.1929         0.7857         0.7411       -75.8559      -12.30402       0.885818
      6562.0000         1.1357         0.7857         0.7589       -74.4144      -10.85792       0.900425
      6562.5000         1.0786         0.7857           0.75       -72.7928      -9.231731      0.9168512
      6563.0000         1.0214         0.7857         0.7321       -72.0721      -8.506435      0.9241774
      6563.5000         0.9357         0.7857         0.7232       -71.3514      -7.781147      0.9315036
      6564.0000         0.8786           0.75         0.7054       -70.6306      -7.055752      0.9388308
      6564.5000         0.8696         0.7411         0.6964       -69.9099      -6.330456       0.946157
      6565.0000         0.8679         0.7232         0.6786        -69.009      -5.424969      0.9553034
      6565.5000         0.8661         0.6964         0.6696       -68.2883      -4.699673      0.9626296
      6566.0000         0.8679         0.6696         0.6607       -67.5676      -3.974377      0.9699558
      6566.5000         0.8839         0.6429         0.6518       -66.8468      -3.248993      0.9772829
      6567.0000         0.8893         0.6429         0.6518       -65.9459      -2.343498      0.9864293
      6567.5000         0.8929         0.6339         0.6518       -65.4054      -1.798409      0.9919353
      6568.0000         0.8893         0.6339         0.6518        -65.045      -1.433411      0.9956221
      6568.5000         0.8839         0.6339         0.6518       -64.6847       -1.06852      0.9993079
      6569.0000         0.8786         0.6339         0.6518       -64.3243     -0.7035294              1
      6569.5000         0.8732         0.6875         0.6518        -63.964     -0.3386345              1
      6570.0000         0.8679         0.7232         0.6518       -63.6036     0.02635956              1
      6570.5000         0.8625         0.7589         0.6518       -63.2432      0.3913536              1
      6571.0000         0.8571         0.7768         0.6518       -62.5225       1.116642              1
      6571.5000         0.8518         0.7768         0.6518       -62.3423       1.301434              1
      6572.0000         0.8446         0.7679         0.6518        -61.982       1.666328              1
      6572.5000         0.8429         0.7411         0.6518        -61.982       1.670921              1
      6573.0000         0.8411         0.7411         0.6518        -61.982       1.675514              1
      6573.5000         0.8393         0.7232         0.6518        -61.982       1.680107              1
      6574.0000         0.8518         0.6875         0.6518        -61.982         1.6847              1
      6574.5000         0.8839         0.6518         0.6518        -61.982       1.689293              1
      6575.0000         0.8857         0.6161         0.6518        -61.982       1.693886              1
      6575.5000         0.8839         0.5804         0.6518       -62.1622       1.518272              1
