#------------------------------------------------------------------------------
# Created by    : vladimir.rabinovich
# Created on    : 09/19/2023 17:20:52
#------------------------------------------------------------------------------
~Version Information Section
VERS.           2.0     :   CWLS log ASCII Standard - VERSION 2.0
WRAP.           NO      :   One line per depth step
~Well Information Section
#MNEM       .UNIT                                         VALUE :DESCRIPTION
#------------------------------------------------------------------------------
STRT        .FT                                            1025 :START DEPTH
STOP        .FT                                            8930 :STOP DEPTH
STEP        .FT                                             0.5 :STEP      
NULL        .                                           -999.25 :NULL      
COMP        .                                     MEREDITH & CO :COMPANY   
WELL        .                                 BROUSSARD JR ETAL :WELL      
FLD         .                                           WILDCAT :FIELD     
LOC         .                                                   :LOCATION  
CNTY        .                                         JEFFERSON :LOCATION  
STAT        .                                             TEXAS :STATE     
CTRY        .                                     UNITED STATES :COUNTRY   
SRVC        .                                                   :SERVICE COMPANY
DATE        .                             9/13/2023 11:19:11 AM :LOG DATE  
API         .                                    42245021860000 :API NUMBER
UWI         .                                    42245021860000 :UNIQUE WELL ID
XCOORD      .                                  1217776.66937412 :SURFACE X 
YCOORD      .                                  10884677.7702762 :SURFACE Y 
LAT         .                                        29.9846645 :LATITUDE  
LON         .                                       -94.3353628 :LONGITUDE 
ELEV        .FT                                              34 :ELEVATION VALUE
ELEV_TYPE   .                                                DF :ELEVATION REFERENCE TYPE
~Curve Information Section
#MNEM       .UNIT                                      API CODE :CURVE DESCRIPTION
#------------------------------------------------------------------------------
DEPT        .FT                                                 :DEPTH     
ASN         .OHMM                                               :          
LAT         .OHMM                                               :          
LN          .OHMM                                               :          
SP          .MV                                                 :          
SP_NORM     .MV                                                 :SP Normalized
VSH_SP      .V/V                                                :Volume of Shale from SP
~A        DEPTH            ASN            LAT             LN             SP        SP_NORM         VSH_SP
# ...
      4711.0000         0.5418         0.9815          0.625       -40.3636       1.611706              1
      4711.5000         0.5236              1         0.6429       -40.3636       1.611706              1
      4712.0000         0.5127              1         0.6607            -40       1.975307              1
      4712.5000         0.5127         1.0172         0.6786       -39.3103       2.665009              1
      4713.0000         0.5127         1.0345         0.6786       -38.9655       3.009808              1
      4713.5000           0.56         1.0172         0.6786            -40       1.975307              1
      4714.0000         0.5782         0.9444         0.6786       -45.0909      -3.115593      0.9762293
      4714.5000         0.6357         0.8704         0.6964       -47.2727      -5.297394      0.9517147
      4715.0000         0.6929         0.7037         0.6964       -54.1818      -12.20649      0.8740844
      4715.5000         0.7464         0.6111         0.7143       -58.1818      -16.20649      0.8291405
      4716.0000         0.7786          0.537         0.7143       -60.3571      -18.38179      0.8046989
      4716.5000         0.7821         0.4815         0.7321       -60.3571      -18.38179      0.8046989
      4717.0000         0.7786         0.4444         0.7321       -60.3571      -18.38179      0.8046989
      4717.5000         0.7714         0.4259           0.75       -59.2727      -17.29739      0.8168832
      4718.0000         0.7643         0.4259           0.75       -58.1818      -16.20649      0.8291405
      4718.5000         0.7714         0.4259           0.75       -57.4545      -15.47919      0.8373125
      4719.0000         0.8218         0.4259           0.75       -57.4545      -15.47919      0.8373125
      4719.5000         0.8291         0.4074         0.7321       -64.2857      -22.31039      0.7605574
      4720.0000         0.8436         0.4074         0.7321       -71.4286      -29.45329      0.6803001
      4720.5000           0.84         0.3889         0.7321       -75.7123        -33.737      0.6321686
      4721.0000         0.8291         0.3889         0.7143       -74.9931       -33.0178      0.6402495
      4721.5000         0.7893         0.3889         0.7143       -73.1987      -31.22339      0.6604113
      4722.0000         0.7714         0.3704         0.6964       -71.7593      -29.78399      0.6765844
      4722.5000           0.75         0.3704         0.6964       -74.9793      -33.00399      0.6404046
      4723.0000         0.7357         0.3889         0.6786       -76.7694      -34.79409      0.6202911
      4723.5000         0.7214         0.4074         0.6786       -78.2036      -36.22829      0.6041765
      4724.0000         0.7036         0.4074         0.6786            -80      -38.02469      0.5839922
      4724.5000         0.6929         0.4259         0.6786       -80.7143      -38.73899      0.5759664
      4725.0000         0.6786          0.463         0.6786       -80.7143      -38.73899      0.5759664
      4725.5000         0.6714         0.4815         0.6786       -72.7878       -30.8125      0.6650282
      4726.0000         0.6607         0.5185         0.6607       -57.6282      -15.65289      0.8353608
      4726.5000         0.6571         0.5556         0.6429       -51.8595      -9.884193      0.9001776
      4727.0000         0.6571         0.5926         0.6429       -48.2612      -6.285892       0.940608
      4727.5000         0.6643         0.6481         0.6429       -48.2536      -6.278294      0.9406933
      4728.0000         0.6679         0.6852         0.6429        -48.246      -6.270691      0.9407787
      4728.5000          0.675         0.7037         0.6429       -49.6716      -7.696293      0.9247608
      4729.0000          0.675         0.7222         0.6429       -53.2426      -11.26729      0.8846372
      4729.5000          0.675         0.7593         0.6429       -55.3766      -13.40129      0.8606597
      4730.0000          0.675         0.7963         0.6607       -55.3625      -13.38719      0.8608181
      4730.5000         0.6821         0.8148         0.6607       -50.3571      -8.381794      0.9170585
      4731.0000         0.6857         0.8519         0.6607          -42.5     -0.5246925              1
      4731.5000         0.6929         0.8889         0.6607       -41.7857      0.1896057              1
      4732.0000            0.7         0.9259         0.6786       -41.0714      0.9039078              1
      4732.5000         0.7071         0.9444         0.6786       -40.7143       1.261009              1
      4733.0000         0.7179          0.963         0.6786       -40.3571       1.618206              1
      4733.5000         0.7179         0.9815         0.6786            -40       1.975307              1
      4734.0000         0.7143              1         0.6786            -40       1.975307              1
      4734.5000            0.7              1         0.6786       -39.2982       2.677109              1
      4735.0000         0.6786              1         0.6786       -38.5965       3.378807              1
      4735.5000         0.6571         1.0172         0.6607       -37.8947       4.080608              1
      4736.0000         0.6321         1.0345         0.6607       -37.5439       4.431408              1
      4736.5000         0.6107         1.0517          0.625       -37.5439       4.431408              1
      4737.0000         0.5855          1.069         0.6071       -37.8947       4.080608              1
      4737.5000         0.5673          1.069         0.5893       -38.5965       3.378807              1
      4738.0000         0.5673          1.069         0.5714       -38.9474       3.027908              1
      4738.5000         0.5636          1.069         0.5536       -39.6491       2.326206              1
      4739.0000         0.5527         1.0172         0.5179       -41.7857      0.1896057              1
      4739.5000         0.5382          0.963         0.5179       -43.9286      -1.953293      0.9892889
      4740.0000         0.5236         0.9259         0.5179       -47.8571      -5.881794      0.9451484
      4740.5000         0.5054         0.8697         0.5172       -51.4286      -9.453293      0.9050192
      4741.0000         0.4908         0.8137         0.5163            -55      -13.02469      0.8648911
      4741.5000         0.4725         0.7579         0.5154       -58.5714      -16.59609       0.824763
      4742.0000          0.458         0.7023         0.5145            -64      -22.02469      0.7637675
      4742.5000         0.4435         0.6652         0.5136            -64      -22.02469      0.7637675
      4743.0000         0.4326         0.5916         0.5127       -61.0909      -19.11559       0.796454
      4743.5000         0.4289         0.5549         0.5118       -64.7273        -22.752      0.7555956
      4744.0000         0.4397         0.5183         0.5109            -72      -30.02469      0.6738799
      4744.5000         0.4541            0.5           0.51       -79.6364      -37.66109      0.5880776
      4745.0000         0.4613         0.4818         0.5091       -78.9091       -36.9338      0.5962495
      4745.5000          0.472         0.4818         0.5083       -64.3636      -22.38829      0.7596821
      4746.0000         0.4863            0.5         0.5074       -54.2857      -12.31039      0.8729169
      4746.5000         0.5006         0.5181         0.4886       -44.6429      -2.667591       0.981263
      4747.0000         0.5077         0.5542         0.4699       -38.9474       3.027908              1
      4747.5000         0.5076         0.5901         0.4333       -42.1429     -0.1675911              1
      4748.0000         0.5111          0.608         0.4324            -45      -3.024693      0.9772506
      4748.5000         0.5074         0.6078         0.4315       -47.8571      -5.881794      0.9451484
