#------------------------------------------------------------------------------
# Created by    : vladimir.rabinovich
# Created on    : 09/19/2023 17:22:41
#------------------------------------------------------------------------------
~Version Information Section
VERS.           2.0     :   CWLS log ASCII Standard - VERSION 2.0
WRAP.           NO      :   One line per depth step
~Well Information Section
#MNEM       .UNIT                                         VALUE :DESCRIPTION
#------------------------------------------------------------------------------
STRT        .FT                                             190 :START DEPTH
STOP        .FT                                            7751 :STOP DEPTH
STEP        .FT                                             0.5 :STEP      
NULL        .                                           -999.25 :NULL      
COMP        .                       GOLDEN TRIANGLE STORAGE LLC :COMPANY   
WELL        .                         GOLDEN TRIANGLE STORAGE 2 :WELL      
FLD         .                                        SPINDLETOP :FIELD     
LOC         .                                                   :LOCATION  
CNTY        .                                         JEFFERSON :LOCATION  
STAT        .                                             TEXAS :STATE     
CTRY        .                                     UNITED STATES :COUNTRY   
SRVC        .                                                   :SERVICE COMPANY
DATE        .                             9/13/2023 11:18:46 AM :LOG DATE  
API         .                                    42245325580000 :API NUMBER
UWI         .                                    42245325580000 :UNIQUE WELL ID
XCOORD      .                                  1288599.33875083 :SURFACE X 
YCOORD      .                                  10896379.1240251 :SURFACE Y 
LAT         .                                        30.0189256 :LATITUDE  
LON         .                                       -94.1119908 :LONGITUDE 
ELEV        .FT                                            12.2 :ELEVATION VALUE
ELEV_TYPE   .                                                GL :ELEVATION REFERENCE TYPE
~Curve Information Section
#MNEM       .UNIT                                      API CODE :CURVE DESCRIPTION
#------------------------------------------------------------------------------
DEPT        .FT                                                 :DEPTH     
DCAL        .IN                                                 :          
DPSS        .V/V                                                :          
DRHO        .G/CM3                                              :          
GR          .GAPI                                               :          
GR_NORM     .GAPI                                               :GammaRay Normalized
ILD         .OHMM                                               :          
ILM         .OHMM                                               :          
NPSS        .V/V                                                :Neutron Porosity Sandstone
SFL         .OHMM                                               :          
SP          .MV                                                 :          
SP_NORM     .MV                                                 :SP Normalized
TENS        .LB                                                 :          
VSH_GR      .V/V                                                :Volume of Shale from GR
VSH_SP      .V/V                                                :Volume of Shale from SP
~A        DEPTH           DCAL           DPSS           DRHO             GR        GR_NORM            ILD            ILM           NPSS            SFL             SP        SP_NORM           TENS         VSH_GR         VSH_SP
# ...
      5734.0000          -0.16         0.2604         0.0388         85.102       87.70207         0.5428          0.772         0.3735         0.9079          -54.4      -13.76071           2760              1      0.8388944
      5734.5000          -0.08         0.2532         0.0347        77.7551       76.37387         0.5428          0.772         0.3564         1.0382          -57.6      -16.96557           2760      0.9228483      0.7949922
      5735.0000          -0.08         0.2388         0.0347           71.1        66.1125         0.5578         0.7789         0.3408         1.2521          -58.4      -17.77043           2760      0.7045212      0.7839667
      5735.5000           0.04         0.2256         0.0388             69       62.87543         0.5629         0.7929           0.33          1.482          -58.4      -17.77529           2760      0.6356475      0.7839001
      5736.0000            0.2          0.234         0.0429           70.8       65.65243         0.5578         0.7789         0.3444         1.5243          -58.8      -18.18015           2800      0.6947325      0.7783542
      5736.5000           0.28         0.2628         0.0469        76.5306        74.4907         0.5428         0.7517         0.3661          1.206          -57.2      -16.58501           2800      0.8827808      0.8002054
      5737.0000           0.28         0.2928         0.0531        81.1224       81.57285         0.5233         0.7063         0.3894         0.8402          -53.6      -12.98986           2800              1      0.8494539
      5737.5000           0.24         0.3144         0.0592        83.2653       84.87863         0.5046         0.6671         0.4065         0.7517          -52.8      -12.19473           2760              1      0.8603463
      5738.0000           0.08         0.3276         0.0633        82.9592       84.40788         0.5046         0.6671           0.42         0.7584          -54.4      -13.79958           2800              1      0.8383619
      5738.5000          -0.08         0.3384         0.0612        82.0408       82.99293         0.5092         0.6671         0.4296         0.7859            -54      -13.40444           2800              1      0.8437748
      5739.0000          -0.12         0.3456         0.0571        82.0408       82.99419         0.5046         0.6607          0.432         0.7319            -50      -9.409302           2760              1      0.8985027
      5739.5000          -0.12         0.3492         0.0531        83.2653       84.88372         0.4862         0.6296         0.4344         0.6671          -46.4      -5.814163           2760              1      0.9477512
      5740.0000          -0.04         0.3288         0.0592        84.1837       86.30125         0.4817         0.6296         0.4368         0.6419          -45.2      -4.619022           2720              1       0.964123
      5740.5000         0.2012          0.306         0.0714         85.102       87.71859         0.4908         0.6671         0.4404         0.7126          -46.8      -6.223877           2720              1      0.9421387
      5741.0000         0.6431         0.2772         0.0837         85.102       87.71987         0.5233         0.7254         0.4487            0.8            -48      -7.428738           2760              1      0.9256337
      5741.5000          1.245          0.276         0.0959        83.8776       85.83302         0.5527         0.7652         0.4595          0.832          -48.8      -8.233597           2760              1      0.9146082
      5742.0000         1.5274         0.2904          0.102        81.7347       82.52979         0.5578         0.8079          0.468         0.8159          -49.2      -8.638458           2760              1      0.9090622
      5742.5000         1.2893         0.3024          0.104        80.2041       80.17077         0.5681         0.8159         0.4704         0.8159          -49.6      -9.043312           2760              1      0.9035163
      5743.0000         0.6513         0.3072         0.0939        78.6735       77.81174         0.5681         0.8485         0.4655         0.8739          -50.4      -9.848175           2760      0.9534412      0.8924907
      5743.5000         0.3332            0.3         0.0776        78.6735       77.81302         0.5629         0.8485         0.4498         0.9487          -51.6      -11.05303           2760      0.9534685      0.8759859
      5744.0000         0.1351         0.2892         0.0633        78.6735       77.81429         0.5578         0.8485         0.4268         0.9826          -53.2      -12.65789           2760      0.9534956      0.8540015
      5744.5000         0.0571         0.2772         0.0531        78.3673       77.34337         0.5428         0.8159         0.4086         1.0094          -56.4      -15.86275           2760      0.9434759      0.8100992
      5745.0000          0.019         0.2736         0.0449        76.5306       74.51232         0.5186          0.772         0.3915         1.0285          -60.4      -19.86761           2760      0.8832409      0.7552382
      5745.5000        -0.0186         0.2784         0.0367           73.2       69.37756            0.5         0.7254         0.3782         1.0678          -65.2      -24.67247           2760      0.7739906      0.6894183
      5746.0000         0.0233         0.2868         0.0286           69.6       63.82736         0.4817         0.6801         0.3648          1.088            -70      -29.47733           2760      0.6559013      0.6235982
      5746.5000         0.0252         0.2964         0.0204           66.6       59.20241         0.4556         0.6357         0.3552         1.1509            -74      -33.48219           2760       0.557498      0.5687371
      5747.0000         0.1072         0.3036         0.0163           65.1       56.89057         0.4349            0.6          0.348         1.1837          -77.2      -36.68705           2800        0.50831       0.524835
      5747.5000         0.1891         0.3156         0.0122           64.5        55.9666         0.4075         0.5578          0.348         1.1726            -80      -39.49191           2760       0.488651      0.4864123
      5748.0000         0.2711         0.3216         0.0327           65.1       56.89312         0.3859         0.5233         0.3624          1.119       -82.8571      -42.35387           2760      0.5083643      0.4472073
      5748.5000          0.273         0.3264         0.0612           65.4       57.35701         0.3722         0.4954         0.3769         1.0382       -83.6735      -43.17513           2760      0.5182343      0.4359572
      5749.0000         0.1953         0.3276         0.0959           65.1       56.89566         0.3623         0.4729         0.4021         0.9913       -82.0408      -41.54729           2760      0.5084182      0.4582563
      5749.5000         0.1173         0.3372           0.12           64.8       56.43431         0.3623         0.4599         0.4372         0.9322          -77.6      -37.11134           2760      0.4986023      0.5190227
      5750.0000        -0.0808         0.3468           0.13           66.9       59.67394         0.3722         0.4685         0.4714         0.8239          -69.6       -29.1162           2760      0.5675306      0.6285452
      5750.5000          -0.36         0.3528           0.13           70.2       64.76403         0.3824         0.4773         0.5052         0.6866          -60.4      -19.92106       2761.188      0.6758304       0.754506
      5751.0000           0.08         0.3636          0.132           72.3       68.00368         0.3929         0.4862         0.5484         0.5629          -54.4      -13.92592       2763.168      0.7447591      0.8366312
      5751.5000           0.72          0.384           0.15           72.3       68.00495         0.4229            0.5         0.5736         0.5329            -50      -9.530781       2765.148      0.7447862      0.8968386
