#------------------------------------------------------------------------------
# Created by    : vladimir.rabinovich
# Created on    : 09/19/2023 17:20:50
#------------------------------------------------------------------------------
~Version Information Section
VERS.           2.0     :   CWLS log ASCII Standard - VERSION 2.0
WRAP.           NO      :   One line per depth step
~Well Information Section
#MNEM       .UNIT                                         VALUE :DESCRIPTION
#------------------------------------------------------------------------------
STRT        .FT                                            1769 :START DEPTH
STOP        .FT                                           14822 :STOP DEPTH
STEP        .FT                                             0.5 :STEP      
NULL        .                                           -999.25 :NULL      
COMP        .                                      SHELL OIL CO :COMPANY   
WELL        .                                 MCFADDEN CEE CRSS :WELL      
FLD         .                                           WILDCAT :FIELD     
LOC         .                                                   :LOCATION  
CNTY        .                                         JEFFERSON :LOCATION  
STAT        .                                             TEXAS :STATE     
CTRY        .                                     UNITED STATES :COUNTRY   
SRVC        .                                                   :SERVICE COMPANY
DATE        .                             9/13/2023 11:19:11 AM :LOG DATE  
API         .                                    42245030100000 :API NUMBER
UWI         .                                    42245030100000 :UNIQUE WELL ID
XCOORD      .                                  1300794.63996209 :SURFACE X 
YCOORD      .                                  10796706.8159759 :SURFACE Y 
LAT         .                                        29.7451097 :LATITUDE  
LON         .                                       -94.0705183 :LONGITUDE 
ELEV        .FT                                            17.6 :ELEVATION VALUE
ELEV_TYPE   .                                                KB :ELEVATION REFERENCE TYPE
~Curve Information Section
#MNEM       .UNIT                                      API CODE :CURVE DESCRIPTION
#------------------------------------------------------------------------------
DEPT        .FT                                                 :DEPTH     
ASN         .OHMM                                               :          
DT          .US/F                                               :          
ILD         .OHMM                                               :          
SP          .MV                                                 :          
SP_NORM     .MV                                                 :SP Normalized
VSH_SP      .V/V                                                :Volume of Shale from SP
~A        DEPTH            ASN             DT            ILD             SP        SP_NORM         VSH_SP
# ...
      3517.0000         0.9553       142.0577         0.7746       -57.5384      -13.63375      0.6585474
      3517.5000         0.9664       131.9132         0.7944       -55.9821      -12.08122      0.7005076
      3518.0000         0.9755       147.8178         0.8124         -54.09      -10.19288      0.7515437
      3518.5000         0.9811       163.7224         0.8246       -52.1111      -8.217747      0.8049257
      3519.0000         0.9745       176.9245         0.8369       -50.3875      -6.497913      0.8514078
      3519.5000          0.968       170.0195         0.8414       -49.2265      -5.340679      0.8826844
      3520.0000         0.9608       164.1174         0.8415       -48.1355      -4.253448       0.912069
      3520.5000         0.9471       158.2153         0.8409       -47.3932      -3.514912      0.9320294
      3521.0000         0.9311       152.3132         0.8395       -46.7951      -2.920578      0.9480925
      3521.5000         0.9126       148.4661         0.8381       -46.2969      -2.426144      0.9614556
      3522.0000         0.9042       151.9265         0.8378       -46.0154      -2.148407       0.968962
      3522.5000         0.9049       153.3395         0.8379       -45.7338      -1.870571      0.9764711
      3523.0000         0.9057       155.9375          0.838       -45.4522      -1.592743      0.9839799
      3523.5000         0.9065       161.6932         0.8309       -45.4916      -1.635906      0.9828134
      3524.0000         0.9074       162.6637         0.8201       -45.5599       -1.70797      0.9808657
      3524.5000          0.904        163.241         0.8033       -45.6281      -1.779938      0.9789206
      3525.0000         0.8985       163.4182         0.7785        -45.747      -1.902603      0.9756053
      3525.5000         0.8899       164.3247         0.7481       -45.9148      -2.074169      0.9709684
      3526.0000         0.8798       165.4079         0.7132       -46.0825      -2.245636      0.9663342
      3526.5000         0.8673       164.9444         0.6555       -46.3864      -2.553299       0.958019
      3527.0000         0.8594       164.4652         0.6173       -46.7489      -2.919567      0.9481198
      3527.5000         0.8606       164.3972         0.5879       -47.1349       -3.30933      0.9375857
      3528.0000         0.8635       165.0567         0.5602       -47.7727      -3.950901      0.9202459
      3528.5000         0.8699       165.7198         0.5671       -48.6379      -4.819866      0.8967603
      3529.0000         0.8762       166.8459         0.5722       -49.8597      -6.045429       0.863637
      3529.5000         0.8837       167.3411         0.5762         -53.23      -9.419495      0.7724461
      3530.0000         0.8937       165.6679           0.59       -55.4517      -11.64496      0.7122984
      3530.5000          0.903       164.5617         0.6055       -57.0892      -13.28622      0.6679399
      3531.0000         0.9109       145.6141         0.6204       -57.2333      -13.43409      0.6639434
      3531.5000         0.9104       136.8752         0.6357       -56.5682      -12.77276      0.6818174
      3532.0000         0.9065       136.2561         0.6516       -55.0565      -11.26482      0.7225723
      3532.5000         0.9026       131.5397         0.6676       -52.7145       -8.92659      0.7857679
      3533.0000         0.8977       132.9707         0.6839       -49.9167      -6.132553      0.8612823
      3533.5000         0.8904       138.2913         0.6994       -48.3697      -4.589325      0.9029912
      3534.0000         0.8832       143.6118         0.7123       -47.6727      -3.896088      0.9217274
      3534.5000         0.8741       148.9323         0.7251        -47.274      -3.501152      0.9324013
      3535.0000         0.8628       154.2529          0.738        -46.966      -3.196918      0.9406238
      3535.5000         0.8543        160.545         0.7501       -46.7662      -3.000885       0.945922
      3536.0000         0.8506        162.652          0.762       -46.6356      -2.874054      0.9493499
      3536.5000         0.8586       163.7169          0.774       -46.5875       -2.82972      0.9505481
      3537.0000         0.8694       169.1429         0.7844       -46.5393      -2.785282      0.9517491
      3537.5000          0.881       171.6451         0.7943       -46.5033      -2.753048      0.9526203
      3538.0000          0.894       167.1986         0.7982       -46.6992      -2.952713       0.947224
      3538.5000          0.908       166.9302         0.8003       -46.9004      -3.157677      0.9416844
      3539.0000         0.9213       166.9676         0.7993       -47.2145      -3.475548      0.9330933
      3539.5000         0.9191        166.258         0.7974       -47.5413      -3.806114       0.924159
      3540.0000         0.9149       163.1016         0.7873       -48.2275      -4.496078      0.9055114
      3540.5000          0.912       159.1229         0.7742       -49.0016      -5.273941      0.8844881
      3541.0000         0.9167       158.4622         0.7597       -49.8994      -6.175507      0.8601214
      3541.5000         0.9226       158.0901         0.7441       -51.1372      -7.417076      0.8265655
      3542.0000         0.9336       157.3031         0.7267       -52.4463      -8.729942      0.7910826
      3542.5000         0.9458       156.4883         0.7061       -53.8929      -10.18031      0.7518836
      3543.0000         0.9597       149.5743         0.6821       -55.1036      -11.39477      0.7190602
      3543.5000         0.9761       140.6497         0.6497       -56.3699      -12.66484      0.6847342
      3544.0000         0.9928        131.725         0.6126       -58.6461      -14.94481      0.6231134
      3544.5000         1.0089        129.149         0.5734       -60.4677      -16.77017      0.5737791
      3545.0000         1.0247       132.0123          0.528       -61.9818      -18.28804      0.5327558
      3545.5000         1.0248       134.8756         0.4815       -63.5418       -19.8518      0.4904918
      3546.0000         1.0058       135.6156         0.4441       -65.3013      -21.61507       0.442836
      3546.5000         0.9625         131.92         0.4147       -67.2826      -23.60013      0.3891856
      3547.0000         0.9286       130.1967         0.3931        -68.764       -25.0853      0.3490459
      3547.5000         0.8915       132.7632         0.3735       -70.1307      -26.45576      0.3120064
      3548.0000         0.8645       135.5767         0.3546       -71.3091      -27.63793       0.280056
      3548.5000         0.8422       136.0216          0.337       -72.4392       -28.7718      0.2494109
      3549.0000         0.8141       135.8097         0.3204       -73.1061      -29.44246      0.2312848
      3549.5000         0.7757       134.9843         0.3057         -73.76      -30.10013      0.2135099
      3550.0000         0.7132        134.496         0.2965       -74.2938       -30.6377      0.1989812
      3550.5000         0.6887       137.2358           0.29       -74.7302      -31.07786      0.1870848
      3551.0000         0.6885       138.0546         0.2888       -74.9478      -31.29922       0.181102
      3551.5000         0.6907       139.5662         0.2877         -75.09      -31.44519      0.1771571
      3552.0000         0.6881       140.0664         0.2865       -75.0898      -31.44876      0.1770606
      3552.5000         0.6834       138.5654         0.2933       -74.9663      -31.32903      0.1802966
      3553.0000         0.6755       136.8336          0.301       -74.8429      -31.20939      0.1835299
      3553.5000         0.6659       135.1018         0.3108       -74.3027      -30.67295      0.1980284
      3554.0000         0.6561       133.1078         0.3257       -73.6718      -30.04582      0.2149779
      3554.5000         0.6457       135.8105         0.3602       -72.9713      -29.34908      0.2338086
