#------------------------------------------------------------------------------
# Created by    : vladimir.rabinovich
# Created on    : 09/19/2023 17:20:52
#------------------------------------------------------------------------------
~Version Information Section
VERS.           2.0     :   CWLS log ASCII Standard - VERSION 2.0
WRAP.           NO      :   One line per depth step
~Well Information Section
#MNEM       .UNIT                                         VALUE :DESCRIPTION
#------------------------------------------------------------------------------
STRT        .FT                                            1017 :START DEPTH
STOP        .FT                                            8855 :STOP DEPTH
STEP        .FT                                             0.5 :STEP      
NULL        .                                           -999.25 :NULL      
COMP        .                               MEREDITH & CO ET AL :COMPANY   
WELL        .                               BROUSSARD J JR ETAL :WELL      
FLD         .                                           WILDCAT :FIELD     
LOC         .                                                   :LOCATION  
CNTY        .                                         JEFFERSON :LOCATION  
STAT        .                                             TEXAS :STATE     
CTRY        .                                     UNITED STATES :COUNTRY   
SRVC        .                                                   :SERVICE COMPANY
DATE        .                             9/13/2023 11:19:11 AM :LOG DATE  
API         .                                    42245021880000 :API NUMBER
UWI         .                                    42245021880000 :UNIQUE WELL ID
XCOORD      .                                  1215343.11980964 :SURFACE X 
YCOORD      .                                  10882366.7587642 :SURFACE Y 
LAT         .                                        29.9782309 :LATITUDE  
LON         .                                       -94.3429645 :LONGITUDE 
ELEV        .FT                                              36 :ELEVATION VALUE
ELEV_TYPE   .                                                DF :ELEVATION REFERENCE TYPE
~Curve Information Section
#MNEM       .UNIT                                      API CODE :CURVE DESCRIPTION
#------------------------------------------------------------------------------
DEPT        .FT                                                 :DEPTH     
ASN         .OHMM                                               :          
LAT         .OHMM                                               :          
LN          .OHMM                                               :          
SP          .MV                                                 :          
SP_NORM     .MV                                                 :SP Normalized
VSH_SP      .V/V                                                :Volume of Shale from SP
~A        DEPTH            ASN            LAT             LN             SP        SP_NORM         VSH_SP
# ...
      8807.0000         1.2676           0.99         0.9511       -39.3429      0.1587639              1
      8807.5000         1.2616         1.0184         0.9368       -39.0716      0.4345703              1
      8808.0000         1.2557         1.0465         0.9079       -38.8076      0.6985741              1
      8808.5000         1.2527          1.075         0.8788       -38.8208      0.6853714              1
      8809.0000         1.2467         1.1031         0.8495        -38.834      0.6721725              1
      8809.5000         1.1943         1.0878         0.8501       -38.8536      0.6525726              1
      8810.0000         1.2493         1.0437         0.8505       -38.8667       0.639473              1
      8810.5000         1.3043         0.9855         0.8502       -39.1653      0.3408737              1
      8811.0000         1.3621         0.9274         0.8645       -39.4579     0.04827118              1
      8811.5000          1.417         0.8693         0.8785       -42.0638      -2.557629      0.9802832
      8812.0000         1.4632         0.7529         0.9077       -45.2568      -5.750629      0.9398655
      8812.5000         1.4602         0.6655          0.922       -49.0226      -9.516426      0.8921971
      8813.0000         1.2282         0.5488          0.936       -54.2261      -14.71993        0.82633
      8813.5000         1.0907         0.5048         0.9652       -63.5821      -24.07593      0.7078996
      8814.0000         1.0088           0.49         0.9792       -68.6567      -29.15053      0.6436642
      8814.5000         0.8899         0.4311         1.0082       -75.5224      -36.01623      0.5567566
      8815.0000          0.887         0.3724         0.9929        -78.209      -38.70283       0.522749
      8815.5000         1.0263         0.2404         0.9919       -81.1268      -41.62063      0.4858148
      8816.0000         1.3055         0.1815         0.9615       -94.9296      -55.42343      0.3110958
      8816.5000         2.0048         0.1371         0.9307      -108.3582      -68.85203      0.1411136
      8817.0000         2.2219         0.1948         0.9151      -109.2537      -69.74753      0.1297781
      8817.5000         2.4386         0.2383         0.8847       -96.6197      -57.11353      0.2897022
      8818.0000          2.438         0.3111         0.8539       -93.2394      -53.73323      0.3324907
      8818.5000         2.1183         0.3985         0.8384       -90.9859      -51.47973      0.3610161
      8819.0000         1.8612         0.4568         0.8076       -88.4507      -48.94453      0.3931073
      8819.5000         1.6524         0.4565         0.8219       -87.6056      -48.09943      0.4038047
      8820.0000         1.4812         0.3237          0.866        -78.806      -39.29983       0.515192
      8820.5000         1.3187         0.3969         0.9248       -80.8561      -41.34993      0.4892414
      8821.0000         1.3041         0.4112          0.954       -80.3042      -40.79803      0.4962275
      8821.5000         1.2952         0.3816          1.027       -83.9823      -44.47613      0.4496693
      8822.0000         1.2719         0.3226         1.0409       -84.2753      -44.76913      0.4459604
      8822.5000         1.2486         0.4104         1.0545       -82.0391      -42.53293      0.4742667
      8823.0000         1.2224         0.5418         1.0829        -77.397      -37.89083      0.5330275
      8823.5000         1.1642         0.5854          1.111       -70.2507      -30.74453      0.6234869
      8824.0000         1.1409         0.5702         1.1249          -62.8      -23.29383      0.7177997
      8824.5000         1.1292         0.5407          1.153       -69.9821      -30.47593       0.626887
      8825.0000          1.158         0.3212         1.1814       -72.9791      -33.47293      0.5889502
      8825.5000         1.1868         0.2918         1.0646       -77.7731      -38.26693      0.5282667
      8826.0000          1.207          0.277         1.0351       -79.5761      -40.06993      0.5054439
      8826.5000          1.175         0.3642         1.0197       -81.8706      -42.36443      0.4763997
      8827.0000         1.1168         0.4368         1.0046       -76.6209      -37.11473      0.5428515
      8827.5000         1.0559         0.6256          0.974       -58.4823      -18.97613      0.7724541
      8828.0000         0.9659         0.7706         0.9287       -53.8725      -14.36633       0.830806
      8828.5000         0.8845         0.9006          0.883       -51.5649      -12.05873      0.8600161
      8829.0000         0.8409         0.9437         0.8227       -46.9444      -7.438229      0.9185035
      8829.5000         0.7889         1.0009         0.7771       -42.3166      -2.810429      0.9770832
      8830.0000          0.755         1.0582         0.7463        -41.159      -1.652828      0.9917364
      8830.5000         0.7493         1.2023         0.7458       -39.4314     0.07477188              1
      8831.0000         0.7494         1.3176           0.73       -38.2832       1.222973              1
      8831.5000         0.7664         1.2735         0.7294       -37.1405       2.365673              1
      8832.0000         0.7552         1.2292         0.7285       -36.8673       2.638874              1
      8832.5000         0.7099         1.1124         0.7279       -36.8785        2.62767              1
      8833.0000         0.7412         1.0829         0.7718        -39.214      0.2921715              1
      8833.5000         0.8126         0.9661         0.7861        -44.712       -5.20583      0.9467617
      8834.0000         0.9344         0.8786         0.8599       -71.6418      -32.13563      0.6058781
      8834.5000         1.0528         0.6748          0.919       -87.3239      -47.81773      0.4073706
      8835.0000         1.1214         0.5438         1.0074      -100.5886      -61.08243      0.2394629
      8835.5000         1.1271           0.34         1.0358      -116.4503      -76.94413      0.0386819
      8836.0000         1.0672          0.267         1.0349      -118.7804      -79.27423     0.00918695
      8836.5000         0.9874         0.2806         0.9906      -118.7486      -79.24242     0.00958957
      8837.0000          0.889          0.309         0.8704      -117.8492      -78.34303     0.02097436
      8837.5000         0.8166         0.3806         0.8695      -104.6748      -65.16862      0.1877389
      8838.0000         0.8632         0.4525         0.8839       -81.4085      -41.90233       0.482249
      8838.5000         0.9155         0.5241         0.8979       -53.4143      -13.90813       0.836606
      8839.0000         0.9678          0.567         0.9122       -49.4124      -9.906227      0.8872629
      8839.5000         1.0422         0.6096         0.9412       -48.2745       -8.76833      0.9016667
      8840.0000          1.093         0.6235         0.9555       -46.5702       -7.06403      0.9232401
      8840.5000          1.093          0.652         0.9696       -45.1454      -5.639229      0.9412756
      8841.0000          1.076         0.6808          0.969       -43.4323      -3.926128      0.9629604
      8841.5000         1.1042         0.7241         0.9681       -45.1528      -5.646629      0.9411819
      8842.0000         1.1722          0.753         0.9675       -49.4543      -9.948128      0.8867326
      8842.5000         1.1751         0.7964         0.9666       -50.6062      -11.10003      0.8721516
      8843.0000         1.1327         0.7962          0.966       -47.7466      -8.240429       0.908349
      8843.5000         1.1071         0.7961           0.98       -46.0288      -6.522629      0.9300933
      8844.0000         1.0843         0.7814         0.9794       -44.5961      -5.089928      0.9482288
      8844.5000         1.0672         0.7667         0.9785       -43.4501      -3.943928      0.9627351
