#------------------------------------------------------------------------------
# Created by    : vladimir.rabinovich
# Created on    : 09/19/2023 17:20:51
#------------------------------------------------------------------------------
~Version Information Section
VERS.           2.0     :   CWLS log ASCII Standard - VERSION 2.0
WRAP.           NO      :   One line per depth step
~Well Information Section
#MNEM       .UNIT                                         VALUE :DESCRIPTION
#------------------------------------------------------------------------------
STRT        .FT                                            1028 :START DEPTH
STOP        .FT                                            9325 :STOP DEPTH
STEP        .FT                                             0.5 :STEP      
NULL        .                                           -999.25 :NULL      
COMP        .                     HUNT LAMAR TRUST ESTATE ET AL :COMPANY   
WELL        .                                   BROUSSARD TRUST :WELL      
FLD         .                                           WILDCAT :FIELD     
LOC         .                                                   :LOCATION  
CNTY        .                                         JEFFERSON :LOCATION  
STAT        .                                             TEXAS :STATE     
CTRY        .                                     UNITED STATES :COUNTRY   
SRVC        .                                                   :SERVICE COMPANY
DATE        .                             9/13/2023 11:19:11 AM :LOG DATE  
API         .                                    42245021920000 :API NUMBER
UWI         .                                    42245021920000 :UNIQUE WELL ID
XCOORD      .                                  1218474.36862613 :SURFACE X 
YCOORD      .                                   10882715.986693 :SURFACE Y 
LAT         .                                        29.9792918 :LATITUDE  
LON         .                                       -94.3330868 :LONGITUDE 
ELEV        .FT                                              36 :ELEVATION VALUE
ELEV_TYPE   .                                                DF :ELEVATION REFERENCE TYPE
~Curve Information Section
#MNEM       .UNIT                                      API CODE :CURVE DESCRIPTION
#------------------------------------------------------------------------------
DEPT        .FT                                                 :DEPTH     
ASN         .OHMM                                               :          
LAT         .OHMM                                               :          
LN          .OHMM                                               :          
SP          .MV                                                 :          
SP_NORM     .MV                                                 :SP Normalized
VSH_SP      .V/V                                                :Volume of Shale from SP
~A        DEPTH            ASN            LAT             LN             SP        SP_NORM         VSH_SP
# ...
      7070.0000         1.0036         0.3482          0.469       -95.7895      -41.74056      0.5884792
      7070.5000         1.0339         0.3929          0.469       -89.4737      -35.42634      0.6522592
      7071.0000         1.0625         0.4464          0.469        -85.614      -31.56821      0.6912302
      7071.5000         1.0929         0.7054         0.4602       -87.0175      -32.97329      0.6770374
      7072.0000         1.0946         0.7143         0.4513       -89.6491      -35.60647      0.6504397
      7072.5000         1.0946         0.7054         0.4336       -90.3509      -36.30984      0.6433349
      7073.0000         1.0875          0.625         0.4071       -87.5439      -33.50442      0.6716725
      7073.5000         0.9369         0.5804         0.3982       -83.3333      -29.29539       0.714188
      7074.0000         0.8775         0.5714         0.3982       -79.0991      -25.06277      0.7569417
      7074.5000         0.8162         0.5982         0.3982       -74.7748      -20.74005      0.8006056
      7075.0000         0.7575         0.6607         0.4071       -64.3243      -10.29112      0.9061503
      7075.5000         0.6991         0.7321         0.4071       -61.0811      -7.049496       0.938894
      7076.0000         0.6407         0.8125         0.4159       -57.6786      -3.648571      0.9732468
      7076.5000         0.5518         0.8839         0.4159       -54.4643     -0.4358444              1
      7077.0000         0.5357         0.9643         0.4248         -48.75       5.276878              1
      7077.5000         0.5679         1.0442         0.4248       -47.8571       6.168201              1
      7078.0000         0.6018         1.0619         0.4336       -47.8571       6.166622              1
      7078.5000         0.6177         1.0619         0.4425       -47.8571       6.165047              1
      7079.0000         0.6513         0.9821         0.4425       -48.2143       5.806274              1
      7079.5000          0.692         0.9375         0.4513       -48.5714       5.447598              1
      7080.0000          0.692         0.8929         0.4602       -48.9286       5.088821              1
      7080.5000         0.6885         0.8482          0.469       -49.4643       4.551548              1
      7081.0000         0.6619         0.8036          0.469       -50.1786        3.83567              1
      7081.5000         0.6336         0.7589         0.4779       -50.7143       3.298397              1
      7082.0000         0.6195         0.6964         0.4867       -51.4286        2.58252              1
      7082.5000         0.6195         0.6518         0.4956       -51.4286       2.580944              1
      7083.0000          0.623          0.625         0.5133       -51.4286       2.579369              1
      7083.5000         0.6478         0.6071         0.5133         -51.25       2.756393              1
      7084.0000         0.6496         0.5982         0.5133       -51.0714       2.933418              1
      7084.5000         0.6212         0.5893         0.5133       -51.0714       2.931843              1
      7085.0000         0.6212         0.5804         0.5221       -50.5357       3.465965              1
      7085.5000         0.6478         0.5714         0.5221       -50.5357        3.46439              1
      7086.0000         0.6655         0.5625         0.5221       -50.3571       3.641415              1
      7086.5000         0.6832         0.5536         0.5221       -49.8214       4.175541              1
      7087.0000         0.7009         0.5446         0.5221       -49.8214       4.173965              1
      7087.5000         0.7239         0.5357         0.5133       -49.8214        4.17239              1
      7088.0000         0.7257         0.5089         0.5133            -50       3.992214              1
      7088.5000          0.715         0.4821         0.5044       -50.7143       3.276337              1
      7089.0000         0.7044         0.4464         0.5044         -51.25       2.739059              1
      7089.5000         0.6991         0.4286         0.4956       -51.9643       2.023186              1
      7090.0000          0.827         0.4196         0.4956       -53.2143      0.7716103              1
      7090.5000          0.827         0.4196         0.4867       -54.6452     -0.6608658              1
      7091.0000          0.827         0.4196         0.4867       -55.0067      -1.023941      0.9997582
      7091.5000         0.8234         0.4286         0.4779       -55.1893      -1.208118      0.9978978
      7092.0000            0.8         0.4375         0.4779       -54.6595     -0.6798935              1
      7092.5000          0.777         0.4464          0.469       -51.4629       2.515133              1
      7093.0000          0.754         0.4643          0.469       -51.4705       2.505955              1
      7093.5000         0.7327         0.4821          0.469       -52.5433        1.43158              1
      7094.0000         0.7257         0.4821         0.4867       -54.5011     -0.5277939              1
      7094.5000         0.7204         0.4821         0.4867       -58.5822       -4.61047      0.9635306
      7095.0000         0.7327         0.4732         0.4867       -62.5225      -8.552345      0.9237137
      7095.5000          0.809         0.4643         0.4867       -66.6667      -12.69812      0.8818371
      7096.0000         0.8878         0.4464         0.4867       -73.8739       -19.9069      0.8090212
      7096.5000         0.9666         0.4286         0.4956       -79.6396      -25.67418      0.7507659
      7097.0000         1.2419         0.4018         0.5044       -85.2632      -31.29935       0.693946
      7097.5000         1.5289         0.3839         0.5044       -91.0526      -37.09032      0.6354513
      7098.0000         1.5288          0.375         0.5133       -96.6667        -42.706      0.5787272
      7098.5000         1.4304         0.3571         0.5221           -100      -46.04088      0.5450416
      7099.0000         1.2794         0.3482         0.5221           -100      -46.04245      0.5450257
      7099.5000         1.1787         0.3482          0.531       -99.6491      -45.69313      0.5485542
      7100.0000         1.0786         0.3393         0.5398       -97.3684      -43.41401      0.5715757
      7100.5000         1.0018         0.3304         0.5398       -92.4561      -38.50328       0.621179
      7101.0000         1.0018         0.3393         0.5398       -89.2982      -35.34696       0.653061
      7101.5000         1.0339         0.3482         0.5398       -85.9649      -32.01523      0.6867149
      7102.0000         1.0946         0.3661         0.5398       -82.6316      -28.68351      0.7203686
      7102.5000         1.0982         0.3839         0.5398       -79.2793      -25.33278      0.7542143
      7103.0000         1.0982         0.4107         0.5398       -67.2072      -13.26226      0.8761388
      7103.5000           0.95         0.4375         0.5398       -64.1441      -10.20073      0.9070634
      7104.0000         0.9196         0.4911          0.531       -60.1802      -6.238407      0.9470868
      7104.5000         0.8911         0.5089         0.5221       -58.7719      -4.831684      0.9612961
      7105.0000         0.8679         0.5446         0.5221       -57.7193      -3.780659      0.9719126
      7105.5000         0.8446         0.5714         0.5133       -56.6667      -2.729633       0.982529
      7106.0000         0.8214         0.6161         0.5044       -55.2632      -1.327709      0.9966898
      7106.5000         0.7947         0.6518         0.5044       -55.0877      -1.153786      0.9984466
      7107.0000         0.7646         0.6696         0.4956        -55.614       -1.68166      0.9931145
      7107.5000         0.7345         0.6964         0.4867       -58.4211      -4.490337      0.9647441
