#------------------------------------------------------------------------------
# Created by    : vladimir.rabinovich
# Created on    : 09/19/2023 17:20:52
#------------------------------------------------------------------------------
~Version Information Section
VERS.           2.0     :   CWLS log ASCII Standard - VERSION 2.0
WRAP.           NO      :   One line per depth step
~Well Information Section
#MNEM       .UNIT                                         VALUE :DESCRIPTION
#------------------------------------------------------------------------------
STRT        .FT                                            1017 :START DEPTH
STOP        .FT                                            8855 :STOP DEPTH
STEP        .FT                                             0.5 :STEP      
NULL        .                                           -999.25 :NULL      
COMP        .                               MEREDITH & CO ET AL :COMPANY   
WELL        .                               BROUSSARD J JR ETAL :WELL      
FLD         .                                           WILDCAT :FIELD     
LOC         .                                                   :LOCATION  
CNTY        .                                         JEFFERSON :LOCATION  
STAT        .                                             TEXAS :STATE     
CTRY        .                                     UNITED STATES :COUNTRY   
SRVC        .                                                   :SERVICE COMPANY
DATE        .                             9/13/2023 11:19:11 AM :LOG DATE  
API         .                                    42245021880000 :API NUMBER
UWI         .                                    42245021880000 :UNIQUE WELL ID
XCOORD      .                                  1215343.11980964 :SURFACE X 
YCOORD      .                                  10882366.7587642 :SURFACE Y 
LAT         .                                        29.9782309 :LATITUDE  
LON         .                                       -94.3429645 :LONGITUDE 
ELEV        .FT                                              36 :ELEVATION VALUE
ELEV_TYPE   .                                                DF :ELEVATION REFERENCE TYPE
~Curve Information Section
#MNEM       .UNIT                                      API CODE :CURVE DESCRIPTION
#------------------------------------------------------------------------------
DEPT        .FT                                                 :DEPTH     
ASN         .OHMM                                               :          
LAT         .OHMM                                               :          
LN          .OHMM                                               :          
SP          .MV                                                 :          
SP_NORM     .MV                                                 :SP Normalized
VSH_SP      .V/V                                                :Volume of Shale from SP
~A        DEPTH            ASN            LAT             LN             SP        SP_NORM         VSH_SP
# ...
      3107.0000          1.171         1.3524         1.0145       -57.5886      -6.202621      0.9381967
      3107.5000         1.2407         1.3951              1        -59.345      -7.965572       0.912271
      3108.0000          1.293         1.4518         0.9855       -60.8056       -9.43272      0.8906953
      3108.5000         1.3395         1.4516          0.971       -62.2718      -10.90547      0.8690372
      3109.0000           1.38         1.3947         0.9565       -63.7323      -12.37252       0.847463
      3109.5000         1.4384         1.3663         0.9565       -64.9087      -13.55547      0.8300667
      3110.0000         1.4647          1.338          0.942       -65.5057      -14.15902       0.821191
      3110.5000          1.494         1.3095         0.9125       -66.0962      -14.75607      0.8124108
      3111.0000         1.4674         1.2805         0.8827       -66.1126      -14.77902      0.8120732
      3111.5000         1.4466         1.3079         0.8532       -65.8338      -14.50677      0.8160769
      3112.0000         1.3241         1.3355         0.8089        -63.532      -12.21151      0.8498307
      3112.5000         1.1761          1.391         0.7648       -61.2247      -9.910763      0.8836653
      3113.0000         1.0252         1.4609         0.7205       -57.4735      -6.166111      0.9387336
      3113.5000         0.9466         1.5868         0.6907        -54.012      -2.711163      0.9895417
      3114.0000          0.868         1.6566         0.6757       -52.8637      -1.569412              1
      3114.5000         0.8361         1.7685         0.6459       -51.4312     -0.1434593              1
      3115.0000         0.8246         1.8102         0.6305       -50.2829       0.998291              1
      3115.5000         0.8392         1.7953         0.6155        -52.618      -1.343357              1
      3116.0000         0.8971         1.7241         0.6147       -53.7937      -2.525608      0.9922705
      3116.5000         1.0155         1.6531         0.5996       -54.9639      -3.702358      0.9749653
      3117.0000         1.1951         1.4974         0.5988       -57.8784      -6.623405      0.9320087
      3117.5000         1.3746          1.384         0.5979        -60.503      -9.254555      0.8933154
      3118.0000          1.389         1.2283         0.5829       -63.7069      -12.46501      0.8461028
      3118.5000         1.4093         1.1573         0.5676       -65.4565      -14.22115      0.8202772
      3119.0000         1.4209         1.0861         0.5525       -67.5014      -16.27261      0.7901087
      3119.5000         1.4208         1.0149         0.5372       -68.9666      -17.74435      0.7684655
      3120.0000         1.3798         0.9704         0.5364       -72.4604      -21.24471      0.7169896
      3120.5000         1.2841         0.9099         0.5358       -80.0107      -28.80155      0.6058596
      3121.0000         1.1594         0.8046         0.5205       -98.5741       -47.3715      0.3327721
      3121.5000         1.0667         0.7143         0.5197      -111.6346      -60.43855      0.1406096
      3122.0000         0.9714          0.654         0.5337      -112.5148       -61.3253      0.1275691
      3122.5000         0.8571         0.5338         0.5329      -113.1106      -61.92765       0.118711
      3123.0000         0.7701         0.4435         0.5466      -113.1269       -61.9505       0.118375
      3123.5000         0.7224         0.3681         0.5457      -111.9789      -60.80904      0.1351611
      3124.0000         0.6836         0.3227         0.5452      -108.2289      -57.06559      0.1902119
      3124.5000         0.6866         0.2921         0.5444      -104.7634      -53.60664      0.2410788
      3125.0000         0.7194         0.3211         0.5291      -101.0084      -49.85819       0.296203
      3125.5000         0.7433         0.3504         0.5141       -95.5208      -44.37714      0.3768068
      3126.0000         0.8371         0.3794         0.4843       -92.0553      -40.91819      0.4276737
      3126.5000         0.9314         0.4233         0.4545       -87.4308      -36.30024      0.4955847
      3127.0000         1.0145         0.4374         0.4392       -86.5725      -35.44849      0.5081104
      3127.5000         1.1942         0.4667         0.4097       -90.0656      -38.94814       0.456645
      3128.0000         1.3739         0.5106         0.3944       -92.9794      -41.86849      0.4136987
      3128.5000         1.4784         0.5247         0.3791       -99.3704      -48.26604      0.3196171
      3129.0000         1.4871          0.554         0.3786      -105.7648      -54.66699      0.2254855
      3129.5000         1.3217         0.5532         0.3778      -110.4153      -59.32404      0.1569995
      3130.0000         1.1565         0.5524         0.3625      -115.0656      -63.98088     0.08851641
      3130.5000         0.9542         0.5369         0.3619      -120.3011      -69.22294     0.01142737
      3131.0000         0.8283         0.5061         0.3901      -121.4716      -70.39999              0
      3131.5000          0.731         0.4757         0.4037      -122.6477      -71.58263              0
      3132.0000         0.6263         0.4152         0.4032      -121.2102      -70.15168              0
      3132.5000         0.5699         0.3695         0.4603      -119.7785      -68.72653     0.01872747
      3133.0000         0.5345         0.3242         0.4742      -118.6312      -67.58578     0.03550316
      3133.5000         0.5049         0.2786         0.5024      -116.9102      -65.87134     0.06071562
      3134.0000         0.4724         0.2479         0.5018      -118.0802      -67.04788      0.0434135
      3134.5000         0.4664         0.2473          0.501      -119.2559      -68.23013     0.02602757
      3135.0000         0.4545         0.2315         0.4857      -119.2729      -68.25368     0.02568121
      3135.5000         0.4425         0.2309         0.4851      -116.3873      -65.37463      0.0680202
      3136.0000         0.4453         0.2599         0.4843      -114.3707      -63.36457     0.09757978
      3136.5000         0.4599         0.2891         0.4834      -107.4343      -56.43473      0.1994893
      3137.0000         0.4745         0.3479         0.4684      -101.0714      -50.07838       0.292965
      3137.5000         0.5066         0.3772         0.4386        -95.287      -44.30053      0.3779334
      3138.0000         0.5359          0.421         0.4235        -87.474      -36.49407      0.4927342
      3138.5000         0.5828         0.4503         0.4082       -86.3313      -35.35792      0.5094423
      3139.0000         0.6003         0.4643         0.3929       -84.8934      -33.92657      0.5304915
      3139.5000         0.6211         0.4787         0.3923       -86.9382      -35.97792      0.5003247
      3140.0000          0.618         0.4778          0.406       -89.2728      -38.31907       0.465896
      3140.5000         0.5911         0.4772         0.4054       -94.2154      -43.26822      0.3931144
      3141.0000         0.5645         0.4764         0.4046      -102.6353      -51.69467      0.2691961
      3141.5000         0.5497         0.4756         0.4038      -106.7031      -55.76902      0.2092791
      3142.0000         0.5496          0.475         0.4032      -107.8786      -56.95107      0.1918961
      3142.5000         0.6082          0.489         0.4024      -103.5484      -52.62742      0.2554791
      3143.0000         0.6705         0.5033         0.4016       -94.2865      -43.37207      0.3915873
      3143.5000         0.7119         0.5615          0.401       -85.0246      -34.11671      0.5276954
      3144.0000         0.7325         0.6198         0.4002       -79.5212      -28.61987      0.6085314
      3144.5000         0.7173         0.5304         0.3994       -84.7622      -33.86741      0.5313616
