#------------------------------------------------------------------------------
# Created by    : vladimir.rabinovich
# Created on    : 09/19/2023 17:22:46
#------------------------------------------------------------------------------
~Version Information Section
VERS.           2.0     :   CWLS log ASCII Standard - VERSION 2.0
WRAP.           NO      :   One line per depth step
~Well Information Section
#MNEM       .UNIT                                         VALUE :DESCRIPTION
#------------------------------------------------------------------------------
STRT        .FT                                             992 :START DEPTH
STOP        .FT                                            8489 :STOP DEPTH
STEP        .FT                                             0.5 :STEP      
NULL        .                                           -999.25 :NULL      
COMP        .                                       GAELIC CORP :COMPANY   
WELL        .                                     PHELAN MICKEY :WELL      
FLD         .                                           WILDCAT :FIELD     
LOC         .                                                   :LOCATION  
CNTY        .                                         JEFFERSON :LOCATION  
STAT        .                                             TEXAS :STATE     
CTRY        .                                     UNITED STATES :COUNTRY   
SRVC        .                                                   :SERVICE COMPANY
DATE        .                             9/13/2023 11:18:46 AM :LOG DATE  
API         .                                    42245313790000 :API NUMBER
UWI         .                                    42245313790000 :UNIQUE WELL ID
XCOORD      .                                  1260103.88271883 :SURFACE X 
YCOORD      .                                     10773431.3746 :SURFACE Y 
LAT         .                                         29.679995 :LATITUDE  
LON         .                                       -94.1979967 :LONGITUDE 
ELEV        .FT                                              19 :ELEVATION VALUE
ELEV_TYPE   .                                                KB :ELEVATION REFERENCE TYPE
~Curve Information Section
#MNEM       .UNIT                                      API CODE :CURVE DESCRIPTION
#------------------------------------------------------------------------------
DEPT        .FT                                                 :DEPTH     
DPSS        .V/V                                                :          
DRHO        .G/CM3                                              :          
DT          .US/FT                                              :          
GR_NORM     .GAPI                                               :GammaRay Normalized
GRN         .GAPI                                               :          
ILD         .OHMM                                               :          
NPSS        .V/V                                                :Neutron Porosity Sandstone
RHOB        .G/CM3                                              :          
SFL         .OHMM                                               :          
SP          .MV                                                 :          
SP_NORM     .MV                                                 :SP Normalized
TENN        .LB                                                 :          
VSH_GR      .V/V                                                :Volume of Shale from GR
VSH_SP      .V/V                                                :Volume of Shale from SP
~A        DEPTH           DPSS           DRHO             DT        GR_NORM            GRN            ILD           NPSS           RHOB            SFL             SP        SP_NORM           TENN         VSH_GR         VSH_SP
# ...
      6446.0000          0.267         0.0128       114.0196       67.94855        63.6765         0.4182         0.4036          2.216         0.6873       -48.0465      -43.67773       2816.547      0.7435863      0.5459816
      6446.5000         0.2799         0.0018       111.9608       61.69647        58.2178         0.3939         0.3911         2.1902         0.6936       -48.6543      -44.28909       2806.989      0.6105632      0.5394778
      6447.0000          0.279        -0.0016       110.7843       59.20229        55.6931          0.373         0.3806         2.1882         0.7196       -46.8463      -42.48464       2807.389      0.5574954       0.558674
      6447.5000         0.2635         0.0034        110.098       60.89282        56.4356         0.3452         0.3663         2.2107            0.8       -44.6336      -40.27549        2807.79      0.5934643      0.5821756
      6448.0000         0.2427         0.0094            110       65.62711        59.5545          0.339         0.3558         2.2388         0.9287       -42.6204      -38.26585       2798.213      0.6941939      0.6035548
      6448.5000         0.2355         0.0149       110.1961       69.38591        61.9118         0.3517         0.3481         2.2623         1.0139       -41.4117       -37.0607       2788.627      0.7741683      0.6163755
      6449.0000          0.234         0.0099       110.7843       72.76238        63.9706         0.3854         0.3439         2.2628         1.0279       -37.4032      -33.05576       2779.031      0.8460081      0.6589813
      6449.5000         0.2373         0.0065       111.4706       75.38548        65.4412         0.4268         0.3359         2.2599         0.9954        -31.806      -27.46211       2769.426      0.9018188      0.7184882
      6450.0000         0.2367          0.009       113.0392       80.08046        68.5294         0.4839         0.3327         2.2619         0.8873       -26.2034      -21.86307       2769.809              1      0.7780525
      6450.5000         0.2301         0.0135       113.5256       86.66858        73.0957         0.5477          0.346         2.2703         0.7066       -20.2059      -15.86912       2770.067              1      0.8418179
      6451.0000         0.2232         0.0215       112.8319       91.47301        76.5508         0.6055          0.378         2.2812         0.6511       -17.8359      -13.50267       2770.177              1      0.8669928
      6451.5000         0.2151         0.0295        111.154       92.07325        77.0208         0.6542         0.3897          2.295         0.7068       -17.0515      -12.72183       2770.289              1      0.8752997
      6452.0000         0.2074           0.04       109.9637       89.55174        75.0535         0.7006         0.3885         2.3084         0.8535       -17.2583      -12.93219       2760.428              1      0.8730618
      6452.5000         0.1991         0.0495       109.3471       86.16248        72.4087         0.7466         0.3855         2.3188         0.8897       -18.8544      -14.53184       2760.544              1      0.8560442
      6453.0000         0.1949          0.049       109.3384       84.28202        70.9419         0.7882         0.3828         2.3282          0.799       -20.4542      -16.13519       2760.659              1      0.8389873
      6453.5000         0.1955         0.0455       109.3297       84.29371        70.9524         0.8368         0.3774         2.3248          0.781        -22.258      -17.94255       2760.786              1      0.8197601
      6454.0000         0.1967         0.0495       109.8235       84.68505        71.2593         0.8522         0.3736         2.3257         0.7986       -25.0562       -20.7443       2760.901              1      0.7899542
      6454.5000         0.1934         0.0575       110.1131        85.2685        71.7162         0.8519         0.3861         2.3322         0.8058       -31.8348      -27.52646       2761.016              1      0.7178037
      6455.0000         0.1916         0.0639       110.3013       85.09102         71.579         0.7046         0.3993         2.3302         0.6919       -40.6061      -36.30131        2751.19              1      0.6244542
      6455.5000          0.203          0.052        110.589       81.67768        68.9154         0.5812         0.4285         2.3149         0.5919       -54.1414      -49.84016         2791.1              1      0.4804238
      6456.0000         0.2266         0.0335       111.0755       76.16289        64.6111         0.4862         0.4154         2.2851         0.6733       -69.1262      -64.82851        2791.21      0.9183593      0.3209732
      6456.5000         0.2505          0.021       111.1659       68.91528        58.9539         0.4075          0.376         2.2413         0.8546       -76.8932      -72.59908       2791.311      0.7641548      0.2383077
      6457.0000         0.2744          0.017       111.1572       59.91192        51.9259         0.3409         0.3441         2.1964         0.8012            -84      -79.70943       2781.478       0.572594      0.1626657
      6457.5000         0.3075         0.0195       112.9386       52.43286         46.088         0.2918         0.3485           2.14         0.7147          -87.4      -83.11298       2781.593      0.4134651      0.1264576
      6458.0000         0.3318         0.0155       115.0223       47.07626        41.9072         0.2405         0.3704         2.1004         0.6928          -89.8      -85.51654       2791.621      0.2994948      0.1008879
      6458.5000         0.3417         0.0025       116.1135       43.25625        38.9261            0.2         0.3846         2.0851         0.7025          -91.6      -87.32009       2781.802      0.2182181     0.08170116
      6459.0000         0.3381         -0.001       116.3092       41.34453        37.4349         0.1884         0.3751         2.0896         0.6964            -93      -88.72365       2772.005      0.1775431      0.0667697
      6459.5000         0.3324         0.0055       115.2072       39.62455        36.0934         0.1774         0.3471         2.0995         0.6084          -93.4       -89.1272       2762.206       0.140948     0.06247654
      6460.0000         0.3324         0.0175       114.4028       37.90664        34.7535         0.1742          0.342          2.101         0.5162          -93.6      -89.33076       2772.223      0.1043966     0.06031109
      6460.5000         0.3354          0.019          114.2       36.18666         33.412          0.175         0.3648         2.0946         0.5023          -93.6       -89.3343       2762.376     0.06780129     0.06027335
      6461.0000         0.3375          0.016          113.6       33.89212        31.6219         0.1799         0.3978         2.0921         0.5707          -93.4      -89.13786       2762.376     0.01898137     0.06236316
      6461.5000         0.3354         0.0136          112.4       32.92988         30.872         0.1849         0.4053          2.096         0.6496          -93.4      -89.14142       2762.376              0     0.06232534
      6462.0000         0.3318         0.0236          111.2       33.10898        31.0132          0.191         0.3933         2.1015         0.7122          -93.4      -89.14497       2762.376    0.002318768     0.06228751
      6462.5000         0.3333         0.0381          111.4       34.61963         32.194         0.1982          0.385          2.096         0.7183          -93.4      -89.14853       2762.376     0.03446011     0.06224969
      6463.0000         0.3489         0.0401          113.5       36.32035        33.5232         0.2047         0.3969         2.0767         0.7214          -93.4      -89.15208       2762.376     0.07064568     0.06221187
      6463.5000         0.3621         0.0277          115.1       37.83099         34.704         0.2114         0.4149          2.053         0.7467          -93.8      -89.55564       2762.376      0.1027869     0.05791871
