#------------------------------------------------------------------------------
# Created by    : vladimir.rabinovich
# Created on    : 09/19/2023 17:20:52
#------------------------------------------------------------------------------
~Version Information Section
VERS.           2.0     :   CWLS log ASCII Standard - VERSION 2.0
WRAP.           NO      :   One line per depth step
~Well Information Section
#MNEM       .UNIT                                         VALUE :DESCRIPTION
#------------------------------------------------------------------------------
STRT        .FT                                            1017 :START DEPTH
STOP        .FT                                            8855 :STOP DEPTH
STEP        .FT                                             0.5 :STEP      
NULL        .                                           -999.25 :NULL      
COMP        .                               MEREDITH & CO ET AL :COMPANY   
WELL        .                               BROUSSARD J JR ETAL :WELL      
FLD         .                                           WILDCAT :FIELD     
LOC         .                                                   :LOCATION  
CNTY        .                                         JEFFERSON :LOCATION  
STAT        .                                             TEXAS :STATE     
CTRY        .                                     UNITED STATES :COUNTRY   
SRVC        .                                                   :SERVICE COMPANY
DATE        .                             9/13/2023 11:19:11 AM :LOG DATE  
API         .                                    42245021880000 :API NUMBER
UWI         .                                    42245021880000 :UNIQUE WELL ID
XCOORD      .                                  1215343.11980964 :SURFACE X 
YCOORD      .                                  10882366.7587642 :SURFACE Y 
LAT         .                                        29.9782309 :LATITUDE  
LON         .                                       -94.3429645 :LONGITUDE 
ELEV        .FT                                              36 :ELEVATION VALUE
ELEV_TYPE   .                                                DF :ELEVATION REFERENCE TYPE
~Curve Information Section
#MNEM       .UNIT                                      API CODE :CURVE DESCRIPTION
#------------------------------------------------------------------------------
DEPT        .FT                                                 :DEPTH     
ASN         .OHMM                                               :          
LAT         .OHMM                                               :          
LN          .OHMM                                               :          
SP          .MV                                                 :          
SP_NORM     .MV                                                 :SP Normalized
VSH_SP      .V/V                                                :Volume of Shale from SP
~A        DEPTH            ASN            LAT             LN             SP        SP_NORM         VSH_SP
# ...
      4665.0000          0.829         0.3913         0.5795       -46.6667      -4.691391      0.9560549
      4665.5000         0.8609         0.3768         0.6091       -46.6667      -4.691391      0.9560549
      4666.0000         0.8841         0.3478         0.6096       -47.2464      -5.271091      0.9491537
      4666.5000         0.8841         0.3623         0.6247       -48.1159      -6.140591      0.9388025
      4667.0000         0.8783         0.3623         0.6253       -50.7246      -8.749294      0.9077465
      4667.5000         0.8638         0.3623         0.6401       -53.3333      -11.35799      0.8766906
      4668.0000         0.8464         0.3623         0.6407       -57.3913      -15.41599      0.8283811
      4668.5000         0.8348         0.3623         0.6411       -66.0606      -24.08529      0.7251751
      4669.0000         0.8174         0.3768          0.656       -71.2121      -29.23679      0.6638477
      4669.5000            0.8         0.4058         0.6709       -78.4848      -36.50949      0.5772679
      4670.0000         0.8116         0.4203         0.6998       -78.4848      -36.50949      0.5772679
      4670.5000         0.8696         0.4493         0.7286       -58.5398      -16.56449      0.8147084
      4671.0000         0.9072         0.4638         0.7429       -45.1928      -3.217491      0.9736013
      4671.5000         0.9449         0.4348         0.7571       -43.4368      -1.461491      0.9945061
      4672.0000         0.9652         0.3623         0.7714       -42.8457     -0.8703918              1
      4672.5000          0.971         0.3188         0.8429       -42.8284     -0.8530922              1
      4673.0000         0.9826         0.2754         0.9143       -42.8168     -0.8414917              1
      4673.5000         0.9855         0.2609         0.9714       -42.7995      -0.824192              1
      4674.0000         0.9855         0.2609         0.9571       -42.7879     -0.8125916              1
      4674.5000         0.9826         0.2754         0.8714       -42.7706     -0.7952919              1
      4675.0000          0.971         0.2899         0.8429       -42.4692     -0.4938927              1
      4675.5000         0.9652         0.3188         0.8143       -42.4518     -0.4764938              1
      4676.0000         0.9594         0.3333         0.7571       -42.1505     -0.1751938              1
      4676.5000         0.9565         0.3913         0.7143       -41.8433      0.1320076              1
      4677.0000         0.9536         0.4203         0.6714       -42.1215     -0.1461906              1
      4677.5000         0.9478         0.4493         0.6571       -43.2635      -1.288193      0.9965692
      4678.0000          0.942         0.4783         0.6143       -44.1215      -2.146191      0.9863549
      4678.5000         0.9246         0.5072            0.6       -47.2924      -5.317093       0.948606
      4679.0000         0.8928         0.5362         0.5857       -51.0489      -9.073593      0.9038858
      4679.5000         0.8725         0.5362         0.5714       -60.6064      -18.63109      0.7901061
      4680.0000         0.8261         0.5217         0.5714       -68.5294       -26.5541      0.6957846
      4680.5000          0.771         0.4783         0.5714       -76.7647      -34.78939      0.5977453
      4681.0000         0.7362         0.4638         0.5714       -84.9275      -42.95219      0.5005692
      4681.5000         0.7014         0.4203         0.5714       -96.8116      -54.83629      0.3590918
      4682.0000         0.6638         0.4058         0.5714      -105.2462      -63.27089      0.2586798
      4682.5000         0.6522         0.3623         0.5714      -111.3826      -69.40729      0.1856275
      4683.0000         0.6406         0.3333         0.5571      -114.6159      -72.64059      0.1471358
      4683.5000         0.6203         0.3333         0.5571      -116.3873      -74.41199      0.1260478
      4684.0000         0.6087         0.3333         0.5429      -119.0515      -77.07619     0.09433111
      4684.5000            0.6         0.3478         0.5286      -120.8476       -78.8723     0.07294882
      4685.0000         0.5971         0.3623         0.5143      -120.8711       -78.8958     0.07266907
      4685.5000         0.5971         0.3913            0.5      -120.0235      -78.04819     0.08275968
      4686.0000            0.6         0.4203         0.4857      -118.2802      -76.30489      0.1035133
      4686.5000         0.6087         0.4493         0.4714      -115.0575       -73.0822      0.1418786
      4687.0000         0.6174         0.4928         0.4571      -110.6442       -68.6689      0.1944179
      4687.5000         0.6377         0.5362         0.4429      -105.6261      -63.65079      0.2541572
      4688.0000         0.6464         0.5942         0.4429       -98.2609      -56.28559      0.3418382
      4688.5000         0.6638         0.6957         0.4286      -101.1883      -59.21299      0.3069882
      4689.0000         0.6174         0.7536         0.4286      -104.1656       -62.1903      0.2715441
      4689.5000         0.5686         0.8116         0.4429      -105.9574      -63.98209      0.2502132
      4690.0000         0.5429         0.8116         0.4571      -110.1431      -68.16779      0.2003835
      4690.5000         0.5028         0.6812         0.4568        -111.64      -69.66469      0.1825632
      4691.0000         0.4799         0.6522         0.4565      -112.2337      -70.25839      0.1754953
      4691.5000         0.4597         0.6522          0.456      -113.1218       -71.1465      0.1649226
      4692.0000          0.451         0.6377         0.4557      -113.7099      -71.73459      0.1579216
      4692.5000         0.4452         0.5942         0.4696      -114.5949       -72.6196      0.1473857
      4693.0000         0.4422         0.5652         0.4693      -115.4746       -73.4993      0.1369131
      4693.5000         0.4479         0.5072         0.4833      -114.5812       -72.6059      0.1475489
      4694.0000         0.4592         0.4783         0.4828      -113.3948      -71.41949      0.1616727
      4694.5000         0.4735         0.4783         0.4682      -110.7366      -68.76129       0.193318
      4695.0000         0.4964         0.4783         0.4389        -108.97      -66.99469      0.2143489
      4695.5000         0.5107         0.4783         0.4242      -106.6219      -64.64659      0.2423025
      4696.0000         0.5251         0.5072         0.4237      -105.4524      -63.47709      0.2562251
      4696.5000         0.5481         0.5072         0.4089      -103.7032      -61.72789      0.2770489
      4697.0000         0.5654         0.5072         0.4084       -102.248      -60.27269      0.2943727
      4697.5000         0.5307         0.4783         0.4225      -103.1374      -61.16209      0.2837846
      4698.0000         0.5162         0.4348         0.4222      -105.7704      -63.79509      0.2524393
      4698.5000         0.5017         0.3913         0.4217      -109.5632      -67.58789       0.207287
      4699.0000           0.49         0.3768         0.4358      -110.7272      -68.75189      0.1934299
      4699.5000         0.4813         0.3333         0.4498      -112.7584       -70.7831      0.1692488
      4700.0000         0.4725         0.3333         0.4494      -113.9153      -71.93999      0.1554763
      4700.5000         0.4667         0.3037         0.4495       -115.942      -73.96669      0.1313489
      4701.0000         0.4609         0.3031         0.4643      -114.7826       -72.8073      0.1451512
      4701.5000         0.4639         0.3025         0.4646      -114.4928      -72.51749      0.1486014
      4702.0000         0.4668         0.3016         0.4796      -117.3913      -75.41599      0.1140954
      4702.5000         0.4669         0.2865         0.4799      -119.1304      -77.15509     0.09339178
