#------------------------------------------------------------------------------
# Created by    : vladimir.rabinovich
# Created on    : 09/19/2023 17:20:51
#------------------------------------------------------------------------------
~Version Information Section
VERS.           2.0     :   CWLS log ASCII Standard - VERSION 2.0
WRAP.           NO      :   One line per depth step
~Well Information Section
#MNEM       .UNIT                                         VALUE :DESCRIPTION
#------------------------------------------------------------------------------
STRT        .FT                                            1818 :START DEPTH
STOP        .FT                                            9030 :STOP DEPTH
STEP        .FT                                             0.5 :STEP      
NULL        .                                           -999.25 :NULL      
COMP        .                               CONCHO PETROLEUM CO :COMPANY   
WELL        .                                  J E BROUSSARD JR :WELL      
FLD         .                                           WILDCAT :FIELD     
LOC         .                                                   :LOCATION  
CNTY        .                                         JEFFERSON :LOCATION  
STAT        .                                             TEXAS :STATE     
CTRY        .                                     UNITED STATES :COUNTRY   
SRVC        .                                                   :SERVICE COMPANY
DATE        .                             9/13/2023 11:19:11 AM :LOG DATE  
API         .                                    42245021900000 :API NUMBER
UWI         .                                    42245021900000 :UNIQUE WELL ID
XCOORD      .                                  1213918.99973078 :SURFACE X 
YCOORD      .                                  10884047.8383225 :SURFACE Y 
LAT         .                                         29.982808 :LATITUDE  
LON         .                                       -94.3475252 :LONGITUDE 
ELEV        .FT                                              35 :ELEVATION VALUE
ELEV_TYPE   .                                                GL :ELEVATION REFERENCE TYPE
~Curve Information Section
#MNEM       .UNIT                                      API CODE :CURVE DESCRIPTION
#------------------------------------------------------------------------------
DEPT        .FT                                                 :DEPTH     
ASN         .OHMM                                               :          
LAT         .OHMM                                               :          
LN          .OHMM                                               :          
SP          .MV                                                 :          
SP_NORM     .MV                                                 :SP Normalized
VSH_SP      .V/V                                                :Volume of Shale from SP
~A        DEPTH            ASN            LAT             LN             SP        SP_NORM         VSH_SP
# ...
      3718.0000         1.2576         1.1695          0.614       -94.5763      -35.31704      0.5763328
      3718.5000         1.2169         1.1356         0.5789       -96.9492      -37.68995      0.5470377
      3719.0000          1.175         1.1017         0.5614       -98.6441      -39.38484      0.5261131
      3719.5000         1.1321         1.0847         0.5263      -101.0714      -41.81215      0.4961464
      3720.0000         1.0929         1.0508         0.5088      -106.7857      -47.52644      0.4255995
      3720.5000         1.1392         1.0335         0.5083      -111.0714      -51.81215      0.3726896
      3721.0000         1.2303         0.9987         0.4899      -114.6429      -55.38364       0.328597
      3721.5000         1.3216         0.9799          0.489         -117.5      -58.24074      0.2933242
      3722.0000         1.4103         0.9433         0.4706      -119.6429      -60.38364      0.2668687
      3722.5000         1.5082         0.8888         0.4697      -122.3729      -63.11364      0.2331649
      3723.0000          1.606         0.8165         0.4689      -125.0847      -65.82544      0.1996859
      3723.5000         1.6234         0.7621         0.4504      -127.4576      -68.19835      0.1703908
      3724.0000         1.6583         0.7076         0.4496      -130.1695      -70.91023      0.1369107
      3724.5000         1.6932         0.6353         0.4487      -131.8644      -72.60513       0.115986
      3725.0000         1.7282         0.5987         0.4303      -133.2203      -73.96104     0.09924637
      3725.5000         1.7631         0.5799         0.4294      -133.8983      -74.63904     0.09087607
      3726.0000         1.7454         0.5433         0.4285      -134.5763      -75.31703     0.08250578
      3726.5000         1.7136         0.5246         0.4101      -134.9153      -75.65604     0.07832054
      3727.0000         1.6854         0.5237         0.4092      -135.5932      -76.33394     0.06995138
      3727.5000         1.6957         0.5049         0.4083      -136.2712      -77.01193     0.06158108
      3728.0000         1.7131          0.504         0.3899      -136.9492      -77.68994      0.0532106
      3728.5000         1.7339         0.4853          0.389      -137.6271      -78.36784     0.04484144
      3729.0000         1.7338         0.4844         0.3882      -138.3051      -79.04584     0.03647114
      3729.5000         1.6845         0.4835         0.3697      -138.3051      -79.04584     0.03647114
      3730.0000         1.6317         0.4647         0.3689      -138.3051      -79.04584     0.03647114
      3730.5000         1.5491         0.4643         0.3684      -138.3051      -79.04584     0.03647114
      3731.0000         1.4945         0.4464         0.3509      -138.3051      -79.04584     0.03647114
      3731.5000           1.44         0.4464         0.3509      -138.3051      -79.04584     0.03647114
      3732.0000         1.3864         0.4464         0.3509      -138.6441      -79.38484      0.0322859
      3732.5000         1.3353         0.4464         0.3509      -138.3051      -79.04584     0.03647114
      3733.0000         1.3251         0.4286         0.3509      -138.3051      -79.04584     0.03647114
      3733.5000         1.3523         0.4286         0.3509      -138.3051      -79.04584     0.03647114
      3734.0000         1.3591         0.4286         0.3333      -138.3051      -79.04584     0.03647114
      3734.5000          1.318         0.4286         0.3333      -138.3051      -79.04584     0.03647114
      3735.0000         1.2735         0.4286         0.3333      -138.3051      -79.04584     0.03647114
      3735.5000         1.2324         0.4286         0.3333      -138.3051      -79.04584     0.03647114
      3736.0000         1.1873         0.4286         0.3333      -138.3051      -79.04584     0.03647114
      3736.5000         1.1448         0.4107         0.3333      -138.3051      -79.04584     0.03647114
      3737.0000         1.0988         0.4107         0.3333      -138.3051      -79.04584     0.03647114
      3737.5000         1.0529         0.4107         0.3333      -138.6441      -79.38484      0.0322859
      3738.0000         1.1056         0.4107         0.3333      -138.6441      -79.38484      0.0322859
      3738.5000         1.1618         0.3929         0.3158      -138.6441      -79.38484      0.0322859
      3739.0000         1.2141         0.3929         0.3158      -138.3051      -79.04584     0.03647114
      3739.5000         1.2519         0.3929         0.3158      -138.3051      -79.04584     0.03647114
      3740.0000         1.2793         0.3929         0.3158      -138.6441      -79.38484      0.0322859
      3740.5000         1.2793         0.3929         0.3155      -138.6605      -79.40125     0.03208339
      3741.0000         1.2724          0.375         0.3149      -138.6933      -79.43404     0.03167856
      3741.5000         1.2655          0.375         0.3143      -139.0659      -79.80664     0.02707851
      3742.0000         1.2724          0.375         0.3137      -139.4391      -80.17984     0.02247111
      3742.5000         1.2897          0.375         0.3131       -140.526      -81.26674    0.009052606
      3743.0000         1.3069         0.3571         0.3125      -140.5611      -81.30183    0.008619332
      3743.5000         1.3241         0.3393         0.3119      -140.9468      -81.68753    0.003857648
      3744.0000         1.3345         0.3393         0.3113      -141.3326      -82.07333              0
      3744.5000         1.3345         0.3393         0.3106      -141.3678      -82.10854              0
      3745.0000         1.3069         0.3393           0.31      -141.4029      -82.14363              0
      3745.5000         1.2966         0.3393         0.3094       -141.438      -82.17874              0
      3746.0000         1.2931         0.3393         0.3088      -142.1747      -82.91544              0
      3746.5000         1.2931         0.3393         0.3082      -142.2098      -82.95053              0
      3747.0000         1.3069         0.3393         0.3076      -142.5958      -83.33653              0
      3747.5000         1.3207         0.3393          0.307      -142.9818      -83.72253              0
      3748.0000         1.3345         0.3393         0.3064      -143.7186      -84.45934              0
      3748.5000         1.3414         0.3393         0.3057      -144.1047      -84.84544              0
      3749.0000         1.3276         0.3214         0.3051        -144.14      -84.88074              0
      3749.5000         1.3069         0.3214         0.3223      -143.4735      -84.21423              0
      3750.0000         1.2862         0.3036         0.3217       -142.807      -83.54774              0
      3750.5000         1.2759         0.3036         0.3213      -142.0899      -82.83064              0
      3751.0000         1.2552         0.3036          0.321      -141.3716      -82.11234              0
      3751.5000         1.2793         0.3036         0.3207      -141.0039      -81.74464    0.003152541
      3752.0000         1.3276         0.3036         0.3026      -140.6355      -81.37624    0.007700791
      3752.5000         1.3759         0.3036         0.3024      -140.6188      -81.35954    0.007906878
      3753.0000         1.4291         0.3036         0.3021      -140.6022      -81.34294    0.008111836
      3753.5000           1.48         0.3036         0.3018      -140.9384      -81.67914    0.003961257
      3754.0000         1.5309         0.3036         0.3016       -140.922      -81.66273    0.004163766
      3754.5000         1.6035         0.3036          0.319      -141.2592      -81.99994 0.000000753521
      3755.0000            1.6         0.3036          0.301       -141.243      -81.98373   0.0002008132
      3755.5000         1.5927         0.3036         0.3008      -141.2268      -81.96754   0.0004006845
