#------------------------------------------------------------------------------
# Created by    : vladimir.rabinovich
# Created on    : 09/19/2023 17:22:46
#------------------------------------------------------------------------------
~Version Information Section
VERS.           2.0     :   CWLS log ASCII Standard - VERSION 2.0
WRAP.           NO      :   One line per depth step
~Well Information Section
#MNEM       .UNIT                                         VALUE :DESCRIPTION
#------------------------------------------------------------------------------
STRT        .FT                                             992 :START DEPTH
STOP        .FT                                            8489 :STOP DEPTH
STEP        .FT                                             0.5 :STEP      
NULL        .                                           -999.25 :NULL      
COMP        .                                       GAELIC CORP :COMPANY   
WELL        .                                     PHELAN MICKEY :WELL      
FLD         .                                           WILDCAT :FIELD     
LOC         .                                                   :LOCATION  
CNTY        .                                         JEFFERSON :LOCATION  
STAT        .                                             TEXAS :STATE     
CTRY        .                                     UNITED STATES :COUNTRY   
SRVC        .                                                   :SERVICE COMPANY
DATE        .                             9/13/2023 11:18:46 AM :LOG DATE  
API         .                                    42245313790000 :API NUMBER
UWI         .                                    42245313790000 :UNIQUE WELL ID
XCOORD      .                                  1260103.88271883 :SURFACE X 
YCOORD      .                                     10773431.3746 :SURFACE Y 
LAT         .                                         29.679995 :LATITUDE  
LON         .                                       -94.1979967 :LONGITUDE 
ELEV        .FT                                              19 :ELEVATION VALUE
ELEV_TYPE   .                                                KB :ELEVATION REFERENCE TYPE
~Curve Information Section
#MNEM       .UNIT                                      API CODE :CURVE DESCRIPTION
#------------------------------------------------------------------------------
DEPT        .FT                                                 :DEPTH     
DPSS        .V/V                                                :          
DRHO        .G/CM3                                              :          
DT          .US/FT                                              :          
GR_NORM     .GAPI                                               :GammaRay Normalized
GRN         .GAPI                                               :          
ILD         .OHMM                                               :          
NPSS        .V/V                                                :Neutron Porosity Sandstone
RHOB        .G/CM3                                              :          
SFL         .OHMM                                               :          
SP          .MV                                                 :          
SP_NORM     .MV                                                 :SP Normalized
TENN        .LB                                                 :          
VSH_GR      .V/V                                                :Volume of Shale from GR
VSH_SP      .V/V                                                :Volume of Shale from SP
~A        DEPTH           DPSS           DRHO             DT        GR_NORM            GRN            ILD           NPSS           RHOB            SFL             SP        SP_NORM           TENN         VSH_GR         VSH_SP
# ...
      5690.0000         0.5338         -0.014       129.6015       26.74745        28.6463         0.2394         0.5589         1.7708         1.0093        -95.995      -88.58759       2500.123              0              0
      5690.5000         0.5774         -0.022        134.603       25.79873        27.7545         0.2427         0.5872         1.6812          0.964       -95.4014      -87.99399       2499.851              0              0
      5691.0000         0.5952         -0.023       133.9079       25.00873        27.0119         0.2471         0.5997         1.6723         0.9083       -94.4044      -86.99699       2499.602              0              0
      5691.5000         0.5848         -0.023       131.6129       24.21873        26.2693         0.2505         0.6056         1.6955         0.8918       -94.0077      -86.60029       2509.341              0              0
      5692.0000         0.5601        -0.0131       129.3234       23.42873        25.5267         0.2505         0.6205         1.7529         0.8878       -93.4117      -86.00429        2519.07              0              0
      5692.5000         0.5323        -0.0081       127.7403       23.43671        25.5342         0.2492         0.6282         1.7875         0.8877       -92.6167      -85.20929       2518.813              0              0
      5693.0000         0.5275        -0.0091       128.8362       24.88075        26.8916         0.2435         0.6208         1.7771         0.8837       -91.6231      -84.21569       2528.528              0    0.009337016
      5693.5000         0.5463        -0.0171       131.5326       26.96309         28.849         0.2368         0.6193         1.7329         0.8557       -90.8298      -83.42239       2528.265              0     0.01878103
      5694.0000         0.5552        -0.0256       131.6376       29.03702        30.7985         0.2335         0.6172         1.7279         0.8023       -89.6393      -82.23189       2528.004              0     0.03295372
      5694.5000          0.523        -0.0341       129.5452       30.46681        32.1425         0.2313         0.5969         1.7924         0.7315       -89.0469      -81.63949       2507.827              0     0.04000609
      5695.0000         0.4549        -0.0236        127.063       30.94862        32.5954         0.2323          0.551         1.9193         0.6826       -88.6542      -81.24679       2507.576              0     0.04468109
      5695.5000         0.3961         0.0007       124.8769       31.74639        33.3453         0.2388         0.4833         1.9901         0.7179       -88.6598      -81.25239       2507.325              0     0.04461443
      5696.0000         0.3357         0.0264       122.7882       32.70224        34.2438         0.2432         0.4396         2.1147          0.755       -88.8642      -81.45679       2507.073              0      0.0421811
      5696.5000         0.3154         0.0536       122.4907       33.18489        34.6975         0.2499           0.43         2.1252         0.8317       -89.4659      -82.05849       2506.823    0.003933927     0.03501801
      5697.0000         0.3231         0.0502       123.5885       32.87671        34.4078         0.2557         0.4318         2.1142         0.9041       -90.8621      -83.45469       2506.573              0     0.01839656
      5697.5000         0.3504         0.0422       124.6873       31.62054         33.227          0.264         0.4342         2.0582         0.9909       -91.8594      -84.45199       2506.322              0     0.00652395
      5698.0000         0.3801         0.0283        126.286       29.73235        31.4521         0.2701         0.4345         1.9941         1.0665       -92.8556      -85.44819       2506.072              0              0
      5698.5000         0.4207         0.0144       127.8863        28.3182        30.1228         0.2738          0.448         1.9475         1.0862       -93.0575      -85.65009       2505.823              0              0
      5699.0000         0.4458        -0.0004       128.3896       27.52947        29.3814         0.2725         0.4815         1.9094          1.047       -92.8626      -85.45519       2505.573              0              0
      5699.5000         0.4548        -0.0099       127.0947       28.96585        30.7316         0.2687         0.5047         1.9485         1.0092       -92.0734      -84.66599       2505.324              0    0.003976277
      5700.0000         0.4173        -0.0168       124.9988       30.23766        31.9271         0.2613         0.4687         1.9851         0.9729       -90.0966      -82.68919       2505.075              0      0.0275096
      5700.5000         0.3495         -0.003       121.8024       31.66426        33.2681         0.2589         0.4059         2.0616         0.9638       -88.9135      -81.50609       2504.809              0     0.04159419
      5701.0000         0.3336         0.0099       121.2069       33.08926        34.6076         0.2518         0.3705          2.105         0.9589       -87.1343      -79.72689       2504.573    0.001899151     0.06277511
      5701.5000         0.3288         0.0094       122.4097       34.51543        35.9482         0.2471         0.3729         2.1064          0.924       -86.1464      -78.73899       2504.337      0.0322432     0.07453582
      5702.0000         0.3261         0.0084       124.2102       35.78468        37.1413         0.2415         0.3983         2.1054          0.911       -86.1494      -78.74199       2504.077     0.05924858     0.07450013
      5702.5000         0.3162         0.0183       123.9137       34.04649        35.5074          0.236         0.4187         2.1188         0.9274       -86.9463      -79.53889       2503.841     0.02226582     0.06501325
      5703.0000         0.3129         0.0376       123.0195       31.03936        32.6807         0.2317         0.4073         2.1317         0.9794       -88.1411      -80.73369        2503.58              0     0.05078942
      5703.5000         0.3335         0.0584       122.8235       28.98011         30.745         0.2285         0.3947         2.0949         1.0296       -88.9397      -81.53229       2503.343              0     0.04128229
      5704.0000          0.377          0.055       124.5206       29.93203        31.6398         0.2253         0.4151         1.9933         1.0339       -89.5404      -82.13299       2503.106              0     0.03413109
      5704.5000         0.4061         0.0252       126.3157       32.63011         34.176         0.2233          0.443         1.9814         1.0334       -89.5456      -82.13819       2502.844              0     0.03406915
      5705.0000         0.4136          0.004       125.9195         32.315        33.8798         0.2243         0.4635          1.969         1.0188       -89.5502      -82.14279       2502.606              0     0.03401439
      5705.5000         0.4225        -0.0015       127.3142       30.09341        31.7915         0.2316         0.4465         1.9522         1.0183       -88.9578      -81.55039       2502.345              0     0.04106676
      5706.0000         0.4495         -0.005            130       27.54926           29.4         0.2413         0.4405         1.9097         1.0132       -88.1655      -80.75809       2512.064              0     0.05049896
      5706.5000         0.4762        -0.0114          132.2       26.75138          28.65         0.2596         0.4546         1.8699         0.9988       -87.3725      -79.96509       2511.831              0     0.05993943
      5707.0000         0.4739        -0.0124          133.9       27.70883          29.55         0.2754         0.5031         1.8615          0.958       -87.1768      -79.76939       2521.541              0     0.06226912
      5707.5000         0.4599        -0.0114          134.3        28.9833         30.748         0.2909         0.5249         1.8814         0.9445       -87.1804      -79.77299       2501.366              0     0.06222634
