#------------------------------------------------------------------------------
# Created by    : vladimir.rabinovich
# Created on    : 09/19/2023 17:20:51
#------------------------------------------------------------------------------
~Version Information Section
VERS.           2.0     :   CWLS log ASCII Standard - VERSION 2.0
WRAP.           NO      :   One line per depth step
~Well Information Section
#MNEM       .UNIT                                         VALUE :DESCRIPTION
#------------------------------------------------------------------------------
STRT        .FT                                            1028 :START DEPTH
STOP        .FT                                            9325 :STOP DEPTH
STEP        .FT                                             0.5 :STEP      
NULL        .                                           -999.25 :NULL      
COMP        .                     HUNT LAMAR TRUST ESTATE ET AL :COMPANY   
WELL        .                                   BROUSSARD TRUST :WELL      
FLD         .                                           WILDCAT :FIELD     
LOC         .                                                   :LOCATION  
CNTY        .                                         JEFFERSON :LOCATION  
STAT        .                                             TEXAS :STATE     
CTRY        .                                     UNITED STATES :COUNTRY   
SRVC        .                                                   :SERVICE COMPANY
DATE        .                             9/13/2023 11:19:11 AM :LOG DATE  
API         .                                    42245021920000 :API NUMBER
UWI         .                                    42245021920000 :UNIQUE WELL ID
XCOORD      .                                  1218474.36862613 :SURFACE X 
YCOORD      .                                   10882715.986693 :SURFACE Y 
LAT         .                                        29.9792918 :LATITUDE  
LON         .                                       -94.3330868 :LONGITUDE 
ELEV        .FT                                              36 :ELEVATION VALUE
ELEV_TYPE   .                                                DF :ELEVATION REFERENCE TYPE
~Curve Information Section
#MNEM       .UNIT                                      API CODE :CURVE DESCRIPTION
#------------------------------------------------------------------------------
DEPT        .FT                                                 :DEPTH     
ASN         .OHMM                                               :          
LAT         .OHMM                                               :          
LN          .OHMM                                               :          
SP          .MV                                                 :          
SP_NORM     .MV                                                 :SP Normalized
VSH_SP      .V/V                                                :Volume of Shale from SP
~A        DEPTH            ASN            LAT             LN             SP        SP_NORM         VSH_SP
# ...
      5968.0000         0.5696         0.4464         0.2566       -87.3684      -31.16667      0.6952862
      5968.5000         0.6018         0.4554         0.2743       -74.8624      -18.65635       0.821653
      5969.0000         0.6336         0.4554         0.2832       -68.2569      -12.04654      0.8884188
      5969.5000         0.6673         0.4286         0.3009       -68.2569      -12.04223      0.8884624
      5970.0000         0.6867         0.3571         0.3186       -79.8165      -23.59752      0.7717422
      5970.5000         0.7186         0.2679         0.3363           -100      -43.77671       0.567912
      5971.0000          0.754         0.2679         0.3451      -138.5714       -82.3438      0.1783455
      5971.5000         0.7858         0.2679         0.3451      -138.9286      -82.69669      0.1747809
      5972.0000         0.7965         0.2679         0.3363      -139.2857      -83.04948      0.1712174
      5972.5000         0.8036         0.2946         0.3097      -149.2035      -92.96297     0.07108114
      5973.0000         0.8107         0.3839         0.2832      -149.5575      -93.31264     0.06754912
      5973.5000         0.8107         0.3839         0.2566      -149.7345      -93.48534     0.06580468
      5974.0000         0.8071         0.3839         0.2301      -145.4867      -89.23322      0.1087554
      5974.5000         0.8036          0.375         0.2035      -136.9643       -80.7065      0.1948838
      5975.0000         0.6956         0.2857         0.2035         -132.5       -76.2379      0.2400212
      5975.5000         0.6673         0.1786         0.2124      -123.9286      -67.66219      0.3266446
      5976.0000         0.6602         0.1786         0.2212      -115.2212      -58.95047      0.4146417
      5976.5000         0.6549         0.1786         0.2389      -106.7257      -50.45066      0.5004984
      5977.0000         0.6938         0.1875         0.2478       -98.0702      -41.79085      0.5879712
      5977.5000         0.7681         0.2232         0.2478       -93.8596      -37.57594      0.6305461
      5978.0000         0.8411         0.4018         0.2478       -94.2105      -37.92253      0.6270452
      5978.5000         0.9161         0.5625         0.2478      -106.5487      -50.25641      0.5024605
      5979.0000         1.2732         0.5625         0.2389      -114.8673      -58.57071      0.4184777
      5979.5000         1.2125         0.5089         0.2212      -123.2143      -66.91339      0.3342082
      5980.0000         1.1821            0.5         0.2124      -131.6071      -75.30188       0.249476
      5980.5000         1.1214         0.4196         0.1947           -140      -83.69047      0.1647428
      5981.0000         1.0607         0.3125         0.1858       -140.708      -84.39415      0.1576349
      5981.5000         0.9964         0.2054          0.177       -140.708      -84.38983      0.1576785
      5982.0000         1.0411         0.2054         0.1681      -130.1786      -73.85614      0.2640794
      5982.5000          1.125         0.3125         0.1681       -119.823      -63.49622      0.3687251
      5983.0000           1.25         0.3482         0.1681      -121.4286       -65.0975      0.3525505
      5983.5000         1.3339         0.3929         0.1681      -123.2143       -66.8789      0.3345566
      5984.0000         1.4162         0.4375         0.1681           -125      -68.66028      0.3165628
      5984.5000         1.5009         0.4732         0.1681      -126.6071      -70.26308       0.300373
      5985.0000           1.65         0.5179         0.1681      -128.3929      -72.04456      0.2823782
      5985.5000         1.6696         0.5625         0.1681      -130.1786      -73.82595      0.2643843
      5986.0000         1.6821         0.5625          0.177      -131.9643      -75.60733      0.2463906
      5986.5000         1.6839         0.5625          0.177      -133.5714      -77.21012      0.2302008
      5987.0000         1.6821         0.4464          0.177      -134.8214      -78.45581      0.2176181
      5987.5000         1.5928         0.3929         0.1681      -138.0357       -81.6658      0.1851939
      5988.0000         1.4162         0.3393         0.1681      -142.8319      -86.45768      0.1367911
      5988.5000         1.2375         0.2946         0.1681      -146.1947      -89.81618      0.1028669
      5989.0000         1.2107         0.2411         0.1681      -146.1947      -89.81187      0.1029104
      5989.5000         1.3643         0.1875         0.1681      -146.1947      -89.80756       0.102954
      5990.0000         1.3643         0.1964          0.177      -146.1947      -89.80324      0.1029976
      5990.5000         1.3589         0.2321          0.177      -146.1947      -89.79893      0.1030411
      5991.0000         1.3054         0.2589          0.177      -144.4248      -88.02472      0.1209624
      5991.5000         1.3375         0.2857         0.1858      -142.6549      -86.25051      0.1388837
      5992.0000         1.3982         0.3214         0.1858       -140.885      -84.47629      0.1568052
      5992.5000         1.4595         0.3482         0.1947      -139.8214      -83.40837      0.1675922
      5993.0000         1.4973          0.375         0.1947      -139.2857      -82.86838      0.1730467
      5993.5000         1.4937         0.4107         0.1947      -138.9286      -82.50696      0.1766974
      5994.0000         1.4811         0.4375         0.2035      -138.9286      -82.50265      0.1767409
      5994.5000         1.4559         0.4643         0.2035      -141.7699      -85.33963      0.1480846
      5995.0000         1.4396         0.4643         0.1947      -142.6549      -86.22032      0.1391887
      5995.5000         1.3804         0.4643         0.1947      -143.7168      -87.27791       0.128506
      5996.0000         1.3393         0.4643         0.1858      -145.6637      -89.22049      0.1088839
      5996.5000         1.2661         0.3214         0.1681      -147.4336      -90.98608     0.09104973
      5997.0000         1.1589         0.1786         0.1504      -149.3805      -92.92867     0.07142762
      5997.5000         1.0518         0.0893         0.1416      -150.4425      -93.98636     0.06074385
      5998.0000         0.9964         0.0714         0.1239      -150.4425      -93.98206     0.06078732
      5998.5000         0.9893         0.1607         0.1062      -150.4425      -93.97774     0.06083094
      5999.0000         0.9804           0.25          0.115      -149.2035      -92.73443     0.07338961
      5999.5000         0.9857         0.3482         0.1239      -138.5714      -82.09801      0.1808282
      6000.0000         1.2804         0.4375         0.1327      -114.3363       -57.8586      0.4256707
      6000.5000         1.5676            0.5         0.1504       -119.115      -62.63298      0.3774446
      6001.0000          1.634         0.5089          0.177      -126.6181      -70.13177      0.3016993
      6001.5000         2.0439         0.5089         0.1858      -131.6357      -75.14507      0.2510599
      6002.0000         2.0351         0.4732         0.1947      -136.6616      -80.16666      0.2003368
      6002.5000          1.895         0.4375         0.2035      -141.6676      -85.16834      0.1498147
      6003.0000         1.7933         0.4018         0.2035      -146.6149      -90.11133     0.09988558
      6003.5000         1.7182         0.3661         0.2035      -151.0257      -94.51781     0.05537569
      6004.0000         1.6985         0.3304         0.1947      -153.6707      -97.15851     0.02870194
      6004.5000           1.53         0.2679         0.1858      -155.4328      -98.91629     0.01094656
      6005.0000         1.5282         0.2589         0.1858      -156.8408        -100.32              0
      6005.5000         1.5462           0.25         0.1858      -157.8957      -101.3706              0
