#------------------------------------------------------------------------------
# Created by    : vladimir.rabinovich
# Created on    : 09/19/2023 17:19:39
#------------------------------------------------------------------------------
~Version Information Section
VERS.           2.0     :   CWLS log ASCII Standard - VERSION 2.0
WRAP.           NO      :   One line per depth step
~Well Information Section
#MNEM       .UNIT                                         VALUE :DESCRIPTION
#------------------------------------------------------------------------------
STRT        .FT                                            1969 :START DEPTH
STOP        .FT                                            7841 :STOP DEPTH
STEP        .FT                                             0.5 :STEP      
NULL        .                                           -999.25 :NULL      
COMP        .                           NEWFIELD EXPLORATION CO :COMPANY   
WELL        .                                   PHELAN GAS UNIT :WELL      
FLD         .                                          BINDWEED :FIELD     
LOC         .                                                   :LOCATION  
CNTY        .                                         JEFFERSON :LOCATION  
STAT        .                                             TEXAS :STATE     
CTRY        .                                     UNITED STATES :COUNTRY   
SRVC        .                                                   :SERVICE COMPANY
DATE        .                             9/13/2023 11:18:46 AM :LOG DATE  
API         .                                    42245322670000 :API NUMBER
UWI         .                                    42245322670000 :UNIQUE WELL ID
XCOORD      .                                  1272550.81244857 :SURFACE X 
YCOORD      .                                  10898469.5255822 :SURFACE Y 
LAT         .                                        30.0242363 :LATITUDE  
LON         .                                        -94.162774 :LONGITUDE 
ELEV        .FT                                              24 :ELEVATION VALUE
ELEV_TYPE   .                                                KB :ELEVATION REFERENCE TYPE
~Curve Information Section
#MNEM       .UNIT                                      API CODE :CURVE DESCRIPTION
#------------------------------------------------------------------------------
DEPT        .FT                                                 :DEPTH     
AHT20       .OHMM                                               :          
AHT30       .OHMM                                               :          
AHT60       .OHMM                                               :          
AHT90       .OHMM                                               :          
DCAL        .IN                                                 :          
DPHZSS      .V/V                                                :          
DT          .US/FT                                              :          
GR_NORM     .GAPI                                               :GammaRay Normalized
GRR         .GAPI                                               :          
HDRA        .G/CM3                                              :          
NPORSS      .V/V                                                :          
SP          .MV                                                 :          
SP_NORM     .MV                                                 :SP Normalized
TENR        .LB                                                 :          
VSH_GR      .V/V                                                :Volume of Shale from GR
VSH_SP      .V/V                                                :Volume of Shale from SP
~A        DEPTH          AHT20          AHT30          AHT60          AHT90           DCAL         DPHZSS             DT        GR_NORM            GRR           HDRA         NPORSS             SP        SP_NORM           TENR         VSH_GR         VSH_SP
# ...
      4769.0000          0.822         0.8601         0.8759         0.8838           -0.3         0.2447          131.7       79.56579          80.85         -0.004         0.4622         -9.901      -5.300993       2560.606      0.9907615       0.960229
      4769.5000          0.757          0.789         0.8036         0.8109          -0.34         0.2563          134.6         80.717          81.75         -0.004           0.48        -10.297      -5.709024       2560.606              1       0.955313
      4770.0000         0.7065          0.764         0.7782         0.7854          -0.34         0.2691          135.7       82.44458           83.1         -0.004         0.4812        -10.099      -5.523056       2560.606              1      0.9575536
      4770.5000         0.7431         0.7639         0.7781         0.7853        -0.3206         0.2755          135.7       83.20592        83.6956         -0.004         0.4647        -9.3094      -4.745487       2561.171              1      0.9669219
      4771.0000         0.7744          0.807         0.8218         0.8292        -0.3015          0.275            135       83.19491        83.6882         -0.004         0.4512        -8.9176      -4.365718       2562.112              1      0.9714974
      4771.5000         0.7813         0.7959         0.8105         0.8179        -0.2225         0.2691          134.3       81.07068        82.0309         -0.004         0.4451        -8.3272       -3.78735       2563.052              1      0.9784657
      4772.0000         0.7776          0.792         0.8066          0.814        -0.1436         0.2639          133.6        78.7542        80.2235         -0.004         0.4372        -7.5382      -3.010381       2564.084      0.9734935      0.9878267
      4772.5000         0.8065         0.8212         0.8362         0.8438        -0.0645          0.261          133.2       77.97483        79.6162         -0.004         0.4317        -6.9464      -2.430613       2565.022      0.9569113      0.9948119
      4773.0000         0.8398         0.8552         0.8708         0.8787        -0.0655         0.2616          133.6       77.96293        79.6081         -0.004         0.4421        -6.3541      -1.850344       2566.053      0.9566581              1
      4773.5000         0.7878         0.8024         0.8171         0.8245        -0.1666         0.2703          135.1       78.14404        79.7507         -0.004         0.4532        -5.9599      -1.468175        2566.99      0.9605116              1
      4774.0000         0.7453         0.7592         0.7733         0.7804        -0.2475         0.2878          137.5       78.13318        79.7434         -0.004         0.4544        -6.5591      -2.079407       2567.925      0.9602804      0.9990433
      4774.5000         0.7051         0.7182         0.7316         0.7383        -0.4086         0.3091          140.4       77.93004         79.586         -0.004         0.4563        -6.3637      -1.896038       2548.837      0.9559582              1
      4775.0000         0.6635         0.6728         0.6855         0.6919        -0.4496         0.3236          143.2       78.87978        80.3287         -0.004         0.4674        -6.7647       -2.30907        2549.78      0.9761655      0.9962763
      4775.5000          0.642         0.6541         0.6664         0.6727        -0.4105         0.3248          144.5       80.21274        81.3706         -0.004          0.485        -7.1662      -2.722601       2550.816              1       0.991294
      4776.0000          0.627         0.6388         0.6509          0.657        -0.3916         0.3224          144.9         79.049        80.4632         -0.004         0.5089        -7.1696      -2.738032       2551.757       0.979766      0.9911081
      4776.5000         0.6755         0.6882         0.7275         0.7342        -0.3526         0.3279          144.3       75.77203        77.9059         -0.004          0.527        -7.1732      -2.753664       2552.698      0.9100431      0.9909197
      4777.0000          0.827         0.8421         0.9144         0.9232        -0.3535          0.372          143.8       70.34763         73.672         -0.008          0.556        -5.9809      -1.573395       2553.731      0.7946305              1
      4777.5000         0.9776         0.9965         1.0682         1.0781        -0.3546         0.4428          144.2       64.65118        69.2257         -0.019          0.601        -4.9865     -0.5910263       2554.669      0.6734293              1
      4778.0000         0.8571         0.8728         0.9634         0.9727        -0.3556         0.5032          145.6       63.85491        68.6052         -0.022         0.6479        -3.9912       0.392242         2555.7      0.6564875              1
      4778.5000         0.7302         0.7438         0.7646         0.7717        -0.3565         0.5015          146.8       67.76462        71.6589         -0.003         0.6257        -2.7952       1.576211       2556.636      0.7396727              1
      4779.0000         0.7004         0.7134         0.7267         0.7334        -0.3576         0.4367          147.1       71.67435        74.7126         -0.003         0.5921        -1.7978       2.561579       2557.572      0.8228585              1
      4779.5000         0.7165         0.7299         0.7434         0.7503        -0.3585         0.3738            146       75.51323         77.711         -0.003          0.564        -0.7994       3.547948         2558.6      0.9045368              1
      4780.0000         0.7297         0.7433         0.7571         0.7641        -0.3595         0.3103          144.5       77.42358        79.2037         -0.003         0.5359        -1.1997       3.135617       2559.533      0.9451826              1
      4780.5000         0.7432          0.757         0.7711         0.7782          -0.36         0.2977          143.1       79.14644          80.55         -0.003         0.5307           -1.8       2.523285           2560      0.9818391              1
      4781.0000         0.7535         0.7675         0.7818          0.789          -0.36         0.2983          142.6       81.25826           82.2         -0.003         0.5208           -2.2       2.111254           2560              1              1
      4781.5000          0.757         0.7711         0.7854         0.7927          -0.36         0.2988          142.2       83.75433          84.15         -0.003         0.5027           -2.4       1.899222           2560              1              1
      4782.0000         0.7675         0.7818         0.7963         0.8146          -0.36            0.3          141.5       86.82678          86.55         -0.003         0.4864           -2.4       1.887191           2560              1              1
      4782.5000         0.7927         0.8073          0.822         0.8485          -0.36            0.3          140.5       88.55437           87.9         -0.003         0.4911           -2.4        1.87516           2560              1              1
      4783.0000          0.822         0.8371         0.8524         0.8798          -0.34            0.3          139.3       85.47887           85.5         -0.002         0.4922             -2       2.263128           2560              1              1
      4783.5000         0.8524          0.868         0.8838          0.913          -0.32         0.2965          137.9       82.40337           83.1          0.001         0.4841           -2.2       2.051097           2560              1              1
      4784.0000         0.8838            0.9         0.9174         0.9487          -0.32          0.293          136.6       79.13574          80.55          0.003         0.4769             -2       2.239066           2560      0.9816115              1
      4784.5000         0.9174         0.9352         0.9532         0.9763           -0.3         0.2843          135.8        77.4051           79.2          0.008          0.459           -2.4       1.827034           2560      0.9447893              1
