#------------------------------------------------------------------------------
# Created by    : vladimir.rabinovich
# Created on    : 09/19/2023 17:20:52
#------------------------------------------------------------------------------
~Version Information Section
VERS.           2.0     :   CWLS log ASCII Standard - VERSION 2.0
WRAP.           NO      :   One line per depth step
~Well Information Section
#MNEM       .UNIT                                         VALUE :DESCRIPTION
#------------------------------------------------------------------------------
STRT        .FT                                            1558 :START DEPTH
STOP        .FT                                           11266 :STOP DEPTH
STEP        .FT                                             0.5 :STEP      
NULL        .                                           -999.25 :NULL      
COMP        .                               MEREDITH & CO ET AL :COMPANY   
WELL        .                                 GRINNELL TEXAS CO :WELL      
FLD         .                                           WILDCAT :FIELD     
LOC         .                                                   :LOCATION  
CNTY        .                                         JEFFERSON :LOCATION  
STAT        .                                             TEXAS :STATE     
CTRY        .                                     UNITED STATES :COUNTRY   
SRVC        .                                                   :SERVICE COMPANY
DATE        .                             9/13/2023 11:19:11 AM :LOG DATE  
API         .                                    42245015300000 :API NUMBER
UWI         .                                    42245015300000 :UNIQUE WELL ID
XCOORD      .                                  1358778.50439977 :SURFACE X 
YCOORD      .                                  10877447.4356243 :SURFACE Y 
LAT         .                                        29.9685419 :LATITUDE  
LON         .                                       -93.8897358 :LONGITUDE 
ELEV        .FT                                              14 :ELEVATION VALUE
ELEV_TYPE   .                                                DF :ELEVATION REFERENCE TYPE
~Curve Information Section
#MNEM       .UNIT                                      API CODE :CURVE DESCRIPTION
#------------------------------------------------------------------------------
DEPT        .FT                                                 :DEPTH     
ASN         .OHMM                                               :          
LN          .OHMM                                               :          
SP          .MV                                                 :          
SP_NORM     .MV                                                 :SP Normalized
VSH_SP      .V/V                                                :Volume of Shale from SP
~A        DEPTH            ASN             LN             SP        SP_NORM         VSH_SP
# ...
     11238.0000          0.426         0.3982       -21.2872      -1.534115       0.990109
     11238.5000         0.4203         0.3947       -20.8456      -1.092514      0.9982868
     11239.0000         0.4146         0.3911       -20.7068     -0.9537144              1
     11239.5000          0.409         0.3882       -20.6866     -0.9335136              1
     11240.0000         0.4033         0.3867       -20.6664     -0.9133148              1
     11240.5000         0.3976         0.3853       -20.6461      -0.893013              1
     11241.0000          0.392         0.3838       -20.6116     -0.8585148              1
     11241.5000         0.3865         0.3824       -20.5712     -0.8181133              1
     11242.0000          0.381         0.3809       -20.5308     -0.7777138              1
     11242.5000         0.3756         0.3794       -20.4905     -0.7374134              1
     11243.0000         0.3701          0.378       -20.4502      -0.697113              1
     11243.5000         0.3692         0.3765        -20.442     -0.6889133              1
     11244.0000         0.3764          0.375       -20.7179     -0.9648132              1
     11244.5000         0.3836         0.3736       -20.9938      -1.240713      0.9955423
     11245.0000         0.3908         0.3721       -21.2696      -1.516514      0.9904349
     11245.5000          0.398         0.3707       -21.5455      -1.792414      0.9853257
     11246.0000         0.4066         0.3692       -21.8202      -2.067114      0.9802386
     11246.5000         0.4153         0.3664        -22.073      -2.319914      0.9755571
     11247.0000         0.4228         0.3634       -22.3257      -2.572615      0.9708775
     11247.5000           0.42         0.3604        -22.577      -2.823914      0.9662238
     11248.0000         0.4172         0.3573       -22.5558      -2.802713      0.9666164
     11248.5000         0.4144         0.3543       -22.5347      -2.781614      0.9670072
     11249.0000         0.4115         0.3513       -22.5135      -2.760414      0.9673997
     11249.5000         0.4084         0.3483       -22.4193      -2.666214      0.9691442
     11250.0000         0.4053         0.3453       -22.0311      -2.278013      0.9763331
     11250.5000         0.4021         0.3423       -21.6435      -1.890413      0.9835109
     11251.0000          0.399         0.3393       -21.2553      -1.502214      0.9906997
     11251.5000         0.3958         0.3363       -20.8677      -1.114614      0.9978775
     11252.0000         0.3927         0.3335       -20.4795     -0.7264137              1
     11252.5000         0.3895         0.3309       -20.0919     -0.3388138              1
     11253.0000         0.3864         0.3284        -19.718     0.03508568              1
     11253.5000         0.3832         0.3258        -19.549      0.2040863              1
     11254.0000         0.3801         0.3233       -19.3802      0.3728867              1
     11254.5000          0.377         0.3207       -19.2112      0.5418854              1
     11255.0000          0.377         0.3181       -19.0424      0.7106857              1
     11255.5000          0.377         0.3156       -18.8736      0.8794861              1
     11256.0000          0.377         0.3208       -18.7046       1.048487              1
     11256.5000         0.3771         0.3301       -18.5746       1.178486              1
     11257.0000         0.3771         0.3393       -18.5449       1.208185              1
     11257.5000         0.3784         0.3486       -18.5151       1.237986              1
     11258.0000         0.3799         0.3579       -18.4854       1.267687              1
     11258.5000         0.3814         0.3672       -18.4557       1.297386              1
     11259.0000         0.3829         0.3764       -18.4604       1.292686              1
     11259.5000         0.3864         0.3858       -18.9273      0.8257866              1
     11260.0000         0.4038         0.3952       -19.3942      0.3588867              1
     11260.5000         0.4251         0.4047       -19.9261     -0.1730137              1
     11261.0000         0.4633         0.4141       -20.6959     -0.9428139              1
     11261.5000         0.5015         0.4235       -21.4645      -1.711414      0.9868256
     11262.0000          0.531         0.4329       -22.0746      -2.321514      0.9755275
     11262.5000         0.5439         0.4423       -22.4865      -2.733414      0.9678997
     11263.0000         0.5481         0.4517       -21.7872      -2.034115      0.9808497
     11263.5000         0.5464         0.4611       -21.0879      -1.334814      0.9937997
     11264.0000         0.5446         0.4632       -20.3897     -0.6366138              1
     11264.5000         0.5429         0.4614       -19.6905     0.06258583              1
     11265.0000         0.5411         0.4597       -18.9912      0.7618866              1
     11265.5000         0.5394          0.458        -18.293       1.460087              1
     11266.0000         0.5385         0.4563       -17.8278       1.925285              1
