#------------------------------------------------------------------------------
# Created by    : vladimir.rabinovich
# Created on    : 09/19/2023 17:22:46
#------------------------------------------------------------------------------
~Version Information Section
VERS.           2.0     :   CWLS log ASCII Standard - VERSION 2.0
WRAP.           NO      :   One line per depth step
~Well Information Section
#MNEM       .UNIT                                         VALUE :DESCRIPTION
#------------------------------------------------------------------------------
STRT        .FT                                             992 :START DEPTH
STOP        .FT                                            8489 :STOP DEPTH
STEP        .FT                                             0.5 :STEP      
NULL        .                                           -999.25 :NULL      
COMP        .                                       GAELIC CORP :COMPANY   
WELL        .                                     PHELAN MICKEY :WELL      
FLD         .                                           WILDCAT :FIELD     
LOC         .                                                   :LOCATION  
CNTY        .                                         JEFFERSON :LOCATION  
STAT        .                                             TEXAS :STATE     
CTRY        .                                     UNITED STATES :COUNTRY   
SRVC        .                                                   :SERVICE COMPANY
DATE        .                             9/13/2023 11:18:46 AM :LOG DATE  
API         .                                    42245313790000 :API NUMBER
UWI         .                                    42245313790000 :UNIQUE WELL ID
XCOORD      .                                  1260103.88271883 :SURFACE X 
YCOORD      .                                     10773431.3746 :SURFACE Y 
LAT         .                                         29.679995 :LATITUDE  
LON         .                                       -94.1979967 :LONGITUDE 
ELEV        .FT                                              19 :ELEVATION VALUE
ELEV_TYPE   .                                                KB :ELEVATION REFERENCE TYPE
~Curve Information Section
#MNEM       .UNIT                                      API CODE :CURVE DESCRIPTION
#------------------------------------------------------------------------------
DEPT        .FT                                                 :DEPTH     
DPSS        .V/V                                                :          
DRHO        .G/CM3                                              :          
DT          .US/FT                                              :          
GR_NORM     .GAPI                                               :GammaRay Normalized
GRN         .GAPI                                               :          
ILD         .OHMM                                               :          
NPSS        .V/V                                                :Neutron Porosity Sandstone
RHOB        .G/CM3                                              :          
SFL         .OHMM                                               :          
SP          .MV                                                 :          
SP_NORM     .MV                                                 :SP Normalized
TENN        .LB                                                 :          
VSH_GR      .V/V                                                :Volume of Shale from GR
VSH_SP      .V/V                                                :Volume of Shale from SP
~A        DEPTH           DPSS           DRHO             DT        GR_NORM            GRN            ILD           NPSS           RHOB            SFL             SP        SP_NORM           TENN         VSH_GR         VSH_SP
# ...
      6950.0000         0.3183        -0.0149            112       41.55395        46.9275         0.1803         0.3327          2.125         0.9684      -106.4032      -101.3393       2930.676      0.1819989              0
      6950.5000         0.3186        -0.0158       111.9971       38.43932        45.1442         0.1769         0.3404          2.125         0.9001      -106.7982      -101.7288       2930.967      0.1157303              0
      6951.0000         0.3165        -0.0168       111.8922       35.54895        43.4894         0.1737         0.3466         2.1279         0.8448      -107.7941      -102.7192       2931.419     0.05423298              0
      6951.5000         0.3132        -0.0173       111.6873       35.27362         43.333         0.1737         0.3529         2.1343         0.8526      -107.7899      -102.7095       2931.872     0.04837499              0
      6952.0000         0.3102        -0.0158       111.3824       36.82763        44.2248         0.1737         0.3526         2.1377         0.9007      -107.3869      -102.3011       2932.325     0.08143883              0
      6952.5000         0.3114        -0.0139       110.9771       38.37901        45.1151         0.1738         0.3488         2.1358          0.965       -106.186      -101.0947       2932.778       0.114447              0
      6953.0000         0.3144        -0.0104       110.8722       38.88379        45.4057         0.1738         0.3458         2.1314         0.8888      -104.7868         -99.69       2933.277      0.1251869    0.003131289
      6953.5000         0.3171        -0.0084       110.9673       38.08887        44.9516         0.1754         0.3613          2.127         0.7927      -103.1895      -98.08723       2933.731      0.1082738     0.01932094
      6954.0000         0.3183        -0.0059       110.9624       35.46431        43.4491         0.1788         0.3718         2.1255         0.7364      -102.7895      -97.68175       2934.186      0.0524322     0.02341669
      6954.5000         0.3153         -0.004       110.9571       32.06171        41.5008         0.1813         0.3736         2.1319         0.7364      -103.3855      -98.27227       2944.584              0     0.01745182
      6955.0000         0.3093         -0.004       111.4522       29.70487        40.1517         0.1839         0.3673         2.1407         0.7854      -104.7773      -99.65859       2945.044              0    0.003448563
      6955.5000         0.3033         -0.004       111.5473       29.95414        40.2959         0.1831         0.3566         2.1505         0.9358      -105.7697      -100.6455       2945.552              0              0
      6956.0000         0.3006         -0.004       111.5424       33.06627        42.0805         0.1805          0.344          2.153         1.0837      -106.7608      -101.6311       2946.013    0.001410058              0
      6956.5000         0.3009        -0.0064       111.2371       36.95573        44.3105         0.1781         0.3339         2.1525         1.2152      -107.1551        -102.02       2946.475     0.08416448              0
      6957.0000         0.3012        -0.0094       111.0322       38.76209        45.3469         0.1756           0.33         2.1525         1.2606      -107.7475      -102.6069       2946.937      0.1225976              0
      6957.5000         0.3015        -0.0124       110.8273       38.48605        45.1901         0.1748         0.3348          2.152         1.2211      -108.1409      -102.9948         2947.4      0.1167244              0
      6958.0000         0.3012        -0.0129       110.7224       36.13146        43.8423         0.1733         0.3378          2.152         1.1301       -108.335      -103.1834        2947.91     0.06662685              0
      6958.5000         0.3009        -0.0094       110.7171        34.5596         42.943         0.1725         0.3333          2.153         0.9677       -108.926      -103.7689       2948.373     0.03318308              0
      6959.0000         0.3018        -0.0064       110.7122       34.28669         42.788         0.1725         0.3234          2.149         0.7711      -109.5165       -104.354       2948.837     0.02737638              0
      6959.5000         0.3039        -0.0069       110.7073       34.53267        42.9303         0.1725         0.3219         2.1441         0.6334      -110.3045      -105.1365       2949.302      0.0326099              0
      6960.0000         0.3075        -0.0094       110.4024       33.74057        42.4778          0.175         0.3246         2.1392         0.5162      -110.6957      -105.5222       2949.767     0.01575673              0
      6960.5000         0.3045        -0.0109       109.8981       32.94883        42.0255         0.1782         0.3279         2.1446         0.4862      -109.5019      -104.3229           2950              0              0
      6961.0000         0.2952        -0.0069        108.903       32.93387        42.0183         0.1799         0.3327         2.1629         0.4773      -106.9206      -101.7361           2950              0              0
      6961.5000         0.2857        -0.0025        107.908        34.4739        42.9021         0.1734         0.3402         2.1787         0.4289       -103.742      -98.55206           2950     0.03135965      0.0146257
      6962.0000         0.2831         -0.001       107.5071        35.7548        43.6374         0.1656         0.3483         2.1762         0.3804      -101.3537      -96.15828           2950     0.05861266     0.03880526
      6962.5000         0.2911        -0.0015       107.6013       34.44244        42.8868         0.1625         0.3564         2.1599         0.3718      -101.7407       -96.5398           2950     0.03069029     0.03495149
      6963.0000         0.2997         -0.003       108.2895       34.16833        42.7311         0.1625         0.3588         2.1471            0.4      -102.9233      -97.71693           2950     0.02485803     0.02306135
      6963.5000         0.3054         -0.005       109.1757       34.15321        42.7238         0.1718         0.3588         2.1471         0.4094      -103.7097      -98.49785           2950     0.02453638     0.01517325
      6964.0000          0.303         -0.005       109.4674       35.69325        43.6076         0.1866         0.3594         2.1495         0.3684      -100.3229      -95.10556           2950     0.05730325     0.04943879
      6964.5000         0.2923         0.0005       109.3635        42.4588        47.4856         0.2019         0.3645         2.1688         0.3302       -90.9532      -85.73038           2950       0.201251      0.1441375
      6965.0000         0.2756         0.0069       108.4675       51.34428        52.5783         0.2114         0.3698         2.1931         0.3585       -83.1848       -77.9565           2950      0.3903038      0.2226616
      6965.5000         0.2619         0.0129       107.7696       61.27689         58.271          0.235          0.371         2.2168         0.4751       -78.8119      -73.57813           2950      0.6016359      0.2668876
      6966.0000         0.2523         0.0144       107.6657       63.35601        59.4637         0.2565         0.3648         2.2361          0.625       -76.6337      -71.39445           2950      0.6458727       0.288945
      6966.5000         0.2496         0.0163       107.8589       57.58028        56.1556         0.3041         0.3546         2.2376          0.733       -75.8416      -70.59687           2950      0.5229847      0.2970013
      6967.0000         0.2508         0.0178       108.3486       54.68555        54.4983          0.352         0.3444         2.2376          0.611       -75.2475      -69.99728           2950      0.4613947      0.3030577
      6967.5000         0.2508         0.0198       109.1358        55.4558         54.941         0.3718         0.3399         2.2366         0.5629       -75.2475      -69.99181           2950       0.477783      0.3031131
