#------------------------------------------------------------------------------
# Created by    : vladimir.rabinovich
# Created on    : 09/19/2023 17:22:46
#------------------------------------------------------------------------------
~Version Information Section
VERS.           2.0     :   CWLS log ASCII Standard - VERSION 2.0
WRAP.           NO      :   One line per depth step
~Well Information Section
#MNEM       .UNIT                                         VALUE :DESCRIPTION
#------------------------------------------------------------------------------
STRT        .FT                                             992 :START DEPTH
STOP        .FT                                            8489 :STOP DEPTH
STEP        .FT                                             0.5 :STEP      
NULL        .                                           -999.25 :NULL      
COMP        .                                       GAELIC CORP :COMPANY   
WELL        .                                     PHELAN MICKEY :WELL      
FLD         .                                           WILDCAT :FIELD     
LOC         .                                                   :LOCATION  
CNTY        .                                         JEFFERSON :LOCATION  
STAT        .                                             TEXAS :STATE     
CTRY        .                                     UNITED STATES :COUNTRY   
SRVC        .                                                   :SERVICE COMPANY
DATE        .                             9/13/2023 11:18:46 AM :LOG DATE  
API         .                                    42245313790000 :API NUMBER
UWI         .                                    42245313790000 :UNIQUE WELL ID
XCOORD      .                                  1260103.88271883 :SURFACE X 
YCOORD      .                                     10773431.3746 :SURFACE Y 
LAT         .                                         29.679995 :LATITUDE  
LON         .                                       -94.1979967 :LONGITUDE 
ELEV        .FT                                              19 :ELEVATION VALUE
ELEV_TYPE   .                                                KB :ELEVATION REFERENCE TYPE
~Curve Information Section
#MNEM       .UNIT                                      API CODE :CURVE DESCRIPTION
#------------------------------------------------------------------------------
DEPT        .FT                                                 :DEPTH     
DPSS        .V/V                                                :          
DRHO        .G/CM3                                              :          
DT          .US/FT                                              :          
GR_NORM     .GAPI                                               :GammaRay Normalized
GRN         .GAPI                                               :          
ILD         .OHMM                                               :          
NPSS        .V/V                                                :Neutron Porosity Sandstone
RHOB        .G/CM3                                              :          
SFL         .OHMM                                               :          
SP          .MV                                                 :          
SP_NORM     .MV                                                 :SP Normalized
TENN        .LB                                                 :          
VSH_GR      .V/V                                                :Volume of Shale from GR
VSH_SP      .V/V                                                :Volume of Shale from SP
~A        DEPTH           DPSS           DRHO             DT        GR_NORM            GRN            ILD           NPSS           RHOB            SFL             SP        SP_NORM           TENN         VSH_GR         VSH_SP
# ...
      4934.0000         0.3601         0.0439        117.549       67.40372        66.8632         0.2143         0.3842         2.0469         0.8879       -84.0791      -76.19862        2182.47      0.7319942      0.1047784
      4934.5000         0.3779          0.033       119.4118       65.50448        65.0779         0.2009         0.4093         2.0214          0.822       -74.2776      -66.39353       2181.494      0.6915846      0.2215056
      4935.0000         0.3827          0.025       121.1111       65.04139        64.6426         0.1973         0.4266         2.0174          0.687       -64.5564      -56.66874        2190.42      0.6817317      0.3372769
      4935.5000         0.3752         0.0121       122.1212       66.97352        66.4588         0.2047         0.4395         2.0296         0.5166       -52.6733      -44.78206       2199.444      0.7228408       0.478785
      4936.0000         0.3537         0.0047       122.5253       69.54234        68.8735         0.2224          0.455         2.0779            0.4        -40.396      -32.50117       2198.469      0.7774966       0.624986
      4936.5000         0.3159         0.0136       122.5253        71.9516        71.1382         0.2541         0.4591         2.1517         0.3731       -26.4292      -18.53079       2207.492      0.8287574      0.7913001
      4937.0000         0.2752         0.0205       122.4242       72.92468        72.0529         0.3056         0.4529         2.1997         0.4628       -20.1283      -12.22631       2216.418      0.8494613      0.8663535
      4937.5000          0.259         0.0219       122.8283       73.25947        72.3676         0.3748         0.4445         2.2254         0.5726       -18.1175      -10.21192       2215.442      0.8565844      0.8903343
      4938.0000         0.2488         0.0234       123.7374       74.71288        73.7338         0.4799         0.4465         2.2409         0.7097       -15.9117      -8.002535       2224.466       0.887508      0.9166365
      4938.5000         0.2377         0.0308       124.6465       76.16363        75.0975         0.5673         0.4694         2.2555          0.764       -13.3128       -5.40005        2233.49      0.9183751      0.9476185
      4939.0000         0.2328         0.0382       125.3535       77.91692        76.7456         0.6056         0.4912         2.2649         0.7296       -11.1161      -3.199764       2242.415      0.9556791      0.9738123
      4939.5000         0.2322         0.0446       125.2525       79.19627        77.9482         0.6376         0.5204         2.2669         0.6743        -9.7171      -1.797179       2231.441      0.9828994      0.9905097
      4940.0000         0.2322         0.0456       125.2525       79.37128        78.1127         0.6681         0.5204         2.2663         0.6258        -9.1132      -1.189693       2230.465       0.986623      0.9977418
      4940.5000         0.2295           0.05       125.0505         78.755        77.5334         0.6838         0.5118         2.2713         0.6435        -8.5192     -0.5921082       2239.672      0.9735107              1
      4941.0000         0.2295         0.0534       124.6465       78.13873        76.9541         0.7065         0.5189         2.2698         0.6618        -7.7344      0.1962776       2229.056      0.9603984              1
      4941.5000         0.2345         0.0504       123.9394       77.52256        76.3749         0.7229         0.5325         2.2623         0.6435         -7.345       0.589263        2218.45      0.9472885              1
      4942.0000         0.2357         0.0455       122.8283       74.36181        73.4038         0.7263         0.5382         2.2603         0.6142        -8.1471     -0.2092524       2207.854      0.8800385              1
      4942.5000         0.2243         0.0435       120.5051       68.79266        68.1688         0.7196         0.5128         2.2791         0.6743        -9.7473      -1.805867        2197.27       0.761546      0.9904063
      4943.0000         0.2099         0.0479       117.3529       64.97894        64.5839          0.713         0.4811         2.3009          0.789       -11.1507      -3.205681       2196.667      0.6804031      0.9737419
      4943.5000         0.2015         0.0642       114.8039       62.12255        61.8989         0.7097         0.4298         2.3182         1.0582       -12.5568      -4.608196       2196.066      0.6196288      0.9570453
      4944.0000          0.212         0.0801       114.3137       61.34075         61.164         0.7032         0.4121         2.3216         1.2257       -13.9658      -6.013611       2215.388      0.6029946      0.9403142
      4944.5000         0.2299         0.0811       114.1176        61.3566        61.1789         0.6967         0.4405         2.2666          1.002       -15.3775      -7.421725       2204.821      0.6033319      0.9235509
      4945.0000         0.2484         0.0577       114.0196        61.6917        61.4939         0.6838         0.4634         2.2464         0.7746       -17.7914      -9.832041       2204.276      0.6104618      0.8948566
      4945.5000         0.2493         0.0408       113.7255       61.70766        61.5089         0.6466         0.4464         2.2396         0.7746       -20.8178      -12.85485       2203.672      0.6108013      0.8588708
      4946.0000         0.2421         0.0334       112.7451       62.04277        61.8239         0.6085         0.3873         2.2483         1.0258        -24.468      -16.50147       2203.068      0.6179312      0.8154587
      4946.5000         0.2435         0.0284       111.6667       63.65436        63.3388         0.5757         0.3589         2.2482         1.0545       -27.3048      -19.33468       2212.402      0.6522205        0.78173
      4947.0000         0.2567         0.0224        112.451        66.2233        65.7536         0.5575         0.3589         2.2327         0.9706       -27.1163       -19.1426       2221.727      0.7068788      0.7840167
      4947.5000         0.2606         0.0244       115.7843       68.79224        68.1684         0.5449         0.3803         2.2196         0.9086       -24.1126      -16.13531       2231.043      0.7615371      0.8198177
      4948.0000         0.2584         0.0362       118.7255       70.72288        69.9832         0.5375         0.4033         2.2234         0.8798       -18.5019      -10.52103       2230.427      0.8026144      0.8866544
      4948.5000         0.2467         0.0531       121.9192       72.49394         71.648         0.5376         0.4462         2.2394         0.8371       -13.2869      -5.302442       2239.729      0.8402966      0.9487805
      4949.0000         0.2437          0.061       125.6566       74.42458        73.4628         0.5376          0.466         2.2471         0.7605        -9.6731      -1.685057       2219.283      0.8813739      0.9918445
      4949.5000         0.2478         0.0595       128.8889       77.14214        76.0173         0.5377         0.4854         2.2413         0.6775        -7.2622      0.7294288       2198.858      0.9391944              1
      4950.0000         0.2535          0.055        129.798         80.635        79.3006         0.5378         0.5014         2.2321         0.6085        -6.4618       1.533414       2198.259              1              1
      4950.5000         0.2601         0.0495            130       81.74926         80.348         0.5378         0.5115         2.2223         0.5946        -5.6582         2.3406       2207.409              1              1
      4951.0000         0.2637         0.0391       129.1932       81.27766        79.9047         0.5329         0.5118         2.2146            0.6        -5.0544       2.947984       2206.555              1              1
      4951.5000         0.2634         0.0337        129.194       78.90734        77.6766         0.5257         0.5118         2.2141            0.6        -4.8546        3.15137       2225.527      0.9767519              1
