#------------------------------------------------------------------------------
# Created by    : vladimir.rabinovich
# Created on    : 09/19/2023 17:20:52
#------------------------------------------------------------------------------
~Version Information Section
VERS.           2.0     :   CWLS log ASCII Standard - VERSION 2.0
WRAP.           NO      :   One line per depth step
~Well Information Section
#MNEM       .UNIT                                         VALUE :DESCRIPTION
#------------------------------------------------------------------------------
STRT        .FT                                            1017 :START DEPTH
STOP        .FT                                            8855 :STOP DEPTH
STEP        .FT                                             0.5 :STEP      
NULL        .                                           -999.25 :NULL      
COMP        .                               MEREDITH & CO ET AL :COMPANY   
WELL        .                               BROUSSARD J JR ETAL :WELL      
FLD         .                                           WILDCAT :FIELD     
LOC         .                                                   :LOCATION  
CNTY        .                                         JEFFERSON :LOCATION  
STAT        .                                             TEXAS :STATE     
CTRY        .                                     UNITED STATES :COUNTRY   
SRVC        .                                                   :SERVICE COMPANY
DATE        .                             9/13/2023 11:19:11 AM :LOG DATE  
API         .                                    42245021880000 :API NUMBER
UWI         .                                    42245021880000 :UNIQUE WELL ID
XCOORD      .                                  1215343.11980964 :SURFACE X 
YCOORD      .                                  10882366.7587642 :SURFACE Y 
LAT         .                                        29.9782309 :LATITUDE  
LON         .                                       -94.3429645 :LONGITUDE 
ELEV        .FT                                              36 :ELEVATION VALUE
ELEV_TYPE   .                                                DF :ELEVATION REFERENCE TYPE
~Curve Information Section
#MNEM       .UNIT                                      API CODE :CURVE DESCRIPTION
#------------------------------------------------------------------------------
DEPT        .FT                                                 :DEPTH     
ASN         .OHMM                                               :          
LAT         .OHMM                                               :          
LN          .OHMM                                               :          
SP          .MV                                                 :          
SP_NORM     .MV                                                 :SP Normalized
VSH_SP      .V/V                                                :Volume of Shale from SP
~A        DEPTH            ASN            LAT             LN             SP        SP_NORM         VSH_SP
# ...
      5159.0000          0.687          0.393         0.3284      -116.5217      -74.54639      0.2005828
      5159.5000         0.6348         0.3487         0.3433      -119.7101      -77.73479      0.1659262
      5160.0000         0.5941         0.2901         0.3582      -122.9851       -81.0098      0.1303283
      5160.5000         0.5559         0.2174         0.3731      -125.3731       -83.3978      0.1043718
      5161.0000         0.5441         0.1884         0.3731      -126.2687       -84.2934       0.094637
      5161.5000         0.5265         0.1739         0.3582      -126.2687       -84.2934       0.094637
      5162.0000         0.5118         0.1884         0.3582      -125.6716      -83.69629      0.1011273
      5162.5000         0.4971         0.2319         0.3433      -122.6866      -80.71129       0.133573
      5163.0000         0.4794         0.2754         0.3433      -117.9882      -76.01289      0.1846425
      5163.5000         0.4706         0.2899         0.3284      -115.9809       -74.0056      0.2064609
      5164.0000         0.4676         0.3043         0.3284      -115.9876       -74.0123      0.2063881
      5164.5000         0.4706         0.2899         0.3433      -118.8549      -76.87959      0.1752218
      5165.0000         0.4735         0.2899         0.3433      -125.0746      -83.09929      0.1076164
      5165.5000         0.4794         0.2899         0.3433      -126.8657       -84.8904     0.08814787
      5166.0000         0.4824         0.2754         0.3433      -128.6567      -86.68138     0.06868064
      5166.5000         0.4853         0.2754         0.3433      -130.4478      -88.47249     0.04921208
      5167.0000         0.4882         0.2319         0.3433      -131.6418      -89.66649     0.03623382
      5167.5000         0.4882         0.2174         0.3433      -132.2388      -90.26349     0.02974469
      5168.0000         0.4882         0.2174         0.3433      -131.9403        -89.965     0.03298917
      5168.5000         0.4853         0.2319         0.3284      -131.0448      -89.06949     0.04272295
      5169.0000         0.4912         0.2319         0.3284      -129.5522      -87.57689     0.05894686
      5169.5000         0.4971         0.2464         0.3284      -128.3582      -86.38289     0.07192512
      5170.0000         0.4941         0.2754         0.3134      -126.5672      -84.59189     0.09139252
      5170.5000         0.4853         0.3478         0.3134      -124.1791       -82.2038        0.11735
      5171.0000         0.4676         0.3478         0.3134      -123.2836      -81.30829      0.1270838
      5171.5000         0.4618         0.3188         0.3134      -121.4925       -79.5172      0.1465522
      5172.0000           0.45         0.2899         0.3134       -121.194      -79.21869      0.1497969
      5172.5000         0.4471         0.2899         0.3134       -121.194      -79.21869      0.1497969
      5173.0000         0.4441         0.2899         0.2985       -121.791      -79.81569      0.1433077
      5173.5000         0.4529         0.3043         0.2985       -121.791      -79.81569      0.1433077
      5174.0000         0.4529         0.3188         0.3134      -120.2985       -78.3232      0.1595305
      5174.5000         0.4529         0.3188         0.3134      -117.4648      -75.48949      0.1903317
      5175.0000         0.4529         0.3188         0.3134      -118.5915       -76.6162      0.1780848
      5175.5000           0.45         0.3188         0.3134       -121.791      -79.81569      0.1433077
      5176.0000         0.4441         0.3188         0.3134      -123.5821       -81.6068      0.1238392
      5176.5000         0.4441         0.3043         0.3134      -124.4776      -82.50229      0.1141056
      5177.0000         0.4618         0.2609         0.3134      -124.7761       -82.8008      0.1108609
      5177.5000            0.5         0.2174         0.3134      -125.6716      -83.69629      0.1011273
      5178.0000         0.5265         0.1739         0.3284      -127.1642      -85.18889     0.08490338
      5178.5000         0.5706         0.1739         0.3284      -129.5522      -87.57689     0.05894686
      5179.0000         0.5941         0.2174         0.3134      -131.6418      -89.66649     0.03623382
      5179.5000         0.5941         0.2464         0.3134      -133.1343      -91.15898     0.02001107
      5180.0000         0.5912         0.2609         0.3134      -133.4328      -91.45749     0.01676642
      5180.5000         0.5853         0.2464         0.3134      -133.1343      -91.15898     0.02001107
      5181.0000         0.5853         0.2464         0.3284      -132.5373      -90.56198      0.0265002
      5181.5000         0.5647         0.2319         0.3284      -132.5373      -90.56198      0.0265002
      5182.0000         0.5412         0.2464         0.3134      -132.5373      -90.56198      0.0265002
      5182.5000         0.5176         0.2319         0.3134      -132.2388      -90.26349     0.02974469
      5183.0000         0.5059         0.1884         0.2985      -132.5373      -90.56198      0.0265002
      5183.5000         0.4912         0.1594         0.2985      -132.5373      -90.56198      0.0265002
      5184.0000         0.4853         0.1449         0.2985      -132.5373      -90.56198      0.0265002
      5184.5000         0.4794         0.1594         0.2985      -132.5373      -90.56198      0.0265002
      5185.0000         0.4794         0.1594         0.3134      -132.5373      -90.56198      0.0265002
      5185.5000         0.4765         0.1594         0.3134      -132.2388      -90.26349     0.02974469
      5186.0000         0.4765         0.1304         0.3134      -131.9403        -89.965     0.03298917
      5186.5000         0.4794         0.1304         0.3134      -131.3433        -89.368      0.0394783
      5187.0000         0.4824         0.1304         0.3134      -131.0448      -89.06949     0.04272295
      5187.5000         0.4971         0.1159         0.3134      -131.0448      -89.06949     0.04272295
      5188.0000         0.5235         0.1304         0.3134      -131.3433        -89.368      0.0394783
      5188.5000         0.5412         0.1594         0.3134      -131.3433        -89.368      0.0394783
      5189.0000         0.5588         0.2029         0.3134      -131.9403        -89.965     0.03298917
      5189.5000         0.5765         0.2319         0.3134      -132.2388      -90.26349     0.02974469
      5190.0000         0.5618         0.2319         0.3135      -132.2379      -90.26259     0.02975447
      5190.5000         0.5471         0.2029         0.3131      -131.9441       -89.9688     0.03294787
      5191.0000         0.5559         0.1884         0.3126      -130.7587      -88.78339     0.04583276
      5191.5000         0.5706         0.1884         0.3122      -130.1682      -88.19289     0.05225123
      5192.0000         0.5824         0.2029         0.3117      -129.5814      -87.60609     0.05862941
      5192.5000         0.6058         0.2174         0.3113      -131.3727      -89.39738     0.03915886
      5193.0000         0.6377         0.2319         0.3108      -132.2721      -90.29678     0.02938279
      5193.5000         0.6087         0.2319         0.3103      -132.8708      -90.89549     0.02287508
      5194.0000         0.5794         0.2174         0.3099      -133.1739      -91.19859     0.01958051
      5194.5000         0.5471         0.2174         0.3094      -133.4745      -91.49919     0.01631314
      5195.0000         0.5206         0.2174          0.309      -133.1838       -91.2085     0.01947287
      5195.5000         0.5088         0.2174         0.2938      -132.2992      -90.32388     0.02908823
      5196.0000         0.5029         0.2174         0.2933      -130.5304      -88.55508      0.0483143
      5196.5000         0.5147         0.2174          0.293      -128.7646      -86.78929      0.0675077
