#------------------------------------------------------------------------------
# Created by    : vladimir.rabinovich
# Created on    : 09/19/2023 17:19:40
#------------------------------------------------------------------------------
~Version Information Section
VERS.           2.0     :   CWLS log ASCII Standard - VERSION 2.0
WRAP.           NO      :   One line per depth step
~Well Information Section
#MNEM       .UNIT                                         VALUE :DESCRIPTION
#------------------------------------------------------------------------------
STRT        .FT                                            1208 :START DEPTH
STOP        .FT                                            8860 :STOP DEPTH
STEP        .FT                                             0.5 :STEP      
NULL        .                                           -999.25 :NULL      
COMP        .                             WEAVER EXPLORATION CO :COMPANY   
WELL        .                                       BEAVERS W H :WELL      
FLD         .                                           WILDCAT :FIELD     
LOC         .                                                   :LOCATION  
CNTY        .                                         JEFFERSON :LOCATION  
STAT        .                                             TEXAS :STATE     
CTRY        .                                     UNITED STATES :COUNTRY   
SRVC        .                                                   :SERVICE COMPANY
DATE        .                             9/13/2023 11:18:46 AM :LOG DATE  
API         .                                    42245314920000 :API NUMBER
UWI         .                                    42245314920000 :UNIQUE WELL ID
XCOORD      .                                  1212655.17721247 :SURFACE X 
YCOORD      .                                  10886677.7304034 :SURFACE Y 
LAT         .                                        29.9899994 :LATITUDE  
LON         .                                       -94.3516153 :LONGITUDE 
ELEV        .FT                                            37.2 :ELEVATION VALUE
ELEV_TYPE   .                                                KB :ELEVATION REFERENCE TYPE
~Curve Information Section
#MNEM       .UNIT                                      API CODE :CURVE DESCRIPTION
#------------------------------------------------------------------------------
DEPT        .FT                                                 :DEPTH     
ALL         .OHMM                                               :          
CILD        .MMHO/M                                             :          
ILD         .OHMM                                               :          
SP          .MV                                                 :          
SP_NORM     .MV                                                 :SP Normalized
VSH_SP      .V/V                                                :Volume of Shale from SP
~A        DEPTH            ALL           CILD            ILD             SP        SP_NORM         VSH_SP
# ...
      3222.0000         1.3284       919.4577         1.0725       151.9567      -2.663391      0.9740095
      3222.5000         1.3345       887.2475         1.1334        152.976      -1.649918       0.989845
      3223.0000         1.3546       859.0162         1.1942       153.9952     -0.6365356              1
      3223.5000         1.4007       826.7452         1.1946       155.8269       1.189346              1
      3224.0000         1.4351       798.4468         1.2051       157.0481       2.404709              1
      3224.5000         1.4514       765.9332         1.2356       158.2692       3.619995              1
      3225.0000         1.4676       733.4196         1.3869       158.0769       3.421875              1
      3225.5000           1.49       717.0593         1.3772        156.875       2.214157              1
      3226.0000         1.5062       724.9288         1.3574       156.0769       1.410233              1
      3226.5000         1.5225       752.9899         1.3276       155.6827       1.010193              1
      3227.0000          1.559       777.0127         1.2878       155.0865      0.4081879              1
      3227.5000          1.551       801.0355         1.2481       154.2885     -0.3956451              1
      3228.0000         1.5309       825.0121         1.2084       153.6923     -0.9976654              1
      3228.5000         1.5067       849.0175         1.2088       153.2981       -1.39769      0.9937861
      3229.0000         1.4543         861.03         1.1991       152.7067      -1.994919      0.9844544
      3229.5000         1.4019       889.1112         1.1995       152.5144      -2.193039      0.9813588
      3230.0000          1.352       892.9469           1.21       150.5048       -4.20845       0.949868
      3230.5000          1.352       892.9011         1.2201       148.0866      -6.632492      0.9119923
      3231.0000          1.878       868.6332         1.2302       147.8944      -6.830521      0.9088981
      3231.5000           1.95       832.2749         1.2403       147.2983      -7.432434      0.8994932
      3232.0000           1.96       808.0649         1.2504       147.1061      -7.630463       0.896399
      3232.5000           1.97       791.9192         1.2606        145.909      -8.833374      0.8776035
      3233.0000         1.7686       795.9596         1.2708       144.7022      -10.04601      0.8586562
      3233.5000         1.7647            800         1.2408       142.2886      -12.46542      0.8208528
      3234.0000         1.7627       824.1469         1.1908       139.8762      -14.88364      0.7830682
      3234.5000         1.7588       860.3363         1.1406       136.6873      -18.07837      0.7331505
      3235.0000         1.7569       896.4885         1.1105       134.8977      -19.87379       0.705097
      3235.5000         1.7431       928.5858         1.1005       134.9072      -19.87012      0.7051544
      3236.0000         1.7373       964.6662         1.0905       136.5159      -18.26724      0.7301993
      3236.5000         1.6706       984.6548         1.0604       140.3318      -14.45717      0.7897317
      3237.0000         1.6118       980.5526         1.0302       142.7649      -12.02989      0.8276579
      3237.5000         1.5818       960.4147         1.0101          145.4       -9.40062      0.8687403
      3238.0000         1.5232       944.3041         1.0101       149.0498      -5.756638      0.9256775
      3238.5000         1.4747       924.2026         1.0303       151.0792      -3.733063      0.9572959
      3239.0000          1.404       904.1204         1.0504       151.6948      -3.123291      0.9668236
      3239.5000          1.402       884.0572         1.0707       151.9065      -2.917419      0.9700403
      3240.0000          1.398       884.0597          1.101       152.5241      -2.305634      0.9795995
      3240.5000         1.3961       879.9081         1.1216       152.9316      -1.903961      0.9858756
      3241.0000         1.3942       875.7527         1.1422       153.1369      -1.704468      0.9889927
      3241.5000         1.3943       871.5147         1.1628       153.1402      -1.707001      0.9889531
      3242.0000         1.3944       867.3504         1.1632       153.1435      -1.709534      0.9889135
      3242.5000         1.3925       867.1911         1.1636       153.1485      -1.710342      0.9889009
      3243.0000         1.3946       863.0209          1.164       152.9504      -1.914276      0.9857144
      3243.5000         1.3987       858.8468         1.1644       152.9538      -1.916702      0.9856765
      3244.0000         1.4068       854.6689          1.165        152.756      -2.120316      0.9824951
      3244.5000         1.4149       854.5032         1.1654       152.5584      -2.323746      0.9793165
      3245.0000         1.4452       854.3374         1.1457         152.16      -2.727966      0.9730005
      3245.5000         1.4614       854.1715         1.0959        151.762       -3.13179      0.9666908
      3246.0000         1.4654       874.1151         1.0461       150.5612      -4.338409      0.9478374
      3246.5000         1.4655        954.443         0.9964       149.9637      -4.941742      0.9384103
      3247.0000         1.4856       982.5103         0.9469       145.5561      -9.355148      0.8694508
      3247.5000         1.5358       1014.635         0.9074       143.1537      -11.76338      0.8318222
      3248.0000          1.578       1119.358         0.8579       131.2896       -23.6333      0.6463547
      3248.5000         1.6079       1195.967         0.8084       130.4884      -24.44032       0.633745
      3249.0000         1.6534       1351.193         0.7589       130.0899      -24.84465      0.6274273
      3249.5000         1.6534       1432.791         0.7294        129.893      -25.04736      0.6242599
      3250.0000          1.584       1432.636           0.75       134.3425       -20.6037      0.6936922
      3250.5000         1.3899       1404.153           0.78       144.8017      -10.15033      0.8570261
      3251.0000         1.3879       1351.222           0.81        149.409      -5.548843      0.9289243
      3251.5000         1.3798        1273.95           0.81       149.2132      -5.750473      0.9257739
      3252.0000         1.3758       1265.956           0.81       148.8168      -6.152695      0.9194891
      3252.5000          1.398       1253.896           0.81       148.0192      -6.956116      0.9069357
      3253.0000          1.398       1245.919           0.81       147.6219      -7.359238      0.9006369
      3253.5000         1.3738       1237.948           0.81       147.6255      -7.361465      0.9006021
      3254.0000         1.3597        1238.12           0.81       147.6291      -7.363678      0.9005675
      3254.5000         1.3296       1238.377           0.81        148.436      -6.562607      0.9130843
      3255.0000         1.2975       1238.548           0.81       150.8535      -4.150925      0.9507668
      3255.5000         1.2955       1238.719           0.82       152.4669       -2.54335      0.9758852
      3256.0000         1.2956       1271.359           0.82       153.2774      -1.738678      0.9884582
      3256.5000         1.2956       1295.855           0.82       153.2837       -1.73819      0.9884658
      3257.0000         1.2957       1316.271           0.82         153.29      -1.737732      0.9884729
      3257.5000         1.2957       1328.563           0.82       152.8966      -2.136948      0.9822352
      3258.0000         1.2898       1328.692           0.82        152.298      -2.741364      0.9727912
      3258.5000         1.2678       1332.869           0.82       151.2955      -3.749695       0.957036
      3259.0000         1.2458       1333.059           0.82        150.292      -4.759018      0.9412653
      3259.5000         1.2539       1333.186           0.82       149.0856      -5.971237      0.9223244
