#------------------------------------------------------------------------------
# Created by    : vladimir.rabinovich
# Created on    : 09/19/2023 17:22:46
#------------------------------------------------------------------------------
~Version Information Section
VERS.           2.0     :   CWLS log ASCII Standard - VERSION 2.0
WRAP.           NO      :   One line per depth step
~Well Information Section
#MNEM       .UNIT                                         VALUE :DESCRIPTION
#------------------------------------------------------------------------------
STRT        .FT                                             992 :START DEPTH
STOP        .FT                                            8489 :STOP DEPTH
STEP        .FT                                             0.5 :STEP      
NULL        .                                           -999.25 :NULL      
COMP        .                                       GAELIC CORP :COMPANY   
WELL        .                                     PHELAN MICKEY :WELL      
FLD         .                                           WILDCAT :FIELD     
LOC         .                                                   :LOCATION  
CNTY        .                                         JEFFERSON :LOCATION  
STAT        .                                             TEXAS :STATE     
CTRY        .                                     UNITED STATES :COUNTRY   
SRVC        .                                                   :SERVICE COMPANY
DATE        .                             9/13/2023 11:18:46 AM :LOG DATE  
API         .                                    42245313790000 :API NUMBER
UWI         .                                    42245313790000 :UNIQUE WELL ID
XCOORD      .                                  1260103.88271883 :SURFACE X 
YCOORD      .                                     10773431.3746 :SURFACE Y 
LAT         .                                         29.679995 :LATITUDE  
LON         .                                       -94.1979967 :LONGITUDE 
ELEV        .FT                                              19 :ELEVATION VALUE
ELEV_TYPE   .                                                KB :ELEVATION REFERENCE TYPE
~Curve Information Section
#MNEM       .UNIT                                      API CODE :CURVE DESCRIPTION
#------------------------------------------------------------------------------
DEPT        .FT                                                 :DEPTH     
DPSS        .V/V                                                :          
DRHO        .G/CM3                                              :          
DT          .US/FT                                              :          
GR_NORM     .GAPI                                               :GammaRay Normalized
GRN         .GAPI                                               :          
ILD         .OHMM                                               :          
NPSS        .V/V                                                :Neutron Porosity Sandstone
RHOB        .G/CM3                                              :          
SFL         .OHMM                                               :          
SP          .MV                                                 :          
SP_NORM     .MV                                                 :SP Normalized
TENN        .LB                                                 :          
VSH_GR      .V/V                                                :Volume of Shale from GR
VSH_SP      .V/V                                                :Volume of Shale from SP
~A        DEPTH           DPSS           DRHO             DT        GR_NORM            GRN            ILD           NPSS           RHOB            SFL             SP        SP_NORM           TENN         VSH_GR         VSH_SP
# ...
      5186.0000         0.2916         0.0287          121.6       79.04936        77.8101         0.2541         0.4543         2.1691         0.4493       -43.5946       -33.9071       2297.802      0.9797736      0.6082488
      5186.5000         0.3024         0.0228          121.1       82.59171        81.1399         0.2749         0.4555         2.1517         0.4817        -42.228      -32.53691       2306.813              1      0.6245606
      5187.0000         0.3001         0.0198          122.2       80.18404        78.8767         0.2945         0.4462         2.1526         0.5092       -41.4573      -31.76262       2315.805              1      0.6337783
      5187.5000          0.293         0.0223          123.6       74.43703        73.4745         0.3028         0.4337         2.1625         0.5578       -41.2788      -31.58054       2324.781      0.8816389      0.6359459
      5188.0000         0.2991         0.0223          124.9       69.38873        68.7291         0.3069         0.4263         2.1571         0.6138       -41.4964      -31.79456       2323.909      0.7742283      0.6333982
      5188.5000         0.3094         0.0208          125.8       66.86926        66.3608         0.3126          0.434         2.1448          0.625       -40.7238      -31.01837       2313.378      0.7206226      0.6426384
      5189.0000         0.3059         0.0198          125.7       67.35107        66.8137         0.3272         0.4488         2.1438         0.5973       -38.7507      -29.04169       2312.598      0.7308738      0.6661704
      5189.5000         0.2896         0.0193          123.3       69.88692        69.1974         0.3394         0.4557         2.1753         0.5707       -34.1704       -24.4578        2311.82      0.7848282      0.7207405
      5190.0000         0.2734         0.0213          121.5       72.26469        71.4325          0.352         0.4435          2.206         0.5681       -30.1901      -20.47392       2301.331      0.8354189      0.7681677
      5190.5000         0.2559         0.0282          121.5       74.48873        73.5231         0.3568         0.4227         2.2275         0.5918       -27.4038      -17.68403       2300.869      0.8827389      0.8013806
      5191.0000         0.2466          0.047          123.5       76.08522        75.0238           0.36         0.4137          2.242         0.5731       -27.8097      -18.08634       2290.953      0.9167068      0.7965912
      5191.5000         0.2451          0.058          125.3       76.89873        75.7885          0.355         0.4253         2.2464         0.4511        -33.808      -24.08106       2290.751      0.9340155      0.7252255
      5192.0000         0.2588         0.0655            125       75.32489        74.3091         0.3422         0.4482          2.227         0.4148       -42.1821      -32.45157       2290.548      0.9005296      0.6255765
      5192.5000         0.2813         0.0421            120       69.32245        68.6668         0.3298         0.4577         2.1856         0.5041       -52.5035      -42.76939       2290.345       0.772818      0.5027453
      5193.0000         0.2941         0.0183       113.8614       64.26597        63.9137         0.3151         0.4404         2.1649          0.764       -56.6795       -46.9418       2290.141      0.6652334      0.4530738
      5193.5000         0.2975         0.0094       110.8911          60.63        60.4959         0.3037         0.4088         2.1634         1.0186       -59.8662      -50.12492       2289.917      0.5878724      0.4151796
      5194.0000         0.2944         0.0035       110.9901       60.47958        60.3545         0.2954         0.3863         2.1634          1.052       -59.6773      -49.93243       2289.712      0.5846719      0.4174711
      5194.5000         0.2944          0.001       114.1584       60.96373        60.8096         0.2967         0.3768         2.1629         1.1169       -56.3064      -46.55795       2299.298      0.5949729      0.4576435
      5195.0000         0.2977              0       115.9406        60.1783        60.0713         0.3091         0.3703         2.1599         1.1968       -51.3406      -41.58856       2299.102      0.5782617      0.5168028
      5195.5000         0.2946         0.0005       115.4455       58.75043        58.7291         0.3309         0.3625         2.1658         1.2416       -45.7727      -36.01708       2298.906      0.5478814        0.58313
      5196.0000         0.2811         0.0045       111.8812       58.59872        58.5865         0.3691         0.3535         2.1842         1.1857        -36.023      -26.26379       2298.709      0.5446537      0.6992406
      5196.5000          0.259         0.0252       111.1881       60.83809        60.6915         0.4007          0.352         2.2109         1.0665       -25.2922      -15.52941       2298.512      0.5922998      0.8270309
      5197.0000          0.244          0.049       114.7525        63.0732        62.7925         0.4479         0.3839         2.2442         0.8609       -19.3375      -9.571119       2298.315      0.6398553      0.8979629
      5197.5000         0.2338          0.068       118.5149       64.67405        64.2973          0.496         0.4156          2.262          0.713       -14.9593      -5.189334        2288.27      0.6739159       0.950127
      5198.0000         0.2347          0.076          122.1       65.16181        64.7558         0.5335          0.442          2.259         0.5979       -11.7739      -2.000349       2288.062      0.6842939      0.9880911
      5198.5000         0.2416         0.0645          123.3       65.65022        65.2149         0.5634         0.4578         2.2491         0.5358       -10.7815      -1.004363       2297.721      0.6946854      0.9999481
      5199.0000         0.2433         0.0535        119.604       66.77649        66.2736         0.5976          0.461         2.2481         0.5431       -11.9853      -2.204578       2307.399      0.7186487      0.9856598
      5199.5000           0.24         0.0411       117.3267       66.94713         66.434         0.6201         0.4619         2.2535         0.6201       -14.3895      -4.605192       2326.983      0.7222793       0.957081
      5200.0000         0.2361         0.0297       115.5446       65.84171        65.3949         0.6258         0.4524         2.2609          0.733       -16.3961      -6.608207       2346.605      0.6987597      0.9332356
      5200.5000         0.2305         0.0252       114.2574       65.05245         64.653         0.6257         0.4215         2.2703          0.837       -16.6009      -6.809422       2326.559      0.6819671      0.9308402
      5201.0000         0.2245         0.0356       114.4554       66.81171        66.3067         0.6286         0.3993         2.2792          0.796       -14.2046      -4.409537       2326.201       0.719398      0.9594103
      5201.5000         0.2219          0.048       115.6436       70.00372        69.3072         0.6524         0.3933         2.2837         0.7192       -11.4111      -1.612452       2315.962      0.7873133      0.9927089
      5202.0000         0.2227           0.05       116.7327       72.39628        71.5562         0.6802         0.4071         2.2812         0.7124        -9.6185      0.1837339       2315.631      0.8382187              1
      5202.5000         0.2248          0.052       116.4356       71.92043        71.1089         0.7025         0.4181         2.2787          0.739        -9.2245      0.5813198       2295.454      0.8280943              1
      5203.0000         0.2251         0.0555       115.6436        70.8084        70.0636         0.6926         0.4238         2.2787         0.7701       -10.0276     -0.2181959       2314.935      0.8044341              1
      5203.5000         0.2266          0.058       115.5446       70.81128        70.0663         0.6767         0.4205         2.2728         0.7735       -12.0263       -2.21331       2314.604      0.8044953      0.9855558
