#------------------------------------------------------------------------------
# Created by    : vladimir.rabinovich
# Created on    : 09/19/2023 17:22:03
#------------------------------------------------------------------------------
~Version Information Section
VERS.           2.0     :   CWLS log ASCII Standard - VERSION 2.0
WRAP.           NO      :   One line per depth step
~Well Information Section
#MNEM       .UNIT                                         VALUE :DESCRIPTION
#------------------------------------------------------------------------------
STRT        .FT                                             959 :START DEPTH
STOP        .FT                                            9240 :STOP DEPTH
STEP        .FT                                             0.5 :STEP      
NULL        .                                           -999.25 :NULL      
COMP        .                                  SAMEDAN OIL CORP :COMPANY   
WELL        .                                            WILBER :WELL      
FLD         .                                     HAMSHIRE WEST :FIELD     
LOC         .                                                   :LOCATION  
CNTY        .                                         JEFFERSON :LOCATION  
STAT        .                                             TEXAS :STATE     
CTRY        .                                     UNITED STATES :COUNTRY   
SRVC        .                                                   :SERVICE COMPANY
DATE        .                             9/13/2023 11:18:46 AM :LOG DATE  
API         .                                    42245321080000 :API NUMBER
UWI         .                                    42245321080000 :UNIQUE WELL ID
XCOORD      .                                  1220512.54732583 :SURFACE X 
YCOORD      .                                  10829820.5318697 :SURFACE Y 
LAT         .                                        29.8338887 :LATITUDE  
LON         .                                       -94.3247224 :LONGITUDE 
ELEV        .FT                                              24 :ELEVATION VALUE
ELEV_TYPE   .                                                KB :ELEVATION REFERENCE TYPE
~Curve Information Section
#MNEM       .UNIT                                      API CODE :CURVE DESCRIPTION
#------------------------------------------------------------------------------
DEPT        .FT                                                 :DEPTH     
CALI        .IN                                                 :          
DPSS        .%                                                  :          
DRHO        .G/CM3                                              :          
GR          .GAPI                                               :          
GR_NORM     .GAPI                                               :GammaRay Normalized
ILD         .OHMM                                               :          
ILM         .OHMM                                               :          
NPSS        .%                                                  :Neutron Porosity Sandstone
SGRD        .OHMM                                               :          
SP          .MV                                                 :          
SP_NORM     .MV                                                 :SP Normalized
TENS        .LB                                                 :          
VSH_GR      .V/V                                                :Volume of Shale from GR
VSH_SP      .V/V                                                :Volume of Shale from SP
~A        DEPTH           CALI           DPSS           DRHO             GR        GR_NORM            ILD            ILM           NPSS           SGRD             SP        SP_NORM           TENS         VSH_GR         VSH_SP
# ...
      1571.0000        18.0505        -999.25        -999.25         85.073       96.98575         1.2373         1.2035        -999.25         1.4082      -114.4244     -0.8441544       1821.583              1              1
      1571.5000        18.0509        -999.25        -999.25        83.7381       95.37746         1.2376         1.2037        -999.25          1.402      -113.8106     -0.2303543       1842.579              1              1
      1572.0000        18.0512        -999.25        -999.25        77.4538       87.80254         1.2379         1.2096        -999.25         1.4154      -114.5828      -1.002556       1783.571              1      0.9999377
      1572.5000        18.0516        -999.25        -999.25        71.0576       80.09276         1.2381         1.2155        -999.25         1.4355       -114.563     -0.9827576       1764.565              1              1
      1573.0000        18.0519        -999.25        -999.25        71.0725       80.11167         1.2499         1.2214        -999.25         1.4292      -113.3553      0.2249451       1885.566              1              1
      1573.5000        18.0523        -999.25        -999.25        73.4631       82.99452         1.2677          1.233        -999.25          1.384      -113.9295     -0.3492508       1846.559              1              1
      1574.0000        18.0526        -999.25        -999.25        73.3295       82.83442         1.2797         1.2505        -999.25         1.3716      -114.7017      -1.121452       1807.553              1      0.9970378
      1574.5000        18.0331        -999.25        -999.25        68.4441       76.94591         1.2979           1.28        -999.25         1.4434      -114.8799      -1.299652        1848.55      0.9350193      0.9926914
      1575.0000        18.0533        -999.25        -999.25        62.8147        70.1605         1.3163         1.3285        -999.25         1.6281      -116.8401      -3.259857       1849.545      0.7906489      0.9448816
      1575.5000        18.0537        -999.25        -999.25        59.8596       66.59901         1.3288         1.4111        -999.25          1.888      -119.7901      -6.209854        1850.54      0.7148727      0.8729304
      1576.0000         18.054        -999.25        -999.25        57.7735       64.08512          1.354         1.4646        -999.25         2.1096      -122.3698      -8.789551       1851.535      0.6613855       0.810011
      1576.5000        18.0544        -999.25        -999.25         51.188       56.14712         1.3606         1.5061        -999.25         2.2095      -124.5495      -10.96925        1852.53      0.4924919      0.7568475
      1577.0000        18.0547        -999.25        -999.25        48.9533        53.4541         1.3799         1.5417        -999.25         2.1597      -126.9293      -13.34905       1853.525      0.4351936      0.6988036
      1577.5000        18.0551        -999.25        -999.25        49.2683       53.83478         1.3802         1.5492        -999.25          2.044      -128.5091      -14.92885       1814.518      0.4432932       0.660272
      1578.0000        18.0554        -999.25        -999.25        49.4332       54.03451         1.3552         1.5496        -999.25         2.0072      -129.4891      -15.90886       1855.515      0.4475428      0.6363693
      1578.5000        18.0557        -999.25        -999.25        47.6485       51.88396         1.3307         1.5499        -999.25         2.0169      -131.6688      -18.08855       1816.508      0.4017865      0.5832062
      1579.0000        18.0561        -999.25        -999.25        46.9136       50.99897         1.3188         1.5431        -999.25         2.0454      -135.6484      -22.06816       1817.503      0.3829569      0.4861424
      1579.5000        18.0168        -999.25        -999.25        49.1782       53.72995         1.2949         1.5364        -999.25         2.1228      -138.6281      -25.04785       1818.598      0.4410627       0.413467
      1580.0000        18.0172        -999.25        -999.25         52.644       57.90899         1.3072         1.5296        -999.25         2.2234      -141.5939      -28.01366       1859.595      0.5299784      0.3411303
      1580.5000        18.0184        -999.25        -999.25        51.6017       56.65341         1.3321         1.5659        -999.25         2.3506      -145.7337      -32.15346       1917.604      0.5032641      0.2401596
      1581.0000        18.0204        -999.25        -999.25        49.0531       53.58198         1.3513         1.6256        -999.25         2.5084      -147.8966      -34.31636       1893.991      0.4379144      0.1874058
      1581.5000        18.0224        -999.25        -999.25        48.0038       52.31797         1.3772         1.7112        -999.25         2.6767      -148.4756      -34.89536        1849.98      0.4110206       0.173284
      1582.0000        18.0244        -999.25        -999.25        46.8032       50.87156          1.397         1.7683        -999.25         2.8697      -149.4518      -35.87155       1845.961       0.380246      0.1494744
      1582.5000        18.0264        -999.25        -999.25        44.4046       47.98095         1.3977         1.8273        -999.25           3.02      -151.0244      -37.44415       1841.941      0.3187435      0.1111182
      1583.0000        18.0283        -999.25        -999.25        42.6172       45.82715         1.4048         1.8709        -999.25         3.0631      -151.6058      -38.02556       1837.922      0.2729181      0.0969376
      1583.5000        18.0303        -999.25        -999.25        42.3181       45.46752         1.4054         1.8375        -999.25         2.9953      -151.1931      -37.61285       1853.899      0.2652664      0.1070036
      1584.0000        18.0323        -999.25        -999.25        43.3602       46.72475         1.4061         1.7716        -999.25         2.8355      -151.3777      -37.79745       1829.883      0.2920159      0.1025011
      1584.5000        18.0343        -999.25        -999.25        44.1051       47.62368         1.3683         1.7081        -999.25         2.6842      -149.9717      -36.39145       1825.864      0.3111421      0.1367939
      1585.0000        18.0363        -999.25        -999.25        44.8508       48.52359         1.3438         1.6469        -999.25         2.6122      -147.5696      -33.98935       1821.845      0.3302891      0.1953817
      1585.5000        17.9987        -999.25        -999.25        46.6587       50.70399         1.3259         1.5878        -999.25         2.5073       -144.767      -31.18675       1777.834      0.3766806      0.2637377
      1586.0000        18.0007        -999.25        -999.25        50.2806       55.07121         1.3083         1.5309        -999.25         2.2665      -136.9684      -23.38815        1793.81      0.4696002      0.4539475
      1586.5000        18.0027        -999.25        -999.25        54.2077       59.80635         1.3089          1.476        -999.25         1.9031      -130.5489      -16.96866       1809.787       0.570348      0.6105205
      1587.0000        18.0045        -999.25        -999.25        59.0453       65.63912         1.3035         1.4297        -999.25         1.6885      -125.9292      -12.34895       1805.768      0.6944494      0.7231963
      1587.5000        18.0065        -999.25        -999.25        61.1559       68.18444         1.2802         1.4304        -999.25         1.7207      -125.1093      -11.52905       1801.748      0.7486051      0.7431939
      1588.0000        18.0084        -999.25        -999.25        57.2453       63.47108         1.2516         1.3983        -999.25         1.8451      -128.6894      -15.10916       1797.729       0.648321      0.6558741
      1588.5000        18.0104        -999.25        -999.25        53.6215       59.10346         1.2521         1.3297        -999.25         1.8205      -131.0695      -17.48926        1793.71      0.5553928       0.597823
