#------------------------------------------------------------------------------
# Created by    : vladimir.rabinovich
# Created on    : 09/19/2023 17:20:52
#------------------------------------------------------------------------------
~Version Information Section
VERS.           2.0     :   CWLS log ASCII Standard - VERSION 2.0
WRAP.           NO      :   One line per depth step
~Well Information Section
#MNEM       .UNIT                                         VALUE :DESCRIPTION
#------------------------------------------------------------------------------
STRT        .FT                                            1017 :START DEPTH
STOP        .FT                                            8855 :STOP DEPTH
STEP        .FT                                             0.5 :STEP      
NULL        .                                           -999.25 :NULL      
COMP        .                               MEREDITH & CO ET AL :COMPANY   
WELL        .                               BROUSSARD J JR ETAL :WELL      
FLD         .                                           WILDCAT :FIELD     
LOC         .                                                   :LOCATION  
CNTY        .                                         JEFFERSON :LOCATION  
STAT        .                                             TEXAS :STATE     
CTRY        .                                     UNITED STATES :COUNTRY   
SRVC        .                                                   :SERVICE COMPANY
DATE        .                             9/13/2023 11:19:11 AM :LOG DATE  
API         .                                    42245021880000 :API NUMBER
UWI         .                                    42245021880000 :UNIQUE WELL ID
XCOORD      .                                  1215343.11980964 :SURFACE X 
YCOORD      .                                  10882366.7587642 :SURFACE Y 
LAT         .                                        29.9782309 :LATITUDE  
LON         .                                       -94.3429645 :LONGITUDE 
ELEV        .FT                                              36 :ELEVATION VALUE
ELEV_TYPE   .                                                DF :ELEVATION REFERENCE TYPE
~Curve Information Section
#MNEM       .UNIT                                      API CODE :CURVE DESCRIPTION
#------------------------------------------------------------------------------
DEPT        .FT                                                 :DEPTH     
ASN         .OHMM                                               :          
LAT         .OHMM                                               :          
LN          .OHMM                                               :          
SP          .MV                                                 :          
SP_NORM     .MV                                                 :SP Normalized
VSH_SP      .V/V                                                :Volume of Shale from SP
~A        DEPTH            ASN            LAT             LN             SP        SP_NORM         VSH_SP
# ...
      8275.0000         0.7913         0.5872          0.703       -44.3152       1.296204              1
      8275.5000         0.8059         0.5866         0.7025       -44.8947      0.7029839              1
      8276.0000         0.8088         0.5857         0.7016       -44.3214       1.262562              1
      8276.5000         0.8206         0.5851         0.7011       -44.6134      0.9568405              1
      8277.0000         0.8265         0.6132         0.7002       -44.9046      0.6519203              1
      8277.5000         0.8324         0.6126         0.6996       -44.9088      0.6339951              1
      8278.0000         0.8382         0.6407         0.6988       -44.9116      0.6174736              1
      8278.5000         0.8529         0.6401         0.6979       -44.3375       1.177849              1
      8279.0000         0.8882         0.6393         0.6974       -44.0507       1.450928              1
      8279.5000         0.9147         0.6532         0.6965       -42.8959       2.592007              1
      8280.0000         0.9559         0.6668         0.6959       -43.1873       2.286884              1
      8280.5000         0.9822         0.6812         0.6806       -46.3866      -0.926136              1
      8281.0000         1.0288         0.6957           0.68       -48.4323      -2.985558      0.9748663
      8281.5000         0.9996         0.7101         0.6791        -49.603      -4.169979      0.9598737
      8282.0000         0.9848         0.7536         0.6786       -51.0693      -5.650002      0.9411392
      8282.5000         0.9699         0.7826         0.6632       -51.6604      -6.254822      0.9334832
      8283.0000         0.9639         0.7826         0.6626       -52.2573      -6.865444      0.9257539
      8283.5000         1.0106         0.7391         0.6472       -52.2689      -6.890766      0.9254333
      8284.0000         1.0482         0.6667         0.6467       -53.7351      -8.370686      0.9067002
      8284.5000         1.1147         0.6087         0.6458       -58.3889      -13.03821      0.8476176
      8285.0000          1.158         0.5507         0.6597       -62.8299      -17.49293      0.7912288
      8285.5000         1.1839         0.4928         0.6733        -74.191      -28.86775      0.6472436
      8286.0000         1.1519         0.4493         0.6728       -84.6704      -39.36087      0.5144193
      8286.5000         0.9981         0.4058         0.6864      -101.3851      -56.08929      0.3026672
      8287.0000         0.8068         0.3478         0.7003      -111.2478      -65.96571      0.1776492
      8287.5000         0.6848         0.3188         0.7429      -116.3403      -71.07194      0.1130134
      8288.0000          0.705         0.3188         0.7713      -105.3075      -60.05286      0.2524954
      8288.5000          0.757         0.3333         0.7559        -92.631      -47.39008      0.4127839
      8289.0000         0.8062         0.3768         0.7409       -83.6282        -38.401      0.5265697
      8289.5000          0.859         0.4348          0.711       -75.5045      -30.29102      0.6292276
      8290.0000         0.8765         0.4928         0.6959       -70.4418      -25.24205      0.6931387
      8290.5000         0.8353         0.5362         0.6951       -62.3971      -17.21107      0.7947966
      8291.0000         0.8176         0.6232          0.709       -58.8627      -13.69039      0.8393621
      8291.5000         0.8117         0.6667         0.7371       -55.3944      -10.23581       0.883091
      8292.0000         0.8176         0.7391         0.7365        -54.241      -9.096134      0.8975173
      8292.5000         0.8469         0.7971         0.7357       -54.2534      -9.122253      0.8971866
      8293.0000         0.8674         0.8261         0.7351       -54.2616      -9.144176      0.8969092
      8293.5000          0.879         0.8261         0.7342       -53.9827      -8.878998      0.9002659
      8294.0000          0.879         0.7971         0.7337       -53.6994      -8.609421      0.9036782
      8294.5000         0.8643         0.7391         0.7328       -53.1279       -8.05164      0.9107388
      8295.0000         0.8263         0.6957         0.7322       -52.5518      -7.489262      0.9178575
      8295.5000         0.7971         0.7536         0.7313       -51.3942      -6.345383      0.9323369
      8296.0000         0.7507         0.7971         0.7308       -50.2315      -5.196404       0.946881
      8296.5000          0.742         0.8841         0.7299       -47.3147      -2.293327      0.9836287
      8297.0000         0.7507          0.913         0.7293       -47.6117      -2.604046      0.9796956
      8297.5000          0.771         0.8551         0.7285       -52.5992       -7.60527       0.916389
      8298.0000         0.7797         0.8261         0.7279       -56.1245      -11.14429      0.8715913
      8298.5000         0.7855         0.7681          0.727       -61.7003      -16.73381      0.8008378
      8299.0000         0.7942         0.6812         0.7264       -63.4549      -18.50213       0.778454
      8299.5000         0.8029         0.6377         0.7256       -66.3699      -21.43086      0.7413815
      8300.0000          0.829         0.5652         0.7247       -68.1155      -23.19018      0.7191117
      8300.5000          0.858         0.5068         0.7536       -60.5797       -15.6681      0.8143279
      8301.0000         0.9045         0.5639         0.7681       -48.5427      -3.644821      0.9665213
      8301.5000          0.945         0.6213         0.7971       -47.9657      -3.081539      0.9736514
      8302.0000         0.9682         0.7364         0.7971       -47.9726      -3.102161      0.9733903
      8302.5000         0.9567         0.7793         0.8261         -47.69      -2.833282      0.9767939
      8303.0000         0.9307          0.822         0.8696        -48.283       -3.44001      0.9691138
      8303.5000         0.9163         0.8356         0.8696       -48.2932      -3.463932       0.968811
      8304.0000         0.8962         0.8351         0.8841       -48.0074      -3.191853      0.9722551
      8304.5000         0.8877         0.7618         0.8986       -47.4332      -2.631374      0.9793497
      8305.0000         0.8935         0.7033         0.8986       -47.1521      -2.363995      0.9827343
      8305.5000         0.8965         0.6445         0.8986       -47.1595      -2.385117      0.9824669
      8306.0000         0.8965         0.6581         0.8986       -47.4622      -2.701538      0.9784616
      8306.5000         0.9052         0.6865          0.913       -48.0523      -3.305359      0.9708182
      8307.0000         0.9081         0.7581         0.9275       -48.9362       -4.20298       0.959456
      8307.5000          0.914         0.7866         0.9275       -49.8156      -5.096104      0.9481506
      8308.0000         0.9398         0.8437         0.9275       -51.5689      -6.863125      0.9257832
      8308.5000          0.957         0.8718         0.9275       -53.0267      -8.334644      0.9071564
      8309.0000         0.9456         0.8423          0.942        -55.065      -10.38667      0.8811815
      8309.5000         0.9371         0.8849         0.9855       -56.5185      -11.85389       0.862609
      8310.0000         0.9514         0.8989              1       -57.9704      -13.31951      0.8440568
      8310.5000         0.9771         0.9705         1.0145       -60.2899      -15.65273      0.8145224
      8311.0000         0.9829         0.8685         1.0145       -61.4493      -16.82585      0.7996728
      8311.5000         0.9829         0.8386         1.0145       -60.8696      -16.25987      0.8068371
      8312.0000         0.9857         0.9392         1.0145       -58.5507       -13.9547      0.8360165
      8312.5000         0.9857         1.0401         1.0145        -57.971      -13.38872      0.8431808
