#------------------------------------------------------------------------------
# Created by    : vladimir.rabinovich
# Created on    : 09/19/2023 17:20:52
#------------------------------------------------------------------------------
~Version Information Section
VERS.           2.0     :   CWLS log ASCII Standard - VERSION 2.0
WRAP.           NO      :   One line per depth step
~Well Information Section
#MNEM       .UNIT                                         VALUE :DESCRIPTION
#------------------------------------------------------------------------------
STRT        .FT                                             722 :START DEPTH
STOP        .FT                                            8710 :STOP DEPTH
STEP        .FT                                             0.5 :STEP      
NULL        .                                           -999.25 :NULL      
COMP        .                              BRUNER ARNOLD H & CO :COMPANY   
WELL        .                                              WEIR :WELL      
FLD         .                                           WILDCAT :FIELD     
LOC         .                                                   :LOCATION  
CNTY        .                                         JEFFERSON :LOCATION  
STAT        .                                             TEXAS :STATE     
CTRY        .                                     UNITED STATES :COUNTRY   
SRVC        .                                                   :SERVICE COMPANY
DATE        .                             9/13/2023 11:19:11 AM :LOG DATE  
API         .                                    42245021890000 :API NUMBER
UWI         .                                    42245021890000 :UNIQUE WELL ID
XCOORD      .                                  1215604.35578741 :SURFACE X 
YCOORD      .                                  10884998.9913957 :SURFACE Y 
LAT         .                                        29.9854781 :LATITUDE  
LON         .                                       -94.3422367 :LONGITUDE 
ELEV        .FT                                              36 :ELEVATION VALUE
ELEV_TYPE   .                                                DF :ELEVATION REFERENCE TYPE
~Curve Information Section
#MNEM       .UNIT                                      API CODE :CURVE DESCRIPTION
#------------------------------------------------------------------------------
DEPT        .FT                                                 :DEPTH     
ASN         .OHMM                                               :          
LAT         .OHMM                                               :          
LN          .OHMM                                               :          
SP          .MV                                                 :          
SP_NORM     .MV                                                 :SP Normalized
VSH_SP      .V/V                                                :Volume of Shale from SP
~A        DEPTH            ASN            LAT             LN             SP        SP_NORM         VSH_SP
# ...
      4940.0000            0.4         0.3159         0.1929      -140.3448      -78.61641     0.07691073
      4940.5000         0.3932         0.3153         0.1938      -140.3448      -78.61641     0.07691073
      4941.0000         0.3863         0.2973         0.1946      -140.3448      -78.61641     0.07691073
      4941.5000          0.383         0.2968         0.1955      -141.7241      -79.99571     0.06029262
      4942.0000         0.3867         0.2789         0.1963      -142.7586      -81.03021     0.04782877
      4942.5000         0.4008         0.2784         0.1972      -144.4828      -82.75441      0.0270553
      4943.0000          0.401         0.2606         0.1981      -146.2069       -84.4785    0.006283128
      4943.5000         0.4079         0.2428         0.2165       -147.931      -86.20261              0
      4944.0000          0.408         0.2424         0.2173           -150      -88.27161              0
      4944.5000         0.4082         0.2247         0.2182      -151.7241      -89.99571              0
      4945.0000          0.405         0.2242         0.2015      -153.4483      -91.71991              0
      4945.5000         0.3949         0.2066         0.2024      -155.1724        -93.444              0
      4946.0000          0.395         0.2062         0.2032      -156.5517       -94.8233              0
      4946.5000         0.3952         0.1887         0.2041      -153.7931      -92.06471              0
      4947.0000         0.4257         0.1713         0.2225      -150.6897       -88.9613              0
      4947.5000          0.446          0.171         0.2233      -147.5862       -85.8578              0
      4948.0000         0.4729         0.1537         0.2242      -144.8276      -83.09921     0.02290105
      4948.5000         0.5097         0.1534         0.2251      -141.7241      -79.99571     0.06029262
      4949.0000         0.5466         0.1361         0.2435      -139.6429      -77.91451     0.08536741
      4949.5000         0.5833         0.1359         0.2619      -142.7586      -81.03021     0.04782877
      4950.0000         0.6073         0.1187         0.2627      -149.6552       -87.9268              0
      4950.5000         0.5867         0.1191         0.2632      -149.6467       -87.9183              0
      4951.0000         0.5268          0.103         0.2632      -149.6382      -87.90981              0
      4951.5000         0.5269         0.1038         0.2632      -148.9383       -87.2099              0
      4952.0000          0.527         0.1047         0.2632      -146.5074      -84.77901    0.002662567
      4952.5000         0.5338         0.1055         0.2456      -142.6876      -80.95921     0.04868418
      4953.0000         0.5406         0.1233         0.2456      -134.1861       -72.4577       0.151112
      4953.5000         0.5508         0.1581         0.2281      -127.0208       -65.2924      0.2374409
      4954.0000          0.561         0.1928         0.2281       -120.578      -58.84961      0.3150649
      4954.5000         0.5712         0.2275         0.2281      -111.3418       -49.6134      0.4263445
      4955.0000         0.5848         0.2623         0.2281        -99.661      -37.93261       0.567077
      4955.5000         0.6892         0.2631         0.2281       -83.0508       -21.3224         0.7672
      4956.0000         0.7403          0.264         0.2281       -72.9825       -11.2541      0.8885047
      4956.5000         0.7805         0.2648         0.2632       -85.0847      -23.35631      0.7426951
      4957.0000         0.8291         0.2657         0.2807       -91.1864      -29.45801      0.6691806
      4957.5000         0.8326         0.2665         0.3333      -103.1725      -41.44411      0.5247698
      4958.0000         0.8327         0.2335          0.386      -115.8491       -54.1207      0.3720397
      4958.5000         0.7957         0.2004         0.4386      -121.4875      -59.75911      0.3041071
      4959.0000         0.7559         0.1674         0.4386      -116.8774      -55.14901      0.3596505
      4959.5000         0.7161         0.1682         0.4386      -107.3777      -45.64931      0.4741047
      4960.0000         0.6764         0.1691         0.4386       -93.2203      -31.49191      0.6446759
      4960.5000         0.6364         0.1695         0.4386       -84.0678      -22.33941      0.7549469
      4961.0000         0.6764         0.1695         0.4035       -74.7368      -13.00841      0.8673686
      4961.5000         0.7091         0.1695          0.386       -64.9123      -3.183907      0.9857361
      4962.0000         0.7418         0.2542          0.386       -63.8596      -2.131207      0.9984192
      4962.5000         0.7745         0.2712         0.4035       -63.1579      -1.429508              1
      4963.0000         0.8133         0.2881         0.4211       -62.4561     -0.7277069              1
      4963.5000           0.88         0.2881         0.4211       -61.7544    -0.02600479              1
      4964.0000         0.9333         0.3051         0.4561       -60.7018       1.026592              1
      4964.5000         0.9267         0.3051         0.4737       -60.3509       1.377495              1
      4965.0000         0.9167         0.3051         0.4912       -60.3509       1.377495              1
      4965.5000         0.9067         0.3051         0.5088       -60.3509       1.377495              1
      4966.0000            0.9          0.322         0.5088        -62.807      -1.078606              1
      4966.5000         0.9033         0.3559         0.5088       -64.9123      -3.183907      0.9857361
      4967.0000           0.92         0.3559         0.4912       -68.0702      -6.341805      0.9476891
      4967.5000         0.9633         0.3729         0.4912       -72.2807      -10.55231      0.8969601
      4968.0000         0.9967         0.3729         0.5088        -77.193      -15.46461      0.8377758
      4968.5000         1.0456         0.3559         0.5088       -82.0339       -20.3055      0.7794518
      4969.0000         1.0456         0.3559         0.5088        -80.339       -18.6106      0.7998722
      4969.5000         0.9867          0.339         0.5263       -75.4386      -13.71021      0.8589132
      4970.0000         0.9367          0.339         0.5263       -70.1754      -8.447006      0.9223253
      4970.5000           0.86          0.322         0.5263       -65.2632      -3.534805      0.9815084
      4971.0000         0.8367         0.3051         0.5263       -61.7544    -0.02600479              1
      4971.5000         0.8233         0.2881         0.5263       -62.4561     -0.7277069              1
      4972.0000         0.8067         0.2881         0.5088       -64.5614      -2.833008      0.9899638
      4972.5000         0.7964         0.2881         0.5088       -65.9649      -4.236504      0.9730542
      4973.0000         0.7745         0.2881         0.4912       -66.3158       -4.58741      0.9688264
      4973.5000         0.7636         0.3051         0.4912       -66.3158       -4.58741      0.9688264
      4974.0000         0.7527          0.322         0.4912        -65.614      -3.885605      0.9772819
      4974.5000         0.7455          0.322         0.4912       -64.9123      -3.183907      0.9857361
      4975.0000         0.7382          0.339         0.4737       -64.9123      -3.183907      0.9857361
      4975.5000         0.7418         0.3559         0.4211       -64.5614      -2.833008      0.9899638
      4976.0000         0.7491         0.3559         0.4035       -70.1754      -8.447006      0.9223253
      4976.5000         0.8067         0.3729          0.386       -73.6842       -11.9558      0.8800505
      4977.0000           0.87         0.3559         0.4035        -77.193      -15.46461      0.8377758
      4977.5000           0.91          0.339         0.4035       -81.6949      -19.96651      0.7835361
