#------------------------------------------------------------------------------
# Created by    : vladimir.rabinovich
# Created on    : 09/19/2023 17:19:39
#------------------------------------------------------------------------------
~Version Information Section
VERS.           2.0     :   CWLS log ASCII Standard - VERSION 2.0
WRAP.           NO      :   One line per depth step
~Well Information Section
#MNEM       .UNIT                                         VALUE :DESCRIPTION
#------------------------------------------------------------------------------
STRT        .FT                                            1969 :START DEPTH
STOP        .FT                                            7841 :STOP DEPTH
STEP        .FT                                             0.5 :STEP      
NULL        .                                           -999.25 :NULL      
COMP        .                           NEWFIELD EXPLORATION CO :COMPANY   
WELL        .                                   PHELAN GAS UNIT :WELL      
FLD         .                                          BINDWEED :FIELD     
LOC         .                                                   :LOCATION  
CNTY        .                                         JEFFERSON :LOCATION  
STAT        .                                             TEXAS :STATE     
CTRY        .                                     UNITED STATES :COUNTRY   
SRVC        .                                                   :SERVICE COMPANY
DATE        .                             9/13/2023 11:18:46 AM :LOG DATE  
API         .                                    42245322670000 :API NUMBER
UWI         .                                    42245322670000 :UNIQUE WELL ID
XCOORD      .                                  1272550.81244857 :SURFACE X 
YCOORD      .                                  10898469.5255822 :SURFACE Y 
LAT         .                                        30.0242363 :LATITUDE  
LON         .                                        -94.162774 :LONGITUDE 
ELEV        .FT                                              24 :ELEVATION VALUE
ELEV_TYPE   .                                                KB :ELEVATION REFERENCE TYPE
~Curve Information Section
#MNEM       .UNIT                                      API CODE :CURVE DESCRIPTION
#------------------------------------------------------------------------------
DEPT        .FT                                                 :DEPTH     
AHT20       .OHMM                                               :          
AHT30       .OHMM                                               :          
AHT60       .OHMM                                               :          
AHT90       .OHMM                                               :          
DCAL        .IN                                                 :          
DPHZSS      .V/V                                                :          
DT          .US/FT                                              :          
GR_NORM     .GAPI                                               :GammaRay Normalized
GRR         .GAPI                                               :          
HDRA        .G/CM3                                              :          
NPORSS      .V/V                                                :          
SP          .MV                                                 :          
SP_NORM     .MV                                                 :SP Normalized
TENR        .LB                                                 :          
VSH_GR      .V/V                                                :Volume of Shale from GR
VSH_SP      .V/V                                                :Volume of Shale from SP
~A        DEPTH          AHT20          AHT30          AHT60          AHT90           DCAL         DPHZSS             DT        GR_NORM            GRR           HDRA         NPORSS             SP        SP_NORM           TENR         VSH_GR         VSH_SP
# ...
      2113.0000        -999.25        -999.25        -999.25        -999.25        -999.25        -999.25          150.1       55.70884        37.9592        -999.25         0.6361        -999.25        -999.25       1737.113      0.4831667        -999.25
      2113.5000        -999.25        -999.25        -999.25        -999.25        -999.25        -999.25       170.0993       55.33976        38.4184        -999.25         0.6077        -999.25        -999.25       1737.113       0.475314        -999.25
      2114.0000         0.2085         0.2449         0.3085         0.3276         0.1082         -0.566          158.6       60.58263         42.398         0.0994         0.5949       -21.9125       5.247993       1737.113      0.5868645              1
      2114.5000         0.1671         0.2296         0.3085          0.389         0.1092        -0.1009       103.7012       70.19769        48.6364         0.0994         0.5804       -30.0567      -2.896206       1737.113      0.7914401       0.981329
      2115.0000         0.3448         0.3836         0.6838         1.2658         0.1101         0.1961         90.448       74.77608        52.2727         0.0405          0.584       -34.2302      -7.069708       1737.113      0.8888529      0.8943811
      2115.5000         0.7229         1.1647         1.4948         1.8404         0.1111         0.4001       112.0106       72.60921        52.4242        -0.0025         0.6087       -37.0141      -9.853605       1737.113      0.8427491      0.8363832
      2116.0000         0.6935         0.8798         1.1121         3.9193         0.1121         0.4324          150.5       69.85588        52.2727        -0.0044         0.6334       -37.8093      -10.64881       1737.113      0.7841676      0.8198165
      2116.5000         0.4342         0.7065         1.4208         1.2953          0.113         0.4386          153.8       65.92956        51.5152        -0.0044         0.6502       -37.8082      -10.64771       1737.113      0.7006289      0.8198394
      2117.0000         0.6967         1.0281         2.1931         1.4012         0.1339         0.4206          159.3       64.05592        51.8182        -0.0003          0.596       -37.4083       -10.2478       1737.113      0.6607642      0.8281707
      2117.5000         1.0619         1.1329         2.9588         1.7492         0.2151         0.4013            161       63.35551        52.7273         0.0007         0.5418       -36.2104      -9.049906       1716.495      0.6458619      0.8531269
      2118.0000         1.1019         1.2198         3.8154         2.1333         0.8374         0.3855          153.8       63.82806        54.2424         0.0008         0.4907       -35.0111      -7.850607       1716.495      0.6559163      0.8781124
      2118.5000          1.203         1.4473         4.1079         2.3937         1.3388         0.3722       145.7927        64.3008        55.7576        -0.0002          0.469       -34.0102      -6.849707       1716.495      0.6659744      0.8989645
      2119.0000         1.4142         1.6396           4.36         2.9862          1.199         0.3589       136.7594       63.30713        56.5152        -0.0021         0.4627       -33.0087      -5.848207       1716.495      0.6448326       0.919829
      2119.5000         1.4607         1.7654         4.4006         3.1863         0.9993         0.3358       105.6535       63.19317        57.7273        -0.0031         0.4472       -32.0058      -4.845304       1716.495       0.642408      0.9407228
      2120.0000         1.5018         1.7573         3.3533         2.6248         0.7797         0.3121         77.998        63.3725        59.0909         -0.005         0.4318       -30.0021      -2.841606       1716.495      0.6462234      0.9824665
      2120.5000         1.4473         1.6935         2.4495         2.2649           0.58         0.2866           85.4       65.28513          61.35         -0.004          0.428            -30      -2.839506       1715.963      0.6869175      0.9825103
      2121.0000         1.3947         1.6021         1.8404         1.9274           0.42         0.2616           97.3       71.53532          65.85         0.0011         0.4194          -30.4      -3.239506       1714.901      0.8199003      0.9741769
      2121.5000         1.3503         1.4948         1.5801          1.632           0.34         0.2464           93.8       72.03568          66.45         0.0041         0.4097          -30.4      -3.239506       1713.838      0.8305464      0.9741769
      2122.0000         1.3013         1.3947          1.434         1.4607           0.32         0.2381           86.2        71.9149          66.45         0.0092         0.4067          -29.6      -2.439507       1712.881      0.8279766      0.9908436
      2122.5000         1.2716         1.3134         1.3692         1.4142           0.28         0.2301           78.1       66.85831           63.9         0.0142         0.4176          -28.6      -1.439507       1711.818      0.7203897              1
      2123.0000         1.2716         1.3441         1.3819         1.4142           0.36         0.2221           71.6       65.86653          63.45         0.0083         0.4274            -29      -1.839506       1710.756      0.6992879              1
      2123.5000         1.2775         1.3883         1.4077         1.4473            0.5         0.2177           74.6       67.48782          64.35         0.0013         0.4379            -30      -2.839506       1709.693      0.7337833      0.9825103
      2124.0000         1.2599         1.4012         1.4473         1.4607           0.64          0.219           79.6       76.65802          69.15        -0.0066         0.4355          -30.4      -3.239506       1708.736       0.928894      0.9741769
      2124.5000         1.1594         1.2953         1.3819         1.3947            0.6         0.2264           84.5       84.08617          73.05        -0.0026         0.4379            -30      -2.839506       1707.673              1      0.9825103
      2125.0000         1.0817         1.2086         1.2716         1.2834           0.44         0.2381           88.5       86.28812          74.25         0.0105         0.4639            -29      -1.839506       1706.611              1              1
      2125.5000          1.057         1.1594         1.1865         1.1975           0.26         0.2505           91.4       78.61845          70.35         0.0235         0.4876          -28.4      -1.239506       1705.654      0.9706054              1
      2126.0000         1.0377         1.1225         1.1975         1.1975           0.12         0.2668           93.6        73.2715          67.65         0.0266         0.4876          -28.4      -1.239506       1704.591      0.8568404              1
      2126.5000         1.0329         1.1173         1.1865          1.203           0.12         0.2878           93.6       72.27969           67.2         0.0186         0.4912          -28.8      -1.639505       1703.528      0.8357382              1
      2127.0000         1.0234         1.1173          1.192         1.2086           0.24         0.3048           93.1       71.86859          67.05         0.0107         0.4947          -28.8      -1.639505       1702.572      0.8269913              1
      2127.5000         1.0187         1.1019         1.1865         1.2142           0.34         0.3206             93       69.71543             66         0.0037         0.4865          -29.4      -2.239506       1701.509      0.7811794      0.9950103
      2128.0000         1.0093         1.0867         1.1701         1.2255           0.42         0.3261           93.8       66.11053           64.2        -0.0002         0.4639          -29.8      -2.639505       1700.446      0.7044795       0.986677
      2128.5000         1.0093         1.0918         1.1755         1.2142            0.5         0.3273           94.9       65.69943          64.05        -0.0002         0.4565            -30      -2.839506       1699.384      0.6957326      0.9825103
