#------------------------------------------------------------------------------
# Created by    : vladimir.rabinovich
# Created on    : 09/19/2023 17:20:50
#------------------------------------------------------------------------------
~Version Information Section
VERS.           2.0     :   CWLS log ASCII Standard - VERSION 2.0
WRAP.           NO      :   One line per depth step
~Well Information Section
#MNEM       .UNIT                                         VALUE :DESCRIPTION
#------------------------------------------------------------------------------
STRT        .FT                                            1769 :START DEPTH
STOP        .FT                                           14822 :STOP DEPTH
STEP        .FT                                             0.5 :STEP      
NULL        .                                           -999.25 :NULL      
COMP        .                                      SHELL OIL CO :COMPANY   
WELL        .                                 MCFADDEN CEE CRSS :WELL      
FLD         .                                           WILDCAT :FIELD     
LOC         .                                                   :LOCATION  
CNTY        .                                         JEFFERSON :LOCATION  
STAT        .                                             TEXAS :STATE     
CTRY        .                                     UNITED STATES :COUNTRY   
SRVC        .                                                   :SERVICE COMPANY
DATE        .                             9/13/2023 11:19:11 AM :LOG DATE  
API         .                                    42245030100000 :API NUMBER
UWI         .                                    42245030100000 :UNIQUE WELL ID
XCOORD      .                                  1300794.63996209 :SURFACE X 
YCOORD      .                                  10796706.8159759 :SURFACE Y 
LAT         .                                        29.7451097 :LATITUDE  
LON         .                                       -94.0705183 :LONGITUDE 
ELEV        .FT                                            17.6 :ELEVATION VALUE
ELEV_TYPE   .                                                KB :ELEVATION REFERENCE TYPE
~Curve Information Section
#MNEM       .UNIT                                      API CODE :CURVE DESCRIPTION
#------------------------------------------------------------------------------
DEPT        .FT                                                 :DEPTH     
ASN         .OHMM                                               :          
DT          .US/F                                               :          
ILD         .OHMM                                               :          
SP          .MV                                                 :          
SP_NORM     .MV                                                 :SP Normalized
VSH_SP      .V/V                                                :Volume of Shale from SP
~A        DEPTH            ASN             DT            ILD             SP        SP_NORM         VSH_SP
# ...
      7849.0000         0.3184       113.1195         0.2198       -93.1578      -52.72317              0
      7849.5000         0.3005       118.5545         0.2161       -93.4536      -53.01686              0
      7850.0000         0.2932       119.3709         0.2159       -93.7498      -53.31095              0
      7850.5000         0.2858       118.5602         0.2157       -94.0459      -53.60493              0
      7851.0000         0.2832       117.7495         0.2156       -94.3262      -53.88313              0
      7851.5000         0.2832       116.9388         0.2169       -94.4545      -54.00931              0
      7852.0000         0.2831        117.111         0.2198       -94.5828       -54.1355              0
      7852.5000         0.2831       117.9695         0.2226       -94.7112      -54.26179              0
      7853.0000         0.2831       118.8279         0.2255       -94.8395      -54.38798              0
      7853.5000         0.2846        119.704         0.2283       -94.7583      -54.30467              0
      7854.0000         0.2883       119.5151         0.2338       -94.5875      -54.13176              0
      7854.5000          0.292       119.3168         0.2461       -94.4167      -53.95885              0
      7855.0000         0.2957        119.129         0.2593        -94.246      -53.78603              0
      7855.5000         0.3113       118.8521         0.2865       -94.0752      -53.61312              0
      7856.0000         0.3352       118.5565         0.3137       -93.4626      -52.99841              0
      7856.5000         0.3595       115.7046         0.3436       -92.6412      -52.17489              0
      7857.0000         0.3837        109.137         0.3736       -91.8187      -51.35029              0
      7857.5000         0.4472       102.5695         0.4515       -89.8857      -49.41517     0.01193533
      7858.0000         0.5093        97.0089         0.5795       -83.5471      -43.07446      0.1413376
      7858.5000         0.5752        108.336         0.6199       -60.0453      -19.57055      0.6210092
      7859.0000         0.6412       118.1573         0.6514       -49.4529      -8.976036      0.8372238
      7859.5000         0.6956        128.535           0.68       -47.2569      -6.777927      0.8820831
      7860.0000         0.7504       126.7698         0.7053       -45.6685      -5.187412      0.9145426
      7860.5000         0.7781       124.8986         0.7146       -44.6495      -4.166306      0.9353815
      7861.0000         0.7913       123.0275         0.7036       -43.9774      -3.492092       0.949141
      7861.5000         0.8013       121.1563         0.6515       -44.2111      -3.723682      0.9444146
      7862.0000          0.809       119.2852           0.48       -44.4448      -3.955269      0.9396884
      7862.5000         0.7993       116.8228         0.4308       -44.9633      -4.471657      0.9291499
      7863.0000         0.7853        114.139         0.3956       -45.6265      -5.132744      0.9156583
      7863.5000         0.7713       111.4552         0.3775       -48.1635      -7.667633      0.8639259
      7864.0000         0.7571       108.7714         0.3606       -50.8956      -10.39762      0.8082118
      7864.5000         0.7412       110.2651         0.3523       -57.1897      -16.68961      0.6798039
      7865.0000         0.7207       113.4173         0.3606       -60.8802        -20.378      0.6045306
      7865.5000         0.6824       114.4313         0.3938       -64.2743      -23.76999      0.5353065
      7866.0000          0.648       111.0298         0.4525       -65.3909      -24.88448      0.5125617
      7866.5000         0.6274       115.4808         0.5094       -62.9009      -22.39236      0.5634211
      7867.0000         0.6682       119.5107         0.5629       -51.5106      -10.99995      0.7959194
      7867.5000         0.7076       123.9656         0.6123       -49.8803      -9.367538      0.8292339
      7868.0000         0.7322       119.1302          0.665       -48.5661      -8.051228      0.8560974
      7868.5000         0.7552       113.7247         0.7021        -51.187      -10.67002      0.8026527
      7869.0000         0.8238       108.7837         0.6431       -54.5712       -14.0521      0.7336305
      7869.5000          0.926       114.3409         0.5841       -60.8802      -20.35899      0.6049185
      7870.0000         0.9539       108.3191         0.5173       -68.3551      -27.83178      0.4524126
      7870.5000         1.0169        90.2995         0.4453       -72.4904      -31.96497      0.3680618
      7871.0000         1.1235        73.6174         0.3619       -76.4822      -35.95466      0.2866396
      7871.5000         1.0454         78.111         0.3186       -80.0197      -39.49004      0.2144889
      7872.0000         0.9673        82.2942         0.2949       -84.9601      -44.42833      0.1137075
      7872.5000         0.8892        81.9703         0.2764       -87.3043      -46.77042      0.0659098
      7873.0000         0.8112        79.3961         0.2631       -88.9421      -48.40611     0.03252831
      7873.5000         0.7439         82.394          0.259       -88.9896       -48.4515     0.03160204
      7874.0000         0.7237       101.2701         0.2589       -88.4919      -47.95169     0.04180231
      7874.5000          0.701       110.7112         0.2587       -87.9941      -47.45178     0.05200452
      7875.0000         0.6194       115.1886         0.2589       -87.4963      -46.95186     0.06220689
      7875.5000         0.3913       115.8187         0.2623       -86.9987      -46.45216     0.07240498
      7876.0000         0.3704       113.5746         0.2657       -86.8313      -46.28264     0.07586452
      7876.5000         0.3599       111.3305         0.2691       -86.8148      -46.26403     0.07624435
      7877.0000          0.354       109.1718         0.2725       -86.7985      -46.24562     0.07662006
      7877.5000         0.3583       112.6799         0.2758        -86.782      -46.22701      0.0769999
      7878.0000         0.3669        114.145         0.2791       -86.6769       -46.1198     0.07918782
      7878.5000         0.3801       113.1095         0.2824       -86.4758      -45.91658     0.08333502
      7879.0000         0.3932        112.074         0.2843       -86.2749      -45.71357     0.08747809
      7879.5000         0.4057       111.0384          0.282       -86.0739      -45.51046     0.09162334
      7880.0000         0.4176       110.0241         0.2798       -85.8728      -45.30725     0.09577039
      7880.5000         0.4462       111.3047         0.2775       -85.6718      -45.10413     0.09991564
      7881.0000          0.433       112.5596         0.2746       -86.0704      -45.50062     0.09182405
      7881.5000         0.4205       114.0522          0.271       -86.7942      -46.22231     0.07709573
      7882.0000         0.4086       113.9619         0.2673       -87.5179       -46.9439     0.06236937
      7882.5000         0.3967       112.3206         0.2638       -88.9174      -48.34129     0.03385131
      7883.0000         0.3858       111.5736         0.2646       -89.9994      -49.42117     0.01181279
      7883.5000         0.3789       113.6996         0.2653       -89.8837      -49.30336     0.01421707
      7884.0000          0.372       114.9819         0.2661       -89.3102      -48.72776     0.02596415
      7884.5000         0.3707       116.1306         0.2668       -87.8181      -47.23354      0.0564583
      7885.0000         0.3772       119.0099         0.2873       -86.2717      -45.68503     0.08806065
      7885.5000         0.3836       117.3531         0.3199       -83.4829      -42.89412      0.1450179
      7886.0000         0.4049       115.6799          0.364       -75.9066      -35.31571      0.2996794
      7886.5000         0.4266       116.7839         0.4103       -73.7971      -33.20409      0.3427736
