#------------------------------------------------------------------------------
# Created by    : vladimir.rabinovich
# Created on    : 09/19/2023 17:20:51
#------------------------------------------------------------------------------
~Version Information Section
VERS.           2.0     :   CWLS log ASCII Standard - VERSION 2.0
WRAP.           NO      :   One line per depth step
~Well Information Section
#MNEM       .UNIT                                         VALUE :DESCRIPTION
#------------------------------------------------------------------------------
STRT        .FT                                            1818 :START DEPTH
STOP        .FT                                            9030 :STOP DEPTH
STEP        .FT                                             0.5 :STEP      
NULL        .                                           -999.25 :NULL      
COMP        .                               CONCHO PETROLEUM CO :COMPANY   
WELL        .                                  J E BROUSSARD JR :WELL      
FLD         .                                           WILDCAT :FIELD     
LOC         .                                                   :LOCATION  
CNTY        .                                         JEFFERSON :LOCATION  
STAT        .                                             TEXAS :STATE     
CTRY        .                                     UNITED STATES :COUNTRY   
SRVC        .                                                   :SERVICE COMPANY
DATE        .                             9/13/2023 11:19:11 AM :LOG DATE  
API         .                                    42245021900000 :API NUMBER
UWI         .                                    42245021900000 :UNIQUE WELL ID
XCOORD      .                                  1213918.99973078 :SURFACE X 
YCOORD      .                                  10884047.8383225 :SURFACE Y 
LAT         .                                         29.982808 :LATITUDE  
LON         .                                       -94.3475252 :LONGITUDE 
ELEV        .FT                                              35 :ELEVATION VALUE
ELEV_TYPE   .                                                GL :ELEVATION REFERENCE TYPE
~Curve Information Section
#MNEM       .UNIT                                      API CODE :CURVE DESCRIPTION
#------------------------------------------------------------------------------
DEPT        .FT                                                 :DEPTH     
ASN         .OHMM                                               :          
LAT         .OHMM                                               :          
LN          .OHMM                                               :          
SP          .MV                                                 :          
SP_NORM     .MV                                                 :SP Normalized
VSH_SP      .V/V                                                :Volume of Shale from SP
~A        DEPTH            ASN            LAT             LN             SP        SP_NORM         VSH_SP
# ...
      7556.0000         0.8167         0.3931         0.7544       -57.4183       4.310093              1
      7556.5000         0.8439         0.3921         0.7544        -57.435       4.293392              1
      7557.0000         0.8677         0.3737         0.7719       -57.4516       4.276794              1
      7557.5000         0.8949         0.3732         0.7895        -57.809       3.919395              1
      7558.0000         0.9221         0.3547          0.807       -57.8261       3.902294              1
      7558.5000         0.9459         0.3363         0.8246       -57.4934       4.234993              1
      7559.0000         0.9731         0.3178         0.8246       -57.1601       4.568295              1
      7559.5000         1.0074         0.2993         0.8246        -56.826       4.902393              1
      7560.0000         1.0281         0.3158         0.8421        -57.193       4.535393              1
      7560.5000         1.0246         0.3333         0.8421       -57.1942       4.534195              1
      7561.0000         1.0105         0.3509         0.8421       -58.2479       3.480495              1
      7561.5000              1         0.3684         0.8421       -59.2998       2.428593              1
      7562.0000         0.9897         0.3684         0.8421       -59.6502       2.078194              1
      7562.5000         0.9793          0.386         0.8421       -60.3586       1.369793              1
      7563.0000          0.969          0.386          0.807       -61.0767      0.6516953              1
      7563.5000         0.9621         0.4035         0.7895       -61.4369      0.2914925              1
      7564.0000         0.9517         0.4035         0.7719       -61.4382      0.2901917              1
      7564.5000         0.9448         0.4211         0.7544       -61.4395      0.2888947              1
      7565.0000         0.9483         0.4561         0.7193       -61.4408      0.2875938              1
      7565.5000         0.9724         0.4737         0.7018       -61.8026    -0.07420731              1
      7566.0000         0.9966         0.4912         0.6667       -62.1651     -0.4367065              1
      7566.5000         1.0211         0.5263         0.6491        -62.167     -0.4386063              1
      7567.0000         1.0386         0.5439         0.6667        -62.169     -0.4406052              1
      7567.5000         1.0386         0.5614         0.6842        -62.171     -0.4426079              1
      7568.0000         1.0386         0.5614         0.7018       -62.1729     -0.4445076              1
      7568.5000         1.0632         0.5439         0.7193       -62.5374     -0.8090057              1
      7569.0000         1.0737         0.5439         0.7368       -62.5397      -0.811306              1
      7569.5000         1.0386         0.5088         0.7719        -62.542     -0.8136063              1
      7570.0000              1         0.5088         0.7895       -62.5443     -0.8159065              1
      7570.5000         0.9412          0.473         0.8066       -62.9169      -1.188507      0.9978819
      7571.0000         0.9066         0.4367         0.8232       -63.6586      -1.930206      0.9895483
      7571.5000          0.896         0.4354         0.7872       -64.0363      -2.307907      0.9853044
      7572.0000         0.8821         0.4342         0.7688       -64.0507      -2.322304      0.9851426
      7572.5000         0.8681         0.4504         0.7503       -64.0652      -2.336807      0.9849797
      7573.0000         0.8542         0.4666         0.7143       -64.4414      -2.713005      0.9807528
      7573.5000         0.8471         0.5002         0.6959        -64.817      -3.088608      0.9765325
      7574.0000         0.8504         0.5163         0.6599        -65.553      -3.824608      0.9682629
      7574.5000         0.8812         0.5324          0.659       -66.6486      -4.920204      0.9559528
      7575.0000         0.9155         0.5659         0.6581       -66.3001      -4.571709      0.9598684
      7575.5000         0.9498         0.5819         0.6397       -65.2319       -3.50351      0.9718707
      7576.0000         0.9669         0.5805         0.6212       -63.8057      -2.077305      0.9878954
      7576.5000         0.9564         0.5792         0.6203       -63.8202      -2.091808      0.9877325
      7577.0000          0.908         0.5605         0.6019       -63.8348      -2.106407      0.9875684
      7577.5000         0.8561         0.5418          0.601       -66.7205      -4.992104      0.9551449
      7578.0000         0.8077         0.5232         0.5825       -73.1869       -11.4585      0.8824887
      7578.5000         0.7558         0.5045         0.5641       -79.2835      -17.55511      0.8139876
      7579.0000         0.7073          0.486         0.5632            -88      -26.27161      0.7160494
      7579.5000         0.6554         0.4674         0.5448       -93.6667      -31.93831      0.6523786
      7580.0000          0.607         0.4489         0.5439       -99.6667      -37.93831      0.5849628
      7580.5000         0.5544         0.4138         0.5263      -106.3246      -44.59621       0.510155
      7581.0000         0.5404         0.4138         0.5263      -113.7105      -51.98211      0.4271673
      7581.5000         0.5263         0.3793         0.5088      -121.0616      -59.33321      0.3445707
      7582.0000         0.5123         0.3276         0.5088      -128.5593       -66.8309       0.260327
      7582.5000         0.4982         0.2931         0.4912      -135.7295      -74.00111      0.1797628
      7583.0000         0.4842         0.2586         0.4737      -146.4874        -84.759     0.05888761
      7583.5000         0.4702         0.2414         0.4737      -154.1856       -92.4572              0
      7584.0000         0.4561         0.2586         0.4561       -148.287      -86.55861     0.03866731
      7584.5000         0.4526         0.2931         0.4561      -136.8915       -75.1631      0.1667067
      7585.0000         0.4947         0.3276         0.4561      -131.4396      -69.71121      0.2279639
      7585.5000         0.5404         0.3793         0.4561      -120.1796      -58.45121      0.3544808
      7586.0000         0.5404         0.4138         0.4386       -116.693      -54.96461      0.3936561
      7586.5000         0.5298          0.431         0.4386      -122.2698       -60.5414      0.3309954
      7587.0000         0.5193         0.4138         0.4386      -127.7754        -66.047      0.2691348
      7587.5000         0.5053         0.3966         0.4386      -133.2904      -71.56201      0.2071684
      7588.0000         0.4982         0.3621         0.4386      -138.8149       -77.0865      0.1450955
      7588.5000         0.4842         0.3276         0.4561      -147.1514        -85.423     0.05142692
      7589.0000         0.4772         0.2759         0.4561      -152.7041      -90.97571              0
      7589.5000         0.4737         0.2586         0.4561      -152.7276      -90.99921              0
      7590.0000         0.5509         0.2586         0.4737      -152.7511      -91.02271              0
      7590.5000         0.6276         0.2759         0.4735      -140.3618      -78.63341      0.1277145
      7591.0000          0.707         0.3103         0.4906      -129.7068      -67.97841      0.2474336
      7591.5000         0.7832         0.3448         0.4901      -125.6056       -63.8772      0.2935145
      7592.0000         0.8281         0.3966         0.4897      -123.5733      -61.84491      0.3163493
      7592.5000         0.8008         0.4483         0.4892      -121.2015      -59.47311      0.3429988
      7593.0000         0.7698         0.5172         0.4711      -119.8413      -58.11291      0.3582819
      7593.5000         0.7387         0.6034          0.453      -117.4063      -55.67791      0.3856415
