#------------------------------------------------------------------------------
# Created by    : vladimir.rabinovich
# Created on    : 09/19/2023 17:20:51
#------------------------------------------------------------------------------
~Version Information Section
VERS.           2.0     :   CWLS log ASCII Standard - VERSION 2.0
WRAP.           NO      :   One line per depth step
~Well Information Section
#MNEM       .UNIT                                         VALUE :DESCRIPTION
#------------------------------------------------------------------------------
STRT        .FT                                            1818 :START DEPTH
STOP        .FT                                            9030 :STOP DEPTH
STEP        .FT                                             0.5 :STEP      
NULL        .                                           -999.25 :NULL      
COMP        .                               CONCHO PETROLEUM CO :COMPANY   
WELL        .                                  J E BROUSSARD JR :WELL      
FLD         .                                           WILDCAT :FIELD     
LOC         .                                                   :LOCATION  
CNTY        .                                         JEFFERSON :LOCATION  
STAT        .                                             TEXAS :STATE     
CTRY        .                                     UNITED STATES :COUNTRY   
SRVC        .                                                   :SERVICE COMPANY
DATE        .                             9/13/2023 11:19:11 AM :LOG DATE  
API         .                                    42245021900000 :API NUMBER
UWI         .                                    42245021900000 :UNIQUE WELL ID
XCOORD      .                                  1213918.99973078 :SURFACE X 
YCOORD      .                                  10884047.8383225 :SURFACE Y 
LAT         .                                         29.982808 :LATITUDE  
LON         .                                       -94.3475252 :LONGITUDE 
ELEV        .FT                                              35 :ELEVATION VALUE
ELEV_TYPE   .                                                GL :ELEVATION REFERENCE TYPE
~Curve Information Section
#MNEM       .UNIT                                      API CODE :CURVE DESCRIPTION
#------------------------------------------------------------------------------
DEPT        .FT                                                 :DEPTH     
ASN         .OHMM                                               :          
LAT         .OHMM                                               :          
LN          .OHMM                                               :          
SP          .MV                                                 :          
SP_NORM     .MV                                                 :SP Normalized
VSH_SP      .V/V                                                :Volume of Shale from SP
~A        DEPTH            ASN            LAT             LN             SP        SP_NORM         VSH_SP
# ...
      8506.0000         1.0793         0.7931         0.8596       -56.8966      -5.044746      0.9569708
      8506.5000         1.0724         0.7931         0.8772       -57.2414      -5.389549      0.9533027
      8507.0000         1.0552         0.8276         0.8772        -57.931      -6.079147      0.9459665
      8507.5000         1.0414         0.8448         0.8772       -58.2759      -6.424049      0.9422973
      8508.0000         1.0276         0.8448         0.8772       -58.6207      -6.768848      0.9386293
      8508.5000         1.0138         0.8621         0.8772       -58.9655      -7.113647      0.9349612
      8509.0000         1.0034         0.8621         0.8596       -58.6207      -6.768848      0.9386293
      8509.5000         0.9897         0.8793         0.8421        -57.931      -6.079147      0.9459665
      8510.0000         0.9828         0.8793         0.8246       -57.2414      -5.389549      0.9533027
      8510.5000         0.9828         0.8793          0.807       -55.8621      -4.010246      0.9679761
      8511.0000         0.9759         0.8966          0.807       -55.1724      -3.320549      0.9753133
      8511.5000         0.9586         0.9138          0.807       -54.8276      -2.975746      0.9789814
      8512.0000         0.9517         0.9138          0.807       -54.1379      -2.286049      0.9863186
      8512.5000         0.9586         0.9138         0.8246       -53.7931      -1.941246      0.9899867
      8513.0000          0.969          0.931         0.8246       -53.7931      -1.941246      0.9899867
      8513.5000         0.9793          0.931         0.8421       -53.7931      -1.941246      0.9899867
      8514.0000         0.9862          0.931         0.8421       -53.4483      -1.596447      0.9936548
      8514.5000         0.9862         0.9483         0.8421       -53.4483      -1.596447      0.9936548
      8515.0000         0.9793         0.9655         0.8421       -53.1034      -1.251549      0.9973239
      8515.5000         0.9448         0.9655         0.8421       -53.1034      -1.251549      0.9973239
      8516.0000         0.9069         0.9655         0.8421       -52.7586     -0.9067459              1
      8516.5000         0.8655         0.9828          0.807       -52.4138     -0.5619469              1
      8517.0000         0.8172              1         0.7719        -52.069     -0.2171478              1
      8517.5000          0.769         1.0175         0.7193       -51.3793      0.4725533              1
      8518.0000         0.7931         1.0351         0.6842       -51.3793      0.4725533              1
      8518.5000         0.8207         1.0351         0.6316       -51.0345      0.8173523              1
      8519.0000         0.8483         1.0351         0.6316       -50.6897       1.162151              1
      8519.5000         0.8793         1.0351         0.6316       -50.6897       1.162151              1
      8520.0000         0.9069         1.0175         0.6491       -51.0345      0.8173523              1
      8520.5000         0.9379              1         0.6842       -51.3793      0.4725533              1
      8521.0000         0.9655         0.9828         0.7368       -51.3793      0.4725533              1
      8521.5000         0.9931         0.9655         0.7895       -51.3793      0.4725533              1
      8522.0000         1.0172         0.9483         0.8246       -51.3793      0.4725533              1
      8522.5000         1.0379          0.931         0.8772       -51.7241      0.1277542              1
      8523.0000         1.0552          0.931         0.9123       -51.3793      0.4725533              1
      8523.5000         1.0724         0.8966         0.9123       -51.3793      0.4725533              1
      8524.0000         1.0931         0.8966         0.9123       -51.3793      0.4725533              1
      8524.5000         1.1103         0.8621         0.9298       -50.6897       1.162151              1
      8525.0000          1.131         0.8448         0.9298       -50.6897       1.162151              1
      8525.5000         1.1483         0.8276         0.9474       -50.3448       1.507053              1
      8526.0000         1.1759         0.8276         0.9474            -50       1.851852              1
      8526.5000         1.1759         0.7931         0.9474            -50       1.851852              1
      8527.0000         1.1793         0.7931         0.9474       -50.3448       1.507053              1
      8527.5000         1.1862         0.7931         0.9649       -50.6897       1.162151              1
      8528.0000          1.225         0.7931         0.9649       -51.0345      0.8173523              1
      8528.5000         1.3107         0.7931         0.9649        -52.069     -0.2171478              1
      8529.0000         1.5719         0.7931         0.9649       -53.1034      -1.251549      0.9973239
      8529.5000         1.7931         0.7586         0.9474       -59.3103      -7.458447      0.9312931
      8530.0000         1.7966         0.7414         0.9123       -64.6429      -12.79105      0.8745633
      8530.5000         1.7724         0.7069         0.8947       -67.1429      -15.29105      0.8479676
      8531.0000         1.7241         0.6897         0.8772          -72.5      -20.64815      0.7909772
      8531.5000         1.6793         0.6552         0.8596       -77.8571      -26.00525      0.7339867
      8532.0000          1.631         0.6207         0.8246       -85.3333      -33.48145      0.6544527
      8532.5000          1.586         0.5862          0.807       -90.3333      -38.48145      0.6012612
      8533.0000         1.5368         0.5517         0.7895       -93.6667      -41.81485      0.5657995
      8533.5000         1.4877         0.5517         0.7719            -96      -44.14815      0.5409772
      8534.0000         1.4526         0.5345         0.7368      -101.0526      -49.20074      0.4872261
      8534.5000         1.3821         0.5172         0.7193      -105.9649      -54.11304      0.4349676
      8535.0000         1.3607         0.5172         0.7018      -110.5263      -58.67445      0.3864421
      8535.5000         1.2464         0.5172         0.6842      -115.4386      -63.58675      0.3341835
      8536.0000          1.131         0.5172         0.6667      -118.5965      -66.74464      0.3005889
      8536.5000         1.0241         0.5172         0.6316      -119.2982      -67.44635      0.2931239
      8537.0000         1.1172         0.5345          0.614      -103.1579      -51.30605      0.4648293
      8537.5000         1.2143         0.5517         0.5965       -95.3333      -43.48145      0.5480697
      8538.0000         1.3143         0.5517         0.5789       -99.3333      -47.48145      0.5055165
      8538.5000         1.3286         0.5862         0.5614      -103.1579      -51.30605      0.4648293
      8539.0000         1.2607         0.5862         0.5614      -101.4035      -49.55165      0.4834931
      8539.5000         1.1931         0.5862         0.5614       -99.6667      -47.81485      0.5019697
      8540.0000         1.0517         0.6034         0.5614       -97.6667      -45.81485      0.5232463
      8540.5000         1.0034         0.6207         0.5612       -96.0127      -44.16085       0.540842
      8541.0000         0.9586         0.6379         0.5608         -94.69      -42.83815      0.5549133
      8541.5000         0.9138         0.6379         0.5604       -101.809      -49.95715      0.4791793
      8542.0000         0.7897         0.6207         0.5425      -107.1081      -55.25625      0.4228059
      8542.5000         0.6655         0.6034         0.5421      -113.4732      -61.62135      0.3550921
      8543.0000         0.5404          0.569         0.5416       -121.623      -69.77115       0.268392
      8543.5000         0.5053         0.5172         0.5236      -126.2677      -74.41585      0.2189803
