#------------------------------------------------------------------------------
# Created by    : vladimir.rabinovich
# Created on    : 09/19/2023 17:20:50
#------------------------------------------------------------------------------
~Version Information Section
VERS.           2.0     :   CWLS log ASCII Standard - VERSION 2.0
WRAP.           NO      :   One line per depth step
~Well Information Section
#MNEM       .UNIT                                         VALUE :DESCRIPTION
#------------------------------------------------------------------------------
STRT        .FT                                            1769 :START DEPTH
STOP        .FT                                           14822 :STOP DEPTH
STEP        .FT                                             0.5 :STEP      
NULL        .                                           -999.25 :NULL      
COMP        .                                      SHELL OIL CO :COMPANY   
WELL        .                                 MCFADDEN CEE CRSS :WELL      
FLD         .                                           WILDCAT :FIELD     
LOC         .                                                   :LOCATION  
CNTY        .                                         JEFFERSON :LOCATION  
STAT        .                                             TEXAS :STATE     
CTRY        .                                     UNITED STATES :COUNTRY   
SRVC        .                                                   :SERVICE COMPANY
DATE        .                             9/13/2023 11:19:11 AM :LOG DATE  
API         .                                    42245030100000 :API NUMBER
UWI         .                                    42245030100000 :UNIQUE WELL ID
XCOORD      .                                  1300794.63996209 :SURFACE X 
YCOORD      .                                  10796706.8159759 :SURFACE Y 
LAT         .                                        29.7451097 :LATITUDE  
LON         .                                       -94.0705183 :LONGITUDE 
ELEV        .FT                                            17.6 :ELEVATION VALUE
ELEV_TYPE   .                                                KB :ELEVATION REFERENCE TYPE
~Curve Information Section
#MNEM       .UNIT                                      API CODE :CURVE DESCRIPTION
#------------------------------------------------------------------------------
DEPT        .FT                                                 :DEPTH     
ASN         .OHMM                                               :          
DT          .US/F                                               :          
ILD         .OHMM                                               :          
SP          .MV                                                 :          
SP_NORM     .MV                                                 :SP Normalized
VSH_SP      .V/V                                                :Volume of Shale from SP
~A        DEPTH            ASN             DT            ILD             SP        SP_NORM         VSH_SP
# ...
     11345.0000         0.5042       142.9885          0.484       -46.3942      -4.418892      0.9302267
     11345.5000          0.501       143.0658         0.4863        -46.463      -4.487694      0.9288226
     11346.0000         0.4983       143.0655         0.4886       -46.5427      -4.567394       0.927196
     11346.5000         0.4984       143.6278          0.491       -46.6223      -4.646992      0.9255716
     11347.0000         0.4985       143.6119         0.4936       -46.7019      -4.726593      0.9239471
     11347.5000         0.5043       140.8418         0.4963       -46.7817      -4.806393      0.9223185
     11348.0000         0.5115       138.0716         0.4989       -46.8613      -4.885994       0.920694
     11348.5000         0.5183       135.3015         0.5015       -46.9409      -4.965591      0.9190696
     11349.0000         0.5247        133.769         0.5042       -46.9728      -4.997494      0.9184185
     11349.5000         0.5309       132.9942         0.5068       -46.9891      -5.013794      0.9180858
     11350.0000          0.534       139.3177         0.5088       -47.0055      -5.030193      0.9177511
     11350.5000         0.5297       145.1548         0.5101       -47.0218      -5.046494      0.9174185
     11351.0000         0.5254       144.9996         0.5113       -47.0392      -5.063892      0.9170634
     11351.5000         0.5218       144.4436         0.5126       -47.0575      -5.082191        0.91669
     11352.0000         0.5185       143.3725         0.5138       -47.0758      -5.100494      0.9163164
     11352.5000         0.5151       142.0812         0.5151       -47.0942      -5.118893      0.9159409
     11353.0000         0.5117       138.3372         0.5163       -47.0952      -5.119892      0.9159206
     11353.5000         0.5115       138.0934         0.5176       -47.0923      -5.116993      0.9159797
     11354.0000         0.5135       139.5436         0.5179       -47.0896      -5.114292      0.9160349
     11354.5000         0.5154        142.086         0.5165       -47.0868      -5.111492       0.916092
     11355.0000         0.5172       145.0752         0.5152        -47.084      -5.108692      0.9161491
     11355.5000          0.519       142.7667         0.5138       -47.0726      -5.097294      0.9163818
     11356.0000         0.5175       139.9659         0.5125       -47.0516      -5.076294      0.9168103
     11356.5000         0.5155       139.0715         0.5111       -47.0306      -5.055294      0.9172389
     11357.0000         0.5134       140.8317         0.5098       -47.0096      -5.034294      0.9176674
     11357.5000         0.5114        142.592         0.5086       -46.9906      -5.015293      0.9180552
     11358.0000         0.5097       144.3522         0.5095       -46.9879      -5.012592      0.9181104
     11358.5000          0.508       146.6319         0.5105        -46.985      -5.009693      0.9181695
     11359.0000         0.5063       147.2423         0.5114       -46.9823      -5.006992      0.9182246
     11359.5000         0.5046       139.6492         0.5124       -46.9795      -5.004192      0.9182818
     11360.0000         0.5033       139.4184         0.5133       -46.9767      -5.001392       0.918339
     11360.5000         0.5047       139.9485         0.5141       -46.9739      -4.998592      0.9183961
     11361.0000          0.506       140.6058         0.5138       -46.9712      -4.995892      0.9184512
     11361.5000         0.5077        141.263         0.5135       -46.9684      -4.993092      0.9185084
     11362.0000         0.5107       142.0511         0.5132       -46.9656      -4.990292      0.9185655
     11362.5000         0.5138       143.4452         0.5129       -46.9628      -4.987492      0.9186226
     11363.0000         0.5168       141.2017         0.5126         -46.96      -4.984692      0.9186798
     11363.5000         0.5198       140.5787         0.5123       -46.9573      -4.981991      0.9187349
     11364.0000         0.5228       140.9261         0.5123       -46.9545      -4.979191       0.918792
     11364.5000         0.5258       140.8881         0.5132       -46.9517      -4.976391      0.9188492
     11365.0000         0.5272       141.1947         0.5142       -46.9473      -4.971992      0.9189389
     11365.5000         0.5267       141.5848         0.5151       -46.9118      -4.936493      0.9196634
     11366.0000         0.5262       142.4731         0.5161       -46.8763      -4.900993      0.9203879
     11366.5000         0.5243       142.1265          0.517       -46.8408      -4.865494      0.9211124
     11367.0000         0.5218       142.1263         0.5182       -46.8052      -4.829891      0.9218389
     11367.5000         0.5194       141.8162         0.5198       -46.7697      -4.794392      0.9225634
     11368.0000         0.5189        140.907         0.5214       -46.7342      -4.758892      0.9232879
     11368.5000         0.5202       139.8018          0.523       -46.6987      -4.723392      0.9240124
     11369.0000          0.523       138.1987         0.5246       -46.6631      -4.687794      0.9247389
     11369.5000         0.5271       138.9711         0.5263       -46.6276      -4.652294      0.9254634
     11370.0000         0.5312       140.4899         0.5281       -46.6005      -4.625191      0.9260165
     11370.5000         0.5366       142.0472         0.5305       -46.5897      -4.614391      0.9262369
     11371.0000         0.5423       141.2705         0.5329       -46.5789      -4.603592      0.9264573
     11371.5000          0.554       140.1877         0.5352       -46.5681      -4.592793      0.9266777
     11372.0000         0.5655       139.7348         0.5376       -46.5573      -4.581993      0.9268981
     11372.5000          0.575       139.3352         0.5399       -46.5465      -4.571194      0.9271185
     11373.0000          0.573       139.0703         0.5414       -46.5356      -4.560291       0.927341
     11373.5000         0.5711         138.87         0.5425       -46.5249      -4.549591      0.9275594
     11374.0000         0.5691       138.9015         0.5435       -46.5141      -4.538792      0.9277797
     11374.5000         0.5672       139.3343         0.5445       -46.5033      -4.527992      0.9280002
     11375.0000         0.5652        138.868         0.5455       -46.4959      -4.520592      0.9281512
     11375.5000          0.566       136.7997         0.5465       -46.4932      -4.517891      0.9282063
     11376.0000          0.567       134.7315         0.5474       -46.4904      -4.515091      0.9282634
     11376.5000         0.5698       132.6633         0.5483       -46.4876      -4.512291      0.9283206
     11377.0000         0.5755       135.0329         0.5492       -46.4848      -4.509491      0.9283777
     11377.5000         0.5813       138.8001         0.5501       -46.4821      -4.506794      0.9284328
     11378.0000         0.5872        138.006          0.551       -46.4792      -4.503891       0.928492
     11378.5000         0.5905       137.1636          0.552       -46.4764      -4.501091      0.9285492
     11379.0000         0.5925       137.0859         0.5529       -46.4737      -4.498394      0.9286042
     11379.5000         0.5942       136.5434         0.5538       -46.4709      -4.495594      0.9286613
     11380.0000         0.5938       134.2689         0.5547       -46.4672      -4.491894      0.9287369
     11380.5000         0.5935       133.9868         0.5556        -46.457      -4.481693      0.9289451
     11381.0000         0.5932       133.9091         0.5565       -46.4468      -4.471493      0.9291532
     11381.5000         0.5929       133.9089         0.5574       -46.4366      -4.461292      0.9293614
     11382.0000         0.5897        133.493         0.5574       -46.4264      -4.451092      0.9295695
     11382.5000         0.5863       132.3592         0.5569       -46.4161      -4.440792      0.9297798
