#------------------------------------------------------------------------------
# Created by    : vladimir.rabinovich
# Created on    : 09/19/2023 17:22:03
#------------------------------------------------------------------------------
~Version Information Section
VERS.           2.0     :   CWLS log ASCII Standard - VERSION 2.0
WRAP.           NO      :   One line per depth step
~Well Information Section
#MNEM       .UNIT                                         VALUE :DESCRIPTION
#------------------------------------------------------------------------------
STRT        .FT                                             959 :START DEPTH
STOP        .FT                                            9240 :STOP DEPTH
STEP        .FT                                             0.5 :STEP      
NULL        .                                           -999.25 :NULL      
COMP        .                                  SAMEDAN OIL CORP :COMPANY   
WELL        .                                            WILBER :WELL      
FLD         .                                     HAMSHIRE WEST :FIELD     
LOC         .                                                   :LOCATION  
CNTY        .                                         JEFFERSON :LOCATION  
STAT        .                                             TEXAS :STATE     
CTRY        .                                     UNITED STATES :COUNTRY   
SRVC        .                                                   :SERVICE COMPANY
DATE        .                             9/13/2023 11:18:46 AM :LOG DATE  
API         .                                    42245321080000 :API NUMBER
UWI         .                                    42245321080000 :UNIQUE WELL ID
XCOORD      .                                  1220512.54732583 :SURFACE X 
YCOORD      .                                  10829820.5318697 :SURFACE Y 
LAT         .                                        29.8338887 :LATITUDE  
LON         .                                       -94.3247224 :LONGITUDE 
ELEV        .FT                                              24 :ELEVATION VALUE
ELEV_TYPE   .                                                KB :ELEVATION REFERENCE TYPE
~Curve Information Section
#MNEM       .UNIT                                      API CODE :CURVE DESCRIPTION
#------------------------------------------------------------------------------
DEPT        .FT                                                 :DEPTH     
CALI        .IN                                                 :          
DPSS        .%                                                  :          
DRHO        .G/CM3                                              :          
GR          .GAPI                                               :          
GR_NORM     .GAPI                                               :GammaRay Normalized
ILD         .OHMM                                               :          
ILM         .OHMM                                               :          
NPSS        .%                                                  :Neutron Porosity Sandstone
SGRD        .OHMM                                               :          
SP          .MV                                                 :          
SP_NORM     .MV                                                 :SP Normalized
TENS        .LB                                                 :          
VSH_GR      .V/V                                                :Volume of Shale from GR
VSH_SP      .V/V                                                :Volume of Shale from SP
~A        DEPTH           CALI           DPSS           DRHO             GR        GR_NORM            ILD            ILM           NPSS           SGRD             SP        SP_NORM           TENS         VSH_GR         VSH_SP
# ...
      5927.0000          10.49        -999.25        -999.25        47.0038       35.92738         0.2356         0.2734        -999.25         0.8605      -157.9505      -73.59115       3373.569     0.06228475      0.1358197
      5927.5000          10.49        -999.25        -999.25        49.2686       39.00344         0.2336         0.2638        -999.25         0.7631      -157.3366      -72.98333       3374.569      0.1277328      0.1430556
      5928.0000          10.45        -999.25        -999.25        49.4336       39.21836         0.2326         0.2627        -999.25         0.7025      -155.5347      -71.18752       3375.569      0.1323055      0.1644343
      5928.5000          10.41        -999.25        -999.25        50.6484       40.86371          0.249         0.2762        -999.25         0.6653      -152.1485      -67.80742        3396.57      0.1673129      0.2046736
      5929.0000          10.41        -999.25        -999.25        56.3629       48.64024         0.2852          0.297        -999.25         0.6359      -141.4356       -57.1006       3417.571       0.332771      0.3321357
      5929.5000          10.41        -999.25        -999.25        61.7599       55.98416          0.331         0.3233        -999.25          0.619      -117.4522       -33.1233       3418.571      0.4890246      0.6175798
      5930.0000          10.37        -999.25        -999.25        67.7153       64.08893         0.3924         0.3571        -999.25         0.6306      -111.4927      -27.16989       3419.571      0.6614665      0.6884537
      5930.5000        10.3305        -999.25        -999.25        73.3701       71.78413         0.4642         0.4171        -999.25         0.6083      -109.6955      -25.37878       3419.424      0.8251942      0.7097764
      5931.0000        10.2915        -999.25        -999.25        76.9613        76.6675         0.5356          0.491        -999.25         0.5454      -103.7345      -19.42387       3418.416      0.9290956      0.7806683
      5931.5000        10.2326        -999.25        -999.25        79.5194       80.14318         0.6058         0.5381        -999.25         0.5165       -96.9537      -12.64915       3417.407              1      0.8613196
      5932.0000        10.1736        -999.25        -999.25        78.6263       78.91636         0.6457         0.5711        -999.25         0.5457       -92.7412      -8.442757       3356.402      0.9769438      0.9113957
      5932.5000        10.1146        -999.25        -999.25        75.3341       74.42058         0.6666         0.6061        -999.25         0.5661       -88.9338      -4.641441       3395.492      0.8812889      0.9566495
      5933.0000         9.9956        -999.25        -999.25        73.4076       71.78568         0.6821         0.6401        -999.25         0.5484       -84.9307     -0.6444321       3414.482      0.8252271              1
      5933.5000         9.8565        -999.25        -999.25        72.9695       71.17881         0.6979         0.6639        -999.25         0.5313       -83.7222      0.5579834       3413.474      0.8123151              1
      5934.0000         9.7775        -999.25        -999.25        73.1256       71.38162         0.7275         0.6886        -999.25         0.5412       -83.9096      0.3644867       3432.464      0.8166302              1
      5934.5000         9.7985        -999.25        -999.25        75.5144       74.62661          0.769         0.7412        -999.25         0.6094       -83.6985      0.5694962       3451.454      0.8856726              1
      5935.0000         9.9195        -999.25        -999.25        78.3717       78.50999         0.8484         0.8056        -999.25         0.7015       -83.6866      0.5753098       3450.445      0.9682976              1
      5935.5000        10.0405        -999.25        -999.25        79.1292       79.53225         0.9173         0.8648        -999.25         0.7909        -83.078       1.177818       3449.436      0.9900479              1
      5936.0000        10.1615        -999.25        -999.25        79.1368       79.53271         0.9692         0.9371        -999.25         0.8898       -82.8676       1.382126       3448.428      0.9900576              1
      5936.5000        10.1826        -999.25        -999.25        77.3445       77.08064         1.0263         0.9983        -999.25         0.9983       -83.8498       0.393837       3447.419       0.937886              1
      5937.0000        10.1836        -999.25        -999.25        75.7015       74.83202         1.0851         1.0851        -999.25         1.0218        -84.435     -0.1974487       3446.411      0.8900429              1
      5937.5000        10.1446        -999.25        -999.25        75.2591       74.21932         1.1526         1.1056        -999.25          1.008        -85.614      -1.382538       3445.402      0.8770068       0.995446
      5938.0000        10.1256        -999.25        -999.25        82.1668       83.62167         1.1962         1.1059        -999.25         0.9498       -86.7919      -2.566536       3404.498              1      0.9813508
      5938.5000        10.1066        -999.25        -999.25        82.0244       83.41771         1.2132         1.1061        -999.25         0.8908       -85.9851      -1.765823       3403.489              1      0.9908831
      5939.0000        10.1075        -999.25        -999.25        78.2815       78.30783         1.2023         1.1064        -999.25         0.8621       -85.1792      -0.966011       3442.477      0.9639964              1
      5939.5000        10.0485        -999.25        -999.25        75.4394       74.42534         1.1806         1.1169        -999.25         0.8623        -84.176     0.03108978       3441.469      0.8813902              1
      5940.0000        10.0095        -999.25        -999.25        76.7968         76.265         1.1592         1.1276        -999.25         0.8915       -83.7678      0.4332047        3440.46      0.9205319              1
      5940.5000         9.9711        -999.25        -999.25        80.4081       81.17576         1.1596         1.1383        -999.25         0.9271       -83.1584       1.036514       3419.068              1              1
      5941.0000         9.9331        -999.25        -999.25        80.5733       81.39097         1.1599         1.1386        -999.25          0.939       -83.5361      0.6527252       3477.292              1              1
      5941.5000         9.8551        -999.25        -999.25        77.4376       77.10841         1.1602         1.1285        -999.25         0.9119       -84.3106     -0.1278687       3475.545      0.9384769              1
      5942.0000         9.7571        -999.25        -999.25        72.8213       70.80845         1.1605         1.0979        -999.25         0.8677       -83.8977      0.2789459       3473.799      0.8044351              1
      5942.5000         9.5192        -999.25        -999.25        74.0261       72.44016         1.1239         1.0582        -999.25         0.8207       -82.8873       1.283257       3432.153      0.8391522              1
      5943.0000         9.3812        -999.25        -999.25        76.5835       75.91491         1.0634         1.0153        -999.25         0.7983       -83.6627        0.50177       3390.548      0.9130832              1
      5943.5000          9.303        -999.25        -999.25        79.5982       80.01275         1.0108         0.9846        -999.25         0.7734       -84.6375      -0.479126       3388.848              1              1
      5944.0000          9.285        -999.25        -999.25        84.1127       86.15421         0.9807         0.9522        -999.25         0.7288       -85.2158      -1.063515       3387.149              1      0.9992439
      5944.5000          9.267        -999.25        -999.25        89.2287       93.11523         0.9564         0.9208        -999.25         0.6774       -85.3987      -1.252502       3385.451              1       0.996994
