#------------------------------------------------------------------------------
# Created by    : vladimir.rabinovich
# Created on    : 09/19/2023 17:20:52
#------------------------------------------------------------------------------
~Version Information Section
VERS.           2.0     :   CWLS log ASCII Standard - VERSION 2.0
WRAP.           NO      :   One line per depth step
~Well Information Section
#MNEM       .UNIT                                         VALUE :DESCRIPTION
#------------------------------------------------------------------------------
STRT        .FT                                            1558 :START DEPTH
STOP        .FT                                           11266 :STOP DEPTH
STEP        .FT                                             0.5 :STEP      
NULL        .                                           -999.25 :NULL      
COMP        .                               MEREDITH & CO ET AL :COMPANY   
WELL        .                                 GRINNELL TEXAS CO :WELL      
FLD         .                                           WILDCAT :FIELD     
LOC         .                                                   :LOCATION  
CNTY        .                                         JEFFERSON :LOCATION  
STAT        .                                             TEXAS :STATE     
CTRY        .                                     UNITED STATES :COUNTRY   
SRVC        .                                                   :SERVICE COMPANY
DATE        .                             9/13/2023 11:19:11 AM :LOG DATE  
API         .                                    42245015300000 :API NUMBER
UWI         .                                    42245015300000 :UNIQUE WELL ID
XCOORD      .                                  1358778.50439977 :SURFACE X 
YCOORD      .                                  10877447.4356243 :SURFACE Y 
LAT         .                                        29.9685419 :LATITUDE  
LON         .                                       -93.8897358 :LONGITUDE 
ELEV        .FT                                              14 :ELEVATION VALUE
ELEV_TYPE   .                                                DF :ELEVATION REFERENCE TYPE
~Curve Information Section
#MNEM       .UNIT                                      API CODE :CURVE DESCRIPTION
#------------------------------------------------------------------------------
DEPT        .FT                                                 :DEPTH     
ASN         .OHMM                                               :          
LN          .OHMM                                               :          
SP          .MV                                                 :          
SP_NORM     .MV                                                 :SP Normalized
VSH_SP      .V/V                                                :Volume of Shale from SP
~A        DEPTH            ASN             LN             SP        SP_NORM         VSH_SP
# ...
      3494.0000         0.8135         0.6369        -79.595      -57.37278      0.1830032
      3494.5000         0.7187         0.6229       -82.0317      -59.80948      0.1476887
      3495.0000         0.5551          0.609       -80.0734      -57.85118      0.1760698
      3495.5000         0.5726          0.595       -78.3529      -56.13068      0.2010047
      3496.0000         0.6117         0.5811       -75.7794      -53.55718      0.2383017
      3496.5000         0.6432         0.5749       -72.1226      -49.90038      0.2912989
      3497.0000         0.6747         0.5787       -66.8545      -44.63228      0.3676481
      3497.5000         0.7061         0.5825       -59.0735      -36.85128      0.4804162
      3498.0000         0.7376         0.5869       -49.5116      -27.28938      0.6189945
      3498.5000          0.769         0.5939       -40.5668      -18.34458      0.7486293
      3499.0000         0.7906          0.601       -32.0981      -9.875877      0.8713641
      3499.5000         0.8111          0.608       -25.9307      -3.708479      0.9607467
      3500.0000         0.8292         0.6151        -21.196       1.026222              1
      3500.5000         0.8399         0.6221       -21.8969      0.3253212              1
      3501.0000         0.8274         0.6291       -26.1974      -3.975178      0.9568815
      3501.5000         0.8099         0.6303       -32.9666      -10.74438      0.8587772
      3502.0000         0.7915         0.6288       -37.2419      -15.01968      0.7968162
      3502.5000         0.7729         0.6273        -37.827      -15.60478      0.7883366
      3503.0000         0.7543         0.6258       -34.3112      -12.08898      0.8392902
      3503.5000         0.7356         0.6243       -31.6573       -9.43508      0.8777525
      3504.0000         0.7176         0.6228       -30.7144      -8.492178      0.8914177
      3504.5000         0.6996         0.6213       -29.9186      -7.696379      0.9029511
      3505.0000         0.6817         0.6194       -29.4812      -7.258978      0.9092902
      3505.5000         0.6668         0.6167       -29.0433      -6.821079      0.9156365
      3506.0000         0.6688          0.614       -29.2624      -7.040178      0.9124612
      3506.5000         0.6706         0.6113       -31.4148      -9.192579       0.881267
      3507.0000         0.6712         0.6086        -33.608      -11.38578      0.8494815
      3507.5000         0.6719         0.6059         -37.99      -15.76778      0.7859742
      3508.0000         0.6725         0.6032        -42.306      -20.08378      0.7234235
      3508.5000         0.6731         0.5994       -46.5756      -24.35338      0.6615452
      3509.0000         0.6738         0.5954       -51.6387      -29.41648       0.588167
      3509.5000         0.6744         0.5914       -56.5541      -34.33188      0.5169293
      3510.0000          0.675         0.5874        -61.377      -39.15478      0.4470322
      3510.5000         0.6756         0.5814       -66.4598      -44.23758      0.3733684
      3511.0000         0.6763         0.5751       -73.1807      -50.95848      0.2759641
      3511.5000         0.6834         0.5688        -73.939      -51.71678      0.2649742
      3512.0000         0.6972         0.5625       -66.6605      -44.43828      0.3704597
      3512.5000         0.7217         0.5562       -57.5174      -35.29518      0.5029684
      3513.0000         0.7462         0.5427       -49.2691      -27.04688       0.622509
      3513.5000         0.7707          0.529       -41.5455      -19.32328      0.7344452
      3514.0000         0.7892         0.5153       -35.5521      -13.32988      0.8213061
      3514.5000         0.8048         0.5017       -30.8549      -8.632679      0.8893815
      3515.0000         0.8203          0.488       -31.5911      -9.368879      0.8787119
      3515.5000         0.8358          0.475       -35.1631      -12.94088      0.8269438
      3516.0000         0.8133         0.4681       -37.2538      -15.03158      0.7966438
      3516.5000         0.7628         0.4611       -38.8585      -16.63628      0.7733873
      3517.0000         0.7122         0.4542       -40.6594      -18.43718      0.7472873
      3517.5000         0.6616         0.4473       -50.5917      -28.36948      0.6033409
      3518.0000         0.6109         0.4404       -58.6239      -36.40168      0.4869322
      3518.5000         0.5684         0.4335       -67.6216      -45.39938      0.3565308
      3519.0000         0.5277         0.4266       -78.6758      -56.45358       0.196325
      3519.5000         0.4901         0.4222       -81.8102      -59.58798      0.1508988
      3520.0000         0.4629         0.4217       -84.8014      -62.57918      0.1075481
      3520.5000         0.4358         0.4212       -85.9231      -63.70088     0.09129157
      3521.0000         0.4136         0.4206       -85.9305      -63.70827     0.09118442
      3521.5000         0.4073         0.4201       -85.9463      -63.72408     0.09095543
      3522.0000         0.4142         0.4196       -86.0068      -63.78458      0.0900786
      3522.5000          0.422         0.4191       -86.0676      -63.84538     0.08919746
      3523.0000         0.4345         0.4186       -86.1263      -63.90408     0.08834673
      3523.5000          0.447         0.4189       -86.1832      -63.96098     0.08752209
      3524.0000         0.4356         0.4192       -86.2401      -64.01788     0.08669745
      3524.5000         0.4153         0.4195       -86.5829      -64.36068     0.08172928
      3525.0000          0.395         0.4198       -87.0753      -64.85308     0.07459303
      3525.5000         0.3747         0.4201       -88.2245      -66.00228     0.05793795
      3526.0000         0.3851         0.4204       -89.7729      -67.55068     0.03549736
      3526.5000         0.3988         0.4207       -90.7423      -68.52008     0.02144811
      3527.0000         0.4196          0.421       -91.1306      -68.90838      0.0158206
      3527.5000         0.4616         0.4343       -91.1957      -68.97348      0.0148771
      3528.0000         0.5035         0.4573       -91.1149      -68.89268     0.01604816
      3528.5000         0.5455         0.4803       -90.0155      -67.79328     0.03198143
      3529.0000         0.5999         0.5033       -88.6543      -66.43208     0.05170905
      3529.5000         0.6586         0.5263       -83.3643      -61.14208      0.1283756
      3530.0000         0.7165         0.5627       -76.2798      -54.05758      0.2310496
      3530.5000         0.7578         0.6128       -47.5807      -25.35848      0.6469786
      3531.0000         0.7992          0.663       -32.1422      -9.919979      0.8707249
      3531.5000         0.8368         0.7131       -22.2099     0.01232147              1
      3532.0000         0.8717         0.7633       -20.4278       1.794422              1
      3532.5000         0.9381         0.8134       -19.0587       3.163521              1
      3533.0000         0.9976         0.8636       -18.6212       3.601021              1
      3533.5000         1.0457         0.8963       -18.1836       4.038622              1
      3534.0000         1.0931         0.9286       -18.0864       4.135822              1
      3534.5000         1.1378         0.9609       -19.1339       3.088322              1
      3535.0000         1.1825         0.9932       -20.1815       2.040722              1
      3535.5000         1.2175         1.0014          -23.7      -1.477779      0.9930757
      3536.0000         1.2484         1.0072       -28.0996      -5.877378      0.9293134
      3536.5000         1.2793         1.0129       -32.7748      -10.55258      0.8615568
      3537.0000         1.3048         1.0187       -34.8639      -12.64168      0.8312801
      3537.5000         1.2726         1.0245       -35.8489      -13.62668      0.8170047
