#------------------------------------------------------------------------------
# Created by    : vladimir.rabinovich
# Created on    : 09/19/2023 17:19:40
#------------------------------------------------------------------------------
~Version Information Section
VERS.           2.0     :   CWLS log ASCII Standard - VERSION 2.0
WRAP.           NO      :   One line per depth step
~Well Information Section
#MNEM       .UNIT                                         VALUE :DESCRIPTION
#------------------------------------------------------------------------------
STRT        .FT                                            1208 :START DEPTH
STOP        .FT                                            8860 :STOP DEPTH
STEP        .FT                                             0.5 :STEP      
NULL        .                                           -999.25 :NULL      
COMP        .                             WEAVER EXPLORATION CO :COMPANY   
WELL        .                                       BEAVERS W H :WELL      
FLD         .                                           WILDCAT :FIELD     
LOC         .                                                   :LOCATION  
CNTY        .                                         JEFFERSON :LOCATION  
STAT        .                                             TEXAS :STATE     
CTRY        .                                     UNITED STATES :COUNTRY   
SRVC        .                                                   :SERVICE COMPANY
DATE        .                             9/13/2023 11:18:46 AM :LOG DATE  
API         .                                    42245314920000 :API NUMBER
UWI         .                                    42245314920000 :UNIQUE WELL ID
XCOORD      .                                  1212655.17721247 :SURFACE X 
YCOORD      .                                  10886677.7304034 :SURFACE Y 
LAT         .                                        29.9899994 :LATITUDE  
LON         .                                       -94.3516153 :LONGITUDE 
ELEV        .FT                                            37.2 :ELEVATION VALUE
ELEV_TYPE   .                                                KB :ELEVATION REFERENCE TYPE
~Curve Information Section
#MNEM       .UNIT                                      API CODE :CURVE DESCRIPTION
#------------------------------------------------------------------------------
DEPT        .FT                                                 :DEPTH     
ALL         .OHMM                                               :          
CILD        .MMHO/M                                             :          
ILD         .OHMM                                               :          
SP          .MV                                                 :          
SP_NORM     .MV                                                 :SP Normalized
VSH_SP      .V/V                                                :Volume of Shale from SP
~A        DEPTH            ALL           CILD            ILD             SP        SP_NORM         VSH_SP
# ...
      5768.0000         0.4966       5313.819            0.2        94.6789      -51.00011      0.3243228
      5768.5000         0.4785       5313.819         0.2004        95.2537      -50.42532      0.3320903
      5769.0000         0.4624        4505.54         0.2009        96.2057      -49.47331      0.3449552
      5769.5000         0.4625         3980.3         0.2014       111.3921      -34.28692      0.5501768
      5770.0000         0.5111       3956.031         0.2322       123.4329      -22.24612      0.7128903
      5770.5000         0.5839       3639.876         0.2831       126.4691      -19.20992      0.7539201
      5771.0000         0.6562       2293.794         0.3545       126.0722      -19.60682      0.7485565
      5771.5000         0.6523       2062.249         0.3852       115.8272      -29.85181      0.6101106
      5772.0000         0.6144       3969.736         0.3857       110.8245      -34.85452      0.5425066
      5772.5000         0.5763       3969.736         0.3862       110.8245      -34.85452      0.5425066
      5773.0000         0.5965       3998.779         0.3867       103.4101      -42.26891       0.442312
      5773.5000         0.6187       4002.723         0.3771        96.0377      -49.64132      0.3426849
      5774.0000         0.6508       4014.554         0.3574        71.4851      -74.19392     0.01089302
      5774.5000         0.6689       5831.291         0.3377        71.4851      -74.19392     0.01089302
      5775.0000          0.703       5831.291         0.3079        71.2871      -74.39191    0.008217374
      5775.5000         0.6631       5831.291          0.268        70.6931      -74.98592   0.0001903225
      5776.0000         0.6732       5831.291         0.2382         70.297      -75.38202              0
      5776.5000         0.6913       5831.291         0.1983         69.901      -75.77802              0
      5777.0000         0.7074       5831.291         0.1988         69.703      -75.97601              0
      5777.5000         0.7355       5831.291         0.1894        69.3069      -76.37212              0
      5778.0000         0.7476       5827.157         0.1899        68.9109      -76.76812              0
      5778.5000         0.7857       5806.681         0.1903        68.7129      -76.96612              0
      5779.0000         0.7538       5745.926         0.1908        68.3168      -77.36221              0
      5779.5000         0.7459       5745.734         0.1812        69.1089      -76.57011              0
      5780.0000          0.744       5745.542         0.1817        69.1072      -76.57182              0
      5780.5000         0.7381       5741.312         0.1822        69.1166      -76.56242              0
      5781.0000         0.7202       5704.687         0.1826         69.126      -76.55302              0
      5781.5000         0.7023       5656.044         0.1831        68.3439      -77.33511              0
      5782.0000         0.6664       5583.081         0.1836        67.7597      -77.91932              0
      5782.5000         0.6565       5530.401         0.1843         67.967      -77.71201              0
      5783.0000         0.6446       5554.434         0.1848         68.768      -76.91102              0
      5783.5000         0.6027       5703.629         0.1853        69.7715      -75.90752              0
      5784.0000         0.6028       5812.545         0.1858        70.5724      -75.10661              0
      5784.5000         0.6029       5925.499         0.1963        71.1755      -74.50352    0.006709228
      5785.0000          0.603       5925.307         0.1968        71.9764      -73.70261     0.01753225
      5785.5000         0.6411       5908.964         0.1973        71.9859      -73.69312      0.0176606
      5786.0000         0.6372       5625.955         0.2079        72.1932      -73.48582     0.02046193
      5786.5000         0.6313       5435.809         0.2185        72.9988      -72.68021     0.03134846
      5787.0000         0.6274       5249.796         0.2293        74.7892      -70.88982     0.05554302
      5787.5000         0.6195       4949.096         0.2298        75.9859      -69.69312     0.07171466
      5788.0000         0.6136       4659.457         0.2403        79.1661      -66.51292      0.1146903
      5788.5000         0.6077       4420.235          0.261        81.4773      -64.20171      0.1459228
      5789.0000         0.5836       4246.465         0.2716        86.0171      -59.66192      0.2072714
      5789.5000         0.5433       4008.081          0.272        89.6093      -56.06972      0.2558146
      5790.0000         0.5232       3896.073         0.2927         91.509      -54.17001      0.2814863
      5790.5000         0.5233       2951.893         0.3134        92.8353      -52.84372      0.2994092
      5791.0000            0.6       2803.625         0.3747       101.6325      -44.04652      0.4182903
      5791.5000         0.5899        3995.96         0.3746        99.4611      -46.21792       0.388947
      5792.0000         0.5677        3995.96         0.3648        97.5765      -48.10252      0.3634795
      5792.5000         0.5597        3995.96          0.345        93.9932      -51.68581      0.3150566
      5793.0000         0.5376       6236.609         0.3252        89.6494      -56.02962      0.2563565
      5793.5000         0.5215       6236.609         0.3054        84.3542      -61.32481      0.1847998
      5794.0000         0.5135       6236.609         0.2856        81.7043      -63.97472      0.1489903
      5794.5000         0.5135       6236.609         0.2558        78.0198      -67.65922     0.09919976
      5795.0000         0.5357       6236.609          0.216        77.8218      -67.85722     0.09652411
      5795.5000         0.5699       6236.609         0.1963        77.8218      -67.85722     0.09652411
      5796.0000          0.604       6236.609         0.1966        78.0198      -67.65922     0.09919976
      5796.5000         0.6141       6236.609          0.197        83.4164      -62.26262      0.1721268
      5797.0000          0.602       6232.598         0.1974        86.6471      -59.03191       0.215785
      5797.5000         0.5739       6193.222          0.188        88.9298      -56.74921      0.2466322
      5798.0000         0.5599       6165.512         0.1883        90.4542      -55.22482      0.2672322
      5798.5000         0.5319       6126.138         0.1787        91.2195      -54.45952      0.2775741
      5799.0000         0.5039       6102.441         0.1791        90.0858      -55.59322      0.2622539
      5799.5000         0.4639       6106.176         0.1695        88.5657      -57.11332      0.2417119
      5800.0000          0.462       6152.971         0.1699         85.522      -60.15701      0.2005809
      5800.5000           0.46         6235.2         0.1703        83.8153      -61.86372      0.1775174
      5801.0000           0.46       6321.246         0.1907        82.4907      -63.18832      0.1596173
      5801.5000         0.4981       6321.172          0.201        80.4068      -65.27222      0.1314565
      5802.0000         0.5042       6317.042         0.2032        80.4155      -65.26352      0.1315741
      5802.5000         0.5082       6117.383         0.2041        80.2342      -65.44482      0.1291241
      5803.0000         0.5123       5846.465          0.205        80.2429      -65.43612      0.1292416
      5803.5000         0.5164       5206.715         0.2158         81.015      -64.66402      0.1396755
      5804.0000         0.5225       4563.106         0.2569        83.6792      -61.99982      0.1756781
      5804.5000         0.5306           3988         0.2776        87.0999      -58.57912      0.2219038
      5805.0000         0.5728           3664         0.3083        93.1741      -52.50491      0.3039877
      5805.5000          0.587        3167.83          0.329       101.0053      -44.67371      0.4098147
