#------------------------------------------------------------------------------
# Created by    : vladimir.rabinovich
# Created on    : 09/19/2023 17:20:51
#------------------------------------------------------------------------------
~Version Information Section
VERS.           2.0     :   CWLS log ASCII Standard - VERSION 2.0
WRAP.           NO      :   One line per depth step
~Well Information Section
#MNEM       .UNIT                                         VALUE :DESCRIPTION
#------------------------------------------------------------------------------
STRT        .FT                                            1028 :START DEPTH
STOP        .FT                                            9325 :STOP DEPTH
STEP        .FT                                             0.5 :STEP      
NULL        .                                           -999.25 :NULL      
COMP        .                     HUNT LAMAR TRUST ESTATE ET AL :COMPANY   
WELL        .                                   BROUSSARD TRUST :WELL      
FLD         .                                           WILDCAT :FIELD     
LOC         .                                                   :LOCATION  
CNTY        .                                         JEFFERSON :LOCATION  
STAT        .                                             TEXAS :STATE     
CTRY        .                                     UNITED STATES :COUNTRY   
SRVC        .                                                   :SERVICE COMPANY
DATE        .                             9/13/2023 11:19:11 AM :LOG DATE  
API         .                                    42245021920000 :API NUMBER
UWI         .                                    42245021920000 :UNIQUE WELL ID
XCOORD      .                                  1218474.36862613 :SURFACE X 
YCOORD      .                                   10882715.986693 :SURFACE Y 
LAT         .                                        29.9792918 :LATITUDE  
LON         .                                       -94.3330868 :LONGITUDE 
ELEV        .FT                                              36 :ELEVATION VALUE
ELEV_TYPE   .                                                DF :ELEVATION REFERENCE TYPE
~Curve Information Section
#MNEM       .UNIT                                      API CODE :CURVE DESCRIPTION
#------------------------------------------------------------------------------
DEPT        .FT                                                 :DEPTH     
ASN         .OHMM                                               :          
LAT         .OHMM                                               :          
LN          .OHMM                                               :          
SP          .MV                                                 :          
SP_NORM     .MV                                                 :SP Normalized
VSH_SP      .V/V                                                :Volume of Shale from SP
~A        DEPTH            ASN            LAT             LN             SP        SP_NORM         VSH_SP
# ...
      7640.0000         1.7788         0.4159         0.2212      -147.7876      -95.53491      0.0451019
      7640.5000         1.9734         0.2746         0.2297      -144.9634      -92.71228     0.07361333
      7641.0000         2.1695          0.275         0.2381      -146.7416      -94.49206     0.05563578
      7641.5000         2.3656         0.2932         0.2376      -150.2895      -98.04155     0.01978233
      7642.0000         2.3209         0.3644         0.2549      -153.8374       -101.591              0
      7642.5000          2.196         0.4091         0.2545      -157.3854      -105.1406              0
      7643.0000         2.0623         0.4095          0.254      -159.5178      -107.2746              0
      7643.5000         1.9379           0.41         0.2624      -159.8805      -107.6388              0
      7644.0000         1.8839         0.4016         0.2709      -160.9999      -108.7598              0
      7644.5000         1.7393         0.3225         0.2704      -161.5647      -109.3262              0
      7645.0000         1.5214         0.2699           0.27      -162.1294      -109.8925              0
      7645.5000         1.3769         0.2172         0.2873      -162.8793       -110.644              0
      7646.0000         1.2666         0.1557         0.2868       -163.444      -111.2102              0
      7646.5000         1.1506         0.1384         0.2864      -163.8235      -111.5913              0
      7647.0000          1.072         0.1388         0.2948      -163.8327      -111.6021              0
      7647.5000         1.0719         0.2189         0.3032      -163.8419      -111.6129              0
      7648.0000         1.1254         0.2902         0.3028       -163.666      -111.4385              0
      7648.5000         1.1253         0.3348         0.3023      -163.4901      -111.2642              0
      7649.0000         1.1198         0.3176         0.2931      -162.7587      -110.5344              0
      7649.5000          1.093          0.256         0.2661      -162.5828        -110.36              0
      7650.0000         1.0393         0.1945         0.2391      -161.1109      -108.8897              0
      7650.5000         0.9593         0.1239         0.1947       -159.823      -107.6034              0
      7651.0000         0.9061         0.0885         0.1681       -159.115       -106.897              0
      7651.5000         0.8529         0.0885         0.1416      -157.8761      -105.6597              0
      7652.0000         0.7625         0.0885         0.1327      -156.6372      -104.4223              0
      7652.5000         0.7022         0.0885         0.1062      -155.2212      -103.0079              0
      7653.0000         0.6331         0.1504         0.1239      -142.1239      -89.91219      0.1018971
      7653.5000          0.626         0.2478         0.1504        -128.75      -76.53986      0.2369712
      7654.0000          0.679         0.3451          0.177      -115.3982      -63.18963      0.3718219
      7654.5000         0.8063         0.4425         0.2743      -108.4956       -56.2886      0.4415292
      7655.0000         0.8702         0.6106         0.3186      -107.9646      -55.75918      0.4468769
      7655.5000         0.9342         0.9469         0.3274      -130.8929      -78.68906      0.2152621
      7656.0000         1.0625         0.9469         0.3451      -134.8214      -82.61913      0.1755644
      7656.5000         1.1929         0.8584         0.3186        -138.75      -86.54931      0.1358656
      7657.0000         1.2571         0.7965         0.2743      -142.6549       -90.4558     0.09640611
      7657.5000         1.3857         0.6991         0.2566      -146.5487      -94.35117     0.05705893
      7658.0000         1.5143         0.6018         0.2124      -149.9115      -97.71553     0.02307545
      7658.5000         1.6446         0.5044         0.2035      -150.4425      -98.24812      0.0176958
      7659.0000         1.7732         0.3628         0.2035      -151.1504       -98.9576     0.01052933
      7659.5000         4.3485         0.3451         0.2212      -150.9735      -98.78226     0.01230043
      7660.0000         3.6107         0.3097         0.2566      -150.7965      -98.60683     0.01407246
      7660.5000          2.875         0.3094         0.2655      -136.6071      -84.41902      0.1573836
      7661.0000            1.8         0.3975         0.3009      -136.6071      -84.42059      0.1573678
      7661.5000         1.6839          0.459         0.3274      -136.9643      -84.77936      0.1537439
      7662.0000         1.5679         0.4585         0.3274      -150.6195      -98.43615     0.01579647
      7662.5000         1.4589         0.3785         0.3186      -151.1504      -98.96863      0.0104179
      7663.0000         1.3196         0.3426         0.3097      -151.5044      -99.32419    0.006826382
      7663.5000         0.8411         0.3068         0.3009      -152.7434      -100.5648              0
      7664.0000         0.7469          0.271          0.292      -154.8673      -102.6902              0
      7664.5000         0.6549         0.2351         0.2832      -156.9912      -104.8157              0
      7665.0000         0.6425         0.1993         0.2655       -159.115      -106.9411              0
      7665.5000         0.6372         0.1015         0.2478      -162.5926      -110.4203              0
      7666.0000         0.6549         0.1099         0.2389      -157.6991      -105.5283              0
      7666.5000         0.6726         0.1006         0.2212      -155.2212       -103.052              0
      7667.0000         0.6903         0.0914         0.2212      -150.2655       -98.0979     0.01921313
      7667.5000          0.708         0.0909         0.2212      -145.4867      -93.32066     0.06746805
      7668.0000         0.7257         0.2674         0.2301       -140.531      -88.36655      0.1175096
      7668.5000         0.7239         0.2581         0.2389      -137.8571      -85.69423      0.1445027
      7669.0000         0.6867         0.1781         0.2478      -137.6786       -85.5173      0.1462899
      7669.5000         0.6584         0.0891         0.2478      -151.1504      -98.99068     0.01019518
      7670.0000         0.6991         0.0356         0.2478      -150.9735      -98.81535      0.0119662
      7670.5000         0.7805         0.0086         0.2478      -145.3097      -93.15312     0.06916039
      7671.0000         0.8641         0.0082         0.2478      -139.6429       -87.4879      0.1263849
      7671.5000         0.9051         0.0785         0.2478      -138.5714      -86.41798      0.1371922
      7672.0000         0.9586         0.2196         0.2478      -142.1239      -89.97206      0.1012923
      7672.5000         0.9281         0.3165         0.2478      -145.6637      -93.51343     0.06552093
      7673.0000         0.8316          0.316         0.2389      -149.3805       -97.2318     0.02796165
      7673.5000         0.7888         0.3156         0.2301      -152.9204      -100.7733              0
      7674.0000         0.7869         0.3063         0.2301      -156.6372      -104.4917              0
      7674.5000         0.9206         0.2881         0.2124      -157.5221      -105.3781              0
      7675.0000         1.0402         0.2611         0.2124      -157.5221      -105.3797              0
      7675.5000         1.1598         0.2341         0.1947      -149.9115      -97.77068     0.02251835
      7676.0000         1.2882         0.2071         0.1947      -149.9115      -97.77226      0.0225024
      7676.5000         1.2792         0.1713         0.1947      -151.8584      -99.72073    0.002820872
      7677.0000         1.2541         0.1708         0.1858      -154.5133      -102.3772              0
      7677.5000         1.1272         0.1704          0.177      -154.8673      -102.7328              0
