#------------------------------------------------------------------------------
# Created by    : vladimir.rabinovich
# Created on    : 09/19/2023 17:20:52
#------------------------------------------------------------------------------
~Version Information Section
VERS.           2.0     :   CWLS log ASCII Standard - VERSION 2.0
WRAP.           NO      :   One line per depth step
~Well Information Section
#MNEM       .UNIT                                         VALUE :DESCRIPTION
#------------------------------------------------------------------------------
STRT        .FT                                            1558 :START DEPTH
STOP        .FT                                           11266 :STOP DEPTH
STEP        .FT                                             0.5 :STEP      
NULL        .                                           -999.25 :NULL      
COMP        .                               MEREDITH & CO ET AL :COMPANY   
WELL        .                                 GRINNELL TEXAS CO :WELL      
FLD         .                                           WILDCAT :FIELD     
LOC         .                                                   :LOCATION  
CNTY        .                                         JEFFERSON :LOCATION  
STAT        .                                             TEXAS :STATE     
CTRY        .                                     UNITED STATES :COUNTRY   
SRVC        .                                                   :SERVICE COMPANY
DATE        .                             9/13/2023 11:19:11 AM :LOG DATE  
API         .                                    42245015300000 :API NUMBER
UWI         .                                    42245015300000 :UNIQUE WELL ID
XCOORD      .                                  1358778.50439977 :SURFACE X 
YCOORD      .                                  10877447.4356243 :SURFACE Y 
LAT         .                                        29.9685419 :LATITUDE  
LON         .                                       -93.8897358 :LONGITUDE 
ELEV        .FT                                              14 :ELEVATION VALUE
ELEV_TYPE   .                                                DF :ELEVATION REFERENCE TYPE
~Curve Information Section
#MNEM       .UNIT                                      API CODE :CURVE DESCRIPTION
#------------------------------------------------------------------------------
DEPT        .FT                                                 :DEPTH     
ASN         .OHMM                                               :          
LN          .OHMM                                               :          
SP          .MV                                                 :          
SP_NORM     .MV                                                 :SP Normalized
VSH_SP      .V/V                                                :Volume of Shale from SP
~A        DEPTH            ASN             LN             SP        SP_NORM         VSH_SP
      1558.0000         0.0336         0.0798       -47.3456      -2.901157      0.9627224
      1558.5000          0.049         0.0791       -44.3456     0.09884262              1
      1559.0000          0.113         0.0785       -42.5601       1.884342              1
      1559.5000         0.8285          0.089        -48.829      -4.384556      0.9336362
      1560.0000          0.882         0.1501       -55.7064      -11.26196      0.7987851
      1560.5000         0.9202         0.2121       -64.8982      -20.45376      0.6185538
      1561.0000          0.905         0.3187       -72.2461      -27.80166      0.4744773
      1561.5000         0.8886         0.4139       -77.3578      -32.91336      0.3742478
      1562.0000         0.8727         0.4921       -80.7161      -36.27166      0.3083988
      1562.5000         0.8583           0.53       -82.8201      -38.38312      0.2669976
      1563.0000         0.8437         0.5678       -82.5654      -38.15739      0.2714237
      1563.5000         0.8285         0.5992       -81.5448      -37.16576      0.2908674
      1564.0000         0.8374         0.6244       -80.0178      -35.66772      0.3202407
      1564.5000         0.8685         0.6496       -77.8785       -33.5574      0.3616197
      1565.0000         0.9027         0.6748       -75.7399      -31.44776      0.4029851
      1565.5000         0.9369         0.7058       -73.6006      -29.33743      0.4443641
      1566.0000         0.9711          0.737       -71.7292        -27.495      0.4804902
      1566.5000           1.01         0.7682       -69.9069      -25.70166      0.5156537
      1567.0000         1.0655         0.7959       -71.1027      -26.92643      0.4916386
      1567.5000         1.1131         0.8191       -72.8413        -28.694      0.4569803
      1568.0000         1.1511         0.8423       -74.5793      -30.46097       0.422334
      1568.5000         1.1773         0.8655       -76.3174      -32.22803      0.3876856
      1569.0000         1.1979          0.888       -78.0554        -33.995      0.3530392
      1569.5000         1.2171         0.9088       -78.7102      -34.67877      0.3396319
      1570.0000         1.2348         0.9297       -73.4408      -29.43834      0.4423854
      1570.5000          1.197         0.9442       -67.7285      -23.75501      0.5538234
      1571.0000         1.1665         0.9473       -63.8898      -19.94528      0.6285239
      1571.5000          1.136         0.9505       -61.6739      -17.75835       0.671405
      1572.0000         1.1056         0.9536       -59.4277      -15.54111      0.7148802
      1572.5000         1.0812         0.9507       -56.9821      -13.12448      0.7622651
      1573.0000         1.0571         0.9441       -54.5563      -10.72765      0.8092618
      1573.5000         1.0504         0.9376       -52.2831      -8.483418      0.8532663
      1574.0000         1.0555          0.931       -50.0095      -6.238781      0.8972788
      1574.5000         1.0607         0.9244       -47.1229      -3.381149      0.9533108
      1575.0000         1.0658         0.9215       -49.9863      -6.273521      0.8965976
      1575.5000         1.0639          0.919       -53.4636      -9.779789      0.8278473
      1576.0000         1.0592         0.9165       -56.7711      -13.11625      0.7624264
      1576.5000         1.0542         0.9147       -59.4779      -15.85202      0.7087839
      1577.0000         1.0488         0.9162       -62.1842      -18.58729      0.6551511
      1577.5000         1.0528         0.9177       -64.6584      -21.09046      0.6060694
      1578.0000         1.0708         0.9192       -65.5884      -22.04943      0.5872661
      1578.5000         1.0887         0.9137       -66.5181      -23.00809      0.5684688
      1579.0000         1.1067         0.9068       -71.1451      -27.66407      0.4771752
      1579.5000         1.1241         0.8999       -75.8545      -32.40243       0.384266
      1580.0000         1.1415         0.8848       -79.7605      -36.33739      0.3071099
      1580.5000         1.1542          0.861       -83.3159      -39.92177      0.2368281
      1581.0000         1.1353         0.8373       -86.1843      -42.81914      0.1800169
      1581.5000         1.0878         0.8143       -88.4967       -45.1605      0.1341079
      1582.0000         1.0305         0.7958       -89.0317      -45.72447      0.1230496
      1582.5000         0.9558         0.7773       -89.5669      -46.28864      0.1119875
      1583.0000         0.8795         0.7588       -89.7001      -46.45081      0.1088077
      1583.5000          0.823         0.7403       -89.7775      -46.55717      0.1067222
      1584.0000         0.7714         0.7162        -89.855      -46.66364      0.1046345
      1584.5000         0.7289         0.6909       -89.9324      -46.77001      0.1025488
      1585.0000         0.6897         0.6673       -89.8705      -46.73708      0.1031946
      1585.5000         0.6961         0.6488       -89.6921      -46.58764      0.1061247
      1586.0000         0.7281         0.6303       -89.5139      -46.43841      0.1090508
      1586.5000         0.7544         0.6166       -87.7411      -44.69458      0.1432436
      1587.0000         0.7806         0.6073       -84.8375      -41.81995      0.1996088
      1587.5000         0.7318         0.5981       -82.1598      -39.17121      0.2515449
      1588.0000         0.6891         0.5888       -80.6163      -37.65668      0.2812415
      1588.5000         0.6465         0.5796        -79.375      -36.44435      0.3050127
      1589.0000         0.6038         0.5703       -79.5922      -36.69052      0.3001859
      1589.5000         0.5747         0.5681       -79.8094      -36.93669      0.2953591
      1590.0000         0.5541         0.5675       -80.1487      -37.30495      0.2881382
      1590.5000         0.5335         0.5669       -80.6586      -37.84382      0.2775721
      1591.0000         0.5305         0.5662       -81.1685      -38.38269       0.267006
      1591.5000         0.5364         0.5706       -81.6782      -38.92136       0.256444
      1592.0000         0.5443         0.5872       -82.1881      -39.46023      0.2458779
      1592.5000         0.5683         0.6038        -82.698      -39.99909      0.2353119
      1593.0000         0.5924         0.6204       -83.2076      -40.53767      0.2247516
      1593.5000         0.6164          0.637       -83.7175      -41.07653      0.2141858
      1594.0000         0.6404         0.6536       -83.7578      -41.14579      0.2128276
      1594.5000         0.6645         0.6741       -83.6509      -41.06787      0.2143555
      1595.0000         0.6859         0.6946       -82.7434      -40.18933      0.2315817
      1595.5000         0.7037         0.7152       -80.6085       -38.0834      0.2728746
      1596.0000         0.7215         0.7358       -78.4731      -35.97697      0.3141771
      1596.5000         0.7392         0.7563       -76.3384      -33.87124      0.3554659
      1597.0000         0.7571         0.7702       -74.1093       -31.6711      0.3986058
      1597.5000         0.7769         0.7809       -71.7319      -29.32267      0.4446535
      1598.0000         0.7968         0.7916       -69.3552      -26.97494      0.4906874
      1598.5000         0.8166         0.8023       -67.4769      -25.12561      0.5269489
      1599.0000         0.8351         0.8037       -67.0413      -24.71898      0.5349221
      1599.5000         0.8512         0.8045       -69.3298      -27.03645      0.4894814
      1600.0000         0.8673         0.8054       -71.2751      -29.01071      0.4507703
      1600.5000         0.8833         0.8062       -70.1239      -27.88848      0.4727749
      1601.0000         0.8846          0.807       -68.9384      -26.73195       0.495452
      1601.5000         0.8793         0.8078       -67.7527      -25.57521       0.518133
