#------------------------------------------------------------------------------
# Created by    : vladimir.rabinovich
# Created on    : 09/19/2023 17:20:52
#------------------------------------------------------------------------------
~Version Information Section
VERS.           2.0     :   CWLS log ASCII Standard - VERSION 2.0
WRAP.           NO      :   One line per depth step
~Well Information Section
#MNEM       .UNIT                                         VALUE :DESCRIPTION
#------------------------------------------------------------------------------
STRT        .FT                                            1558 :START DEPTH
STOP        .FT                                           11266 :STOP DEPTH
STEP        .FT                                             0.5 :STEP      
NULL        .                                           -999.25 :NULL      
COMP        .                               MEREDITH & CO ET AL :COMPANY   
WELL        .                                 GRINNELL TEXAS CO :WELL      
FLD         .                                           WILDCAT :FIELD     
LOC         .                                                   :LOCATION  
CNTY        .                                         JEFFERSON :LOCATION  
STAT        .                                             TEXAS :STATE     
CTRY        .                                     UNITED STATES :COUNTRY   
SRVC        .                                                   :SERVICE COMPANY
DATE        .                             9/13/2023 11:19:11 AM :LOG DATE  
API         .                                    42245015300000 :API NUMBER
UWI         .                                    42245015300000 :UNIQUE WELL ID
XCOORD      .                                  1358778.50439977 :SURFACE X 
YCOORD      .                                  10877447.4356243 :SURFACE Y 
LAT         .                                        29.9685419 :LATITUDE  
LON         .                                       -93.8897358 :LONGITUDE 
ELEV        .FT                                              14 :ELEVATION VALUE
ELEV_TYPE   .                                                DF :ELEVATION REFERENCE TYPE
~Curve Information Section
#MNEM       .UNIT                                      API CODE :CURVE DESCRIPTION
#------------------------------------------------------------------------------
DEPT        .FT                                                 :DEPTH     
ASN         .OHMM                                               :          
LN          .OHMM                                               :          
SP          .MV                                                 :          
SP_NORM     .MV                                                 :SP Normalized
VSH_SP      .V/V                                                :Volume of Shale from SP
~A        DEPTH            ASN             LN             SP        SP_NORM         VSH_SP
# ...
      4154.0000         0.7925         0.7084       -17.1851       1.325434              1
      4154.5000         0.7825         0.7055       -17.7648      0.7416077              1
      4155.0000         0.7732         0.7027       -18.3445      0.1577797              1
      4155.5000         0.7666         0.7109       -18.6493     -0.1511497              1
      4156.0000           0.76         0.7243       -17.7995      0.6945229              1
      4156.5000         0.7761         0.7376       -16.9498       1.540094              1
      4157.0000         0.7986         0.7509          -16.1       2.385765              1
      4157.5000         0.8211         0.7643       -15.2503       3.231338              1
      4158.0000         0.8437         0.7853       -14.4006       4.076908              1
      4158.5000         0.8662         0.8105       -13.6329       4.840481              1
      4159.0000         0.8887         0.8357       -13.3194       5.149854              1
      4159.5000         0.9058         0.8608       -13.0058       5.459324              1
      4160.0000         0.9197          0.886       -12.8267       5.634296              1
      4160.5000         0.9336         0.9079       -13.4555       5.001369              1
      4161.0000         0.9475         0.9165       -14.0842        4.36854              1
      4161.5000         0.9614         0.9251        -14.713       3.735612              1
      4162.0000         0.9753         0.9338       -15.3418       3.102685              1
      4162.5000         0.9892         0.9424       -16.0339       2.406456              1
      4163.0000         1.0022          0.951       -16.7768       1.659428              1
      4163.5000         1.0149         0.9596       -17.5196      0.9125004              1
      4164.0000         1.0274         0.9601       -18.2624      0.1655712              1
      4164.5000         1.0362         0.9458       -19.0053     -0.5814571              1
      4165.0000         1.0134         0.9315       -19.7481      -1.328386      0.9958951
      4165.5000         0.9907         0.9171       -20.4909      -2.075314      0.9865586
      4166.0000         0.9679         0.9028       -20.7072       -2.29574      0.9838033
      4166.5000         0.9489          0.887       -20.9055      -2.498171      0.9812729
      4167.0000         0.9314         0.8707       -21.1039      -2.700699      0.9787413
      4167.5000          0.914         0.8544       -21.3022      -2.903126       0.976211
      4168.0000         0.8965          0.838       -21.3931      -2.998156       0.975023
      4168.5000          0.879         0.8217       -21.2965      -2.905682       0.976179
      4169.0000         0.8615         0.8054       -21.1998       -2.81311      0.9773361
      4169.5000         0.8441         0.8228       -21.1032       -2.72064       0.978492
      4170.0000         0.8278         0.8428       -21.0065      -2.628067      0.9796492
      4170.5000         0.8173         0.8628       -20.9099      -2.535595       0.980805
      4171.0000         0.8068         0.8829       -20.8133      -2.443123       0.981961
      4171.5000         0.7963         0.9029       -20.7166      -2.350552      0.9831181
      4172.0000         0.8009          0.917       -20.3306      -1.968681      0.9878915
      4172.5000         0.8094         0.9247       -19.8467      -1.488909      0.9938886
      4173.0000         0.8254         0.9324       -19.3629      -1.009235      0.9998845
      4173.5000         0.8544         0.9401       -18.8791     -0.5295658              1
      4174.0000         0.8834         0.9478       -18.3952    -0.04979324              1
      4174.5000         0.9124         0.9555       -17.9114      0.4298801              1
      4175.0000         0.9414         0.9632       -17.4011      0.9360504              1
      4175.5000         0.9704         0.9709       -16.8663       1.466722              1
      4176.0000         0.9948         0.9782       -16.3312       1.997696              1
      4176.5000         1.0192         0.9731       -15.7964       2.528366              1
      4177.0000         1.0436         0.9681       -15.2613       3.059339              1
      4177.5000         1.0665          0.963       -14.9177       3.398811              1
      4178.0000         1.0765         0.9579       -14.5959       3.716482              1
      4178.5000         1.0866         0.9528       -14.2744       4.033854              1
      4179.0000         1.0952         0.9477       -13.9525       4.351626              1
      4179.5000         1.0845         0.9426       -14.3003       3.999698              1
      4180.0000         1.0581         0.9376       -16.3491        1.94677              1
      4180.5000         1.0293         0.9325       -21.6173       -3.32556      0.9709305
      4181.0000         1.0006         0.9235       -27.5071      -9.219486      0.8972564
      4181.5000         0.9718         0.9119        -33.873      -15.58952      0.8176311
      4182.0000         0.9418         0.9002       -38.0788      -19.79944       0.765007
      4182.5000         0.9094         0.8885       -42.8533      -24.57807      0.7052741
      4183.0000         0.8769         0.8768       -50.2773       -32.0062      0.6124225
      4183.5000         0.8334         0.8652       -60.2406      -41.97363      0.4878296
      4184.0000         0.7898         0.8535       -64.6337      -46.37085      0.4328643
      4184.5000         0.7562         0.8418       -67.5103      -49.25158      0.3968552
      4185.0000         0.7275          0.829       -69.7085      -51.45392       0.369326
      4185.5000         0.6987         0.8162       -68.7214      -50.47094      0.3816133
      4186.0000           0.68         0.8034       -60.2758      -42.02946      0.4871317
      4186.5000          0.734         0.7906       -39.6791       -21.4369      0.7445388
      4187.0000         0.8134         0.7842       -20.9384      -2.700325      0.9787459
      4187.5000         0.8526         0.7898       -18.0839      0.1500454              1
      4188.0000         0.8918         0.7954       -16.7635       1.466318              1
      4188.5000          0.931          0.801       -15.4443       2.781391              1
      4189.0000         0.9702         0.8066            -20      -1.778439      0.9902695
      4189.5000         1.0033         0.8122            -23      -4.782566      0.9527179
      4190.0000         1.0331         0.8178       -28.3463      -10.13299      0.8858376
      4190.5000         1.0629         0.8234       -40.0468      -21.83762      0.7395297
      4191.0000         1.0454          0.829       -45.1267      -26.92165      0.6759794
      4191.5000         1.0087         0.8342       -46.6598      -28.45888       0.656764
      4192.0000         0.9716         0.8386        -45.648      -27.45121      0.6693599
      4192.5000         0.9346          0.843       -44.3309      -26.13823      0.6857721
      4193.0000         0.9172         0.8474       -42.8651      -24.67656       0.704043
      4193.5000          0.903         0.8517        -41.225      -23.04059      0.7244926
      4194.0000         0.8887         0.8561        -39.294      -21.11372      0.7485785
      4194.5000         0.8744         0.8605       -36.2642      -18.08805      0.7863994
      4195.0000         0.8738         0.8649       -31.3882      -13.21618      0.8472978
      4195.5000         0.8793         0.8692       -27.6585      -9.490604      0.8938674
      4196.0000         0.8849         0.8736       -24.6055      -6.441732      0.9319783
      4196.5000         0.8921          0.878       -21.5569      -3.397261      0.9700342
      4197.0000         0.9013         0.8822       -21.8716      -3.716087      0.9660489
      4197.5000         0.9105         0.8816       -23.8263      -5.674917      0.9415635
