#------------------------------------------------------------------------------
# Created by    : vladimir.rabinovich
# Created on    : 09/19/2023 17:22:46
#------------------------------------------------------------------------------
~Version Information Section
VERS.           2.0     :   CWLS log ASCII Standard - VERSION 2.0
WRAP.           NO      :   One line per depth step
~Well Information Section
#MNEM       .UNIT                                         VALUE :DESCRIPTION
#------------------------------------------------------------------------------
STRT        .FT                                             992 :START DEPTH
STOP        .FT                                            8489 :STOP DEPTH
STEP        .FT                                             0.5 :STEP      
NULL        .                                           -999.25 :NULL      
COMP        .                                       GAELIC CORP :COMPANY   
WELL        .                                     PHELAN MICKEY :WELL      
FLD         .                                           WILDCAT :FIELD     
LOC         .                                                   :LOCATION  
CNTY        .                                         JEFFERSON :LOCATION  
STAT        .                                             TEXAS :STATE     
CTRY        .                                     UNITED STATES :COUNTRY   
SRVC        .                                                   :SERVICE COMPANY
DATE        .                             9/13/2023 11:18:46 AM :LOG DATE  
API         .                                    42245313790000 :API NUMBER
UWI         .                                    42245313790000 :UNIQUE WELL ID
XCOORD      .                                  1260103.88271883 :SURFACE X 
YCOORD      .                                     10773431.3746 :SURFACE Y 
LAT         .                                         29.679995 :LATITUDE  
LON         .                                       -94.1979967 :LONGITUDE 
ELEV        .FT                                              19 :ELEVATION VALUE
ELEV_TYPE   .                                                KB :ELEVATION REFERENCE TYPE
~Curve Information Section
#MNEM       .UNIT                                      API CODE :CURVE DESCRIPTION
#------------------------------------------------------------------------------
DEPT        .FT                                                 :DEPTH     
DPSS        .V/V                                                :          
DRHO        .G/CM3                                              :          
DT          .US/FT                                              :          
GR_NORM     .GAPI                                               :GammaRay Normalized
GRN         .GAPI                                               :          
ILD         .OHMM                                               :          
NPSS        .V/V                                                :Neutron Porosity Sandstone
RHOB        .G/CM3                                              :          
SFL         .OHMM                                               :          
SP          .MV                                                 :          
SP_NORM     .MV                                                 :SP Normalized
TENN        .LB                                                 :          
VSH_GR      .V/V                                                :Volume of Shale from GR
VSH_SP      .V/V                                                :Volume of Shale from SP
~A        DEPTH           DPSS           DRHO             DT        GR_NORM            GRN            ILD           NPSS           RHOB            SFL             SP        SP_NORM           TENN         VSH_GR         VSH_SP
# ...
      7706.0000           0.22         0.0373            119       87.20071          80.85          0.499         0.4482         2.2881         0.4572        -3.6998       6.176743       3221.924              1              1
      7706.5000         0.2227         0.0298          114.8       82.01364           77.7         0.5061         0.4566         2.2847         0.5038        -3.9105       5.966043       3222.101              1              1
      7707.0000         0.2221         0.0258          107.9       77.07262           74.7         0.5109         0.4331         2.2842           0.56        -5.3188       4.557743       3222.261      0.9377152              1
      7707.5000         0.2236         0.0233          103.7       73.60806           72.6          0.518         0.4051         2.2827         0.6228        -6.3283       3.548243       3241.993      0.8640013              1
      7708.0000         0.2266         0.0198          101.9       71.12781           71.1         0.5253         0.3817         2.2772         0.6838        -7.3388       2.537743       3242.124      0.8112299              1
      7708.5000         0.2257         0.0193          103.8       69.38578          70.05         0.5425         0.3772         2.2792         0.6228        -9.1504      0.7261429       3242.255      0.7741655              1
      7709.0000         0.2204         0.0193          106.9       68.62805           69.6         0.5551         0.3811         2.2891         0.5973       -10.7626     -0.8860569       3242.398      0.7580436              1
      7709.5000         0.2141         0.0272          109.6       69.59283           70.2          0.568         0.3849         2.2975         0.6113       -12.5762      -2.699656       3232.798      0.7785708      0.9809027
      7710.0000         0.2127         0.0253          110.7       69.81944          70.35         0.5811         0.3885          2.299         0.6258       -14.1917      -4.315157       3232.942      0.7833923       0.962751
      7710.5000         0.2145         0.0233          110.6       68.31657        69.4458         0.5839         0.3903          2.296         0.6436          -15.2      -5.323457       3233.126      0.7514164      0.9514219
      7711.0000         0.2171         0.0252          108.9       68.28511        69.4385          0.592         0.3865         2.2921         0.6468            -15      -5.123457        3233.35       0.750747       0.953669
      7711.5000         0.2186         0.0267          106.3       71.20621         71.231          0.606          0.379         2.2891           0.65          -14.6      -4.723457       3233.596      0.8128982      0.9581634
      7712.0000         0.2195         0.0272          103.9       75.35769        73.7735         0.6234          0.374         2.2886         0.6812          -14.6      -4.723457        3233.82      0.9012274      0.9581634
      7712.5000         0.2186         0.0233          102.3       77.04841         74.816         0.6382          0.374         2.2901         0.7138            -15      -5.123457       3234.045      0.9372002       0.953669
      7713.0000         0.2189         0.0198          101.1       76.03263        74.2087         0.6565         0.3743         2.2891         0.7476          -15.8      -5.923457        3234.27      0.9155879      0.9446803
      7713.5000         0.2201         0.0168          101.6       75.75361        74.0505         0.6753         0.3747         2.2871         0.7616            -16      -6.123457       3234.495      0.9096512      0.9424331
      7714.0000         0.2201         0.0168          102.6       76.21412        74.3431         0.6851         0.3779         2.2871         0.7583          -15.4      -5.523457       3234.721      0.9194493      0.9491746
      7714.5000         0.2169         0.0178            103       76.42854        74.4857         0.6916         0.3845         2.2931         0.7585          -14.8      -4.923457        3234.97      0.9240115      0.9559162
      7715.0000         0.2097         0.0223          102.8       75.65884        74.0284         0.6983         0.3881         2.3044         0.7622          -14.4      -4.523457       3235.197       0.907635      0.9604106
      7715.5000         0.2007         0.0297            102       75.13505         73.721         0.7017         0.3869         2.3225         0.7909          -14.4      -4.523457       3235.425      0.8964904      0.9604106
      7716.0000         0.1924         0.0411          101.2       76.33379        74.4636         0.7019         0.3854         2.3348         0.7731          -14.6      -4.723457       3235.652      0.9219955      0.9581634
      7716.5000         0.1915         0.0401          102.2       78.27072        75.6562         0.7118         0.3899         2.3324         0.7385            -15      -5.123457       3235.881      0.9632068       0.953669
      7717.0000         0.1972         0.0327          103.3       78.72996         75.948         0.7185          0.395          2.323         0.7185            -16      -6.123457       3236.109      0.9729778      0.9424331
      7717.5000         0.2017         0.0223            104        75.4995        73.9907         0.7254         0.3985         2.3176         0.7287          -17.4      -7.523457       3236.338      0.9042446      0.9267027
      7718.0000         0.2005         0.0203          103.2        70.5465        70.9834         0.7322         0.3997         2.3196         0.7774            -19      -9.123457       3226.732      0.7988617      0.9087252
      7718.5000         0.1978         0.0252          100.6       65.59368        67.9762         0.7358         0.3947         2.3245         0.8291          -19.2      -9.323458       3217.085      0.6934826       0.906478
      7719.0000         0.1969         0.0327        97.6238       65.06874        67.6681         0.7292         0.3909          2.327         0.8254          -18.2      -8.323458       3217.296      0.6823136      0.9177139
      7719.5000         0.1993          0.045        95.7426       68.72807        69.9106         0.7294         0.3924         2.3211         0.7997          -16.6      -6.723457       3237.282      0.7601718      0.9356915
      7720.0000         0.2055           0.05        97.7228       72.87954        72.4531         0.7228         0.4224         2.3098          0.771          -15.4      -5.523457       3237.513      0.8485008      0.9491746
      7720.5000         0.2142          0.057          100.3        74.8229        73.6496          0.723         0.4503         2.2946         0.7331        -14.994      -5.117457       3237.624      0.8898489      0.9537364
      7721.0000          0.222           0.06          102.7       70.61585         71.097         0.7232         0.4441         2.2822         0.7003       -14.7841      -4.907557       3237.624      0.8003373      0.9560949
      7721.5000         0.2277         0.0615          104.2       65.66565        68.0914           0.72         0.4274         2.2733         0.6972       -14.7741      -4.897557       3237.624      0.6950138      0.9562072
      7722.0000         0.2331         0.0605          104.6       62.43536        66.1342         0.7202         0.4147         2.2644         0.6908       -14.5642      -4.687657       3237.624      0.6262844      0.9585657
      7722.5000         0.2376         0.0555          104.2       63.14851        66.5808         0.7204         0.4158          2.255          0.704       -14.1542      -4.277657       3237.624      0.6414577      0.9631724
      7723.0000         0.2394         0.0525          102.8       65.34303        67.9304         0.7205         0.4215          2.253         0.7272       -13.7443      -3.867757       3237.624      0.6881496       0.967778
      7723.5000         0.2364         0.0485          101.3       67.29296        69.1309         0.7207         0.4242         2.2624         0.7512       -13.9343      -4.057757       3227.723      0.7296374      0.9656432
