#------------------------------------------------------------------------------
# Created by    : vladimir.rabinovich
# Created on    : 09/19/2023 17:20:52
#------------------------------------------------------------------------------
~Version Information Section
VERS.           2.0     :   CWLS log ASCII Standard - VERSION 2.0
WRAP.           NO      :   One line per depth step
~Well Information Section
#MNEM       .UNIT                                         VALUE :DESCRIPTION
#------------------------------------------------------------------------------
STRT        .FT                                            1017 :START DEPTH
STOP        .FT                                            8855 :STOP DEPTH
STEP        .FT                                             0.5 :STEP      
NULL        .                                           -999.25 :NULL      
COMP        .                               MEREDITH & CO ET AL :COMPANY   
WELL        .                               BROUSSARD J JR ETAL :WELL      
FLD         .                                           WILDCAT :FIELD     
LOC         .                                                   :LOCATION  
CNTY        .                                         JEFFERSON :LOCATION  
STAT        .                                             TEXAS :STATE     
CTRY        .                                     UNITED STATES :COUNTRY   
SRVC        .                                                   :SERVICE COMPANY
DATE        .                             9/13/2023 11:19:11 AM :LOG DATE  
API         .                                    42245021880000 :API NUMBER
UWI         .                                    42245021880000 :UNIQUE WELL ID
XCOORD      .                                  1215343.11980964 :SURFACE X 
YCOORD      .                                  10882366.7587642 :SURFACE Y 
LAT         .                                        29.9782309 :LATITUDE  
LON         .                                       -94.3429645 :LONGITUDE 
ELEV        .FT                                              36 :ELEVATION VALUE
ELEV_TYPE   .                                                DF :ELEVATION REFERENCE TYPE
~Curve Information Section
#MNEM       .UNIT                                      API CODE :CURVE DESCRIPTION
#------------------------------------------------------------------------------
DEPT        .FT                                                 :DEPTH     
ASN         .OHMM                                               :          
LAT         .OHMM                                               :          
LN          .OHMM                                               :          
SP          .MV                                                 :          
SP_NORM     .MV                                                 :SP Normalized
VSH_SP      .V/V                                                :Volume of Shale from SP
~A        DEPTH            ASN            LAT             LN             SP        SP_NORM         VSH_SP
# ...
      7249.0000         0.8758         0.3768         0.6667       -81.9718      -36.00508      0.6153287
      7249.5000         0.8194         0.2609         0.6667       -70.4478      -24.47599       0.742022
      7250.0000         0.8196         0.3768         0.6812       -66.2687      -20.29181      0.7880021
      7250.5000         0.8845         0.5652         0.6808       -73.7313      -27.74932      0.7060515
      7251.0000          0.938         0.6667         0.6659       -86.4789      -40.49183      0.5660239
      7251.5000         1.0174         0.5362         0.6653       -89.5775      -43.58534      0.5320293
      7252.0000         1.0725         0.3188         0.6503       -93.2394      -47.24215      0.4918445
      7252.5000         1.1536         0.2754         0.6497      -100.2899      -54.28756      0.4144224
      7253.0000         1.2058         0.4058         0.6347      -105.5072      -59.49977      0.3571454
      7253.5000         1.1855         0.4928         0.6194      -112.4638      -66.45128      0.2807552
      7254.0000         1.1304         0.6232         0.6043      -115.0725      -69.05489       0.252144
      7254.5000         1.0493         0.6377         0.6036      -111.5942       -65.5715       0.290423
      7255.0000         1.0058         0.6957         0.6032      -108.6957      -62.66792      0.3223306
      7255.5000         0.8873         0.7101         0.5878      -104.3478      -58.31493      0.3701656
      7256.0000         0.8141         0.7536         0.5725       -99.4366      -53.39864      0.4241908
      7256.5000         0.7552         0.7681         0.5718       -82.5352      -36.49215      0.6099764
      7257.0000         0.7224         0.7971          0.586       -70.7463      -24.69816      0.7395807
      7257.5000         0.7373         0.8116         0.5853       -54.4928      -8.439571      0.9182464
      7258.0000          0.791         0.8696         0.5996       -47.2464       -1.18808      0.9979332
      7258.5000         0.8197         0.8986         0.5989       -46.9565     -0.8930931              1
      7259.0000         0.8197          0.913         0.5985       -47.2464      -1.177902       0.998045
      7259.5000            0.8         0.9275         0.5977       -46.6667     -0.5931129              1
      7260.0000          0.794          0.942         0.6122       -46.3768     -0.2981262              1
      7260.5000         0.7881         0.9855         0.6269       -45.5072      0.5765648              1
      7261.0000            0.8              1         0.6418       -45.2174      0.8714523              1
      7261.5000         0.8225         1.0145         0.6716       -45.2174      0.8765411              1
      7262.0000         0.8423              1         0.7015       -45.2174      0.8816299              1
      7262.5000         0.8845          0.942         0.7612       -45.7971      0.3070183              1
      7263.0000         0.9549         0.8841          0.806       -46.6667     -0.5574913              1
      7263.5000         1.0087         0.7681         0.8358       -48.9855      -2.871204      0.9794373
      7264.0000         1.0725         0.7101         0.8806       -51.3043      -5.184914      0.9540119
      7264.5000         1.1362         0.6522         0.9104        -53.913      -7.788525      0.9254009
      7265.0000         1.1681         0.6087         0.9403       -55.0725      -8.942936       0.912715
      7265.5000         1.2058         0.6087         0.9403        -55.942      -9.807346      0.9032159
      7266.0000         1.1855         0.6087         0.9403       -56.5217      -10.38196      0.8969015
      7266.5000         1.1565         0.6232         0.9254       -55.6522      -9.507366      0.9065124
      7267.0000         1.1246         0.6087         0.8955       -54.7826      -8.632679      0.9161244
      7267.5000         1.0725         0.6087         0.8806       -53.6232      -7.468189       0.928921
      7268.0000         1.0377         0.6377         0.8209       -53.6232        -7.4631      0.9289769
      7268.5000         0.9915         0.7101          0.791        -53.913       -7.74781      0.9258482
      7269.0000          0.969         0.7246         0.7761       -54.2029      -8.032623      0.9227184
      7269.5000         0.9465         0.7246         0.7313       -54.2029      -8.027534      0.9227744
      7270.0000         0.9606         0.7101         0.7313       -54.2029      -8.022446      0.9228303
      7270.5000         0.9859         0.7101         0.7313       -53.6232      -7.437656      0.9292565
      7271.0000         0.9887         0.7246         0.7313       -53.3333       -7.14267      0.9324982
      7271.5000         0.9775         0.7101         0.7313       -53.0435      -6.847778      0.9357387
      7272.0000         0.9549         0.6957         0.7313       -52.4638      -6.262989       0.942165
      7272.5000         0.9465         0.6957         0.7463       -51.8841      -5.678204      0.9485912
      7273.0000         0.9437         0.7246         0.7612       -51.0145      -4.803513      0.9582031
      7273.5000         0.9634         0.7246         0.7313        -53.913      -7.696922      0.9264075
      7274.0000         1.1565         0.7101         0.7313       -57.1014      -10.88023       0.891426
      7274.5000          1.971         0.6522         0.7015       -58.5507      -12.32445      0.8755555
      7275.0000         2.5362         0.6957         0.6716        -61.194      -14.96266      0.8465642
      7275.5000         3.1194         0.7971         0.6269       -65.3731      -19.13667       0.800696
      7276.0000         4.0282         0.7681         0.6119       -76.7164      -30.47488      0.6761002
      7276.5000          4.662         0.7391         0.5821       -85.0704      -38.82379       0.584354
      7277.0000          3.791         0.6667         0.5672      -101.7391       -55.4874      0.4012374
      7277.5000         2.8986         0.6377         0.5373      -112.1739      -65.91711      0.2866251
      7278.0000          2.029         0.6087         0.5373      -129.2537      -82.99182     0.09899098
      7278.5000         1.2435         0.5652         0.5075      -137.0149      -90.74792     0.01375907
      7279.0000         0.9915         0.5362         0.5075      -143.7681      -97.49604              0
      7279.5000         0.7104         0.5217         0.4776       -144.058      -97.78085              0
      7280.0000         0.6478         0.5362         0.4776      -126.8657      -80.58347      0.1254564
      7280.5000         0.5565         0.5797         0.4627      -122.6866      -76.39928      0.1714365
      7281.0000         0.5246         0.6087         0.4627      -113.6232      -67.33079      0.2710902
      7281.5000         0.9944         0.6957         0.4478       -90.9859       -44.6884      0.5199077
      7282.0000         1.0841         0.7536         0.4478       -84.2254      -37.92281      0.5942548
      7282.5000         1.3594         0.6812         0.4478      -102.6087      -56.30103      0.3922964
      7283.0000         1.6145         0.6377         0.4478      -119.7101      -73.39733      0.2044249
      7283.5000         1.6058         0.5652         0.4627      -133.7313      -87.41344     0.05040179
      7284.0000         1.4382         0.5072         0.4925      -141.4493      -95.12635              0
      7284.5000         1.2754         0.4493         0.5075      -143.1884      -96.86037              0
      7285.0000          1.142         0.3913         0.5224      -144.3478      -98.01467              0
      7285.5000         0.8873         0.3188         0.5075       -142.029       -95.6908              0
      7286.0000         0.7403         0.3043         0.4776      -135.2239      -88.88061     0.03427904
      7286.5000         0.6687         0.5072         0.4478      -130.7463      -84.39792     0.08353935
