#------------------------------------------------------------------------------
# Created by    : vladimir.rabinovich
# Created on    : 09/19/2023 17:20:51
#------------------------------------------------------------------------------
~Version Information Section
VERS.           2.0     :   CWLS log ASCII Standard - VERSION 2.0
WRAP.           NO      :   One line per depth step
~Well Information Section
#MNEM       .UNIT                                         VALUE :DESCRIPTION
#------------------------------------------------------------------------------
STRT        .FT                                            1028 :START DEPTH
STOP        .FT                                            9325 :STOP DEPTH
STEP        .FT                                             0.5 :STEP      
NULL        .                                           -999.25 :NULL      
COMP        .                     HUNT LAMAR TRUST ESTATE ET AL :COMPANY   
WELL        .                                   BROUSSARD TRUST :WELL      
FLD         .                                           WILDCAT :FIELD     
LOC         .                                                   :LOCATION  
CNTY        .                                         JEFFERSON :LOCATION  
STAT        .                                             TEXAS :STATE     
CTRY        .                                     UNITED STATES :COUNTRY   
SRVC        .                                                   :SERVICE COMPANY
DATE        .                             9/13/2023 11:19:11 AM :LOG DATE  
API         .                                    42245021920000 :API NUMBER
UWI         .                                    42245021920000 :UNIQUE WELL ID
XCOORD      .                                  1218474.36862613 :SURFACE X 
YCOORD      .                                   10882715.986693 :SURFACE Y 
LAT         .                                        29.9792918 :LATITUDE  
LON         .                                       -94.3330868 :LONGITUDE 
ELEV        .FT                                              36 :ELEVATION VALUE
ELEV_TYPE   .                                                DF :ELEVATION REFERENCE TYPE
~Curve Information Section
#MNEM       .UNIT                                      API CODE :CURVE DESCRIPTION
#------------------------------------------------------------------------------
DEPT        .FT                                                 :DEPTH     
ASN         .OHMM                                               :          
LAT         .OHMM                                               :          
LN          .OHMM                                               :          
SP          .MV                                                 :          
SP_NORM     .MV                                                 :SP Normalized
VSH_SP      .V/V                                                :Volume of Shale from SP
~A        DEPTH            ASN            LAT             LN             SP        SP_NORM         VSH_SP
# ...
      2130.0000         1.3018         0.6518         0.3274      -153.0435      -74.49525    0.006914426
      2130.5000         1.2768         0.5268         0.3009      -153.0435        -74.501    0.006835624
      2131.0000         1.3214         0.3929         0.2655      -153.2174      -74.68066    0.004374569
      2131.5000         1.3661         0.3661         0.2301      -153.0435       -74.5125    0.006678124
      2132.0000         1.3893         0.3393         0.2212      -152.5217      -73.99644     0.01374733
      2132.5000         1.3982         0.3482         0.2212      -146.9565      -68.43699     0.08990426
      2133.0000         1.3304         0.3661         0.2212        -136.25      -57.73624      0.2364898
      2133.5000          1.191         0.4196         0.2389      -125.3571       -46.8491      0.3856288
      2134.0000         1.1099         0.6161         0.2655      -125.1786      -46.67634      0.3879954
      2134.5000         1.1586         0.7054          0.292      -127.6786      -49.18209        0.35367
      2135.0000         1.3196         0.7679         0.3097      -130.3571      -51.86634      0.3168994
      2135.5000          1.427         0.7857         0.3274      -133.3929      -54.90789      0.2752344
      2136.0000         1.5351           0.75         0.3363      -138.3929      -59.91364      0.2066625
      2136.5000         1.6973         0.6875         0.3363      -143.3043       -64.8308      0.1393042
      2137.0000         1.7261         0.6161         0.3186      -148.1739      -69.70615     0.07251854
      2137.5000          1.755         0.5357         0.3009      -148.6957      -70.23368     0.06529205
      2138.0000         1.7838         0.4732         0.2832      -149.0435      -70.58724     0.06044874
      2138.5000              2         0.4196         0.2743      -149.0435      -70.59299     0.06037004
      2139.0000         2.1239         0.3929         0.2655      -147.4783      -69.03354     0.08173235
      2139.5000         2.1327         0.3929         0.2655       -141.913      -63.47398      0.1578907
      2140.0000         1.6252         0.4196          0.292      -136.0714      -57.63813      0.2378338
      2140.5000         1.6288         0.4911         0.3186      -130.1786      -51.75109      0.3184782
      2141.0000         1.7099         0.5357         0.3363      -128.0357      -49.61394      0.3477543
      2141.5000         1.8679         0.5536         0.3451      -129.8214      -51.40538       0.323214
      2142.0000         1.8393         0.5536         0.3628      -131.7857      -53.37543      0.2962269
      2142.5000         2.1681         0.5268         0.3717        -133.75      -55.34548        0.26924
      2143.0000         2.1858         0.4821         0.3805      -135.5357      -57.13693      0.2446996
      2143.5000         2.1947         0.4196         0.3894         -137.5      -59.10698      0.2177126
      2144.0000         2.2035         0.3839         0.3982      -139.2857      -60.89844      0.1931721
      2144.5000         2.1947         0.3661         0.3982      -141.2174      -62.83588      0.1666317
      2145.0000         2.0442         0.3482         0.3894      -142.6087      -64.23293      0.1474941
      2145.5000         2.0088         0.3393         0.3717      -143.1304      -64.76038      0.1402688
      2146.0000         1.9643         0.3393         0.3451      -143.6522      -65.28793       0.133042
      2146.5000         1.8696         0.3304         0.3186      -144.3478      -65.98927      0.1234346
      2147.0000         1.8268         0.3214          0.292      -144.3478      -65.99502      0.1233559
      2147.5000          1.782         0.3214         0.2743      -144.3478      -66.00077      0.1232771
      2148.0000         1.7369         0.3214         0.2566      -144.3478      -66.00652      0.1231984
      2148.5000         1.6919         0.3214         0.2566      -144.3478      -66.01227      0.1231196
      2149.0000         1.6468         0.3304         0.2832      -144.1739      -65.84412       0.125423
      2149.5000         1.6018         0.3482         0.4248      -137.1429      -58.81887      0.2216593
      2150.0000           1.55         0.3661         0.5929      -132.8571      -54.53883      0.2802901
      2150.5000         1.4911         0.4018         0.6549      -128.5714      -50.25887      0.3389196
      2151.0000         1.4321           0.75         0.7257      -124.2857      -45.97892       0.397549
      2151.5000          1.373         0.7857         0.8053      -120.1786      -41.87756       0.453732
      2152.0000         1.3423         0.8125         0.9381      -114.2342      -35.93892      0.5350833
      2152.5000         1.2667         0.8125         1.0268      -102.1622      -23.87267      0.7003744
      2153.0000         1.2324         0.8125         1.0357       -92.6121      -14.32832      0.8311189
      2153.5000         1.2108         0.7857         1.0268       -89.7955      -11.51747      0.8696237
      2154.0000         1.1839         0.5893         0.9912       -82.5743      -4.302017      0.9684655
      2154.5000         1.1607         0.3929         0.9823       -81.1578      -2.891266      0.9877909
      2155.0000         1.1607         0.3661         0.9646       -80.0925      -1.831711              1
      2155.5000         1.1661         0.3661         0.9646       -79.0092     -0.7541656              1
      2156.0000            1.2         0.4196         0.9646       -77.9252      0.3240814              1
      2156.5000         1.2342         0.4821         0.9646       -77.3796      0.8639374              1
      2157.0000         1.2685         0.5357         0.9735       -76.8346       1.403183              1
      2157.5000         1.3045         0.5982         0.9823        -76.648       1.584038              1
      2158.0000         1.3045         0.6518         0.9912       -76.4616       1.764687              1
      2158.5000         1.3081         0.7143         1.0179       -76.2754       1.945145              1
      2159.0000         1.2955         0.7143         1.0179       -76.2682       1.946587              1
      2159.5000         1.2685         0.7143         1.0714       -76.2609       1.948135              1
      2160.0000         1.2396         0.7232         1.0714       -76.4322       1.771095              1
      2160.5000         1.2108         0.7232         1.0714       -76.9643       1.233238              1
      2161.0000         1.1821         0.7143         1.0982       -77.3214      0.8703918              1
      2161.5000         1.1536         0.6696         1.0982       -77.6786      0.5074463              1
      2162.0000         1.1393          0.625         1.0982       -78.0357      0.1445999              1
      2162.5000         1.1375         0.5893         1.0982         -78.75     -0.5754547              1
      2163.0000         1.1375         0.5446         0.8673       -79.1071     -0.9383087              1
      2163.5000         1.1464         0.5089         0.8407       -79.4643      -1.301254              1
      2164.0000         1.1589         0.5357          0.823        -80.177      -2.019707      0.9997301
      2164.5000          1.209         0.5625         0.8319       -81.7699      -3.618347      0.9778309
      2165.0000         1.2595         0.6161         0.8319       -84.0708      -5.925003      0.9462329
      2165.5000         1.3423         0.6696         0.8496       -87.6106      -9.470558      0.8976636
      2166.0000         1.4661         0.7232         0.8761       -89.9115       -11.7772      0.8660657
      2166.5000         1.5482         0.7768         0.9204       -91.1504      -13.02185      0.8490158
      2167.0000         1.6306         0.8304         0.9381       -91.6814      -13.55859      0.8416631
      2167.5000         1.7784         0.8661         0.9646       -92.2124      -14.09535      0.8343102
