#------------------------------------------------------------------------------
# Created by    : vladimir.rabinovich
# Created on    : 09/19/2023 17:20:51
#------------------------------------------------------------------------------
~Version Information Section
VERS.           2.0     :   CWLS log ASCII Standard - VERSION 2.0
WRAP.           NO      :   One line per depth step
~Well Information Section
#MNEM       .UNIT                                         VALUE :DESCRIPTION
#------------------------------------------------------------------------------
STRT        .FT                                            1818 :START DEPTH
STOP        .FT                                            9030 :STOP DEPTH
STEP        .FT                                             0.5 :STEP      
NULL        .                                           -999.25 :NULL      
COMP        .                               CONCHO PETROLEUM CO :COMPANY   
WELL        .                                  J E BROUSSARD JR :WELL      
FLD         .                                           WILDCAT :FIELD     
LOC         .                                                   :LOCATION  
CNTY        .                                         JEFFERSON :LOCATION  
STAT        .                                             TEXAS :STATE     
CTRY        .                                     UNITED STATES :COUNTRY   
SRVC        .                                                   :SERVICE COMPANY
DATE        .                             9/13/2023 11:19:11 AM :LOG DATE  
API         .                                    42245021900000 :API NUMBER
UWI         .                                    42245021900000 :UNIQUE WELL ID
XCOORD      .                                  1213918.99973078 :SURFACE X 
YCOORD      .                                  10884047.8383225 :SURFACE Y 
LAT         .                                         29.982808 :LATITUDE  
LON         .                                       -94.3475252 :LONGITUDE 
ELEV        .FT                                              35 :ELEVATION VALUE
ELEV_TYPE   .                                                GL :ELEVATION REFERENCE TYPE
~Curve Information Section
#MNEM       .UNIT                                      API CODE :CURVE DESCRIPTION
#------------------------------------------------------------------------------
DEPT        .FT                                                 :DEPTH     
ASN         .OHMM                                               :          
LAT         .OHMM                                               :          
LN          .OHMM                                               :          
SP          .MV                                                 :          
SP_NORM     .MV                                                 :SP Normalized
VSH_SP      .V/V                                                :Volume of Shale from SP
~A        DEPTH            ASN            LAT             LN             SP        SP_NORM         VSH_SP
# ...
      4706.0000         0.9069         0.8793         0.7952       -59.2982      -4.977211      0.9553123
      4706.5000            0.9         0.8966         0.7768       -59.2982      -4.977211      0.9553123
      4707.0000         0.8897         0.9138         0.7761       -58.9474      -4.626411      0.9592538
      4707.5000         0.8793         0.9138         0.7578       -58.9474      -4.626411      0.9592538
      4708.0000         0.8655         0.9138         0.7395       -58.5965      -4.275513      0.9631965
      4708.5000         0.8517         0.9138         0.7212       -58.5965      -4.275513      0.9631965
      4709.0000         0.8448         0.9138          0.703       -58.2456      -3.924614      0.9671392
      4709.5000         0.8448          0.931         0.7024       -58.2456      -3.924614      0.9671392
      4710.0000          0.831          0.931         0.6842       -57.8947      -3.573711      0.9710819
      4710.5000         0.8138         0.9828         0.6667       -57.5439      -3.222912      0.9750234
      4711.0000            0.8              1         0.6491        -57.193      -2.872013      0.9789661
      4711.5000         0.7862         1.0351         0.6316       -56.4912      -2.170212      0.9868516
      4712.0000         0.7724         1.0702         0.6316       -56.1404      -1.819412      0.9907931
      4712.5000         0.7621         1.1053         0.6316       -55.4386      -1.117611      0.9986785
      4713.0000         0.7483         1.1053         0.6316       -55.0877     -0.7810059              1
      4713.5000         0.7483         1.0877         0.6491        -54.386    -0.09574127              1
      4714.0000         0.7655         1.0877         0.6491       -52.2807       1.993126              1
      4714.5000         0.7828         1.0526         0.6667       -52.6316       1.625797              1
      4715.0000         0.8034         1.0175         0.6667       -52.6316       1.609364              1
      4715.5000         0.8138              1         0.6842       -53.6842       0.540329              1
      4716.0000         0.8207              1         0.6842       -54.0351      0.1730003              1
      4716.5000         0.8276         0.9828         0.6842       -55.0877     -0.8960342              1
      4717.0000          0.831         0.9828         0.6842       -55.7895      -1.614269      0.9930981
      4717.5000         0.8345         0.9828         0.6842       -56.4912      -2.332401      0.9850292
      4718.0000         0.8379         0.9828         0.6842        -57.193      -3.050632      0.9769592
      4718.5000         0.8379         0.9655         0.6491       -58.5965      -4.470566      0.9610049
      4719.0000         0.8276         0.9483         0.6316       -60.7018        -6.5923      0.9371651
      4719.5000         0.8172          0.931          0.614        -62.807      -8.713932      0.9133266
      4720.0000         0.8069         0.9138         0.5965        -65.614      -11.53736      0.8816027
      4720.5000         0.7966         0.8966         0.5789       -67.3684       -13.3082      0.8617057
      4721.0000         0.7897         0.8966         0.5614       -69.1228      -15.07903      0.8418086
      4721.5000         0.7759         0.8621         0.5439       -71.2281      -17.20076       0.817969
      4722.0000          0.769         0.8448         0.5263       -73.3333      -19.32239      0.7941304
      4722.5000         0.7655         0.8276         0.5088       -75.4386      -21.44413      0.7702907
      4723.0000         0.7724         0.7931         0.4912       -77.5439      -23.56586       0.746451
      4723.5000         0.7862         0.7586         0.4737       -79.6491      -25.68749      0.7226124
      4724.0000            0.8         0.7241         0.4561       -82.1053      -28.16013      0.6948301
      4724.5000         0.8414         0.7069         0.4386       -86.3158      -32.38706      0.6473364
      4725.0000         0.8586         0.6897         0.4211       -89.8246      -35.91229      0.6077271
      4725.5000         0.8793         0.6552         0.4035       -94.7368      -40.84092      0.5523492
      4726.0000         0.8862         0.6207         0.4035           -100      -46.12056      0.4930274
      4726.5000         0.9069         0.6034         0.4035      -103.7931      -49.93009      0.4502237
      4727.0000         0.8793          0.569         0.4035      -108.9655      -55.11892      0.3919223
      4727.5000         0.8034         0.5517          0.386      -113.7931      -59.96295      0.3374949
      4728.0000         0.7793         0.5172          0.386      -114.8276      -61.01389      0.3256867
      4728.5000         0.7552         0.5172          0.386      -114.4828      -60.68552      0.3293761
      4729.0000         0.7586            0.5         0.3684      -110.6897      -56.90885      0.3718107
      4729.5000         0.7586         0.4828         0.3684       -107.931      -54.16658      0.4026226
      4730.0000         0.7586         0.4828         0.3684      -110.3448      -56.59682      0.3753166
      4730.5000         0.7414         0.4828         0.3684      -111.3793      -57.64775      0.3635084
      4731.0000         0.7034            0.5         0.3509      -112.7586      -59.04348      0.3478261
      4731.5000         0.6828         0.5172         0.3509      -112.7586      -59.05991      0.3476414
      4732.0000         0.6828         0.5172         0.3509           -110      -56.31775      0.3784523
      4732.5000         0.6828         0.5345         0.3333      -108.6207      -54.95488      0.3937654
      4733.0000         0.6828         0.5517         0.3333      -105.1724      -51.52301      0.4323257
      4733.5000         0.6655         0.5862         0.3333      -102.4138      -48.78085      0.4631365
      4734.0000         0.6345         0.6207         0.3158           -100      -46.38348      0.4900733
      4734.5000         0.6034         0.6379         0.3158       -96.8421      -43.24201      0.5253707
      4735.0000         0.5789         0.6724         0.3158       -94.7368      -41.15314      0.5488411
      4735.5000         0.5544         0.6897         0.2982        -94.386      -40.81878       0.552598
      4736.0000         0.5298         0.6724         0.2982        -94.386      -40.83521      0.5524134
      4736.5000         0.5298         0.6552         0.2982       -94.7368      -41.20244      0.5482872
      4737.0000         0.5298         0.6379         0.3158       -95.7895      -42.27157      0.5362745
      4737.5000         0.5333         0.6034         0.3158      -100.3448      -46.84331      0.4849066
      4738.0000         0.5439          0.569         0.3333      -103.1034      -49.61834      0.4537265
      4738.5000         0.5544         0.5345         0.3333      -106.8966      -53.42797      0.4109217
      4739.0000         0.5789            0.5         0.3333      -110.6897       -57.2375      0.3681179
      4739.5000         0.6034         0.4655         0.3333      -114.8276      -61.39184        0.32144
      4740.0000         0.6069         0.4138         0.3158      -120.7143      -67.29497      0.2551127
      4740.5000         0.6034         0.3793         0.3158      -122.8844      -69.48151      0.2305449
      4741.0000         0.5895         0.3448         0.3158      -125.3983      -72.01184      0.2021141
      4741.5000         0.5544         0.3276         0.2982      -127.8993      -74.52927      0.1738285
      4742.0000         0.5088         0.2931         0.2982      -130.3875       -77.0339      0.1456866
      4742.5000         0.4807         0.2759         0.2982      -132.8632      -79.52604       0.117685
      4743.0000         0.4561         0.2586         0.2807      -135.3265      -82.00578     0.08982275
      4743.5000         0.4351         0.2414         0.2807      -134.2689       -80.9646      0.1015214
