#------------------------------------------------------------------------------
# Created by    : vladimir.rabinovich
# Created on    : 09/19/2023 17:19:39
#------------------------------------------------------------------------------
~Version Information Section
VERS.           2.0     :   CWLS log ASCII Standard - VERSION 2.0
WRAP.           NO      :   One line per depth step
~Well Information Section
#MNEM       .UNIT                                         VALUE :DESCRIPTION
#------------------------------------------------------------------------------
STRT        .FT                                            1969 :START DEPTH
STOP        .FT                                            7841 :STOP DEPTH
STEP        .FT                                             0.5 :STEP      
NULL        .                                           -999.25 :NULL      
COMP        .                           NEWFIELD EXPLORATION CO :COMPANY   
WELL        .                                   PHELAN GAS UNIT :WELL      
FLD         .                                          BINDWEED :FIELD     
LOC         .                                                   :LOCATION  
CNTY        .                                         JEFFERSON :LOCATION  
STAT        .                                             TEXAS :STATE     
CTRY        .                                     UNITED STATES :COUNTRY   
SRVC        .                                                   :SERVICE COMPANY
DATE        .                             9/13/2023 11:18:46 AM :LOG DATE  
API         .                                    42245322670000 :API NUMBER
UWI         .                                    42245322670000 :UNIQUE WELL ID
XCOORD      .                                  1272550.81244857 :SURFACE X 
YCOORD      .                                  10898469.5255822 :SURFACE Y 
LAT         .                                        30.0242363 :LATITUDE  
LON         .                                        -94.162774 :LONGITUDE 
ELEV        .FT                                              24 :ELEVATION VALUE
ELEV_TYPE   .                                                KB :ELEVATION REFERENCE TYPE
~Curve Information Section
#MNEM       .UNIT                                      API CODE :CURVE DESCRIPTION
#------------------------------------------------------------------------------
DEPT        .FT                                                 :DEPTH     
AHT20       .OHMM                                               :          
AHT30       .OHMM                                               :          
AHT60       .OHMM                                               :          
AHT90       .OHMM                                               :          
DCAL        .IN                                                 :          
DPHZSS      .V/V                                                :          
DT          .US/FT                                              :          
GR_NORM     .GAPI                                               :GammaRay Normalized
GRR         .GAPI                                               :          
HDRA        .G/CM3                                              :          
NPORSS      .V/V                                                :          
SP          .MV                                                 :          
SP_NORM     .MV                                                 :SP Normalized
TENR        .LB                                                 :          
VSH_GR      .V/V                                                :Volume of Shale from GR
VSH_SP      .V/V                                                :Volume of Shale from SP
~A        DEPTH          AHT20          AHT30          AHT60          AHT90           DCAL         DPHZSS             DT        GR_NORM            GRR           HDRA         NPORSS             SP        SP_NORM           TENR         VSH_GR         VSH_SP
# ...
      6273.0000         0.5759         0.5865         0.5919         0.5973           0.32         0.3012       124.4044       96.45317          102.9         -0.002          0.408          -28.4      -9.180506           3460              1      0.9079422
      6273.5000         0.5785         0.5892         0.5946            0.6           0.34         0.3012       122.4407       98.75822          104.7         -0.007         0.4146          -27.6      -8.454508           3460              1      0.9172499
      6274.0000         0.5838         0.5946            0.6         0.6056           0.36         0.3018       119.0526       98.94997         104.85         -0.016         0.4194          -27.4      -8.328506           3460              1      0.9188653
      6274.5000         0.5892            0.6         0.6056         0.6113           0.36         0.3036       119.6539       98.18106         104.25         -0.019         0.4267            -27      -8.002508           3480              1      0.9230447
      6275.0000         0.5865         0.5973         0.6028         0.6085           0.32          0.303       125.8271       96.64366         103.05         -0.014         0.4292          -26.8      -7.876509           3460              1      0.9246601
      6275.5000         0.5759         0.5865         0.5919         0.5973           0.32         0.3024       142.3761       94.33778         101.25         -0.006         0.4212          -26.4       -7.55051           3460              1      0.9288396
      6276.0000         0.5759         0.5865         0.5919         0.5973           0.38         0.3012       142.6623       92.03189          99.45         -0.004         0.4122            -26       -7.22451           3420              1      0.9330191
      6276.5000         0.5865         0.5973         0.6028         0.6085           0.38         0.2965       131.3506       90.49449          98.25         -0.001         0.3966          -25.8      -7.098511           3420              1      0.9346345
      6277.0000         0.6113         0.6228         0.6287         0.6346            0.4         0.2849       115.6894       90.49408          98.25         -0.005         0.3708          -25.8      -7.172512           3420              1      0.9336857
      6277.5000         0.6618         0.6743         0.6807          0.687           0.46         0.2697       110.0267       91.07005           98.7         -0.009         0.3527          -27.2      -8.646515           3400              1      0.9147882
      6278.0000         0.6935         0.7065          0.713         0.7196           0.52         0.2604       115.3762       91.64602          99.15         -0.009         0.3564          -28.6      -10.12051           3360              1      0.8958908
      6278.5000         0.6316         0.6435         0.6496         0.6557           0.56         0.2744       121.1519       92.22196           99.6          -0.01         0.4092          -30.6      -12.19452           3360              1      0.8693011
      6279.0000         0.5812         0.5919         0.5973         0.6028            0.6            0.3       126.5074       92.22157           99.6         -0.013         0.4635          -31.8      -13.46852           3320              1      0.8529677
      6279.5000         0.5578         0.5681         0.5733         0.5785           0.66         0.3236       127.2241        91.6448          99.15         -0.017         0.4598            -32      -13.74252           3360              1      0.8494549
      6280.0000         0.5603         0.5707         0.5759         0.5812           0.74         0.3309       123.9197       90.10738          97.95         -0.021         0.4457          -31.8      -13.61652           3340              1      0.8510703
      6280.5000         0.5733         0.5838         0.5892         0.5946         0.8595         0.3279       120.9278          88.57          96.75         -0.021         0.4316          -31.8      -13.69052       3340.305              1      0.8501216
      6281.0000            0.6         0.6113         0.6171         0.6228         0.9584         0.3182        119.899       87.22474           95.7         -0.017         0.4158          -31.6      -13.56452       3360.899              1      0.8517369
      6281.5000         0.6142         0.6258         0.6316         0.6376         1.0375         0.3085        119.697        87.0322          95.55         -0.012         0.4183          -30.6      -12.63852       3381.413              1      0.8636087
      6282.0000         0.6287         0.6405         0.6466         0.6526         1.0964         0.2983        119.596       86.64754          95.25         -0.015         0.4171          -29.6      -11.71252       3421.929              1      0.8754805
      6282.5000         0.6466         0.6588         0.6649         0.6712         1.1555         0.2994       118.0808       86.45501           95.1         -0.021         0.4045          -28.4      -10.58652       3442.394              1      0.8899164
      6283.0000         0.6649         0.6775         0.6838         0.6903         1.2144         0.2983       116.7677        86.4546           95.1         -0.024         0.3907            -27      -9.260523       3423.004              1      0.9069164
      6283.5000         0.6775         0.6967         0.7032         0.7097         1.2135         0.2953       114.6465       86.64633          95.25         -0.018         0.3829          -25.8      -8.134523       3423.513              1      0.9213523
      6284.0000         0.7263         0.7398         0.7466         0.7535         1.1524         0.2872       112.4242       86.64593          95.25         -0.006         0.3751          -24.4      -6.808523       3424.077              1      0.9383523
      6284.5000         0.7675         0.7818          0.789         0.7963         1.1115         0.2744       109.3069       85.30065           94.2         -0.004         0.3624            -23      -5.482525        3404.67              1      0.9553522
      6285.0000         0.8371         0.8524         0.8601          0.868         1.0704         0.2581       105.5446       83.76324             93         -0.001         0.3594            -22      -4.556526       3385.339              1       0.967224
      6285.5000         0.9578         0.9763         0.9857         0.9952         1.0495         0.2375        100.099       79.15189           89.4         -0.001         0.3461            -22      -4.630527       3385.864      0.9819552      0.9662753
      6286.0000         1.2351          1.258         1.2696         1.2813         1.0084         0.1982           91.4       68.00834           80.7         -0.003         0.2755            -22      -4.704527       3386.447      0.7448583      0.9653266
      6286.5000         1.7189         1.7507         1.7669         1.7832         0.9275         0.1531           83.6       56.00215        71.3265         -0.004         0.2228            -22      -4.778528       3386.971      0.4894074      0.9643778
      6287.0000         2.5415         2.4382         2.4608         2.4836         0.9264         0.0926           80.1       44.82721         62.602         -0.005         0.1976            -22       -4.85253       3387.553      0.2516428      0.9634291
      6287.5000         2.5532         2.4048          2.427         2.4495         0.9655         0.0783           82.1       37.22475        56.6667         -0.005          0.261          -22.2       -5.12653       3388.076     0.08988823      0.9599163
      6288.0000         1.7347         1.6799         1.6954          1.711         0.9644         0.1033           85.4        34.7015         54.697         -0.005         0.3303          -22.6      -5.600531       3408.502     0.03620213      0.9538394
      6288.5000         1.3601         1.3601         1.3726         1.3853         0.9635         0.1212           94.7       36.25358        55.9091         -0.008         0.3176          -22.6      -5.674532       3409.015     0.06922515      0.9528906
