#------------------------------------------------------------------------------
# Created by    : vladimir.rabinovich
# Created on    : 09/19/2023 17:20:52
#------------------------------------------------------------------------------
~Version Information Section
VERS.           2.0     :   CWLS log ASCII Standard - VERSION 2.0
WRAP.           NO      :   One line per depth step
~Well Information Section
#MNEM       .UNIT                                         VALUE :DESCRIPTION
#------------------------------------------------------------------------------
STRT        .FT                                            1017 :START DEPTH
STOP        .FT                                            8855 :STOP DEPTH
STEP        .FT                                             0.5 :STEP      
NULL        .                                           -999.25 :NULL      
COMP        .                               MEREDITH & CO ET AL :COMPANY   
WELL        .                               BROUSSARD J JR ETAL :WELL      
FLD         .                                           WILDCAT :FIELD     
LOC         .                                                   :LOCATION  
CNTY        .                                         JEFFERSON :LOCATION  
STAT        .                                             TEXAS :STATE     
CTRY        .                                     UNITED STATES :COUNTRY   
SRVC        .                                                   :SERVICE COMPANY
DATE        .                             9/13/2023 11:19:11 AM :LOG DATE  
API         .                                    42245021880000 :API NUMBER
UWI         .                                    42245021880000 :UNIQUE WELL ID
XCOORD      .                                  1215343.11980964 :SURFACE X 
YCOORD      .                                  10882366.7587642 :SURFACE Y 
LAT         .                                        29.9782309 :LATITUDE  
LON         .                                       -94.3429645 :LONGITUDE 
ELEV        .FT                                              36 :ELEVATION VALUE
ELEV_TYPE   .                                                DF :ELEVATION REFERENCE TYPE
~Curve Information Section
#MNEM       .UNIT                                      API CODE :CURVE DESCRIPTION
#------------------------------------------------------------------------------
DEPT        .FT                                                 :DEPTH     
ASN         .OHMM                                               :          
LAT         .OHMM                                               :          
LN          .OHMM                                               :          
SP          .MV                                                 :          
SP_NORM     .MV                                                 :SP Normalized
VSH_SP      .V/V                                                :Volume of Shale from SP
~A        DEPTH            ASN            LAT             LN             SP        SP_NORM         VSH_SP
# ...
      2575.0000         0.9794         1.0429         1.1014       -56.4706      0.3195229              1
      2575.5000         0.9706         1.0571         1.1014       -56.7647     0.02542114              1
      2576.0000         0.9676         1.0714         1.1014       -57.0588     -0.2686768              1
      2576.5000         0.9647         1.0714         1.1014       -57.0588     -0.2686768              1
      2577.0000         0.9618         1.0714         1.1014       -57.0588     -0.2686768              1
      2577.5000         0.9588         1.0714         1.1014       -56.4706      0.3195229              1
      2578.0000         0.9588         1.0857         1.1014       -56.4706      0.3195229              1
      2578.5000         0.9588            1.1         1.1014       -56.4706      0.3195229              1
      2579.0000         0.9618            1.1         1.1014       -56.4706      0.3195229              1
      2579.5000         0.9647         1.1143         1.1014       -56.7647     0.02542114              1
      2580.0000         0.9676         1.1286         1.1014       -57.3529     -0.5627785              1
      2580.5000         0.9676         1.1286         1.1159       -58.2353      -1.445175              1
      2581.0000         0.9676         1.1286         1.1159       -59.1176      -2.327477      0.9948019
      2581.5000         0.9618         1.1429         1.1159       -59.7059      -2.915775      0.9854639
      2582.0000         0.9559         1.1429         1.1159       -60.2899      -3.499779       0.976194
      2582.5000         0.9559         1.1429         1.1159       -60.5797      -3.789577       0.971594
      2583.0000         0.9559         1.1286         1.1159       -60.5797      -3.789577       0.971594
      2583.5000         0.9618         1.1286         1.1159            -60      -3.209877      0.9807956
      2584.0000         0.9765         1.1286         1.1159       -59.7059      -2.915775      0.9854639
      2584.5000         0.9824         1.1571         1.1304       -59.4118      -2.621677      0.9901321
      2585.0000         0.9912         1.1857         1.1304       -59.4118      -2.621677      0.9901321
      2585.5000         0.9941         1.2143         1.1304       -59.1176      -2.327477      0.9948019
      2586.0000         1.0029         1.2286         1.1304       -58.8235      -2.033379      0.9994702
      2586.5000         1.0058         1.2286         1.1304       -58.2353      -1.445175              1
      2587.0000         1.0087         1.2286         1.1449       -57.6471     -0.8569756              1
      2587.5000         1.0087         1.2143         1.1594       -57.0588     -0.2686768              1
      2588.0000         1.0116         1.2143         1.1594       -57.0588     -0.2686768              1
      2588.5000         1.0145         1.2143         1.1739       -57.0588     -0.2686768              1
      2589.0000         1.0174            1.2         1.1884       -57.3529     -0.5627785              1
      2589.5000         1.0174            1.2         1.1884       -57.6471     -0.8569756              1
      2590.0000         1.0232            1.2         1.2029       -58.2353      -1.445175              1
      2590.5000         1.0405         1.2145         1.2174       -58.5193      -1.729176              1
      2591.0000         1.0548         1.2148         1.2174       -59.0963      -2.306175      0.9951401
      2591.5000         1.0779         1.2438         1.2319       -59.3736      -2.583477      0.9907385
      2592.0000          1.098         1.2584         1.2464       -59.3572      -2.567078      0.9909987
      2592.5000         1.1124         1.2733         1.2609       -58.7601      -1.969978              1
      2593.0000         1.1354         1.2881         1.2754       -58.4514      -1.661278              1
      2593.5000         1.1498         1.3029         1.2899       -57.8557      -1.065578              1
      2594.0000          1.167         1.3178         1.2899       -57.5482     -0.7580757              1
      2594.5000         1.1842         1.3182         1.3043       -57.5334     -0.7432785              1
      2595.0000         1.1899         1.3332         1.3188       -57.5235     -0.7333755              1
      2595.5000         1.1984         1.3481         1.3188       -57.5087     -0.7185783              1
      2596.0000         1.2071         1.3487         1.3333       -57.4989     -0.7087784              1
      2596.5000         1.2186         1.3637         1.3478       -57.7755     -0.9853783              1
      2597.0000         1.2302         1.3643         1.3623       -58.0517      -1.261578              1
      2597.5000         1.2359         1.3793         1.3623       -58.3325      -1.542377              1
      2598.0000         1.2446         1.3946         1.3623       -58.8986      -2.108479      0.9982781
      2598.5000         1.2504         1.4099         1.3623       -59.1786      -2.388477      0.9938337
      2599.0000         1.2591         1.4103         1.3623       -60.0335      -3.243378      0.9802638
      2599.5000         1.2589         1.4257         1.3478       -60.5964      -3.806278      0.9713289
      2600.0000          1.253         1.4262         1.3478        -61.165      -4.374878      0.9623035
      2600.5000         1.2441          1.411         1.3333       -61.7411      -4.950977      0.9566033
      2601.0000         1.2382         1.3955         1.3333       -61.7431      -4.952976      0.9565739
      2601.5000         1.2264         1.3796         1.3333        -60.873      -4.082878      0.9693694
      2602.0000         1.2176         1.3491         1.3333            -60      -3.209877      0.9822077
      2602.5000         1.2029         1.3337         1.3333       -59.4223      -2.632175      0.9907033
      2603.0000         1.1884         1.3179         1.3333       -59.1341      -2.343979      0.9949415
      2603.5000         1.1826         1.3026         1.3333       -59.1346      -2.344479      0.9949341
      2604.0000         1.1797         1.3015         1.3333       -59.1353      -2.345177      0.9949239
      2604.5000         1.1681         1.2858         1.3333       -59.1358      -2.345676      0.9949165
      2605.0000         1.1594          1.285         1.3188       -59.4244      -2.634277      0.9906724
      2605.5000         1.1565          1.284         1.3188       -59.7124      -2.922276      0.9864371
      2606.0000         1.1536         1.2832         1.3188       -59.7126      -2.922478      0.9864342
      2606.5000         1.1536         1.2822         1.3188            -60      -3.209877      0.9822077
      2607.0000         1.1478         1.2811         1.3188            -60      -3.209877      0.9822077
      2607.5000         1.1449         1.2804         1.3188            -60      -3.209877      0.9822077
      2608.0000         1.1391         1.2793         1.3043            -60      -3.209877      0.9822077
      2608.5000         1.1304          1.264         1.3043       -59.4273      -2.637177      0.9906297
      2609.0000         1.1217          1.263         1.3043       -59.4276      -2.637478      0.9906253
      2609.5000          1.113         1.2329         1.3043       -59.4281      -2.637978       0.990618
      2610.0000         1.1072         1.2322         1.3043       -59.4284      -2.638275      0.9906136
      2610.5000         1.0986         1.2174         1.3043       -59.1429      -2.352776      0.9948121
      2611.0000         1.0986         1.2029         1.2899       -59.1429      -2.352776      0.9948121
      2611.5000         1.0957         1.2174         1.2899            -58      -1.209877              1
      2612.0000         1.0957         1.2609         1.2899       -57.1429     -0.3527756              1
      2612.5000         1.0928         1.2899         1.2899       -56.5714      0.2187233              1
