#------------------------------------------------------------------------------
# Created by    : vladimir.rabinovich
# Created on    : 09/19/2023 17:20:51
#------------------------------------------------------------------------------
~Version Information Section
VERS.           2.0     :   CWLS log ASCII Standard - VERSION 2.0
WRAP.           NO      :   One line per depth step
~Well Information Section
#MNEM       .UNIT                                         VALUE :DESCRIPTION
#------------------------------------------------------------------------------
STRT        .FT                                            1028 :START DEPTH
STOP        .FT                                            9325 :STOP DEPTH
STEP        .FT                                             0.5 :STEP      
NULL        .                                           -999.25 :NULL      
COMP        .                     HUNT LAMAR TRUST ESTATE ET AL :COMPANY   
WELL        .                                   BROUSSARD TRUST :WELL      
FLD         .                                           WILDCAT :FIELD     
LOC         .                                                   :LOCATION  
CNTY        .                                         JEFFERSON :LOCATION  
STAT        .                                             TEXAS :STATE     
CTRY        .                                     UNITED STATES :COUNTRY   
SRVC        .                                                   :SERVICE COMPANY
DATE        .                             9/13/2023 11:19:11 AM :LOG DATE  
API         .                                    42245021920000 :API NUMBER
UWI         .                                    42245021920000 :UNIQUE WELL ID
XCOORD      .                                  1218474.36862613 :SURFACE X 
YCOORD      .                                   10882715.986693 :SURFACE Y 
LAT         .                                        29.9792918 :LATITUDE  
LON         .                                       -94.3330868 :LONGITUDE 
ELEV        .FT                                              36 :ELEVATION VALUE
ELEV_TYPE   .                                                DF :ELEVATION REFERENCE TYPE
~Curve Information Section
#MNEM       .UNIT                                      API CODE :CURVE DESCRIPTION
#------------------------------------------------------------------------------
DEPT        .FT                                                 :DEPTH     
ASN         .OHMM                                               :          
LAT         .OHMM                                               :          
LN          .OHMM                                               :          
SP          .MV                                                 :          
SP_NORM     .MV                                                 :SP Normalized
VSH_SP      .V/V                                                :Volume of Shale from SP
~A        DEPTH            ASN            LAT             LN             SP        SP_NORM         VSH_SP
# ...
      8172.0000         1.0067         0.1694         0.2655      -153.8053      -88.75337     0.06645349
      8172.5000         1.0067         0.2584         0.2655      -162.1818      -97.17115              0
      8173.0000         1.3432         0.3473         0.2655      -162.3636      -97.39424              0
      8173.5000         1.3521         0.4362         0.2655      -162.5455      -97.61742              0
      8174.0000         1.3503         0.4805         0.2655      -162.1818        -97.295              0
      8174.5000         1.3414         0.4892         0.2655      -160.9091      -96.06359              0
      8175.0000         1.1884         0.4623         0.2655      -157.6991      -92.89487     0.02239503
      8175.5000          1.108         0.4088         0.2655      -153.2743      -88.51136     0.06902809
      8176.0000         1.6161         0.3553         0.2655      -150.2655      -85.54385      0.1005974
      8176.5000         1.6911         0.3019         0.2655      -150.0885      -85.40813      0.1020412
      8177.0000         1.8429         0.2662         0.2743      -151.1504      -86.51131     0.09030516
      8177.5000         1.8482         0.2661         0.2743      -152.9204      -88.32259     0.07103632
      8178.0000         1.8482         0.4345         0.2743      -154.6903      -90.13378     0.05176828
      8178.5000           1.85         0.4697         0.2743      -156.4602      -91.94496     0.03250041
      8179.0000         1.8536         0.4784         0.2743      -158.2301      -93.75614     0.01323254
      8179.5000         1.9292         0.3365         0.2743           -160      -95.56732              0
      8180.0000         1.9292         0.3275         0.2743      -161.0909       -96.6995              0
      8180.5000         1.9115         0.3274         0.2743      -160.7273      -96.37718              0
      8181.0000         1.8964         0.3274         0.2743           -160      -95.69117              0
      8181.5000         1.8696         0.3097         0.2743       -159.115      -94.84747    0.001622707
      8182.0000         1.7982          0.292         0.2743      -158.4071      -94.18085    0.008714392
      8182.5000         1.7982          0.292         0.2743      -157.5221      -93.33712     0.01769021
      8183.0000         1.7982          0.292         0.2743      -156.6372      -92.49352     0.02666473
      8183.5000         1.8357         0.2743         0.2743      -155.5752      -91.47279     0.03752355
      8184.0000         1.8161         0.2743         0.2743      -154.6903      -90.62918     0.04649808
      8184.5000         1.7821         0.2743         0.2743      -153.8053      -89.78545      0.0554739
      8185.0000         1.7589         0.2743         0.2743      -153.0973      -89.11874     0.06256656
      8185.5000         1.7571         0.2743         0.2743      -152.2124      -88.27512     0.07154123
      8186.0000         1.7875         0.2743         0.2743      -151.5044       -87.6084     0.07863406
      8186.5000         1.8464         0.2832         0.2743      -150.7965      -86.94179     0.08572567
      8187.0000         2.0177          0.292         0.2743      -150.0885      -86.27507      0.0928184
      8187.5000         2.0619         0.3009         0.2832      -149.3805      -85.60835     0.09991114
      8188.0000         2.1327         0.3186         0.2832      -148.8496      -85.11873      0.1051199
      8188.5000         2.1327         0.3274         0.2832      -148.1416      -84.45203      0.1122125
      8189.0000         2.0708         0.3274         0.2832      -147.2566      -83.60831      0.1211881
      8189.5000         2.0354         0.3274         0.2832      -146.5487       -82.9417      0.1282798
      8190.0000         1.8536         0.3274         0.2832      -145.8387      -82.27297      0.1353939
      8190.5000         1.8518         0.3272         0.2828       -145.317      -81.79256      0.1405047
      8191.0000         1.8446         0.3269         0.2823      -144.6181      -81.13495      0.1475005
      8191.5000         1.8696         0.3266         0.2819      -143.9193      -80.47742      0.1544956
      8192.0000         1.8786         0.3263         0.2814      -143.3976      -79.99701      0.1596063
      8192.5000         1.8464          0.326          0.281      -142.6989      -79.33958      0.1666002
      8193.0000         1.7946         0.3257         0.2806      -142.0002      -78.68217      0.1735939
      8193.5000         1.7446         0.3254         0.2801      -141.8279      -78.55115      0.1749878
      8194.0000         1.6929         0.3251         0.2797      -141.1293      -77.89384      0.1819804
      8194.5000         1.6411         0.3248         0.2793      -140.4306      -77.23643      0.1889742
      8195.0000         1.5857         0.3245         0.2788      -140.0861      -76.93321      0.1921999
      8195.5000         1.5731         0.3242         0.2784      -140.0957      -76.98409      0.1916586
      8196.0000         1.5659         0.3239         0.2868      -140.1053      -77.03497      0.1911173
      8196.5000         1.5641         0.3236         0.2864      -140.1148      -77.08577      0.1905769
      8197.0000         1.5641         0.3233         0.2859      -140.1196      -77.13184      0.1900869
      8197.5000         1.5604          0.323         0.3032      -140.1292      -77.18272      0.1895455
      8198.0000         1.5676         0.3227         0.3028      -142.2628       -79.3576      0.1664085
      8198.5000         1.5784         0.3224         0.3023      -143.8654       -81.0015      0.1489203
      8199.0000          1.625         0.3043         0.3019      -146.7069      -83.88426      0.1182525
      8199.5000         1.7179          0.304         0.3015      -149.3712      -86.58986     0.08946958
      8200.0000         1.8586         0.2858          0.301      -152.2124      -89.47234     0.05880486
      8200.5000          1.885         0.2678         0.3009      -153.6283      -90.92952     0.04330298
      8201.0000         1.9204         0.2498          0.292      -156.2832      -93.62571     0.01462011
      8201.5000         1.8804         0.2319         0.2832       -159.115      -96.49879              0
      8202.0000         1.7357         0.2139         0.2655      -160.9091      -98.33418              0
      8202.5000         1.7446          0.196         0.2389      -160.9091      -98.37546              0
      8203.0000         1.7839         0.1959         0.2124      -160.9091      -98.41675              0
      8203.5000         1.8143         0.1958         0.1947      -160.7273      -98.27621              0
      8204.0000          1.875         0.1957          0.177      -160.3636      -97.95381              0
      8204.5000         1.8584         0.1957         0.1681       -159.292      -96.92349              0
      8205.0000          1.708         0.2845          0.177      -157.8761      -95.54887              0
      8205.5000         1.8482         0.3199         0.1947      -156.1062      -93.82026     0.01255044
      8206.0000         1.7625         0.3996         0.2124      -152.3894      -90.14474     0.05165165
      8206.5000         1.6107         0.4439         0.2566      -148.1416      -85.93822     0.09640186
      8207.0000         1.7196         0.5236          0.292      -143.8938       -81.7317      0.1411521
      8207.5000         1.8286         0.6032         0.3186      -139.8182       -77.6974      0.1840702
      8208.0000         1.8938         0.6916         0.3274      -133.8182      -71.73868      0.2474609
      8208.5000         1.8982         0.7621          0.354      -121.4545      -59.41626      0.3785505
      8209.0000         1.8089         0.6024         0.3274      -115.5752      -53.57824       0.440657
      8209.5000         1.6732         0.4073         0.3097      -103.5398      -41.58413       0.568254
