#------------------------------------------------------------------------------
# Created by    : vladimir.rabinovich
# Created on    : 09/19/2023 17:20:52
#------------------------------------------------------------------------------
~Version Information Section
VERS.           2.0     :   CWLS log ASCII Standard - VERSION 2.0
WRAP.           NO      :   One line per depth step
~Well Information Section
#MNEM       .UNIT                                         VALUE :DESCRIPTION
#------------------------------------------------------------------------------
STRT        .FT                                            1558 :START DEPTH
STOP        .FT                                           11266 :STOP DEPTH
STEP        .FT                                             0.5 :STEP      
NULL        .                                           -999.25 :NULL      
COMP        .                               MEREDITH & CO ET AL :COMPANY   
WELL        .                                 GRINNELL TEXAS CO :WELL      
FLD         .                                           WILDCAT :FIELD     
LOC         .                                                   :LOCATION  
CNTY        .                                         JEFFERSON :LOCATION  
STAT        .                                             TEXAS :STATE     
CTRY        .                                     UNITED STATES :COUNTRY   
SRVC        .                                                   :SERVICE COMPANY
DATE        .                             9/13/2023 11:19:11 AM :LOG DATE  
API         .                                    42245015300000 :API NUMBER
UWI         .                                    42245015300000 :UNIQUE WELL ID
XCOORD      .                                  1358778.50439977 :SURFACE X 
YCOORD      .                                  10877447.4356243 :SURFACE Y 
LAT         .                                        29.9685419 :LATITUDE  
LON         .                                       -93.8897358 :LONGITUDE 
ELEV        .FT                                              14 :ELEVATION VALUE
ELEV_TYPE   .                                                DF :ELEVATION REFERENCE TYPE
~Curve Information Section
#MNEM       .UNIT                                      API CODE :CURVE DESCRIPTION
#------------------------------------------------------------------------------
DEPT        .FT                                                 :DEPTH     
ASN         .OHMM                                               :          
LN          .OHMM                                               :          
SP          .MV                                                 :          
SP_NORM     .MV                                                 :SP Normalized
VSH_SP      .V/V                                                :Volume of Shale from SP
~A        DEPTH            ASN             LN             SP        SP_NORM         VSH_SP
# ...
      2218.0000         0.6789         0.3649       -92.2296      -62.71956     0.05046827
      2218.5000         0.6963         0.3584       -92.4911      -62.99139     0.04628624
      2219.0000         0.7261         0.3518       -92.7869      -63.29753     0.04157645
      2219.5000         0.7559         0.3516       -93.0825      -63.60346     0.03686987
      2220.0000           0.78         0.3537       -93.3782      -63.90949     0.03216165
      2220.5000         0.8037         0.3559       -93.6738      -64.21542     0.02745502
      2221.0000         0.8275         0.3581       -93.9695      -64.52146     0.02274675
      2221.5000         0.8512         0.3602       -94.2651      -64.82739     0.01804012
      2222.0000         0.8299         0.3624       -93.9362      -64.50883       0.022941
      2222.5000         0.8086         0.3645        -93.444      -64.02696     0.03035443
      2223.0000         0.7873         0.3667       -92.9517      -63.54499     0.03776938
      2223.5000         0.7647         0.3709       -92.4458      -63.04943     0.04539343
      2224.0000         0.7408         0.3772       -91.8602      -62.47416      0.0542437
      2224.5000         0.7169         0.3836       -91.2745      -61.89879     0.06309556
      2225.0000          0.693         0.3899        -90.689      -61.32363     0.07194413
      2225.5000         0.6691         0.3963       -90.1035      -60.74846     0.08079294
      2226.0000         0.6893         0.4026       -91.3043      -61.95959     0.06216014
      2226.5000          0.709         0.4128       -92.5223      -63.18793     0.04326266
      2227.0000         0.7258         0.4346       -93.2377      -63.91366     0.03209757
      2227.5000         0.7427         0.4565        -93.953       -64.6393     0.02093389
      2228.0000         0.7596         0.4783       -94.6682      -65.36482    0.009771964
      2228.5000         0.7764         0.5001       -95.3835      -66.09045              0
      2229.0000         0.7889         0.5218       -95.1982      -65.91549    0.001300166
      2229.5000         0.7856         0.5423       -94.9037      -65.63132    0.005671927
      2230.0000         0.7823         0.5629       -94.6091      -65.34706     0.01004521
      2230.5000         0.7766         0.5835       -92.7305      -63.47879     0.03878784
      2231.0000          0.771         0.6041       -90.0181      -60.77672     0.08035818
      2231.5000         0.7653         0.6247       -87.3057      -58.07466      0.1219283
      2232.0000         0.7645         0.6453       -80.3656      -51.14489      0.2285402
      2232.5000         0.7795         0.6659       -69.6528      -40.44242      0.3931935
      2233.0000         0.7945         0.6865       -51.3353      -22.13525      0.6748422
      2233.5000         0.8096         0.7071       -40.2346      -11.04489      0.8454633
      2234.0000         0.8246         0.7277       -34.1508      -4.971418      0.9389012
      2234.5000         0.8396         0.7466       -31.5718      -2.402754      0.9784192
      2235.0000         0.8546         0.7636       -29.3962     -0.2374859              1
      2235.5000         0.8696         0.7806       -28.7697      0.3786812              1
      2236.0000         0.8829         0.7976       -28.8387      0.2993488              1
      2236.5000         0.8901         0.8146       -28.9647      0.1630135              1
      2237.0000         0.8974         0.8316       -29.6153     -0.4979172              1
      2237.5000         0.9046         0.8414       -30.2661      -1.159052      0.9975531
      2238.0000         0.9119         0.8498       -31.2296      -2.132885       0.982571
      2238.5000         0.9191         0.8613       -32.2295      -3.143118       0.967029
      2239.0000         0.9264         0.8776        -30.554      -1.477951      0.9926469
      2239.5000         0.9336          0.894       -28.5762      0.4895153              1
      2240.0000         0.9409         0.9103       -27.6862       1.369184              1
      2240.5000         0.9481         0.9266       -27.0018       2.043249              1
      2241.0000         0.9554         0.9399       -26.3177       2.717018              1
      2241.5000         0.9589         0.9478       -25.6335       3.390884              1
      2242.0000         0.9618         0.9558       -24.9494       4.064651              1
      2242.5000         0.9648         0.9638       -24.7229       4.280817              1
      2243.0000         0.9678         0.9718       -24.6371       4.356285              1
      2243.5000         0.9707         0.9797       -24.5512        4.43185              1
      2244.0000         0.9737         0.9877       -24.4654       4.507318              1
      2244.5000         0.9766         0.9957       -24.3795       4.582886              1
      2245.0000         0.9796         1.0037       -24.2937       4.658354              1
      2245.5000          0.981         1.0116       -24.5263       4.415419              1
      2246.0000         0.9824         1.0163       -24.7894       4.141987              1
      2246.5000         0.9838         1.0132       -25.0526       3.868452              1
      2247.0000         0.9852         1.0102       -25.3157        3.59502              1
      2247.5000         0.9867         1.0071       -25.5787       3.321688              1
      2248.0000         0.9835          1.004       -25.8772       3.012856              1
      2248.5000         0.9724         1.0001       -26.1803       2.699421              1
      2249.0000         0.9613         0.9869       -26.4833       2.386089              1
      2249.5000         0.9502         0.9738       -26.7863       2.072754              1
      2250.0000         0.9484         0.9606       -27.0829       1.765823              1
      2250.5000           0.96         0.9474       -27.2804       1.557989              1
      2251.0000         0.9717         0.9342       -27.4779       1.350157              1
      2251.5000         0.9833         0.9211       -27.8091       1.008623              1
      2252.0000         1.0015         0.9095        -31.196      -2.388609      0.9804421
      2252.5000         1.0334         0.8996       -34.5828      -5.785746      0.9325951
      2253.0000         1.0653         0.8898       -38.4161      -9.629375      0.8784595
      2253.5000         1.0928         0.8799       -45.6108      -16.83441      0.7769801
      2254.0000         1.1131         0.8701       -54.0499      -25.28384      0.6579741
      2254.5000         1.1213         0.8602       -56.5716      -27.81588      0.6223116
      2255.0000         1.1029         0.8504       -59.0933      -30.34791      0.5866492
      2255.5000         1.0845         0.8405       -59.7435      -31.00844      0.5773459
      2256.0000          1.066         0.8307       -58.5786      -29.85388      0.5936074
      2256.5000         1.0483         0.8208       -56.1803      -27.46591      0.6272407
      2257.0000         1.0306          0.811        -52.379      -23.67494      0.6806346
      2257.5000          1.013         0.8013       -48.5767      -19.88297      0.7340426
      2258.0000         1.0071         0.7916       -45.0201      -16.33671        0.78399
      2258.5000         1.0345         0.7819       -46.1112      -17.43814      0.7684769
      2259.0000         1.0619         0.7722       -51.0091      -22.34637      0.6993468
      2259.5000         1.0935         0.7625       -53.1924      -24.54001      0.6684506
      2260.0000         1.1252         0.7528       -55.3757      -26.73364      0.6375543
      2260.5000          1.157         0.7468       -57.5591      -28.92737      0.6066567
      2261.0000         1.1887         0.7527       -59.7413       -31.1199       0.575776
      2261.5000         1.2162         0.7586       -61.8962      -33.28513      0.5452798
