#------------------------------------------------------------------------------
# Created by    : vladimir.rabinovich
# Created on    : 09/19/2023 17:21:29
#------------------------------------------------------------------------------
~Version Information Section
VERS.           2.0     :   CWLS log ASCII Standard - VERSION 2.0
WRAP.           NO      :   One line per depth step
~Well Information Section
#MNEM       .UNIT                                         VALUE :DESCRIPTION
#------------------------------------------------------------------------------
STRT        .FT                                            1500 :START DEPTH
STOP        .FT                                            6885 :STOP DEPTH
STEP        .FT                                             0.5 :STEP      
NULL        .                                           -999.25 :NULL      
COMP        .                        HILLHOUSE OPERATING CO LLC :COMPANY   
WELL        .                                  LEWIS J C FAMILY :WELL      
FLD         .                                    LIVE OAK BAYOU :FIELD     
LOC         .                                                   :LOCATION  
CNTY        .                                         MATAGORDA :LOCATION  
STAT        .                                             TEXAS :STATE     
CTRY        .                                     UNITED STATES :COUNTRY   
SRVC        .                                                   :SERVICE COMPANY
DATE        .                             9/13/2023 11:19:17 AM :LOG DATE  
API         .                                    42321308450000 :API NUMBER
UWI         .                                    42321308450000 :UNIQUE WELL ID
XCOORD      .                                  757138.788685477 :SURFACE X 
YCOORD      .                                  10457801.5308193 :SURFACE Y 
LAT         .                                        28.7888954 :LATITUDE  
LON         .                                       -95.7578897 :LONGITUDE 
ELEV        .FT                                              17 :ELEVATION VALUE
ELEV_TYPE   .                                                KB :ELEVATION REFERENCE TYPE
~Curve Information Section
#MNEM       .UNIT                                      API CODE :CURVE DESCRIPTION
#------------------------------------------------------------------------------
DEPT        .FT                                                 :DEPTH     
CALI        .IN                                                 :          
DCOR        .G/C3                                               :          
DPOR        .%                                                  :          
DT          .US/F                                               :          
GR          .GAPI                                               :          
GR_NORM     .GAPI                                               :GammaRay Normalized
ILD         .OHMM                                               :          
ILM         .OHMM                                               :          
LL8         .OHMM                                               :          
NPOR        .%                                                  :          
RHOB        .G/C3                                               :          
SP          .MV                                                 :          
SP_NORM     .MV                                                 :SP Normalized
VSH_GR      .V/V                                                :Volume of Shale from GR
VSH_SP      .V/V                                                :Volume of Shale from SP
~A        DEPTH           CALI           DCOR           DPOR             DT             GR        GR_NORM            ILD            ILM            LL8           NPOR           RHOB             SP        SP_NORM         VSH_GR         VSH_SP
# ...
      6158.0000         7.4919         0.0162        27.8711       119.8625        65.7406       67.76615         0.8189         0.8811         0.8417        42.8473           2.19       -47.6282      -2.641003      0.7397053       0.965085
      6158.5000         7.2942         0.0167         26.973        117.258        66.1395       68.81821         0.7893         0.9095         0.9876         37.794         2.2069       -51.9663      -6.981415      0.7620895      0.8727359
      6159.0000         7.0567         0.0203        25.8358       112.6257        68.3213       74.57253         0.7642         0.8969         1.2467         34.086         2.2262        -57.095      -12.11243       0.884522      0.7635654
      6159.5000         7.0373         0.0236        24.8181       108.3619        71.0953       81.88879         0.7605         0.8804          1.456        32.4998         2.2415       -60.6777      -15.69744              1      0.6872886
      6160.0000         7.0178         0.0301        23.5611       106.2526        74.4658       90.77821         0.7638         0.8603         1.4824        32.7084         2.2618       -60.6719      -15.69395              1      0.6873627
      6160.5000         7.0776         0.0365        22.7228       106.2526        75.8548        94.4416         0.7823         0.8257         1.2643        34.5303         2.2737       -58.6601      -13.68446              1      0.7301179
      6161.0000         7.0778          0.041         22.303       107.8435        73.8776        89.2269         0.8035         0.8183         1.1066        35.9637         2.2807       -55.2897      -10.31637              1      0.8017793
      6161.5000         7.1177         0.0494        22.4811       108.1654        70.7122       80.87837         0.8184         0.8489         1.0477        37.6662         2.2752        -53.508      -8.536983              1      0.8396387
      6162.0000         7.1576         0.0603        22.7189       109.6225        65.9626       68.35165         0.8223         0.8807         1.0575        38.3523         2.2653       -52.5168        -7.5481      0.7521629      0.8606787
      6162.5000         7.2569         0.0673        23.4351       109.0255        63.9356       63.00562         0.8187         0.8809         1.0577        38.9189         2.2594       -51.7233      -6.756912      0.6384174      0.8775125
      6163.0000         7.3166         0.0702        23.6131        108.081        65.7704       67.84474         0.8188          0.873         1.0482        39.9637         2.2574       -50.5345      -5.570423      0.7413775      0.9027569
      6163.5000         7.2971         0.0772        23.6716        108.527        69.3377       77.25322         0.8265         0.8933         1.0484        41.3672         2.2574       -48.9505      -3.988735      0.9415579      0.9364099
      6164.0000         7.2184         0.0708        23.7899       109.5677        72.2618       84.96537         0.8457         0.9017          1.039        41.9934         2.2575       -47.7618      -2.802345              1      0.9616522
      6164.5000         7.1789         0.0663        23.4897       108.2765        73.4523       88.10519         0.8498         0.9018         1.0157        42.3209         2.2614       -46.1779      -1.220757              1       0.995303
      6165.0000         7.1453         0.0692        23.1297       107.7291        73.1582       87.32951         0.8499          0.902         1.0066        41.5126         2.2699       -45.1869     -0.2320709              1              1
      6165.5000         7.1201         0.0723        22.4708        108.621        72.5671       85.77052         0.8385         0.8939         0.9976        40.3453         2.2812       -44.3932      0.5593185              1              1
      6166.0000         7.1086         0.0802        21.8715       108.6693        70.9858       81.60001         0.8272          0.894         1.0069        40.0151         2.2907       -44.1926      0.7576065              1              1
      6166.5000         7.0811         0.0718        21.4518       108.3703        69.3559       77.30122         0.8123         0.8901         1.0163        39.3263         2.2887       -43.5968       1.351093      0.9425792              1
      6167.0000         7.0616          0.059         22.108       108.1209        67.7746       73.13066         0.8274         0.8821         1.0072        40.8193         2.2788       -43.5939       1.351685      0.8538439              1
      6167.5000         7.0221         0.0416        22.6447       108.2488        66.5894       70.00479         0.8506         0.8783         0.9757        41.7744         2.2719       -43.5909       1.352371       0.787336              1
      6168.0000         7.0028         0.0327        22.9122        108.446        65.6023       67.40141         0.8704         0.9028         0.9111        41.5934         2.2709       -43.5879       1.353058       0.731945              1
      6168.5000         6.9832         0.0298        22.8814       110.1316        64.6151        64.7977         0.9409         0.9583         0.9196        40.4867         2.2734       -44.7704      0.1682434      0.6765468              1
      6169.0000          6.952         0.0303        22.5213       111.5891        61.8457       57.49365         0.9896         1.0218         0.9761        39.0199         2.2788       -47.1385      -2.202168      0.5211415       0.974422
      6169.5000         6.9522         0.0284        22.0418       110.8933        59.8684       52.27868         1.0314         1.0996          1.216        38.5109         2.2863       -50.4943       -5.56028      0.4101847      0.9029728
      6170.0000         6.9723         0.0259        21.6221       106.6738        59.8217       52.15547         1.1048         1.1618         1.4142        36.4166         2.2942       -52.9022       -7.97049      0.4075631      0.8516917
      6170.5000         7.0042          0.019         21.352       105.4819        59.9236       52.42424         1.2053         1.2331         1.3825        34.8913         2.2873       -54.0846      -9.155201      0.4132817      0.8264851
      6171.0000         7.0046         0.0175        23.8313       104.8852        57.1049       44.99014         1.2618         1.3269         1.2852        33.4853         2.2418       -54.6739      -9.746815      0.2551093      0.8138976
      6171.5000         7.0247         0.0111        27.2373       107.1166        53.7415       36.11938         1.3332         1.4279         1.2853        31.7798         2.1725       -59.1749      -14.25013     0.06636989      0.7180824
      6172.0000          7.025         0.0101        29.6861       110.1225        52.5072       32.86401         1.5794         1.6084         1.5365         30.972         2.1532       -62.7667      -17.84424              0      0.6416119
      6172.5000         7.0054         0.0101        29.4462       111.5106         54.342       37.70316         1.6839         1.7308         1.6994        30.3429         2.1739       -63.5151      -18.59495      0.1000673      0.6256394
      6173.0000         7.0255         0.0165        27.9503       111.6285        55.7311        41.3668          1.812          1.812         1.8203        30.1024         2.1873       -63.3143      -18.39646       0.178017      0.6298625
      6173.5000         7.0258          0.025         28.278       110.2874         55.734       41.37446         1.8713         1.8798         2.2061        29.9816          2.169       -64.1013      -19.18578        0.17818      0.6130686
      6174.0000         7.0459          0.025        29.6217       106.3658        54.7468       38.77077          1.863         1.8462         2.4624        30.9068         2.1468       -63.9005      -18.98729      0.1227824      0.6172917
      6174.5000         7.0462           0.02        30.9056       106.6626        54.7498       38.77873         1.7638           1.78         2.0419        31.9814         2.1379       -64.6859        -19.775      0.1229517      0.6005319
