#------------------------------------------------------------------------------
# Created by    : vladimir.rabinovich
# Created on    : 09/19/2023 17:19:43
#------------------------------------------------------------------------------
~Version Information Section
VERS.           2.0     :   CWLS log ASCII Standard - VERSION 2.0
WRAP.           NO      :   One line per depth step
~Well Information Section
#MNEM       .UNIT                                         VALUE :DESCRIPTION
#------------------------------------------------------------------------------
STRT        .FT                                              86 :START DEPTH
STOP        .FT                                           17232 :STOP DEPTH
STEP        .FT                                             0.5 :STEP      
NULL        .                                           -999.25 :NULL      
COMP        .                                        EXXON CORP :COMPANY   
WELL        .                               OYSTR LKE TMPRRY GU :WELL      
FLD         .                                           WILDCAT :FIELD     
LOC         .                                                   :LOCATION  
CNTY        .                                         MATAGORDA :LOCATION  
STAT        .                                             TEXAS :STATE     
CTRY        .                                     UNITED STATES :COUNTRY   
SRVC        .                                                   :SERVICE COMPANY
DATE        .                             9/13/2023 11:19:17 AM :LOG DATE  
API         .                                    42321309610000 :API NUMBER
UWI         .                                    42321309610000 :UNIQUE WELL ID
XCOORD      .                                  606681.955270441 :SURFACE X 
YCOORD      .                                  10380406.3085524 :SURFACE Y 
LAT         .                                         28.565886 :LATITUDE  
LON         .                                       -96.2205825 :LONGITUDE 
ELEV        .FT                                              25 :ELEVATION VALUE
ELEV_TYPE   .                                                KB :ELEVATION REFERENCE TYPE
~Curve Information Section
#MNEM       .UNIT                                      API CODE :CURVE DESCRIPTION
#------------------------------------------------------------------------------
DEPT        .FT                                                 :DEPTH     
ASFL        .OHMM                                               :          
CILD        .MMHO                                               :          
ILD         .OHMM                                               :          
SP          .MV                                                 :          
SP_NORM     .MV                                                 :SP Normalized
VSH_SP      .V/V                                                :Volume of Shale from SP
~A        DEPTH           ASFL           CILD            ILD             SP        SP_NORM         VSH_SP
# ...
     11486.0000         0.5481       2469.023        -999.25         3.1764      0.6926985              1
     11486.5000          0.553       2439.441        -999.25         3.2441      0.7671583              1
     11487.0000         0.5579       2417.766        -999.25         3.3015      0.8313181              1
     11487.5000         0.5641        2394.43        -999.25         3.3589       0.895478              1
     11488.0000         0.5714       2317.098        -999.25         3.4163      0.9596379              1
     11488.5000         0.5786       2276.969        -999.25         3.4537       1.003798              1
     11489.0000         0.5863       2234.594        -999.25         3.4651       1.021957              1
     11489.5000         0.5944       2188.605        -999.25         3.4765       1.040117              1
     11490.0000         0.6025        2112.84        -999.25          3.468       1.038377              1
     11490.5000         0.6109       2078.078        -999.25         3.4529       1.030037              1
     11491.0000         0.6193       2044.199        -999.25         3.4378       1.021697              1
     11491.5000          0.627       1997.529        -999.25         3.3895      0.9801564              1
     11492.0000         0.6345       1974.998        -999.25         3.3072      0.9046161              1
     11492.5000         0.6417       1958.717        -999.25         3.2247       0.828876              1
     11493.0000         0.6465       1938.359        -999.25         3.1333       0.744236              1
     11493.5000         0.6511       1916.781        -999.25         3.0419      0.6595955              1
     11494.0000         0.6543       1895.984        -999.25         2.9504      0.5748556              1
     11494.5000         0.6571       1877.189        -999.25         2.8565      0.4877152              1
     11495.0000         0.6598       1865.496        -999.25         2.7274      0.3653753              1
     11495.5000         0.6619       1855.916        -999.25         2.5983      0.2430348              1
     11496.0000          0.664        1848.58        -999.25          2.469      0.1204948              1
     11496.5000         0.6659       1841.246        -999.25         2.3399    -0.00184536              1
     11497.0000         0.6664       1835.344        -999.25         2.1862     -0.1487858              1
     11497.5000          0.667       1832.965        -999.25          2.023     -0.3052258              1
     11498.0000         0.6676       1830.578        -999.25         1.8632      -0.458266              1
     11498.5000         0.6681       1827.777        -999.25         1.7116     -0.6031061              1
     11499.0000         0.6686       1824.848        -999.25         1.5603     -0.7476465              1
     11499.5000         0.6691       1821.926        -999.25         1.4087     -0.8924866              1
     11500.0000         0.6715       1815.104        -999.25         1.2796      -1.014827      0.9997851
     11500.5000         0.6763       1806.607        -999.25         1.1918      -1.095867      0.9986106
     11501.0000         0.6808       1796.832        -999.25          1.104      -1.176907      0.9974361
     11501.5000         0.6853       1780.137        -999.25         1.0292      -1.244947      0.9964501
     11502.0000         0.6897       1765.246        -999.25         1.0367      -1.230687      0.9966567
     11502.5000         0.6951       1740.445        -999.25         1.0443      -1.216328      0.9968648
     11503.0000          0.701       1705.736        -999.25         1.0519      -1.201968      0.9970729
     11503.5000         0.7059       1681.057        -999.25         1.0438      -1.203308      0.9970535
     11504.0000         0.7147       1663.287        -999.25         1.0196      -1.220748      0.9968007
     11504.5000         0.7257       1653.072        -999.25         0.9954      -1.238189       0.996548
     11505.0000         0.7238       1646.055        -999.25         0.9712      -1.255629      0.9962952
     11505.5000         0.7219       1643.885        -999.25         0.9469      -1.273169      0.9960411
     11506.0000           0.72        1644.15        -999.25         0.9227      -1.290609      0.9957883
     11506.5000         0.7239       1647.549        -999.25         0.9015      -1.305049       0.995579
     11507.0000          0.721       1650.947        -999.25         0.8803      -1.319489      0.9953697
     11507.5000         0.7173       1654.348        -999.25         0.8592       -1.33383      0.9951619
     11508.0000         0.7105       1660.016        -999.25         0.8381       -1.34817       0.994954
     11508.5000         0.7038       1667.145        -999.25          0.817       -1.36251      0.9947462
     11509.0000         0.7149       1674.271        -999.25         0.7959       -1.37685      0.9945384
     11509.5000         0.7242       1681.398        -999.25         0.7722       -1.39379      0.9942929
     11510.0000         0.7271       1688.527        -999.25         0.7456       -1.41363      0.9940054
     11510.5000         0.7298       1694.482        -999.25         0.7189      -1.433571      0.9937164
     11511.0000         0.7313       1699.963        -999.25         0.6922      -1.453511      0.9934274
     11511.5000         0.7321       1705.443        -999.25         0.6656      -1.473351      0.9931399
     11512.0000         0.7329       1710.922        -999.25         0.6504      -1.481791      0.9930175
     11512.5000         0.7319       1716.023        -999.25         0.6473      -1.478131      0.9930705
     11513.0000         0.7307        1721.09        -999.25         0.6442      -1.474472      0.9931236
     11513.5000         0.7295       1725.166        -999.25          0.641      -1.470912      0.9931752
     11514.0000         0.7269       1718.148        -999.25         0.6347      -1.470452      0.9931819
     11514.5000         0.7227       1708.299        -999.25         0.5923      -1.506092      0.9926654
     11515.0000         0.7185       1692.676        -999.25         0.5498      -1.541832      0.9921473
     11515.5000          0.712        1677.42        -999.25         0.5073      -1.577572      0.9916294
     11516.0000         0.7428        1662.75        -999.25         0.4649      -1.613213      0.9911129
     11516.5000         0.7562        1648.08        -999.25         0.4264      -1.644953      0.9906529
     11517.0000         0.7696       1634.313        -999.25         0.4155      -1.649093      0.9905928
     11517.5000         0.7705       1625.014        -999.25         0.4045      -1.653333      0.9905314
     11518.0000         0.7624       1615.932        -999.25         0.3936      -1.657474      0.9904714
     11518.5000         0.7543       1622.963        -999.25         0.3826      -1.661714        0.99041
     11519.0000         0.7467       1636.803        -999.25         0.3702      -1.667354      0.9903282
     11519.5000         0.7396       1651.547        -999.25         0.3494      -1.681394      0.9901247
     11520.0000         0.7379       1664.721        -999.25         0.3285      -1.695534      0.9899198
     11520.5000         0.7382       1664.834        -999.25         0.3077      -1.709574      0.9897163
     11521.0000         0.7384       1664.947        -999.25         0.2868      -1.723714      0.9895114
     11521.5000         0.7401       1664.605        -999.25         0.2653      -1.738455      0.9892977
     11522.0000         0.7421        1653.23        -999.25         0.2436      -1.753395      0.9890812
     11522.5000         0.7441       1639.049        -999.25          0.222      -1.768235      0.9888662
     11523.0000         0.7478       1616.982        -999.25         0.2003      -1.783175      0.9886496
     11523.5000         0.7521       1591.498        -999.25         0.1639      -1.812816        0.98822
