#------------------------------------------------------------------------------
# Created by    : vladimir.rabinovich
# Created on    : 09/19/2023 17:22:47
#------------------------------------------------------------------------------
~Version Information Section
VERS.           2.0     :   CWLS log ASCII Standard - VERSION 2.0
WRAP.           NO      :   One line per depth step
~Well Information Section
#MNEM       .UNIT                                         VALUE :DESCRIPTION
#------------------------------------------------------------------------------
STRT        .FT                                            1029 :START DEPTH
STOP        .FT                                            4870 :STOP DEPTH
STEP        .FT                                             0.5 :STEP      
NULL        .                                           -999.25 :NULL      
COMP        .                              CHAPARRAL ENERGY LLC :COMPANY   
WELL        .                                         ST TR 171 :WELL      
FLD         .                               MATAGORDA BAY SOUTH :FIELD     
LOC         .                                                   :LOCATION  
CNTY        .                                         MATAGORDA :LOCATION  
STAT        .                                             TEXAS :STATE     
CTRY        .                                     UNITED STATES :COUNTRY   
SRVC        .                                                   :SERVICE COMPANY
DATE        .                             9/13/2023 11:19:17 AM :LOG DATE  
API         .                                    42321309080000 :API NUMBER
UWI         .                                    42321309080000 :UNIQUE WELL ID
XCOORD      .                                  571019.162580029 :SURFACE X 
YCOORD      .                                  10362433.1969336 :SURFACE Y 
LAT         .                                        28.5138372 :LATITUDE  
LON         .                                       -96.3299832 :LONGITUDE 
ELEV        .FT                                              19 :ELEVATION VALUE
ELEV_TYPE   .                                                KB :ELEVATION REFERENCE TYPE
~Curve Information Section
#MNEM       .UNIT                                      API CODE :CURVE DESCRIPTION
#------------------------------------------------------------------------------
DEPT        .FT                                                 :DEPTH     
DT          .US/FT                                              :          
GUARD       .OHMM                                               :          
IND         .OHMM                                               :          
SP          .MV                                                 :          
SP_NORM     .MV                                                 :SP Normalized
VSH_SP      .V/V                                                :Volume of Shale from SP
~A        DEPTH             DT          GUARD            IND             SP        SP_NORM         VSH_SP
# ...
      3043.0000        97.4654         1.3736         0.4906        -57.057      -18.32455              0
      3043.5000       101.3382         1.3736         0.4906       -57.0509      -18.31446              0
      3044.0000       106.4821         1.1846         0.4906       -57.0438      -18.30337              0
      3044.5000       111.4812         0.9769         0.4906       -57.0388      -18.29438              0
      3045.0000       114.4347         0.8692         0.4906       -57.0327      -18.28429              0
      3045.5000       115.6369         0.8615         0.4906       -57.0267      -18.27431              0
      3046.0000       119.1037         0.8385         0.4906       -57.0195      -18.26312              0
      3046.5000        123.264         0.8154         0.4906       -57.6207      -18.86033              0
      3047.0000       126.4521         0.8154         0.4906       -57.6145      -18.85014              0
      3047.5000       129.3211         0.8077         0.4528       -57.6085      -18.84016              0
      3048.0000       130.0917            0.8         0.4528       -57.6013      -18.82897              0
      3048.5000       127.3829         0.7774         0.4528       -57.5905      -18.81418              0
      3049.0000       125.5613         0.7698         0.4528       -56.8285      -18.04819              0
      3049.5000       126.4154         0.7472         0.4528       -56.3721       -17.5878     0.02576232
      3050.0000       128.1575         0.7245         0.4528       -55.7588      -16.97052     0.06434274
      3050.5000       130.4808          0.717         0.4142       -55.7539      -16.96162     0.06489849
      3051.0000       131.8096          0.717         0.4127       -55.5984      -16.80214     0.07486629
      3051.5000       131.6511          0.717         0.4112       -55.1358      -16.33555       0.104028
      3052.0000       131.6484         0.7245         0.4097       -55.1297      -16.32546      0.1046586
      3052.5000       129.9697         0.7245         0.4082       -55.1236      -16.31538       0.105289
      3053.0000       127.9817         0.7245         0.4067       -54.3679      -15.55569      0.1527696
      3053.5000       125.3205         0.7321         0.3672        -53.606       -14.7898      0.2006376
      3054.0000       121.9891         0.7321         0.3657        -52.844      -14.02382      0.2485116
      3054.5000       118.6674         0.7396         0.3641        -52.069      -13.24482      0.2971985
      3055.0000       115.2491         0.7547         0.3625       -50.7136      -11.88544      0.3821602
      3055.5000       113.1095         0.7698          0.361       -49.6645      -10.83235      0.4479783
      3056.0000       112.7855         0.8462         0.3594       -48.5831       -9.74696       0.515815
      3056.5000       111.7983         0.9385         0.3579       -47.8023      -8.962173      0.5648642
      3057.0000       111.0178         1.0154         0.3563       -48.4035      -9.559383      0.5275385
      3057.5000        113.459         1.0846         0.3547       -48.9592       -10.1111      0.4930563
      3058.0000       119.5572         1.1615         0.3531       -50.0339      -11.18181       0.426137
      3058.5000       125.7431         1.2528         0.3516       -52.0204      -13.16432      0.3022299
      3059.0000       132.4746         1.4415           0.35       -53.4771      -14.61703      0.2114356
      3059.5000        133.994         1.4415         0.3484       -54.4327      -15.56865      0.1519597
      3060.0000       130.6301         0.7245         0.3468       -54.4267      -15.55866      0.1525838
      3060.5000       127.6909         0.7245          0.346       -55.0264      -16.15437      0.1153519
      3061.0000       126.9218         0.7169         0.3456       -55.0206      -16.14458      0.1159637
      3061.5000        129.116         0.7168         0.3453       -55.0145      -16.13449      0.1165943
      3062.0000       133.2543         0.7167          0.345       -55.0085       -16.1245      0.1172185
      3062.5000       136.7899         0.7242         0.3446       -55.0021      -16.11412      0.1178675
      3063.0000        135.984         0.7317         0.3443       -54.8834      -15.99143      0.1255357
      3063.5000       134.6616         0.7468          0.344       -54.3842      -15.48824      0.1569848
      3064.0000       134.8034         0.7468         0.3436       -53.9648      -15.06485      0.1834466
      3064.5000       133.1759         0.7467         0.3433       -53.1597      -14.25576      0.2340147
      3065.0000       133.3519         0.7391          0.343       -53.1539      -14.24598      0.2346265
      3065.5000       135.7534          0.739         0.3427       -52.8906      -13.97869       0.251332
      3066.0000       133.2802         0.7313         0.3423       -52.5358       -13.6199       0.273756
      3066.5000       132.0539         0.7313          0.342       -52.5293      -13.60941      0.2744117
      3067.0000       133.3927         0.7236         0.3417       -52.5236      -13.59973       0.275017
      3067.5000       132.8698         0.7235         0.3414       -52.5176      -13.58974      0.2756414
      3068.0000        128.224         0.7234         0.3789       -52.5115      -13.57965      0.2762718
      3068.5000       122.8349         0.7157         0.4543        -52.505      -13.56916      0.2769272
      3069.0000       117.7673         0.7156         0.4917       -51.7985      -12.85867      0.3213329
      3069.5000       111.3639          0.777          0.529       -50.7915      -11.84769      0.3845196
      3070.0000       106.2707         0.9283         0.5662       -49.2732       -10.3254      0.4796627
      3070.5000       104.2379         1.0189         0.6038       -48.8444      -9.892609       0.506712
      3071.0000       100.0379         1.1094         0.6415       -49.5339      -10.57812      0.4638674
      3071.5000         95.851            1.2         0.6792        -50.284      -11.32423      0.4172354
      3072.0000        92.7659         1.2307         0.6792       -51.4229      -12.45915      0.3463032
      3072.5000        99.5497         1.1547         0.6792       -53.6686      -14.70086      0.2061965
      3073.0000       109.9143         1.0792         0.6792       -54.8758      -15.90407      0.1309955
      3073.5000       117.3119         0.9887         0.6792       -54.8691      -15.89338      0.1316638
      3074.0000       121.0431         0.8528          0.566        -54.863      -15.88329      0.1322942
      3074.5000       121.5065         0.7538         0.4906       -54.8564      -15.87271      0.1329558
      3075.0000       120.9682         0.7538         0.4151       -54.8509      -15.86322       0.133549
      3075.5000        120.667         0.7462         0.3396       -54.8448      -15.85313      0.1341794
      3076.0000       122.8993         0.7385         0.3396       -54.8388      -15.84314      0.1348038
      3076.5000       123.6699         0.7385         0.3774       -54.8321      -15.83245      0.1354716
      3077.0000        124.134         0.7385         0.3774       -54.7561      -15.75246       0.140471
      3077.5000       124.1372         0.7308         0.3774       -54.2145      -15.20688      0.1745701
      3078.0000       123.6913         0.7231         0.3774       -54.2085      -15.19689      0.1751943
      3078.5000       125.3726         0.7308         0.4151       -54.2017       -15.1861      0.1758687
      3079.0000        125.836         0.7385         0.4151       -54.1964      -15.17682      0.1764491
      3079.5000       125.2572         0.7846         0.4528       -54.1903      -15.16673      0.1770797
      3080.0000       125.7493         0.8226         0.4528       -54.1842      -15.15664      0.1777101
      3080.5000       128.1505         0.8225         0.4528       -54.1774      -15.14585      0.1783843
