#------------------------------------------------------------------------------
# Created by    : vladimir.rabinovich
# Created on    : 09/19/2023 17:21:29
#------------------------------------------------------------------------------
~Version Information Section
VERS.           2.0     :   CWLS log ASCII Standard - VERSION 2.0
WRAP.           NO      :   One line per depth step
~Well Information Section
#MNEM       .UNIT                                         VALUE :DESCRIPTION
#------------------------------------------------------------------------------
STRT        .FT                                            1500 :START DEPTH
STOP        .FT                                            6885 :STOP DEPTH
STEP        .FT                                             0.5 :STEP      
NULL        .                                           -999.25 :NULL      
COMP        .                        HILLHOUSE OPERATING CO LLC :COMPANY   
WELL        .                                  LEWIS J C FAMILY :WELL      
FLD         .                                    LIVE OAK BAYOU :FIELD     
LOC         .                                                   :LOCATION  
CNTY        .                                         MATAGORDA :LOCATION  
STAT        .                                             TEXAS :STATE     
CTRY        .                                     UNITED STATES :COUNTRY   
SRVC        .                                                   :SERVICE COMPANY
DATE        .                             9/13/2023 11:19:17 AM :LOG DATE  
API         .                                    42321308450000 :API NUMBER
UWI         .                                    42321308450000 :UNIQUE WELL ID
XCOORD      .                                  757138.788685477 :SURFACE X 
YCOORD      .                                  10457801.5308193 :SURFACE Y 
LAT         .                                        28.7888954 :LATITUDE  
LON         .                                       -95.7578897 :LONGITUDE 
ELEV        .FT                                              17 :ELEVATION VALUE
ELEV_TYPE   .                                                KB :ELEVATION REFERENCE TYPE
~Curve Information Section
#MNEM       .UNIT                                      API CODE :CURVE DESCRIPTION
#------------------------------------------------------------------------------
DEPT        .FT                                                 :DEPTH     
CALI        .IN                                                 :          
DCOR        .G/C3                                               :          
DPOR        .%                                                  :          
DT          .US/F                                               :          
GR          .GAPI                                               :          
GR_NORM     .GAPI                                               :GammaRay Normalized
ILD         .OHMM                                               :          
ILM         .OHMM                                               :          
LL8         .OHMM                                               :          
NPOR        .%                                                  :          
RHOB        .G/C3                                               :          
SP          .MV                                                 :          
SP_NORM     .MV                                                 :SP Normalized
VSH_GR      .V/V                                                :Volume of Shale from GR
VSH_SP      .V/V                                                :Volume of Shale from SP
~A        DEPTH           CALI           DCOR           DPOR             DT             GR        GR_NORM            ILD            ILM            LL8           NPOR           RHOB             SP        SP_NORM         VSH_GR         VSH_SP
# ...
      1874.0000         8.3062          -0.01          35.36       147.1923        39.5832       41.70759          1.038         1.0239         0.9354        44.1959         2.0641       -76.1998      -7.063995      0.1852678      0.7754076
      1874.5000         8.3066        -0.0105        35.0606       148.9725        39.7863       42.03099         1.0054         1.0009         0.8978        42.2545         2.0691       -75.9977        -6.8619      0.1921488      0.7828926
      1875.0000         8.2477         -0.003        33.8655       151.4848        39.7912       42.02926         0.9695         0.9919         0.8897        41.1786         2.0819       -75.9957      -6.859894      0.1921119      0.7829669
      1875.5000         8.2284         -0.001         32.969        149.404        38.0122       39.10103         0.9348         0.9785         0.9356         41.596         2.0998       -76.1894      -7.053596      0.1298092      0.7757927
      1876.0000         8.2468         -0.002        33.3862       145.4019        33.8545       32.27053         0.8932         0.9697         1.0298        42.7892         2.1037       -76.9749      -7.839096              0      0.7467002
      1876.5000         8.2473        -0.0094        33.9226       140.0531        32.6702       30.31791         0.8342         0.9436         1.1336        42.6987         2.0929       -79.7326      -10.59679              0      0.6445632
      1877.0000         8.2478        -0.0116        34.2799       136.8237        33.2702       31.29243         0.8081          0.914          1.098        41.9214          2.084       -83.6735       -14.5377              0      0.4986038
      1877.5000         8.2284        -0.0114         34.279       135.6336        35.2572       34.54234         0.7863         0.8615         1.0348        41.8909          2.083       -87.4171       -18.2813     0.03281581       0.359952
      1878.0000          8.219        -0.0108         34.099       139.7902        33.8748       32.26474         0.7513          0.846         0.9933        43.4722          2.084       -90.0161      -20.88029              0      0.2636928
      1878.5000         8.2195        -0.0074        34.2175       141.5704        32.1952       29.49958         0.7017         0.8345         0.9979        44.2473          2.085       -91.9456       -22.8098              0      0.1922297
      1879.0000           8.22        -0.0059        34.2764       142.1625        32.0004       29.17023         0.6494         0.7937         1.0494        42.0972         2.0831       -92.9279       -23.7921              0      0.1558482
      1879.5000         8.2722        -0.0049        34.0964       141.9625        34.4845       33.23563          0.601         0.7724         1.1086        39.7381         2.0851       -93.3185      -24.18269    0.005013405      0.1413817
      1880.0000         8.2924        -0.0043        33.6179       141.3667         36.868       37.13601         0.5537          0.683         1.1189        37.4686         2.0905       -93.5119       -24.3761     0.08800019      0.1342186
      1880.5000         8.3127        -0.0048        33.4084       140.4733        37.2693       37.78455         0.5363         0.6466         1.0987        37.3781          2.096       -94.8881       -25.7523       0.101799     0.08324828
      1881.0000         8.3132        -0.0073        33.6758       140.0251        37.8688       38.75828         0.5078         0.6178         0.9938        38.1234          2.095       -95.4759       -26.3401      0.1225166     0.06147794
      1881.5000         8.3137        -0.0132        34.0928       139.8355        39.8559       42.00834         0.4987         0.5823         0.9452        39.1972         2.0861       -95.6692      -26.53339      0.1916669     0.05431874
      1882.0000          8.334        -0.0112        34.5098       138.8435        43.2305       47.53462         0.4808         0.5797          0.976        41.0167         2.0812       -95.8626       -26.7268      0.3092472     0.04715559
      1882.5000         8.3146        -0.0077        34.6284       138.4455        45.0213       50.46266         0.4636         0.5641         0.9941        41.9416         2.0773       -96.0559       -26.9201      0.3715459     0.03999639
      1883.0000         8.2953        -0.0082        34.6275       138.4447        44.2338       49.16098         0.4512          0.554         0.9896         42.568         2.0773       -96.4465       -27.3107      0.3438507     0.02552965
      1883.5000         8.3153        -0.0112        34.8057       136.4237        42.8487       46.87895         0.4512         0.5366         0.9543        41.2235         2.0743       -97.0341       -27.8983      0.2952968     0.00376666
      1884.0000         8.3359        -0.0131        35.1033       132.6967        39.6822       41.67453         0.4638         0.5342         0.9543        39.3121         2.0694       -97.8574       -28.7216      0.1845644              0
      1884.5000         8.3562        -0.0141        35.1024       132.2987        38.0037       38.91116         0.4745         0.5363         0.9809        39.1023         2.0704       -98.2499       -29.1141      0.1257693              0
      1885.0000         8.3563        -0.0141         34.564       131.8425        38.8991       40.37029         0.4702         0.5417         0.9721        39.1313         2.0774       -98.6398        -29.504      0.1568147              0
      1885.5000         8.3572        -0.0116        34.0258       133.2259        42.8683       46.87201          0.466         0.5442         0.8955        38.9811         2.0853       -98.3988        -29.263      0.2951491              0
      1886.0000         8.3577        -0.0047        33.6071       135.5012        47.8286       54.99962         0.4514         0.5344         0.8401        38.9504         2.0917       -97.0148        -27.879      0.4680771    0.004481563
      1886.5000         8.3579        -0.0012        33.3674       137.4394        50.9063       60.03883         0.4333         0.5272         0.8364        39.1882         2.0982       -96.6166       -27.4808      0.5752943     0.01922975
      1887.0000         8.3588        -0.0012         33.068       138.1705        48.0376       55.32295         0.4178         0.4946         0.8327        39.7246         2.1012       -96.0214       -26.8856      0.4749564     0.04127418
      1887.5000         8.3791        -0.0016        33.1268       137.7723        45.1704       50.60951         0.3902         0.4813         0.8066        39.7835         2.1012       -96.0175       -26.8817      0.3746705     0.04141857
      1888.0000         8.3795        -0.0021        33.1259       136.3842        48.2456       55.64462         0.3762         0.4557         0.8104        39.7229         2.1002        -96.408      -27.27219      0.4818005     0.02695578
      1888.5000         8.3999        -0.0016         33.125       135.8872         51.422       60.84573         0.3628         0.4414         0.8067        39.8414         2.1002       -96.4037       -27.2679      0.5924624     0.02711487
      1889.0000         8.4004        -0.0021        33.1838       135.7863        56.5804       69.29834         0.3595         0.4295         0.8031        40.1091         2.0993       -96.7941      -27.65829      0.7723051     0.01265575
      1889.5000         8.4006        -0.0021        33.3322       136.8734        58.9639       73.19871         0.3595         0.4296         0.7886         40.258         2.0983       -96.7903       -27.6545      0.8552917     0.01279647
      1890.0000         8.4608        -0.0001        33.4806       137.4261        60.0595       74.98627          0.373         0.4415         0.7467         41.988         2.0973       -96.5893       -27.4535      0.8933249     0.02024078
      1890.5000         8.4613        -0.0045        33.6588       138.2554        55.8023       67.99255         0.3816         0.4622         0.7781        46.2855         2.0904       -95.9941       -26.8583      0.7445224     0.04228521
