#------------------------------------------------------------------------------
# Created by    : vladimir.rabinovich
# Created on    : 09/19/2023 17:19:43
#------------------------------------------------------------------------------
~Version Information Section
VERS.           2.0     :   CWLS log ASCII Standard - VERSION 2.0
WRAP.           NO      :   One line per depth step
~Well Information Section
#MNEM       .UNIT                                         VALUE :DESCRIPTION
#------------------------------------------------------------------------------
STRT        .FT                                              86 :START DEPTH
STOP        .FT                                           17232 :STOP DEPTH
STEP        .FT                                             0.5 :STEP      
NULL        .                                           -999.25 :NULL      
COMP        .                                        EXXON CORP :COMPANY   
WELL        .                               OYSTR LKE TMPRRY GU :WELL      
FLD         .                                           WILDCAT :FIELD     
LOC         .                                                   :LOCATION  
CNTY        .                                         MATAGORDA :LOCATION  
STAT        .                                             TEXAS :STATE     
CTRY        .                                     UNITED STATES :COUNTRY   
SRVC        .                                                   :SERVICE COMPANY
DATE        .                             9/13/2023 11:19:17 AM :LOG DATE  
API         .                                    42321309610000 :API NUMBER
UWI         .                                    42321309610000 :UNIQUE WELL ID
XCOORD      .                                  606681.955270441 :SURFACE X 
YCOORD      .                                  10380406.3085524 :SURFACE Y 
LAT         .                                         28.565886 :LATITUDE  
LON         .                                       -96.2205825 :LONGITUDE 
ELEV        .FT                                              25 :ELEVATION VALUE
ELEV_TYPE   .                                                KB :ELEVATION REFERENCE TYPE
~Curve Information Section
#MNEM       .UNIT                                      API CODE :CURVE DESCRIPTION
#------------------------------------------------------------------------------
DEPT        .FT                                                 :DEPTH     
ASFL        .OHMM                                               :          
CILD        .MMHO                                               :          
ILD         .OHMM                                               :          
SP          .MV                                                 :          
SP_NORM     .MV                                                 :SP Normalized
VSH_SP      .V/V                                                :Volume of Shale from SP
~A        DEPTH           ASFL           CILD            ILD             SP        SP_NORM         VSH_SP
        86.0000         0.2092          -12.5        -999.25       -94.9819      -2.766335              1
        86.5000         0.2413          -12.5        -999.25       -94.9924      -2.776833              1
        87.0000         0.2521          -12.5        -999.25       -94.9753      -2.759735              1
        87.5000         0.2578          -12.5        -999.25       -94.9409      -2.725334              1
        88.0000         0.2651       -11.9431        -999.25       -94.8394      -2.623833              1
        88.5000         0.2825        -9.7373        -999.25       -94.7379      -2.522331              1
        89.0000         0.3102        57.0923        -999.25       -72.1547       11.82136      0.6059548
        89.5000         0.3235       567.6084        -999.25       -70.7198       1.534691      0.9488437
        90.0000         0.6743       966.1777        -999.25        -69.816       1.297775      0.9567408
        90.5000         0.9806       1028.719        -999.25       -68.9071       1.065956      0.9644681
        91.0000         1.0205           1041        -999.25       -67.9608      0.8715363      0.9709488
        91.5000         1.0383       1049.059        -999.25       -67.3792      0.3124161      0.9895861
        92.0000         1.0317       1053.211        -999.25       -66.9148     -0.3638992              1
        92.5000         1.0051       1056.846        -999.25       -66.5771      -1.166924              1
        93.0000         0.9835       1060.482        -999.25       -66.2677      -1.998238              1
        93.5000         0.9658       1064.117        -999.25       -65.9584      -2.829651              1
        94.0000         0.9535       1067.707        -999.25       -65.5081      -3.520077              1
        94.5000         0.9472       1067.795        -999.25       -64.9702       -3.92609              1
        95.0000         0.9435       1058.639        -999.25       -64.6198      -3.742622              1
        95.5000         0.9482       1030.418        -999.25       -64.2694      -3.559162              1
        96.0000         0.9648       998.3467        -999.25       -63.8887      -3.345394              1
        96.5000         0.9801       957.9131        -999.25       -63.4243      -3.047932              1
        97.0000         1.0086       918.5859        -999.25       -62.9578      -2.748363              1
        97.5000         1.0507       825.7959        -999.25       -62.4868      -2.444298              1
        98.0000         1.0753       790.1387        -999.25       -61.9879      -2.112331              1
        98.5000         1.0908       766.0576        -999.25       -61.5342      -1.825565              1
        99.0000         1.1046       742.0254        -999.25       -61.1456      -1.603901              1
        99.5000         1.1187       723.4258        -999.25       -60.7569      -1.382137              1
       100.0000         1.1339       704.8262        -999.25       -60.3603       -1.15247              1
       100.5000         1.1511       686.1289        -999.25       -59.9562     -0.9153023              1
       101.0000          1.135       681.9697        -999.25       -59.4417     -0.5677376              1
       101.5000          1.121       691.5068        -999.25       -59.0654     -0.3583717              1
       102.0000         1.1086       705.1006        -999.25       -59.2493     -0.7092056              1
       102.5000         1.0974       718.6943        -999.25        -59.569      -1.195843              1
       103.0000         1.0819       756.5264        -999.25       -59.8278      -1.621578              1
       103.5000         1.0522       790.4766        -999.25       -60.0898      -2.050514              1
       104.0000         1.0178       842.5781        -999.25       -60.3542      -2.481846              1
       104.5000         0.9984       874.3652        -999.25       -60.5419      -2.836479              1
       105.0000         0.9579       906.1553        -999.25       -60.6869      -3.148415              1
       105.5000         0.9176       945.3066        -999.25       -60.8319       -3.46035              1
       106.0000         0.8866       982.3867        -999.25       -60.9218      -3.717182              1
       106.5000         0.8485       1016.198        -999.25       -61.0087       -3.97102              1
       107.0000         0.8173       1047.404        -999.25        -61.083      -4.212254              1
       107.5000         0.7975       1074.754        -999.25       -61.1198      -4.415989              1
       108.0000         0.7899       1112.289        -999.25       -61.1199      -4.583019              1
       108.5000         0.7826       1135.375        -999.25       -60.8646      -4.494656              1
       109.0000         0.7818        1151.42        -999.25       -60.5468      -4.343788              1
       109.5000         0.7837       1162.762        -999.25       -59.5344      -3.498325              1
       110.0000         0.7856       1158.055        -999.25       -58.9117      -3.042561              1
       110.5000         0.7935       1131.334        -999.25       -58.4138      -2.711594              1
       111.0000         0.8027       1115.217        -999.25       -57.7635       -2.22823              1
       111.5000         0.8134       1101.406        -999.25       -57.5624      -2.194065              1
       112.0000          0.823       1090.197        -999.25       -57.4414      -2.239994              1
       112.5000         0.8284       1084.209        -999.25       -57.4847       -2.45023              1
       113.0000         0.8339       1078.223        -999.25        -57.528      -2.660465              1
       113.5000         0.8384       1072.236        -999.25       -57.5682      -2.867599              1
       114.0000         0.8428       1066.178        -999.25       -57.6049      -3.071236              1
       114.5000         0.8474       1060.084        -999.25       -57.6055       -3.23877              1
       115.0000         0.8524       1051.715        -999.25       -57.5429      -3.343105              1
       115.5000         0.8574       1039.482        -999.25       -57.4803      -3.447441              1
       116.0000         0.8666       1022.075        -999.25       -57.3968      -3.504585              1
       116.5000         0.8805       996.5186        -999.25       -57.3098      -3.417583              1
       117.0000         0.9128       959.7861        -999.25       -57.2191      -3.326885              1
       117.5000         0.9483       925.1621        -999.25       -57.1083      -3.216084              1
       118.0000         0.9729       891.9961        -999.25       -56.9967      -3.104485              1
       118.5000         0.9956       858.6338        -999.25       -56.8547      -2.962482              1
       119.0000         1.0177       832.8086        -999.25       -56.7134      -2.821186              1
       119.5000         1.0586       790.4219        -999.25       -56.5782      -2.685986              1
       120.0000         1.0872       743.9814        -999.25       -56.4446      -2.552383              1
       120.5000         1.1567       711.1758        -999.25       -56.3142      -2.421986              1
       121.0000         1.2302       668.7314        -999.25       -56.1838      -2.291584              1
       121.5000         1.2754       626.9971        -999.25       -56.0842      -2.191986              1
       122.0000         1.2939       611.4346        -999.25       -56.0005      -2.108284              1
       122.5000         1.3041       601.8008        -999.25       -55.9168      -2.024586              1
       123.0000         1.3113       596.7109        -999.25       -55.8537      -1.961483              1
       123.5000         1.3157       593.3633        -999.25       -55.8245      -1.932285              1
