#------------------------------------------------------------------------------
# Created by    : vladimir.rabinovich
# Created on    : 09/19/2023 17:21:29
#------------------------------------------------------------------------------
~Version Information Section
VERS.           2.0     :   CWLS log ASCII Standard - VERSION 2.0
WRAP.           NO      :   One line per depth step
~Well Information Section
#MNEM       .UNIT                                         VALUE :DESCRIPTION
#------------------------------------------------------------------------------
STRT        .FT                                            1500 :START DEPTH
STOP        .FT                                            6885 :STOP DEPTH
STEP        .FT                                             0.5 :STEP      
NULL        .                                           -999.25 :NULL      
COMP        .                        HILLHOUSE OPERATING CO LLC :COMPANY   
WELL        .                                  LEWIS J C FAMILY :WELL      
FLD         .                                    LIVE OAK BAYOU :FIELD     
LOC         .                                                   :LOCATION  
CNTY        .                                         MATAGORDA :LOCATION  
STAT        .                                             TEXAS :STATE     
CTRY        .                                     UNITED STATES :COUNTRY   
SRVC        .                                                   :SERVICE COMPANY
DATE        .                             9/13/2023 11:19:17 AM :LOG DATE  
API         .                                    42321308450000 :API NUMBER
UWI         .                                    42321308450000 :UNIQUE WELL ID
XCOORD      .                                  757138.788685477 :SURFACE X 
YCOORD      .                                  10457801.5308193 :SURFACE Y 
LAT         .                                        28.7888954 :LATITUDE  
LON         .                                       -95.7578897 :LONGITUDE 
ELEV        .FT                                              17 :ELEVATION VALUE
ELEV_TYPE   .                                                KB :ELEVATION REFERENCE TYPE
~Curve Information Section
#MNEM       .UNIT                                      API CODE :CURVE DESCRIPTION
#------------------------------------------------------------------------------
DEPT        .FT                                                 :DEPTH     
CALI        .IN                                                 :          
DCOR        .G/C3                                               :          
DPOR        .%                                                  :          
DT          .US/F                                               :          
GR          .GAPI                                               :          
GR_NORM     .GAPI                                               :GammaRay Normalized
ILD         .OHMM                                               :          
ILM         .OHMM                                               :          
LL8         .OHMM                                               :          
NPOR        .%                                                  :          
RHOB        .G/C3                                               :          
SP          .MV                                                 :          
SP_NORM     .MV                                                 :SP Normalized
VSH_GR      .V/V                                                :Volume of Shale from GR
VSH_SP      .V/V                                                :Volume of Shale from SP
~A        DEPTH           CALI           DCOR           DPOR             DT             GR        GR_NORM            ILD            ILM            LL8           NPOR           RHOB             SP        SP_NORM         VSH_GR         VSH_SP
# ...
      4016.0000          7.206         0.0276        25.4443       107.0688        47.8329       47.58647         0.4963         0.5797         1.0794        38.1312         2.2609        -91.054      -29.82183      0.3103504       0.313766
      4016.5000         6.9875         0.0558        21.1484        110.938        49.8057       51.03506          0.503          0.593         1.5554        34.3125         2.2981       -81.9565       -20.7214      0.3837247      0.5304428
      4017.0000          6.868         0.0643        22.3445       112.8037        51.5804       54.13791         0.5264         0.5955         1.7039        36.3743         2.2783       -73.6496      -12.41158      0.4497428      0.7282957
      4017.5000         6.8677         0.0559        24.4361       118.4589        53.6997       57.84219          0.574         0.6091          1.171        44.9146         2.2411       -66.5284      -5.287457      0.5285571      0.8979177
      4018.0000         6.8467          0.045        25.2442       121.2583        51.5658       54.12371         0.6374         0.6765         0.7758        45.5132         2.2342        -61.618     -0.3741379      0.4494406              1
      4018.5000          6.826         0.0371        22.3511       117.4695        46.4103       45.13187         0.7111         0.7936         0.7444        41.6945         2.2913       -64.1433      -2.896519      0.2581249      0.9548448
      4019.0000         6.8256         0.0495        18.5924       112.7091        40.9055       35.53043         0.7898         1.0581         1.0581        30.6823         2.3498        -68.287      -7.037296     0.05383893      0.8562549
      4019.5000         6.8444         0.0545        16.7435           95.8         41.295       36.21581         0.9654         1.1591         1.8308        26.9826         2.3805        -72.826      -11.57337     0.06842147      0.7482532
      4020.0000          6.804         0.0639        16.2975          89.98        43.7649       40.53196          0.992          1.264           3.65        24.7461         2.3553       -75.5831      -14.32755      0.1602545      0.6826774
      4020.5000         6.8342         0.0778        20.0929          84.18        54.1033       58.58033         1.0768         1.2636         4.9337        29.6237         2.3152       -74.1964      -12.93793      0.5442622      0.7157636
      4021.0000         6.8586         0.0714        22.8393          92.54        59.8384       68.59496         1.1477         1.1796         4.5021        33.9251         2.2676       -72.4106       -11.1492      0.7573397      0.7583523
      4021.5000         6.8413          0.063        25.1106       109.6593        61.3625       71.26048         1.2176         1.1421         2.2986        37.8265         2.2329       -71.8112      -10.54689      0.8140526      0.7726932
      4022.0000         6.8604         0.0586        24.4551       116.9828        60.2684       69.35664         1.1736         1.1366         1.6013        37.9779         2.2513       -71.8047      -10.53746      0.7735454      0.7729175
      4022.5000         6.8594         0.0789        22.0996       119.6625        58.3799       66.06644         1.0855         1.1056         1.6836        35.2933         2.2816        -71.403      -10.13284      0.7035412      0.7825515
      4023.0000         6.8587          0.075        22.6084       115.5957        58.9668       67.09637         0.9859         1.0463         1.9484        33.9523         2.2722       -71.1989      -9.925819      0.7254546      0.7874805
      4023.5000         6.8579         0.0562        25.2972       106.2699        60.5438       69.85419         0.8593         0.9722         2.0389        34.4909         2.2316         -71.39        -10.114      0.7841318      0.7830001
      4024.0000         6.8571         0.0215        27.2095       107.0646        63.5578        75.1199         0.7628          0.867         1.7692        39.2832         2.1741       -71.9764      -10.69748      0.8961682      0.7691076
      4024.5000         6.8761         0.0161         29.242       112.5232        66.3232       79.95176         0.6802         0.7874          1.535        43.4506         2.1682       -72.7598      -11.47796      0.9989736      0.7505248
      4025.0000          6.876          0.023        28.7656       117.2874        69.2867       85.12932         0.6292         0.7317         1.3197        44.2286         2.1757       -73.5438      -12.25903              1      0.7319278
      4025.5000          6.934          0.036        27.9915       122.0723        70.4144       87.10302         0.5873         0.6893         1.1502        45.1559         2.1921       -74.5255      -13.23781              1      0.7086236
      4026.0000         6.9332         0.0464        27.6353       124.8028        68.0336       82.95365         0.5508         0.6583         0.9889        45.8448         2.1782       -75.1119      -13.82129              1      0.6947312
      4026.5000         6.9501         0.0494        31.1599       124.3076        63.8675       75.68855         0.4889         0.6201         0.8309         46.354         2.1297       -78.8603      -17.56676      0.9082669      0.6055532
      4027.0000         6.9494         0.0395        34.1468       122.9692        58.9583       67.12656         0.4501         0.5841         0.7936        46.6249         2.0712        -85.178      -23.88155      0.7260971      0.4552013
      4027.5000         6.9686         0.0262        37.0743       121.2835        55.9802       61.93475         0.4338         0.5787         0.8117        46.1492         2.0406       -91.2974      -29.99802       0.615633      0.3095708
      4028.0000         6.9678         0.0296        38.0318       117.6127         55.031       60.28383         0.4087         0.5577         0.8851        44.9867         2.0208       -94.0577       -32.7554       0.580507       0.243919
      4028.5000         6.9669         0.0356        37.2574       118.3087        56.5599       62.95771         0.3975           0.54         0.9696        44.2733         2.0327        -95.277      -33.97178       0.637398      0.2149576
      4029.0000         6.9659         0.0317        36.2445       120.2455         57.741       65.02461          0.392         0.5277         0.9918        43.9161         2.0486       -95.2705      -33.96236      0.6813747       0.215182
      4029.5000         6.9453         0.0223        34.9331       120.7927        58.1299       65.70896         0.3919         0.5227         0.9916        43.0823         2.0679        -95.264      -33.95293      0.6959354      0.2154063
      4030.0000         6.9446         0.0154        33.9198       122.3821        57.1323       63.97357         0.4082         0.5226         1.0004        41.3232         2.1096       -95.2175      -33.90351      0.6590121      0.2165831
      4030.5000         6.9438         0.0184         31.713       121.2464        56.5308       62.92944         0.4214         0.5316         1.0135        40.5789          2.126       -92.6747      -31.35779      0.6367965      0.2771955
      4031.0000         6.9232         0.0233        30.1628       118.5701        56.3255       62.57678         0.4411         0.5419         1.0614        40.7301         2.1488       -89.9104      -28.59057      0.6292931      0.3430817
      4031.5000         6.9224         0.0333        28.9111        117.006        57.1105        63.9524         0.4638         0.5646         1.0565        43.3001         2.1696       -85.9726      -24.64985      0.6585618      0.4369084
      4032.0000         6.9216         0.0363        28.0176       116.3125        59.0842       67.40257         0.5013         0.5829         0.9908        44.8535         2.1825       -82.8253      -21.49963      0.7319697      0.5119137
      4032.5000          6.921         0.0358        27.7211       120.4378        60.4636       69.81554         0.5392         0.6073         0.9595        44.9748         2.1905       -78.6898       -17.3612      0.7833095      0.6104476
