#------------------------------------------------------------------------------
# Created by    : vladimir.rabinovich
# Created on    : 09/19/2023 17:19:43
#------------------------------------------------------------------------------
~Version Information Section
VERS.           2.0     :   CWLS log ASCII Standard - VERSION 2.0
WRAP.           NO      :   One line per depth step
~Well Information Section
#MNEM       .UNIT                                         VALUE :DESCRIPTION
#------------------------------------------------------------------------------
STRT        .FT                                              86 :START DEPTH
STOP        .FT                                           17232 :STOP DEPTH
STEP        .FT                                             0.5 :STEP      
NULL        .                                           -999.25 :NULL      
COMP        .                                        EXXON CORP :COMPANY   
WELL        .                               OYSTR LKE TMPRRY GU :WELL      
FLD         .                                           WILDCAT :FIELD     
LOC         .                                                   :LOCATION  
CNTY        .                                         MATAGORDA :LOCATION  
STAT        .                                             TEXAS :STATE     
CTRY        .                                     UNITED STATES :COUNTRY   
SRVC        .                                                   :SERVICE COMPANY
DATE        .                             9/13/2023 11:19:17 AM :LOG DATE  
API         .                                    42321309610000 :API NUMBER
UWI         .                                    42321309610000 :UNIQUE WELL ID
XCOORD      .                                  606681.955270441 :SURFACE X 
YCOORD      .                                  10380406.3085524 :SURFACE Y 
LAT         .                                         28.565886 :LATITUDE  
LON         .                                       -96.2205825 :LONGITUDE 
ELEV        .FT                                              25 :ELEVATION VALUE
ELEV_TYPE   .                                                KB :ELEVATION REFERENCE TYPE
~Curve Information Section
#MNEM       .UNIT                                      API CODE :CURVE DESCRIPTION
#------------------------------------------------------------------------------
DEPT        .FT                                                 :DEPTH     
ASFL        .OHMM                                               :          
CILD        .MMHO                                               :          
ILD         .OHMM                                               :          
SP          .MV                                                 :          
SP_NORM     .MV                                                 :SP Normalized
VSH_SP      .V/V                                                :Volume of Shale from SP
~A        DEPTH           ASFL           CILD            ILD             SP        SP_NORM         VSH_SP
# ...
      8066.0000         0.4889       2334.309        -999.25         7.9389      -1.950876      0.9862192
      8066.5000         0.4882       2347.578        -999.25         8.1301      -2.142076      0.9834481
      8067.0000         0.4876       2360.145        -999.25         8.3209      -2.332876       0.980683
      8067.5000         0.4873       2371.363        -999.25         8.5134      -2.525376      0.9778931
      8068.0000         0.4869        2377.25        -999.25         8.8309      -2.842876      0.9732916
      8068.5000         0.4865        2381.91        -999.25         9.1484      -3.160376      0.9686902
      8069.0000         0.4865       2372.617        -999.25         9.5693      -3.581275      0.9625902
      8069.5000         0.4882       2359.816        -999.25         10.268      -4.279975      0.9524641
      8070.0000         0.4899       2345.625        -999.25        11.1967      -5.208676      0.9390047
      8070.5000          0.491       2329.863        -999.25        12.8657      -6.877676      0.9148163
      8071.0000         0.4919       2311.672        -999.25        16.2734      -10.28538      0.8654293
      8071.5000         0.4918       2295.543        -999.25         15.445      -9.456976      0.8774351
      8072.0000         0.4897       2315.969        -999.25        14.6179      -8.629875      0.8894221
      8072.5000         0.4834        2366.59        -999.25        13.7895      -7.801476      0.9014279
      8073.0000         0.4723       2429.633        -999.25        13.1557      -7.167675      0.9106134
      8073.5000         0.4652       2468.223        -999.25          12.55      -6.561976      0.9193916
      8074.0000          0.461       2554.734        -999.25        11.9449      -5.956875      0.9281612
      8074.5000          0.459       2596.617        -999.25        11.8154      -5.827376       0.930038
      8075.0000         0.4574       2623.867        -999.25         11.951      -5.962976      0.9280728
      8075.5000          0.457       2662.852        -999.25        12.0867      -6.098676      0.9261062
      8076.0000         0.4567       2696.727        -999.25        12.0462      -6.058176      0.9266931
      8076.5000         0.4564       2747.004        -999.25        11.9449      -5.956875      0.9281612
      8077.0000         0.4561       2768.043        -999.25        11.8437      -5.855676      0.9296279
      8077.5000         0.4564       2779.703        -999.25        11.7424      -5.754376       0.931096
      8078.0000          0.457       2789.449        -999.25        11.6179      -5.629876      0.9329004
      8078.5000         0.4577       2793.754        -999.25        11.3374      -5.349376      0.9369656
      8079.0000         0.4583       2797.473        -999.25        11.0569      -5.068876      0.9410308
      8079.5000         0.4582       2801.191        -999.25        10.8006      -4.812576      0.9447453
      8080.0000          0.458       2804.906        -999.25         10.888      -4.899975      0.9434786
      8080.5000         0.4578       2808.625        -999.25        10.9755      -4.987476      0.9422105
      8081.0000         0.4572       2810.098        -999.25        11.2628      -5.274776      0.9380468
      8081.5000         0.4559       2811.277        -999.25        11.8972      -5.909175      0.9288526
      8082.0000         0.4545       2812.457        -999.25        12.5475      -6.559475      0.9194279
      8082.5000         0.4532       2813.586        -999.25        14.0477      -8.059675      0.8976859
      8083.0000         0.4521        2812.07        -999.25        15.5454      -9.557375      0.8759801
      8083.5000         0.4519       2810.555        -999.25        17.0602      -11.07218      0.8540264
      8084.0000         0.4516         2806.5        -999.25        16.2232      -10.23518      0.8661569
      8084.5000         0.4516       2802.137        -999.25        13.0786      -7.090576      0.9117308
      8085.0000         0.4518       2797.766        -999.25        11.6617      -5.673676      0.9322656
      8085.5000          0.452       2787.844        -999.25         9.8899      -3.901876      0.9579438
      8086.0000         0.4522        2777.84        -999.25         8.7201      -2.732076      0.9748974
      8086.5000         0.4524       2770.102        -999.25         7.7988      -1.810776      0.9882496
      8087.0000         0.4525       2764.988        -999.25         6.6397     -0.6516757              1
      8087.5000         0.4527       2769.609        -999.25         6.5385     -0.5504756              1
      8088.0000         0.4529       2775.145        -999.25         6.4372     -0.4491758              1
      8088.5000          0.453       2780.676        -999.25         6.3827     -0.3946757              1
      8089.0000         0.4533       2785.836        -999.25         6.3381     -0.3500757              1
      8089.5000         0.4539       2789.867        -999.25         6.2935     -0.3054757              1
      8090.0000         0.4544       2788.949        -999.25         6.2954     -0.3073759              1
      8090.5000          0.455       2785.961        -999.25           6.38     -0.3919759              1
      8091.0000         0.4556        2781.75        -999.25         6.4644     -0.4763756              1
      8091.5000         0.4563       2776.563        -999.25          6.549     -0.5609756              1
      8092.0000         0.4571       2768.227        -999.25         6.6334     -0.6453757              1
      8092.5000         0.4578       2756.641        -999.25          6.718     -0.7299757              1
      8093.0000         0.4586       2749.324        -999.25         6.7477      -0.759676              1
      8093.5000         0.4589       2743.883        -999.25         6.7602     -0.7721758              1
      8094.0000         0.4592       2739.742        -999.25         6.7728     -0.7847757              1
      8094.5000         0.4594       2737.828        -999.25         6.7853     -0.7972755              1
      8095.0000         0.4593       2735.914        -999.25         6.7979      -0.809876              1
      8095.5000          0.459       2738.289        -999.25         6.8104     -0.8223758              1
      8096.0000         0.4588       2741.379        -999.25         6.8129     -0.8248758              1
      8096.5000         0.4573       2748.406        -999.25         6.7776     -0.7895756              1
      8097.0000         0.4548       2762.887        -999.25         6.7422     -0.7541757              1
      8097.5000         0.4518       2796.938        -999.25         6.7069     -0.7188759              1
      8098.0000         0.4488       2867.199        -999.25         6.6716     -0.6835756              1
      8098.5000         0.4445       2950.664        -999.25         6.6363     -0.6482759              1
      8099.0000         0.4388       3003.496        -999.25          6.601     -0.6129756              1
      8099.5000         0.4331       3033.887        -999.25         6.5896     -0.6015759              1
      8100.0000         0.4277       3043.094        -999.25         6.5902     -0.6021757              1
      8100.5000         0.4259       3045.813        -999.25         6.5908     -0.6027756              1
      8101.0000         0.4253       3044.871        -999.25         6.5913     -0.6032758              1
      8101.5000         0.4283       3028.633        -999.25         6.6016     -0.6135759              1
      8102.0000         0.4333       2997.262        -999.25         6.6178      -0.629776              1
      8102.5000          0.439       2957.441        -999.25          6.634     -0.6459756              1
      8103.0000         0.4449       2895.676        -999.25         6.6502     -0.6621757              1
      8103.5000          0.451       2847.559        -999.25         6.6664     -0.6783757              1
