#------------------------------------------------------------------------------
# Created by    : vladimir.rabinovich
# Created on    : 09/19/2023 17:19:21
#------------------------------------------------------------------------------
~Version Information Section
VERS.           2.0     :   CWLS log ASCII Standard - VERSION 2.0
WRAP.           NO      :   One line per depth step
~Well Information Section
#MNEM       .UNIT                                         VALUE :DESCRIPTION
#------------------------------------------------------------------------------
STRT        .FT                                             313 :START DEPTH
STOP        .FT                                           17011 :STOP DEPTH
STEP        .FT                                             0.5 :STEP      
NULL        .                                           -999.25 :NULL      
COMP        .                             MAGNOLIA PETROLEUM CO :COMPANY   
WELL        .                                      LETULLE UNIT :WELL      
FLD         .                                           WILDCAT :FIELD     
LOC         .                                                   :LOCATION  
CNTY        .                                         MATAGORDA :LOCATION  
STAT        .                                             TEXAS :STATE     
CTRY        .                                     UNITED STATES :COUNTRY   
SRVC        .                                                   :SERVICE COMPANY
DATE        .                             9/13/2023 11:18:46 AM :LOG DATE  
API         .                                    42321010770000 :API NUMBER
UWI         .                                    42321010770000 :UNIQUE WELL ID
XCOORD      .                                  733053.658917313 :SURFACE X 
YCOORD      .                                  10456928.2420536 :SURFACE Y 
LAT         .                                        28.7849393 :LATITUDE  
LON         .                                       -95.8329519 :LONGITUDE 
ELEV        .FT                                              38 :ELEVATION VALUE
ELEV_TYPE   .                                                KB :ELEVATION REFERENCE TYPE
~Curve Information Section
#MNEM       .UNIT                                      API CODE :CURVE DESCRIPTION
#------------------------------------------------------------------------------
DEPT        .FT                                                 :DEPTH     
AAM_16      .OHMM                                               :          
AM_16       .OHMM                                               :          
AM_64       .OHMM                                               :          
AO_18_8     .OHMM                                               :          
SP          .MV                                                 :          
SP_NORM     .MV                                                 :SP Normalized
VSH_SP      .V/V                                                :Volume of Shale from SP
~A        DEPTH         AAM_16          AM_16          AM_64        AO_18_8             SP        SP_NORM         VSH_SP
# ...
      9190.5000          0.416         0.3443         0.3524         0.3479       -47.1711      -3.350296       0.956476
      9191.0000         0.4141         0.3443         0.3489         0.3475       -46.9726      -3.153175      0.9601264
      9191.5000          0.414         0.3444         0.3454         0.3471       -46.8938       -3.07576        0.96156
      9192.0000         0.4122         0.3444         0.3351         0.3556       -46.8326      -3.015942      0.9626678
      9192.5000         0.4121         0.3444         0.3351         0.3549       -46.6165      -2.801224       0.966644
      9193.0000          0.412         0.3444         0.3351         0.3545       -46.4159      -2.602005      0.9703332
      9193.5000         0.4119         0.3444         0.3316         0.3452       -46.3391      -2.526585      0.9717299
      9194.0000         0.4101         0.3444         0.3213         0.3447       -46.3388      -2.527664      0.9717099
      9194.5000           0.41         0.3444         0.3213         0.3443       -46.3385      -2.528748      0.9716899
      9195.0000         0.4099         0.3413         0.3213          0.335       -46.3381      -2.529732      0.9716716
      9195.5000         0.4116         0.3326         0.3213         0.3345       -46.3378      -2.530811      0.9716516
      9196.0000         0.4151         0.3306         0.3213         0.3252       -46.3374      -2.531792      0.9716335
      9196.5000         0.4204         0.3306         0.3351         0.3158       -46.3371      -2.532875      0.9716134
      9197.0000         0.4311         0.3307         0.3351         0.3063       -46.3367      -2.533855      0.9715953
      9197.5000           0.44         0.3307         0.3386         0.2969       -46.3364      -2.534935      0.9715753
      9198.0000         0.4471         0.3446          0.349         0.2876        -46.336      -2.535915      0.9715571
      9198.5000         0.4561         0.3446          0.349         0.2782       -46.3357      -2.537003       0.971537
      9199.0000         0.4596         0.3446         0.3629         0.2778       -46.3353      -2.537983      0.9715188
      9199.5000         0.4631         0.3446         0.3629         0.2774        -46.335      -2.539063      0.9714988
      9200.0000         0.4667         0.3446         0.3698          0.268       -46.3346      -2.540043      0.9714807
      9200.5000         0.4702         0.3446         0.3767         0.2679       -46.3343      -2.541126      0.9714606
      9201.0000         0.4702         0.3515         0.3906         0.2589       -46.3339      -2.542107      0.9714425
      9201.5000         0.4738         0.3585         0.3941         0.2589       -46.3336      -2.543186      0.9714225
      9202.0000         0.4756         0.3724         0.4045           0.25       -46.3333      -2.544273      0.9714023
      9202.5000         0.4791         0.3898         0.4183           0.25       -46.3329      -2.545254      0.9713842
      9203.0000         0.4845         0.4002         0.4183           0.25       -46.3325      -2.546234       0.971366
      9203.5000         0.4916         0.4141         0.4218           0.25       -46.3322      -2.547314       0.971346
      9204.0000         0.5006         0.4281         0.4322           0.25       -46.3319      -2.548397       0.971326
      9204.5000         0.5113         0.4455         0.4322           0.25       -46.3315      -2.549377      0.9713078
      9205.0000         0.5238         0.4557         0.4322           0.25       -46.3311      -2.550358      0.9712897
      9205.5000         0.5327         0.4835         0.4322           0.25       -46.3308      -2.551437      0.9712697
      9206.0000         0.5398         0.4974         0.4391           0.25       -46.3305      -2.552525      0.9712495
      9206.5000         0.5433         0.5012         0.4461         0.2589       -46.3302      -2.553604      0.9712296
      9207.0000         0.5433         0.5113         0.4461         0.2589       -46.3297      -2.554485      0.9712132
      9207.5000         0.5432         0.5113         0.4461         0.2679       -46.3295      -2.555664      0.9711914
      9208.0000         0.5396          0.497         0.4461         0.2679       -46.3291      -2.556648      0.9711732
      9208.5000         0.5377         0.4796           0.46         0.2768       -46.3288      -2.557728      0.9711532
      9209.0000         0.5341         0.4622           0.46         0.2857       -46.3284      -2.558708       0.971135
      9209.5000         0.5304         0.4559           0.46         0.2857       -46.3281      -2.559792       0.971115
      9210.0000         0.5268         0.4559           0.46         0.2857       -46.4075      -2.640575       0.969619
      9210.5000         0.5143          0.442           0.46         0.2946        -46.604      -2.838455      0.9659545
      9211.0000         0.5071         0.4344           0.46         0.2946       -46.6036      -2.839436      0.9659364
      9211.5000         0.4982         0.4282         0.4427         0.3036       -46.6033      -2.840515      0.9659164
      9212.0000         0.4875         0.4143         0.4254         0.3036        -46.603      -2.841599      0.9658963
      9212.5000          0.475         0.4144         0.4185         0.3125       -46.6026      -2.842579      0.9658782
      9213.0000         0.4625         0.4065         0.4046         0.3214       -46.3256      -2.566963      0.9709821
      9213.5000         0.4518         0.4005         0.3908         0.3304       -46.0487      -2.291443      0.9760844
      9214.0000         0.4464         0.4005         0.3839         0.3482       -45.9645      -2.208626       0.977618
      9214.5000         0.4446         0.4006         0.3769         0.3571       -45.6182      -1.863705      0.9840055
      9215.0000         0.4429         0.3925           0.37         0.3661       -45.2177      -1.464588      0.9913965
      9215.5000         0.4429         0.3867         0.3631          0.375       -45.2012      -1.449467      0.9916766
      9216.0000         0.4429         0.3729         0.3631          0.375       -44.9405      -1.190147      0.9964787
      9216.5000         0.4411         0.3682         0.3608         0.3839       -44.7848      -1.035831      0.9993365
      9217.0000         0.4393          0.359         0.3493         0.3839       -44.6631     -0.9155159              1
      9217.5000         0.4375          0.359         0.3493          0.375        -44.681     -0.9347954              1
      9218.0000         0.4339         0.3452         0.3493          0.375       -44.9391      -1.194275      0.9964023
      9218.5000         0.4321         0.3452         0.3493          0.375       -44.9387      -1.195259      0.9963841
      9219.0000         0.4268         0.3452         0.3493          0.375       -44.9383      -1.196239       0.996366
      9219.5000         0.4232         0.3452         0.3493         0.3661        -44.938      -1.197319      0.9963459
      9220.0000         0.4179         0.3452         0.3493         0.3661       -44.9377      -1.198399       0.996326
      9220.5000         0.4142         0.3453         0.3493         0.3658       -44.9373      -1.199387      0.9963077
      9221.0000         0.4124         0.3453         0.3493         0.3653       -44.9369      -1.200367      0.9962895
      9221.5000         0.4123         0.3453         0.3493         0.3649       -44.9143      -1.179146      0.9966825
      9222.0000         0.4104         0.3453         0.3493         0.3644       -44.6597     -0.9259262              1
      9222.5000         0.4103         0.3453         0.3493          0.364       -44.6593     -0.9269104              1
      9223.0000         0.4102         0.3453         0.3563         0.3725       -44.6589     -0.9278908              1
      9223.5000         0.4137         0.3454         0.3632         0.3631       -44.6586     -0.9289703              1
