#------------------------------------------------------------------------------
# Created by    : vladimir.rabinovich
# Created on    : 09/19/2023 17:21:29
#------------------------------------------------------------------------------
~Version Information Section
VERS.           2.0     :   CWLS log ASCII Standard - VERSION 2.0
WRAP.           NO      :   One line per depth step
~Well Information Section
#MNEM       .UNIT                                         VALUE :DESCRIPTION
#------------------------------------------------------------------------------
STRT        .FT                                            1500 :START DEPTH
STOP        .FT                                            6885 :STOP DEPTH
STEP        .FT                                             0.5 :STEP      
NULL        .                                           -999.25 :NULL      
COMP        .                        HILLHOUSE OPERATING CO LLC :COMPANY   
WELL        .                                  LEWIS J C FAMILY :WELL      
FLD         .                                    LIVE OAK BAYOU :FIELD     
LOC         .                                                   :LOCATION  
CNTY        .                                         MATAGORDA :LOCATION  
STAT        .                                             TEXAS :STATE     
CTRY        .                                     UNITED STATES :COUNTRY   
SRVC        .                                                   :SERVICE COMPANY
DATE        .                             9/13/2023 11:19:17 AM :LOG DATE  
API         .                                    42321308450000 :API NUMBER
UWI         .                                    42321308450000 :UNIQUE WELL ID
XCOORD      .                                  757138.788685477 :SURFACE X 
YCOORD      .                                  10457801.5308193 :SURFACE Y 
LAT         .                                        28.7888954 :LATITUDE  
LON         .                                       -95.7578897 :LONGITUDE 
ELEV        .FT                                              17 :ELEVATION VALUE
ELEV_TYPE   .                                                KB :ELEVATION REFERENCE TYPE
~Curve Information Section
#MNEM       .UNIT                                      API CODE :CURVE DESCRIPTION
#------------------------------------------------------------------------------
DEPT        .FT                                                 :DEPTH     
CALI        .IN                                                 :          
DCOR        .G/C3                                               :          
DPOR        .%                                                  :          
DT          .US/F                                               :          
GR          .GAPI                                               :          
GR_NORM     .GAPI                                               :GammaRay Normalized
ILD         .OHMM                                               :          
ILM         .OHMM                                               :          
LL8         .OHMM                                               :          
NPOR        .%                                                  :          
RHOB        .G/C3                                               :          
SP          .MV                                                 :          
SP_NORM     .MV                                                 :SP Normalized
VSH_GR      .V/V                                                :Volume of Shale from GR
VSH_SP      .V/V                                                :Volume of Shale from SP
~A        DEPTH           CALI           DCOR           DPOR             DT             GR        GR_NORM            ILD            ILM            LL8           NPOR           RHOB             SP        SP_NORM         VSH_GR         VSH_SP
# ...
      4373.0000         7.9051         0.0303        31.6541       142.1433         70.042       85.85908         0.5833         0.6078         0.7812        52.9616         2.1258       -57.9549     -0.5498505              1              1
      4373.5000         7.9049         0.0308        31.5971       143.1037         72.555        89.5018         0.5887         0.6023         0.7742         52.934         2.1263       -57.3616     0.03550339              1              1
      4374.0000         7.9628         0.0313        31.5697       142.0626        73.0484         90.217         0.5914         0.5996         0.7742        51.1163         2.1278       -56.9654      0.4237556              1              1
      4374.5000         8.0015         0.0319        31.3929       142.1113        67.2511       81.81352         0.5887         0.6075         0.7465        50.7299         2.1303       -56.9637      0.4175148              1              1
      4375.0000         8.0403         0.0319        30.2908       142.3087        62.4948       74.91904         0.5996         0.6131         0.7067        51.6287         2.1417       -57.3565     0.01676941      0.8918944              1
      4375.5000          8.099         0.0334        29.0989       136.7884        59.3215       70.31919         0.6107         0.6359           0.71        52.0791          2.166       -57.7493      -0.383976      0.7940254              1
      4376.0000         8.1572         0.0384        27.3106       131.8044        58.1781       68.66179         0.6481         0.6596         0.7959        49.2762         2.1977       -58.9312      -1.573818      0.7587615      0.9863377
      4376.5000         8.1565         0.0453        26.3578       130.2476        60.2974        71.7338         0.6722         0.6842         0.8218        47.8759         2.2155       -58.3378     -0.9883652      0.8241233              1
      4377.0000         8.1556         0.0414         26.539       127.2941        61.7232       73.80058         0.6941         0.7161         0.8106        47.6381         2.2101       -58.1389     -0.7974129      0.8680974              1
      4377.5000         8.1349          0.038        26.8396        125.688        60.0858       71.42709         0.7199         0.7428         0.8447         46.896         2.2047       -58.1373     -0.8037529      0.8175976              1
      4378.0000         8.1343         0.0449        26.6627       122.0208        57.7021       67.97179         0.7675         0.7705         0.9005        44.4211         2.2072       -58.9248      -1.599201      0.7440805      0.9857333
      4378.5000         8.1181         0.0474        26.3066       120.0382        57.6951       67.96165         0.7817         0.7991         0.9171        41.8271         2.2131       -58.3313      -1.013645       0.743865      0.9996751
      4379.0000         8.0929          0.044        27.2643       118.3232        59.2721       70.24756         0.7925         0.8139          0.913        40.6656         2.1993       -59.1187       -1.80899      0.7925013      0.9807383
      4379.5000         8.0925         0.0346        28.6991       117.3811        60.4532       71.95965         0.7889         0.8139         0.9427        43.4139          2.176       -59.3144      -2.012634      0.8289287      0.9758897
      4380.0000         7.9724         0.0237        30.3129       118.9456        62.4264       74.81989         0.7854         0.7848         1.0235        47.6556         2.1399       -59.3128      -2.018982      0.8897849      0.9757385
      4380.5000         7.8998         0.0183        30.8525       120.3321        63.2588       76.02649         0.7747         0.7777         1.0616        48.4035         2.1444       -59.3113      -2.025425      0.9154572      0.9755851
      4381.0000         7.8895         0.0218        29.8995        125.206        63.2541        76.0197         0.7643         0.7707          0.969        49.1521         2.1499        -58.323      -1.045071      0.9153128      0.9989269
      4381.5000         7.8885         0.0312        28.9466       126.1469        62.9504       75.57945         0.7402         0.7707         0.9008        49.5128         2.1682       -57.7294     -0.4594154      0.9059458              1
      4382.0000         7.8976         0.0486        28.1131       127.7807        62.2512       74.56594         0.7403         0.7778         0.8607        49.9033         2.1811       -56.9383      0.3237381      0.8843817              1
      4382.5000         7.9166         0.0525        27.6377       127.3838        60.7577       72.40103         0.7437         0.7995         0.8148        49.7568         2.1896       -56.7393      0.5147972      0.8383198              1
      4383.0000         7.9455         0.0446        26.9832       125.8471        57.4346       67.58402         0.7644         0.8143          0.775         48.207         2.1995       -56.3429      0.9032516      0.7358302              1
      4383.5000         7.9446         0.0338         26.269       116.9774         56.185       65.77267         0.7645         0.8414         0.8452        44.9258         2.2129       -55.7491       1.489105       0.697291              1
      4384.0000         7.9141         0.0313        26.0024       114.6775        57.1712       67.20222          0.768         0.8492         0.9694        42.0028         2.2198       -55.5498       1.680462      0.7277069              1
      4384.5000         7.8261         0.0333        26.5732       114.0821         59.542       70.63882          0.768         0.8453         1.0193        40.2732         2.2099       -55.9428       1.279518      0.8008259              1
      4385.0000         7.7857         0.0502        26.5142       114.0812        60.9219       72.63904         0.7681         0.8339         0.9873        43.2018         2.2055       -56.5333      0.6810722      0.8433838              1
      4385.5000          7.765         0.0571        25.9194       119.7979        60.6173        72.1975         0.7508         0.8151         0.9874        46.6086         2.2179       -57.1638     0.04262924      0.8339894              1
      4386.0000         7.7642         0.0478        25.1454       124.4545         59.917        71.1824         0.7206         0.7967          0.974        47.5056         2.2298       -57.9518     -0.7533188      0.8123914              1
      4386.5000         7.7633         0.0359        24.8794       122.9972        59.4148       70.45444         0.6791         0.7788         0.9785        46.7917         2.2363       -60.3194      -3.128864      0.7969029      0.9493127
      4387.0000         7.8267         0.0235        25.5083       120.2214         59.408       70.44457         0.6459         0.7373         0.9921        44.7341         2.2294       -65.4106      -8.228004       0.796693      0.8279046
      4387.5000         7.8409         0.0186        26.5254       118.8333        58.3113       68.85484         0.6031         0.6917         1.0104        42.8558         2.2135       -70.5425      -13.36786       0.762869      0.7055272
      4388.0000         7.9667         0.0365        27.0947       114.6899         57.511       67.69479         0.5684         0.6548         1.0625        41.1265         2.1972       -74.1352       -16.9685       0.738187      0.6197976
      4388.5000         8.1959         0.0593          26.47       115.6601         57.753       68.04557         0.5684         0.6401         1.0481        40.3229         2.2096       -71.7249      -14.56614      0.7456504      0.6769967
      4389.0000         8.4726         0.0761        25.8757       122.9626        59.3315       70.33368         0.5685         0.6372         0.9878        40.8929         2.2196        -67.972      -10.82119      0.7943336      0.7661622
      4389.5000         8.6301         0.0633        27.3103       125.4394        59.9192       71.18559         0.5843          0.649         0.9524        42.3878         2.1978       -65.2063      -8.063431      0.8124592      0.8318231
