#------------------------------------------------------------------------------
# Created by    : vladimir.rabinovich
# Created on    : 09/19/2023 17:21:29
#------------------------------------------------------------------------------
~Version Information Section
VERS.           2.0     :   CWLS log ASCII Standard - VERSION 2.0
WRAP.           NO      :   One line per depth step
~Well Information Section
#MNEM       .UNIT                                         VALUE :DESCRIPTION
#------------------------------------------------------------------------------
STRT        .FT                                            1500 :START DEPTH
STOP        .FT                                            6885 :STOP DEPTH
STEP        .FT                                             0.5 :STEP      
NULL        .                                           -999.25 :NULL      
COMP        .                        HILLHOUSE OPERATING CO LLC :COMPANY   
WELL        .                                  LEWIS J C FAMILY :WELL      
FLD         .                                    LIVE OAK BAYOU :FIELD     
LOC         .                                                   :LOCATION  
CNTY        .                                         MATAGORDA :LOCATION  
STAT        .                                             TEXAS :STATE     
CTRY        .                                     UNITED STATES :COUNTRY   
SRVC        .                                                   :SERVICE COMPANY
DATE        .                             9/13/2023 11:19:17 AM :LOG DATE  
API         .                                    42321308450000 :API NUMBER
UWI         .                                    42321308450000 :UNIQUE WELL ID
XCOORD      .                                  757138.788685477 :SURFACE X 
YCOORD      .                                  10457801.5308193 :SURFACE Y 
LAT         .                                        28.7888954 :LATITUDE  
LON         .                                       -95.7578897 :LONGITUDE 
ELEV        .FT                                              17 :ELEVATION VALUE
ELEV_TYPE   .                                                KB :ELEVATION REFERENCE TYPE
~Curve Information Section
#MNEM       .UNIT                                      API CODE :CURVE DESCRIPTION
#------------------------------------------------------------------------------
DEPT        .FT                                                 :DEPTH     
CALI        .IN                                                 :          
DCOR        .G/C3                                               :          
DPOR        .%                                                  :          
DT          .US/F                                               :          
GR          .GAPI                                               :          
GR_NORM     .GAPI                                               :GammaRay Normalized
ILD         .OHMM                                               :          
ILM         .OHMM                                               :          
LL8         .OHMM                                               :          
NPOR        .%                                                  :          
RHOB        .G/C3                                               :          
SP          .MV                                                 :          
SP_NORM     .MV                                                 :SP Normalized
VSH_GR      .V/V                                                :Volume of Shale from GR
VSH_SP      .V/V                                                :Volume of Shale from SP
~A        DEPTH           CALI           DCOR           DPOR             DT             GR        GR_NORM            ILD            ILM            LL8           NPOR           RHOB             SP        SP_NORM         VSH_GR         VSH_SP
# ...
      2588.0000         7.5003        -0.0092        39.0013       140.3177        55.1045       63.34501         0.3331         0.3944         0.6253         47.446         2.0104       -99.3916      -33.40788      0.6456385     0.07406049
      2588.5000         7.5213        -0.0058        37.5657       140.9139        60.7118       72.54081         0.3139          0.389          0.682         47.474         2.0347        -95.088      -29.09918      0.8412938      0.1971662
      2589.0000         7.5027        -0.0004         35.772       142.1041        65.2812       80.03394         0.2918         0.3803         0.7074        47.1138         2.0678       -94.2981       -28.3042              1        0.21988
      2589.5000         7.4645         0.0075        33.7389       142.9389        66.0374       81.27147         0.2827         0.3535         0.6851        45.0205          2.096       -95.8362       -29.8372              1      0.1760801
      2590.0000         7.4461         0.0125        33.2886       142.9397        62.5323       75.51833         0.2725         0.3316         0.6666        44.2415         2.1009       -96.6247      -30.62061      0.9046454       0.153697
      2590.5000         7.4463         0.0095        34.7472       140.9204        57.9877       68.05995         0.2725         0.3183         0.6398        42.8653         2.0727       -96.8212        -30.812      0.7459564      0.1482285
      2591.0000         7.4482         0.0006        36.2363       140.5248        56.0187        64.8268         0.2788         0.3227         0.6197        42.8622         2.0504        -96.623      -30.60872      0.6771659      0.1540366
      2591.5000         7.4494        -0.0049          36.83       140.2339        54.2478       61.91864         0.2972         0.3378         0.5867        43.7843         2.0415       -95.4381      -29.41872      0.6152901      0.1880365
      2592.0000         7.4503        -0.0054        36.4687       139.9346        51.6842       57.71004         0.3126         0.3584         0.5735        44.1396         2.0474       -92.7143      -26.68983      0.5257456      0.2660049
      2592.5000         7.4518        -0.0029        35.8687       139.1836         49.715       54.47657         0.3347         0.3963         0.6487        46.1644         2.0588       -89.1619      -23.13233      0.4569483      0.3676476
      2593.0000         7.4331          0.001        35.4771       137.3627        46.9531       49.94268          0.352         0.4483         0.7371         46.133         2.0623       -88.9639      -22.92924      0.3604826      0.3734504
      2593.5000         7.4341         0.0059        35.5639       136.2158        44.7856       46.38388         0.3874         0.4735         0.7894         45.593         2.0622        -91.883      -25.84325      0.2847635       0.290193
      2594.0000         7.4553         0.0158        35.7995       136.3175        43.6088       44.45034         0.4092         0.4889         0.7372         44.694         2.0598       -93.2634      -27.21854      0.2436243      0.2508987
      2594.5000         7.4565         0.0217        35.9754        136.971        43.4228       44.14221         0.4362         0.4934         0.7681        45.1684         2.0558       -94.4464      -28.39645      0.2370683      0.2172442
      2595.0000         7.4574         0.0281        35.8529       136.7736        44.4258       45.78466         0.4303         0.4957         0.7967        46.7773         2.0578       -94.2483      -28.19326      0.2720141      0.2230497
      2595.5000         7.4589         0.0326        35.3722       136.3807        47.2123       50.35293         0.4168         0.4912         0.7931        47.5204         2.0661       -94.0502      -27.99007      0.3692112      0.2288552
      2596.0000         7.4798         0.0311        34.8318       135.9267        51.3337        57.1111          0.391         0.4779         0.7931         47.161         2.0755       -93.4575      -27.39227      0.5130021      0.2459353
      2596.5000         7.4612         0.0177        34.4703       136.7675        58.1365       68.26814         0.3618          0.465         0.7967        41.3647           2.08       -92.2731      -26.20278      0.7503859      0.2799205
      2597.0000         7.4765         0.0043         36.676       138.3077        61.7186       74.14159         0.3478         0.4545         0.7788         39.868         2.0354       -91.6805      -25.60508      0.8753529      0.2969977
      2597.5000         7.4834         0.0038        40.3745       141.7344        63.3166        76.7601         0.3489         0.4484         0.7647         42.105         1.9835       -91.4824      -25.40189       0.931066      0.3028032
      2598.0000         7.4848         0.0063        43.8931       145.0436        64.9146       79.37864         0.3569         0.4464         0.7612        48.0002         1.9276       -91.0872      -25.00159      0.9867796      0.3142404
      2598.5000         7.5004         0.0067        44.0691       146.5302        69.6837       87.19938         0.3875          0.463         0.7509        58.9044         1.9231       -89.3112       -23.2205              1      0.3651284
      2599.0000         7.5268         0.0057         42.932       146.4326        73.0656       92.74439         0.4207         0.4802         0.7612        59.6777         1.9474       -86.1545      -20.05871              1      0.4554655
      2599.5000         7.5478         0.0022        40.7195       142.2757        74.6151       95.28338         0.4505         0.5237          0.889        59.4357         1.9741       -82.8008      -16.69991              1      0.5514313
      2600.0000         7.6085         0.0012        39.7613       140.1979        72.6945       92.12965         0.5237         0.5978         1.1689        56.3277         2.0304       -76.0954       -9.98941              1      0.7431597
      2600.5000         7.6625         0.0046        35.9663       144.4552        72.5212       91.84235         0.5763         0.6446         1.1477        55.6085         2.0602       -70.9703      -4.859222              1      0.8897365
      2601.0000         7.6894         0.0076        34.0818       149.6036        72.9102       92.47752         0.6199         0.6823         1.0476        54.7692         2.0868       -68.6066      -2.490425              1      0.9574164
      2601.5000         7.6307         0.0061        33.8993       157.9205        73.7116       93.78922         0.7207         0.7076         0.9918        54.4074         2.0872       -66.8357     -0.7144318              1              1
      2602.0000         7.6315         0.0026        34.4921       169.6039        73.3253        93.1525         0.8114         0.7612         0.9872        54.4636         2.0798       -64.7096       1.416763              1              1
      2602.5000         7.6317        -0.0013        34.7869        170.198        72.7392       92.18799         0.8768         0.8114         0.9738        54.2816         2.0719       -64.8711       1.260353              1              1
      2603.0000         7.6331         0.0006        34.0669        170.099        72.7477       92.19894         0.9011         0.8301         0.9605        53.9788         2.0886       -64.4805       1.656052              1              1
      2603.5000          7.634         0.0085        32.8684       168.7128        73.1526       92.86021         0.9388         0.8648         0.9605        55.6762         2.1084       -64.2871       1.854546              1              1
      2604.0000         7.6348         0.0199        32.2376       167.8806        73.7558       93.84676         0.9517         0.8847         0.9649        58.1495         2.1168        -64.291       1.855743              1              1
      2604.5000         7.6357         0.0238        33.3385       166.8904        74.5572       95.15846         0.9692         0.8847         0.9871        57.6101          2.098       -64.4925       1.659332              1              1
