#------------------------------------------------------------------------------
# Created by    : vladimir.rabinovich
# Created on    : 09/19/2023 17:21:29
#------------------------------------------------------------------------------
~Version Information Section
VERS.           2.0     :   CWLS log ASCII Standard - VERSION 2.0
WRAP.           NO      :   One line per depth step
~Well Information Section
#MNEM       .UNIT                                         VALUE :DESCRIPTION
#------------------------------------------------------------------------------
STRT        .FT                                            1500 :START DEPTH
STOP        .FT                                            6885 :STOP DEPTH
STEP        .FT                                             0.5 :STEP      
NULL        .                                           -999.25 :NULL      
COMP        .                        HILLHOUSE OPERATING CO LLC :COMPANY   
WELL        .                                  LEWIS J C FAMILY :WELL      
FLD         .                                    LIVE OAK BAYOU :FIELD     
LOC         .                                                   :LOCATION  
CNTY        .                                         MATAGORDA :LOCATION  
STAT        .                                             TEXAS :STATE     
CTRY        .                                     UNITED STATES :COUNTRY   
SRVC        .                                                   :SERVICE COMPANY
DATE        .                             9/13/2023 11:19:17 AM :LOG DATE  
API         .                                    42321308450000 :API NUMBER
UWI         .                                    42321308450000 :UNIQUE WELL ID
XCOORD      .                                  757138.788685477 :SURFACE X 
YCOORD      .                                  10457801.5308193 :SURFACE Y 
LAT         .                                        28.7888954 :LATITUDE  
LON         .                                       -95.7578897 :LONGITUDE 
ELEV        .FT                                              17 :ELEVATION VALUE
ELEV_TYPE   .                                                KB :ELEVATION REFERENCE TYPE
~Curve Information Section
#MNEM       .UNIT                                      API CODE :CURVE DESCRIPTION
#------------------------------------------------------------------------------
DEPT        .FT                                                 :DEPTH     
CALI        .IN                                                 :          
DCOR        .G/C3                                               :          
DPOR        .%                                                  :          
DT          .US/F                                               :          
GR          .GAPI                                               :          
GR_NORM     .GAPI                                               :GammaRay Normalized
ILD         .OHMM                                               :          
ILM         .OHMM                                               :          
LL8         .OHMM                                               :          
NPOR        .%                                                  :          
RHOB        .G/C3                                               :          
SP          .MV                                                 :          
SP_NORM     .MV                                                 :SP Normalized
VSH_GR      .V/V                                                :Volume of Shale from GR
VSH_SP      .V/V                                                :Volume of Shale from SP
~A        DEPTH           CALI           DCOR           DPOR             DT             GR        GR_NORM            ILD            ILM            LL8           NPOR           RHOB             SP        SP_NORM         VSH_GR         VSH_SP
# ...
      1517.0000        -999.25        -999.25        -999.25        82.3561        41.5981       53.92561        -999.25        -999.25         1.6968        -999.25        -999.25        -999.25        -999.25      0.4452257        -999.25
      1517.5000        -999.25        -999.25        -999.25        82.7705        43.6848       58.35761        -999.25        -999.25          1.696        -999.25        -999.25        -999.25        -999.25      0.5395237        -999.25
      1518.0000         8.0804         0.0478        29.9152        81.7966        44.1382       59.13866        -999.25        -999.25           1.59        -999.25         2.0688        -999.25        -999.25      0.5561418        -999.25
      1518.5000         8.1209         0.0429        36.7209        80.9844         41.032       51.96288        -999.25        -999.25         1.4461        -999.25         1.9618        -999.25        -999.25      0.4034654        -999.25
      1519.0000         8.1811         0.0157        45.3395         93.649        39.0627       47.32843        -999.25        -999.25         1.2109        -999.25         1.8841        -999.25        -999.25      0.3048602        -999.25
      1519.5000         8.2215        -0.0041        47.7902       168.5792        37.4391       43.46674        -999.25        -999.25         0.4984        -999.25          1.849        -999.25        -999.25      0.2226967        -999.25
      1520.0000           8.25         -0.015        49.4627       169.7545        37.6448        43.6941        -999.25        -999.25         0.2618        -999.25         1.8351       -78.6561      -2.112885       0.227534      0.8763462
      1520.5000         8.2783        -0.0189        47.4277       169.7275        38.8423       46.13844        -999.25        -999.25         0.4447        -999.25         1.8837       -83.1616      -6.618385      0.2795412       0.375735
      1521.0000         8.3067        -0.0085        44.6152       147.1137        41.7185       52.33518        -999.25        -999.25         0.5491         60.014         1.9312        -84.545      -8.001785      0.4113868      0.2220239
      1521.5000         8.3024         0.0029        41.5034       135.6166        44.8923       59.19718        -999.25        -999.25          0.863        59.9528         1.9738       -85.1379      -8.594688      0.5573868      0.1561457
      1522.0000         8.3625         0.0079        40.4543       132.5462        47.2748       64.29034        19.6287        -999.25          1.211        59.8314         1.9807       -85.3355       -8.79229      0.6657518        0.13419
      1522.5000         8.4129         0.0035        40.5728       126.7408        50.6482       71.59853         1.4858        -999.25         1.3207        57.6767         1.9757       -85.7308      -9.187584      0.8212453     0.09026846
      1523.0000         8.4633         0.0035        40.6007       128.9861         49.766       69.39405         0.4896          0.696         1.2967        57.3161         1.9807       -85.5331      -8.989883      0.7743415      0.1122352
      1523.5000          8.474          0.006        40.4793       137.4172        48.8847       67.19166         0.4874         0.7056         1.3266        56.8357         1.9822       -85.3355       -8.79229      0.7274821        0.13419
      1524.0000         8.4749          0.007         40.597       139.5033         49.388       68.08426         0.5745         0.7318         1.4337        56.1162         1.9738       -84.9402      -8.396988      0.7464736      0.1781124
      1524.5000         8.4956          0.006        41.1931       139.9045        49.8914       68.97702         0.7625         0.7945         1.5007        53.7524         1.9669        -84.545      -8.001785      0.7654685      0.2220239
      1525.0000         8.5162         0.0031        42.3275       131.0866        49.2079       67.21675          0.759         0.8625         1.5636        53.1514         1.9431        -84.545      -8.001785       0.728016      0.2220239
      1525.5000         8.5765        -0.0033        44.1795       126.0359        47.0372       62.13216         0.7152         0.9069         1.6217        54.0474         1.9114       -84.3474      -7.804184      0.6198331      0.2439796
      1526.0000         8.6566        -0.0097        46.0909       123.2657        43.7848       54.62957          0.699         0.9069         1.5562        55.1224         1.8936       -84.1497      -7.606483      0.4602036      0.2659463
      1526.5000         8.7662        -0.0137        45.3121       127.4728        41.6186       49.55497         0.6958         0.8823         1.4009        57.3033          1.903       -83.7545      -7.211288      0.3522334      0.3098568
      1527.0000         8.7078        -0.0057        43.5161       124.9601        43.0112       52.43545         0.6926         0.8743         1.2961        57.1522         1.9471       -83.3592      -6.815987      0.4135202      0.3537793
      1527.5000         8.6394         0.0126        41.4809       123.7756        46.3846       59.74359         0.6957         0.8985         1.3139        56.7317         1.9818        -82.964      -6.420784      0.5690126      0.3976907
      1528.0000         8.6996         0.0275        39.9241       126.7553        50.2552       68.16315         0.6894         0.8984         1.3565        55.1747         1.9996       -82.3711      -5.827888      0.7481521      0.4635679
      1528.5000         9.4842          0.029        39.0251       130.1276        50.2596       67.94053         0.7021         0.9066         1.3814        53.7973         1.9986       -81.7782      -5.234985      0.7434155      0.5294461
      1529.0000         9.8014         0.0206        40.0998       128.6457        50.1695       67.50665         0.7315         0.8943         1.3137        53.4962         1.9758       -81.1853       -4.64209      0.7341841      0.5953233
      1529.5000        10.0396        -0.0011        42.0117       128.0557        50.7717       68.62035         0.7552         0.8821         1.2154        54.2424         1.9432         -80.79      -4.246788      0.7578797      0.6392457
      1530.0000        10.2662        -0.0046        44.2515       137.8714         52.265       71.72588         0.7552         0.8861         1.1558        54.9582         1.9234         -80.79      -4.246788      0.8239549      0.6392457
      1530.5000        10.3757        -0.0026        43.7423       137.2803        53.7574       74.82941         0.7314          0.878         1.2097        55.9432         1.9259       -80.3948      -3.851585      0.8899875      0.6831572
      1531.0000        10.5448         0.0054        42.3649       140.2571        54.8542       77.04869         0.7051         0.8581         1.2895        55.3432         1.9561            -80      -3.456787      0.9372062      0.7270237
      1531.5000        10.7336         0.0103        40.7775       168.9954        54.6652       76.39377         0.6924         0.8425         1.2777        53.4863          1.976       -80.1972      -3.653984      0.9232717      0.7051129
      1532.0000        10.8927         -0.001        41.8229       169.9304        54.1795       75.07561         0.6923         0.8235         1.1876        50.5547         1.9265       -81.1853       -4.64209      0.8952257      0.5953233
      1532.5000        11.5884        -0.0129        45.5889       169.9336        53.3971       73.09423          0.686          0.816         1.1345        49.7452         1.8799       -82.1734      -5.630188      0.8530687      0.4855347
      1533.0000        12.4181        -0.0203        48.1587       169.9369        52.8116       71.55303         0.6891         0.7903         1.0988        50.9995         1.8473       -82.7663      -6.223083      0.8202773      0.4196574
      1533.5000         13.331        -0.0223         48.785       169.9405        51.9312       69.35258         0.6922         0.8085         1.0788        54.0783         1.8463       -83.1616      -6.618385      0.7734591       0.375735
