#------------------------------------------------------------------------------
# Created by    : vladimir.rabinovich
# Created on    : 09/19/2023 17:22:47
#------------------------------------------------------------------------------
~Version Information Section
VERS.           2.0     :   CWLS log ASCII Standard - VERSION 2.0
WRAP.           NO      :   One line per depth step
~Well Information Section
#MNEM       .UNIT                                         VALUE :DESCRIPTION
#------------------------------------------------------------------------------
STRT        .FT                                            1029 :START DEPTH
STOP        .FT                                            4870 :STOP DEPTH
STEP        .FT                                             0.5 :STEP      
NULL        .                                           -999.25 :NULL      
COMP        .                              CHAPARRAL ENERGY LLC :COMPANY   
WELL        .                                         ST TR 171 :WELL      
FLD         .                               MATAGORDA BAY SOUTH :FIELD     
LOC         .                                                   :LOCATION  
CNTY        .                                         MATAGORDA :LOCATION  
STAT        .                                             TEXAS :STATE     
CTRY        .                                     UNITED STATES :COUNTRY   
SRVC        .                                                   :SERVICE COMPANY
DATE        .                             9/13/2023 11:19:17 AM :LOG DATE  
API         .                                    42321309080000 :API NUMBER
UWI         .                                    42321309080000 :UNIQUE WELL ID
XCOORD      .                                  571019.162580029 :SURFACE X 
YCOORD      .                                  10362433.1969336 :SURFACE Y 
LAT         .                                        28.5138372 :LATITUDE  
LON         .                                       -96.3299832 :LONGITUDE 
ELEV        .FT                                              19 :ELEVATION VALUE
ELEV_TYPE   .                                                KB :ELEVATION REFERENCE TYPE
~Curve Information Section
#MNEM       .UNIT                                      API CODE :CURVE DESCRIPTION
#------------------------------------------------------------------------------
DEPT        .FT                                                 :DEPTH     
DT          .US/FT                                              :          
GUARD       .OHMM                                               :          
IND         .OHMM                                               :          
SP          .MV                                                 :          
SP_NORM     .MV                                                 :SP Normalized
VSH_SP      .V/V                                                :Volume of Shale from SP
~A        DEPTH             DT          GUARD            IND             SP        SP_NORM         VSH_SP
# ...
      3803.0000       127.4284         1.2528          1.283       -32.0748      0.4512329              1
      3803.5000       127.6225         1.2604         1.3208       -32.0651      0.4581337              1
      3804.0000       127.6833         1.2604         1.3208       -32.0582      0.4622345              1
      3804.5000       127.3429         1.2604         1.3208       -32.0499      0.4677353              1
      3805.0000       126.8517         1.2679         1.3208       -32.0416      0.4732399              1
      3805.5000       125.6211         1.2755         1.3585       -32.0321      0.4799385              1
      3806.0000       124.0145          1.283         1.3585        -32.025      0.4842415              1
      3806.5000       122.6777         1.2981         1.3585       -32.0167      0.4897423              1
      3807.0000       121.3965         1.3208         1.3962       -32.0084      0.4952431              1
      3807.5000       120.2525         1.3585         1.3962       -32.0001      0.5007477              1
      3808.0000       119.5787         1.3811         1.3962       -31.9918      0.5062466              1
      3808.5000       120.6962         1.4038         1.3962       -31.9835      0.5117474              1
      3809.0000       123.1681         1.4264         1.3962       -31.9752      0.5172501              1
      3809.5000       124.7255         1.4415         1.3585       -31.9661        0.52355              1
      3810.0000        125.419         1.4038         1.3585       -32.5656    -0.07875061              1
      3810.5000       124.7024         1.3208         1.3585       -32.5564    -0.07234573              1
      3811.0000       123.0347         1.3132         1.3585       -32.5481    -0.06684494              1
      3811.5000       121.1583         1.3057         1.3585       -32.5392    -0.06074142              1
      3812.0000       118.6827         1.3057         1.3585       -32.6323     -0.1566429              1
      3812.5000       116.5088         1.3057         1.3585       -33.1293     -0.6564407              1
      3813.0000       113.1173         1.3208         1.3962        -33.121     -0.6509361              1
      3813.5000       110.0167         1.3434         1.3962       -33.7183      -1.251038      0.9890853
      3814.0000       107.0383          1.366          1.434        -33.828      -1.363537       0.984194
      3814.5000       105.4334         1.3811         1.4717       -34.5816      -2.119934      0.9513072
      3815.0000       103.6147         1.4038         1.4717       -35.3353      -2.876434      0.9184159
      3815.5000       102.5863          1.434         1.5094       -37.3217      -4.865635      0.8319289
      3816.0000       102.9093          1.434         1.5094       -38.3237       -5.87043      0.7882422
      3816.5000       103.8582         1.4113          1.434       -40.8911      -8.440632      0.6764942
      3817.0000       104.8173         1.3434         1.3585       -43.4837      -11.03603       0.563651
      3817.5000       105.5337         1.2755          1.283       -45.7735      -13.32862      0.4639728
      3818.0000       105.9889         1.2151         1.1698        -46.979      -14.53693       0.411438
      3818.5000       105.2122         1.1538         1.0566        -45.142      -12.70272      0.4911861
      3819.0000       104.4092         1.1615         0.9057       -43.3229      -10.88642      0.5701556
      3819.5000       103.6138         1.1923         0.9057        -42.078      -9.644321      0.6241599
      3820.0000       103.0869         1.2453         0.8679        -40.546       -8.11512      0.6906469
      3820.5000       103.4045         1.2981         0.8679       -39.0143       -6.58622      0.7571209
      3821.0000        105.129         1.3057         0.8679       -37.2293       -4.80402      0.8346078
      3821.5000       107.2359         1.3132         0.9057       -36.5568      -4.134315      0.8637254
      3822.0000       110.0288         1.3208         0.9057       -35.0246      -2.604916      0.9302211
      3822.5000       113.2242         1.3208         0.9434       -33.8341       -1.41721      0.9818605
      3823.0000       116.4582         1.3132         0.9434       -33.5599      -1.145809      0.9936604
      3823.5000       119.9348         1.3283         0.9811       -32.9467     -0.5354118              1
      3824.0000       123.9845         1.2981         0.9811       -32.9384     -0.5299072              1
      3824.5000       127.5001         1.2679         1.0189       -32.9302     -0.5245056              1
      3825.0000       128.7839         1.2226         1.0189       -33.5269      -1.124008      0.9946083
      3825.5000       129.7169         1.2226         1.0566       -33.5196      -1.119503      0.9948042
      3826.0000       130.2933         1.2226         1.0566       -33.2915     -0.8942032              1
      3826.5000       131.0398         1.2226         1.0566        -32.897     -0.5025024              1
      3827.0000       131.5352         1.2151         1.0566       -32.8879     -0.4962006              1
      3827.5000       131.8698         1.2151         1.0566       -32.8804     -0.4915009              1
      3828.0000       132.2303         1.2075         1.0566       -32.8721     -0.4859962              1
      3828.5000       131.9721            1.2         1.0566       -32.8638     -0.4804955              1
      3829.0000       131.6678            1.2         1.0566       -32.8549     -0.4743958              1
      3829.5000       131.6713         1.1923         1.0189       -32.8472     -0.4694901              1
      3830.0000       131.4628         1.1923         1.0189       -32.8389     -0.4639931              1
      3830.5000       131.3706          1.192         1.0175       -32.8306     -0.4584923              1
      3831.0000       131.1921         1.1916         1.0157       -32.8219     -0.4525871              1
      3831.5000       131.0699         1.1912         0.9762        -32.814     -0.4474869              1
      3832.0000       131.2801         1.1909         0.9744       -32.8057     -0.4419861              1
      3832.5000       131.5362         1.1905         0.9726       -32.7974     -0.4364853              1
      3833.0000       131.7443         1.1902         0.9699       -32.7889     -0.4307823              1
      3833.5000       132.1296         1.1898         0.9681       -32.7808     -0.4254799              1
      3834.0000        132.312         1.1895         0.9663       -32.7725     -0.4199791              1
      3834.5000       131.5483         1.1891         0.9645       -32.7642     -0.4144783              1
      3835.0000       130.5938         1.1888         0.9627       -32.7559     -0.4089775              1
      3835.5000       129.1908         1.1882         0.9987       -32.7477     -0.4035759              1
      3836.0000        127.848         1.1879         0.9969       -32.7394     -0.3980751              1
      3836.5000       126.4991         1.1951         0.9951       -32.7295     -0.3909721              1
      3837.0000       125.6268         1.2177         0.9933       -32.7228     -0.3870735              1
      3837.5000       124.7337         1.2479         0.9915       -32.7145     -0.3791695              1
      3838.0000       124.0689         1.2706         0.9888       -32.7062     -0.3708687              1
      3838.5000       123.4437         1.3009         1.0247       -32.6965     -0.3611679              1
      3839.0000       123.1007          1.316         1.0606       -32.6896     -0.3542709              1
      3839.5000       122.7215         1.3311         1.0965       -32.6813     -0.3459702              1
      3840.0000       122.4371         1.3385         1.1325        -32.673     -0.3376694              1
      3840.5000       122.0755         1.3462         1.1321       -32.6635     -0.3281708              1
