#------------------------------------------------------------------------------
# Created by    : vladimir.rabinovich
# Created on    : 09/19/2023 17:19:21
#------------------------------------------------------------------------------
~Version Information Section
VERS.           2.0     :   CWLS log ASCII Standard - VERSION 2.0
WRAP.           NO      :   One line per depth step
~Well Information Section
#MNEM       .UNIT                                         VALUE :DESCRIPTION
#------------------------------------------------------------------------------
STRT        .FT                                             313 :START DEPTH
STOP        .FT                                           17011 :STOP DEPTH
STEP        .FT                                             0.5 :STEP      
NULL        .                                           -999.25 :NULL      
COMP        .                             MAGNOLIA PETROLEUM CO :COMPANY   
WELL        .                                      LETULLE UNIT :WELL      
FLD         .                                           WILDCAT :FIELD     
LOC         .                                                   :LOCATION  
CNTY        .                                         MATAGORDA :LOCATION  
STAT        .                                             TEXAS :STATE     
CTRY        .                                     UNITED STATES :COUNTRY   
SRVC        .                                                   :SERVICE COMPANY
DATE        .                             9/13/2023 11:18:46 AM :LOG DATE  
API         .                                    42321010770000 :API NUMBER
UWI         .                                    42321010770000 :UNIQUE WELL ID
XCOORD      .                                  733053.658917313 :SURFACE X 
YCOORD      .                                  10456928.2420536 :SURFACE Y 
LAT         .                                        28.7849393 :LATITUDE  
LON         .                                       -95.8329519 :LONGITUDE 
ELEV        .FT                                              38 :ELEVATION VALUE
ELEV_TYPE   .                                                KB :ELEVATION REFERENCE TYPE
~Curve Information Section
#MNEM       .UNIT                                      API CODE :CURVE DESCRIPTION
#------------------------------------------------------------------------------
DEPT        .FT                                                 :DEPTH     
AAM_16      .OHMM                                               :          
AM_16       .OHMM                                               :          
AM_64       .OHMM                                               :          
AO_18_8     .OHMM                                               :          
SP          .MV                                                 :          
SP_NORM     .MV                                                 :SP Normalized
VSH_SP      .V/V                                                :Volume of Shale from SP
~A        DEPTH         AAM_16          AM_16          AM_64        AO_18_8             SP        SP_NORM         VSH_SP
# ...
      8085.0000         0.4679         0.3595         0.3513         0.4464       -59.0558      -1.710121      0.9868496
      8085.5000         0.4714         0.3525         0.3514         0.4375       -59.0531       -1.72641      0.9865479
      8086.0000          0.475         0.3459         0.3515         0.4375       -58.7776      -1.469894      0.9912983
      8086.5000         0.4786          0.346         0.3516         0.4375       -58.7768      -1.488083      0.9909614
      8087.0000         0.4821         0.3462         0.3525         0.4375       -58.7758      -1.506069      0.9906284
      8087.5000         0.4857         0.3463         0.3657         0.4286       -58.7718      -1.521057      0.9903508
      8088.0000         0.4911         0.3464         0.3658         0.4286       -58.4977      -1.265945      0.9950751
      8088.5000         0.4929         0.3465         0.3659         0.4286       -58.4969       -1.28413      0.9947383
      8089.0000         0.4964         0.3467          0.366         0.4286       -58.4959       -1.30212      0.9944052
      8089.5000         0.4964         0.3468         0.3661         0.4286       -58.2186      -1.043808      0.9991887
      8090.0000         0.4982         0.3469         0.3662         0.4286       -58.2178      -1.061993       0.998852
      8090.5000         0.4946         0.3471         0.3663         0.4286       -58.2169      -1.080082       0.998517
      8091.0000         0.4964         0.3472         0.3665         0.4286       -57.9393     -0.8214684              1
      8091.5000         0.4982         0.3473         0.3666         0.4375       -57.9386      -0.839756              1
      8092.0000         0.4946         0.3475         0.3667         0.4464       -57.9378     -0.8579445              1
      8092.5000         0.4929         0.3476         0.3668         0.4554        -57.937      -0.876133              1
      8093.0000         0.4893         0.3477         0.3669         0.4643        -57.936     -0.8941193              1
      8093.5000         0.4857         0.3478          0.367         0.4732       -57.9353     -0.9124031              1
      8094.0000         0.4839         0.3479         0.3671         0.4732       -57.9345     -0.9305954              1
      8094.5000         0.4821         0.3481         0.3672         0.4821       -57.9337     -0.9487801              1
      8095.0000         0.4804         0.3482         0.3775         0.4821       -57.9327     -0.9667702              1
      8095.5000         0.4804         0.3483         0.3813         0.4821        -57.932      -0.985054              1
      8096.0000         0.4804         0.3485         0.3814         0.4821       -57.9312      -1.003239        0.99994
      8096.5000         0.4804         0.3486         0.3815         0.4821       -57.7812     -0.8722305              1
      8097.0000         0.4821         0.3487         0.3816         0.4821       -57.6527     -0.7627144              1
      8097.5000         0.4804         0.3488         0.3818         0.4732       -57.6639     -0.7929039              1
      8098.0000         0.4804          0.349         0.3819         0.4732       -57.9278       -1.07579      0.9985965
      8098.5000         0.4839         0.3491          0.382         0.4732        -57.927      -1.093979      0.9982597
      8099.0000         0.4875         0.3492         0.3821         0.4732        -57.926      -1.111965      0.9979266
      8099.5000         0.4893         0.3494         0.3822         0.4643       -57.9253      -1.130253      0.9975879
      8100.0000         0.4911         0.3495         0.3823         0.4643       -57.9245      -1.148441      0.9972511
      8100.5000         0.4929         0.3496         0.3824         0.4643       -58.0762      -1.319126      0.9940903
      8101.0000         0.4946         0.3498         0.3825         0.4554       -58.1995      -1.461418      0.9914552
      8101.5000         0.4964         0.3637         0.3826         0.4554       -58.1986      -1.479504      0.9911203
      8102.0000         0.4964         0.3639         0.3828         0.4464       -58.1978      -1.497688      0.9907836
      8102.5000         0.4982          0.364         0.3829         0.4375        -58.197      -1.515877      0.9904467
      8103.0000         0.4964         0.3641          0.383         0.4375       -57.9194      -1.257263      0.9952359
      8103.5000         0.4964         0.3643         0.3831         0.4286       -57.9187      -1.275555      0.9948971
      8104.0000         0.4946         0.3644         0.3832         0.4196       -57.8314      -1.207241      0.9961622
      8104.5000         0.4911         0.3645         0.3833         0.4196       -57.6404      -1.035225      0.9993477
      8105.0000         0.4875         0.3646         0.3773         0.4107       -57.6395      -1.053314      0.9990127
      8105.5000         0.4821         0.3648         0.3697         0.4107       -57.3621      -0.794899              1
      8106.0000         0.4786         0.3649         0.3698         0.4107       -57.2734     -0.7251892              1
      8106.5000         0.4768          0.365         0.3699         0.4018       -56.9263     -0.3970757              1
      8107.0000          0.475         0.3652           0.37         0.4018       -56.8063     -0.2960663              1
      8107.5000          0.475         0.3653         0.3563         0.4018       -56.8056     -0.3143501              1
      8108.0000         0.4786         0.3654         0.3564         0.4018       -56.8942      -0.421936              1
      8108.5000         0.4821         0.3655         0.3565         0.3929       -57.0805     -0.6272278              1
      8109.0000         0.4857         0.3657         0.3566         0.4018       -57.3562     -0.9219131              1
      8109.5000         0.4893         0.3658         0.3567         0.4018       -57.3555     -0.9402008              1
      8110.0000         0.4911         0.3659         0.3568         0.4107       -57.2633     -0.8669891              1
      8110.5000         0.4929         0.3661         0.3569         0.4196       -57.0772     -0.6998749              1
      8111.0000         0.4964         0.3662         0.3486         0.4196       -56.7996     -0.4412613              1
      8111.5000         0.4964         0.3668         0.3433         0.4286       -56.1757      0.1636505              1
      8112.0000         0.4946         0.3803         0.3434         0.4286        -55.229       1.091362              1
      8112.5000         0.4911         0.3804         0.3435         0.4286       -54.8812       1.420177              1
      8113.0000         0.4893         0.3846         0.3436         0.4375       -54.9235       1.358887              1
      8113.5000         0.4857         0.3946         0.3438         0.4375       -54.9659       1.297501              1
      8114.0000         0.4804         0.3947         0.3439         0.4375       -55.0083       1.236115              1
      8114.5000         0.4768         0.3948          0.344         0.4375       -55.0506       1.174828              1
      8115.0000         0.4732          0.395         0.3441         0.4464        -55.093       1.113441              1
      8115.5000         0.4714         0.3951         0.3442         0.4464       -55.1193        1.06815              1
      8116.0000         0.4679         0.3952         0.3443         0.4464       -55.5017      0.6667633              1
      8116.5000         0.4661         0.3948         0.3444         0.4554       -56.2215    -0.07202148              1
      8117.0000         0.4643         0.3735         0.3445         0.4554       -56.5982     -0.4677124              1
      8117.5000         0.4625         0.3465         0.3447         0.4554       -57.1656      -1.054096      0.9989982
      8118.0000         0.4607         0.3256         0.3448         0.4554       -57.5079      -1.415386      0.9923077
