#------------------------------------------------------------------------------
# Created by    : vladimir.rabinovich
# Created on    : 09/19/2023 17:21:29
#------------------------------------------------------------------------------
~Version Information Section
VERS.           2.0     :   CWLS log ASCII Standard - VERSION 2.0
WRAP.           NO      :   One line per depth step
~Well Information Section
#MNEM       .UNIT                                         VALUE :DESCRIPTION
#------------------------------------------------------------------------------
STRT        .FT                                            1500 :START DEPTH
STOP        .FT                                            6885 :STOP DEPTH
STEP        .FT                                             0.5 :STEP      
NULL        .                                           -999.25 :NULL      
COMP        .                        HILLHOUSE OPERATING CO LLC :COMPANY   
WELL        .                                  LEWIS J C FAMILY :WELL      
FLD         .                                    LIVE OAK BAYOU :FIELD     
LOC         .                                                   :LOCATION  
CNTY        .                                         MATAGORDA :LOCATION  
STAT        .                                             TEXAS :STATE     
CTRY        .                                     UNITED STATES :COUNTRY   
SRVC        .                                                   :SERVICE COMPANY
DATE        .                             9/13/2023 11:19:17 AM :LOG DATE  
API         .                                    42321308450000 :API NUMBER
UWI         .                                    42321308450000 :UNIQUE WELL ID
XCOORD      .                                  757138.788685477 :SURFACE X 
YCOORD      .                                  10457801.5308193 :SURFACE Y 
LAT         .                                        28.7888954 :LATITUDE  
LON         .                                       -95.7578897 :LONGITUDE 
ELEV        .FT                                              17 :ELEVATION VALUE
ELEV_TYPE   .                                                KB :ELEVATION REFERENCE TYPE
~Curve Information Section
#MNEM       .UNIT                                      API CODE :CURVE DESCRIPTION
#------------------------------------------------------------------------------
DEPT        .FT                                                 :DEPTH     
CALI        .IN                                                 :          
DCOR        .G/C3                                               :          
DPOR        .%                                                  :          
DT          .US/F                                               :          
GR          .GAPI                                               :          
GR_NORM     .GAPI                                               :GammaRay Normalized
ILD         .OHMM                                               :          
ILM         .OHMM                                               :          
LL8         .OHMM                                               :          
NPOR        .%                                                  :          
RHOB        .G/C3                                               :          
SP          .MV                                                 :          
SP_NORM     .MV                                                 :SP Normalized
VSH_GR      .V/V                                                :Volume of Shale from GR
VSH_SP      .V/V                                                :Volume of Shale from SP
~A        DEPTH           CALI           DCOR           DPOR             DT             GR        GR_NORM            ILD            ILM            LL8           NPOR           RHOB             SP        SP_NORM         VSH_GR         VSH_SP
# ...
      5444.0000         6.8085         0.0137        34.6528       111.3284        49.2596       46.78466         0.2113         0.2502         0.5993        39.6399         2.0709      -102.0927      -51.09194      0.2932907     0.01780506
      5444.5000         6.8283         0.0161        35.5478       112.7167        50.1481       49.28125         0.2132         0.2491         0.5804         39.699         2.0634      -102.0874      -51.09549      0.3464096     0.01773557
      5445.0000         6.7888         0.0171         36.025       113.3607         51.234       52.33281         0.2142          0.248         0.5346        39.4594          2.053      -101.4883      -50.50522      0.4113364     0.02930937
      5445.5000         6.7888         0.0147        36.2632       113.6077        51.4314       52.88658         0.2132         0.2514         0.5014        39.2202         2.0511      -101.0905      -50.11626      0.4231187     0.03693599
      5446.0000         6.7888         0.0127        35.7846       113.0608        52.4186        55.6606         0.2142         0.2584         0.4969         37.248         2.0555      -100.6908      -49.72541      0.4821405     0.04459987
      5446.5000         6.7888         0.0068        35.4256       112.0176        53.8006       59.54455         0.2152         0.2631         0.5545        36.9785         2.0635      -100.4885      -49.53195      0.5647776     0.04839318
      5447.0000         6.7888         0.0043        35.1859       111.4508        52.9121       57.04564         0.2162         0.2643         0.5858         36.709         2.0679      -100.4837      -49.53599      0.5116093     0.04831396
      5447.5000         6.7888        -0.0016         35.245       110.9728        50.0994       49.13739         0.2182         0.2631         0.6104         36.529          2.067      -100.4783      -49.53942      0.3433487     0.04824657
      5448.0000         6.7888        -0.0016        35.3637       111.0516        48.2725       44.00043         0.2253         0.2631          0.616        36.7374          2.065      -100.4735      -49.54347      0.2340516     0.04816728
      5448.5000         6.7888        -0.0016        35.3033        111.547        50.0994       49.13507         0.2253         0.2619         0.6419        37.2145         2.0665      -100.6661       -49.7449      0.3432993     0.04421758
      5449.0000         6.7888        -0.0016        35.0039       111.9837        52.8134       56.76354         0.2222         0.2631         0.6538        38.1991         2.0714      -100.8586      -49.94624      0.5056072     0.04026981
      5449.5000         6.7888        -0.0016        34.8837       112.4204        53.6032       58.98265         0.2182         0.2572         0.6782        38.2585         2.0734      -101.0512      -50.14769      0.5528224     0.03631988
      5450.0000         6.7888        -0.0051        34.8233       112.4368        53.5044       58.70375         0.2103          0.256         0.6875         38.198         2.0764      -101.2438      -50.34912      0.5468882     0.03237018
      5450.5000         6.7714        -0.0055        34.5271       112.4355        51.5322       53.15834         0.2086         0.2517         0.6906        37.8422         2.0788      -101.8693      -50.98346      0.4289009     0.01993209
      5451.0000         6.7692        -0.0036        33.9872       112.1585        49.9064        48.5867         0.2182         0.2549         0.5913        37.4515         2.0858      -101.6685      -50.79151       0.331632     0.02369593
      5451.5000         6.7693         0.0009        33.2109       110.8185        47.5397       41.93224         0.2402         0.2681         0.4881        37.3022         2.0997      -101.0714      -50.20325      0.1900476     0.03523045
      5452.0000         6.7694         0.0049        32.5541       108.9822        46.5546       39.16175         0.2681         0.2965         0.4793        37.3023         2.1151      -100.0794      -49.22008      0.1311012     0.05450821
      5452.5000         6.7892        -0.0031        31.8376       107.6718        46.5569       39.16705         0.3006         0.3325         0.5448        37.5711         2.1245         -97.27      -46.41952      0.1312138      0.1094211
      5453.0000          6.809        -0.0065        30.5836       105.4883        47.9416        43.0586         0.3295         0.3814         0.6572        37.2725         2.1488        -94.896      -44.05437      0.2140128      0.1557967
      5453.5000         6.8684         0.0039        28.2547       100.6947        48.6839       45.14419         0.3885         0.4355         0.8414        34.3463         2.1834       -93.1528         -42.32       0.258387      0.1898039
      5454.0000          6.908         0.0148        25.8665        99.1265        47.5512       41.95877          0.418         0.4928         1.1173        31.0619         2.2211       -94.5314      -43.70745      0.1906121      0.1625991
      5454.5000         6.9207         0.0232        26.5834       100.9924        46.5659       39.18773         0.4644         0.5112         1.1174        30.4053         2.2018       -96.8558      -46.04068      0.1316538      0.1168494
      5455.0000         6.9279         0.0074        29.1513       104.7637         45.778       36.97162         0.4581         0.4974         1.0922         30.495         2.1686       -98.8248      -48.01852     0.08450261     0.07806823
      5455.5000          6.928        -0.0075        31.4805       109.1303        45.3852       35.86621         0.4478         0.4796         1.1592        31.8985          2.129       -99.2148      -48.41736     0.06098329      0.0702478
      5456.0000         6.9479        -0.0139        31.6301       109.3783         46.178       38.09379         0.4357         0.4438          1.197        34.3171         2.1255         -99.21       -48.4214      0.1083785     0.07016859
      5456.5000          6.948        -0.0169        30.7047       108.8819        47.3656       41.43122         0.4163         0.4259         0.9395        34.9741         2.1379       -98.8102      -48.03045      0.1793876     0.07783441
      5457.0000         6.9678        -0.0174         29.869       108.0383         48.603       44.90867         0.4051          0.424         0.6948        34.8846         2.1587       -95.2516      -44.48069      0.2533759      0.1474375
      5457.5000         7.0074        -0.0169        28.3168       106.7481        48.6042       44.91085         0.4419         0.4521         0.6031        34.2877         2.1855       -89.9156      -39.15353      0.2534223      0.2518916
      5458.0000          7.045        -0.0005        26.0482       104.0191         49.002         46.028         0.4733         0.5187         0.6639        32.4369         2.2469       -84.3827      -33.62946      0.2771914      0.3602067
      5458.5000          7.144         0.0074        20.8541        96.3426        50.9806        51.5891         0.5187         0.6004          0.902        29.9294         2.3147       -81.2189      -30.47451      0.3955128      0.4220685
      5459.0000         7.2033         0.0297        17.0937        92.2735        52.5639       56.03893         0.5789         0.7015          1.139        25.5116         2.3648       -79.6346      -28.89904      0.4901899        0.45296
      5459.5000         7.3438         0.0258        17.1536        91.3798        54.7403       62.15608         0.6764         0.8309         1.1978        24.7059         2.3623        -77.653      -26.92628      0.6203421      0.4916416
      5460.0000         7.4229          0.005        17.6019        91.1317        55.2367        63.5504         0.8085         0.9189         1.4515        24.8854         2.3569       -76.4655      -25.74762      0.6500084      0.5147525
      5460.5000         7.4626         0.0173        14.4384        80.6124        53.5107       58.69712         0.8941         0.9842          2.151        23.9007         2.4252       -74.2889      -23.57986      0.5467471      0.5572575
