#------------------------------------------------------------------------------
# Created by    : vladimir.rabinovich
# Created on    : 09/19/2023 17:19:21
#------------------------------------------------------------------------------
~Version Information Section
VERS.           2.0     :   CWLS log ASCII Standard - VERSION 2.0
WRAP.           NO      :   One line per depth step
~Well Information Section
#MNEM       .UNIT                                         VALUE :DESCRIPTION
#------------------------------------------------------------------------------
STRT        .FT                                             313 :START DEPTH
STOP        .FT                                           17011 :STOP DEPTH
STEP        .FT                                             0.5 :STEP      
NULL        .                                           -999.25 :NULL      
COMP        .                             MAGNOLIA PETROLEUM CO :COMPANY   
WELL        .                                      LETULLE UNIT :WELL      
FLD         .                                           WILDCAT :FIELD     
LOC         .                                                   :LOCATION  
CNTY        .                                         MATAGORDA :LOCATION  
STAT        .                                             TEXAS :STATE     
CTRY        .                                     UNITED STATES :COUNTRY   
SRVC        .                                                   :SERVICE COMPANY
DATE        .                             9/13/2023 11:18:46 AM :LOG DATE  
API         .                                    42321010770000 :API NUMBER
UWI         .                                    42321010770000 :UNIQUE WELL ID
XCOORD      .                                  733053.658917313 :SURFACE X 
YCOORD      .                                  10456928.2420536 :SURFACE Y 
LAT         .                                        28.7849393 :LATITUDE  
LON         .                                       -95.8329519 :LONGITUDE 
ELEV        .FT                                              38 :ELEVATION VALUE
ELEV_TYPE   .                                                KB :ELEVATION REFERENCE TYPE
~Curve Information Section
#MNEM       .UNIT                                      API CODE :CURVE DESCRIPTION
#------------------------------------------------------------------------------
DEPT        .FT                                                 :DEPTH     
AAM_16      .OHMM                                               :          
AM_16       .OHMM                                               :          
AM_64       .OHMM                                               :          
AO_18_8     .OHMM                                               :          
SP          .MV                                                 :          
SP_NORM     .MV                                                 :SP Normalized
VSH_SP      .V/V                                                :Volume of Shale from SP
~A        DEPTH         AAM_16          AM_16          AM_64        AO_18_8             SP        SP_NORM         VSH_SP
# ...
      5874.0000         1.8589         1.4739         0.9123         0.8482       -70.5044      -3.499123       0.957642
      5874.5000         1.9268         1.5344         0.9816         0.9018       -71.0234      -4.022362      0.9487735
      5875.0000         1.9268         1.5867         1.0249         0.9554       -71.0224      -4.025597      0.9487187
      5875.5000         1.8982         1.6303         1.0595         1.0357       -69.8108      -2.818237      0.9691824
      5876.0000         1.8089         1.6823         1.1131         1.0625       -68.9804      -1.992073      0.9831852
      5876.5000         1.7189         1.6805         1.1477         1.0625       -68.4605       -1.47641      0.9919252
      5877.0000         1.6288         1.6632         1.1908         1.0536       -67.6996     -0.7197495              1
      5877.5000         1.5838         1.6459         1.2359         1.0268       -68.1443      -1.168686      0.9971409
      5878.0000         1.4919         1.5995         1.2705         1.0089       -68.6376      -1.666229       0.988708
      5878.5000         1.4018         1.4823         1.2963         0.9732        -69.131      -2.163857      0.9802736
      5879.0000         1.3109         1.2436         1.3153         0.8839       -69.6243        -2.6614      0.9718407
      5879.5000           1.22         1.1422         1.3291         0.8036       -70.1177      -3.159035      0.9634062
      5880.0000          1.173         1.0866          1.329         0.7143       -70.7761      -3.821678       0.952175
      5880.5000          1.173         1.0542          1.329         0.6339       -73.9043      -6.954109      0.8990829
      5881.0000          1.173         1.0313         1.3289         0.5536       -77.6515      -10.70554      0.8354993
      5881.5000          1.173         1.0314         1.3044         0.4643       -78.7573      -11.81559      0.8166849
      5882.0000         1.2018         1.0315         1.2558         0.3839       -74.0379      -7.100426      0.8966029
      5882.5000            1.2         1.0506          1.223         0.2946       -72.8448      -5.911568      0.9167531
      5883.0000         1.2291         1.0794         1.2179           0.25       -73.2221      -6.293098      0.9102865
      5883.5000         1.2527         1.0969          1.216         0.2143       -73.4981      -6.573341      0.9055366
      5884.0000           1.28         1.1289         1.2039         0.2054       -73.4972      -6.576675      0.9054801
      5884.5000         1.3073         1.1624         1.2039         0.1964       -72.9698      -6.053513      0.9143472
      5885.0000         1.3345         1.1909           1.19         0.1964       -71.5591      -4.647049      0.9381856
      5885.5000         1.3618         1.2282          1.188         0.1964       -66.9997    -0.09188843              1
      5886.0000         1.3873          1.268          1.176         0.2232       -64.1518        2.75177              1
      5886.5000         1.4324         1.2906         1.1671         0.2857       -63.8111       3.088238              1
      5887.0000         1.4631         1.3121          1.162         0.3393       -64.0869       2.808197              1
      5887.5000         1.4595         1.3331         1.1481         0.4018       -64.3628       2.528061              1
      5888.0000         1.4505         1.3515         1.1427         0.4643       -64.4693       2.417328              1
      5888.5000         1.4432         1.3688         1.1253         0.5536       -64.6377       2.244682              1
      5889.0000         1.4414         1.3794         1.1203         0.5714       -64.6368       2.241348              1
      5889.5000         1.3836         1.3899         1.1157         0.6964        -64.636       2.237907              1
      5890.0000         1.4432         1.3935         1.1107         0.7588       -64.6352       2.234474              1
      5890.5000         1.4793         1.4074         1.1057         0.8306       -64.6344       2.231033              1
      5891.0000         1.4793         1.4075         1.1007         0.9114       -64.6335       2.227699              1
      5891.5000         1.4757         1.4076         1.0957         1.0192       -64.9485       1.908463              1
      5892.0000         1.4631         1.4077         1.0977          1.091       -65.2935       1.559219              1
      5892.5000          1.436          1.404         1.1179         1.1896       -65.4609       1.387589              1
      5893.0000          1.436          1.394         1.1475         1.2526       -65.7366       1.107643              1
      5893.5000         1.4577         1.3941         1.1613         1.3244       -65.7755       1.064514              1
      5894.0000         1.4739         1.3803         1.1667         1.3963       -65.9026      0.9331665              1
      5894.5000         1.4991         1.3804          1.184          1.477       -65.7342       1.097336              1
      5895.0000         1.5081         1.3729         1.2027         1.5848       -65.7333       1.094002              1
      5895.5000         1.4919         1.3667          1.201         1.6299       -65.3755       1.447556              1
      5896.0000         1.4613         1.3668         1.1991         1.6125       -64.7924       2.026428              1
      5896.5000         1.4288         1.3625         1.1972         1.5593       -64.4455        2.36908              1
      5897.0000         1.3982         1.3531         1.1953         1.4973       -64.3469       2.463448              1
      5897.5000         1.3657         1.3393         1.1935         1.4352        -64.387       2.419106              1
      5898.0000          1.335         1.3255         1.1916         1.3732        -64.732        2.06987              1
      5898.5000         1.3026          1.321         1.1897         1.3201       -65.2564       1.541229              1
      5899.0000         1.2828         1.3118         1.1878          1.258       -65.7267       1.066696              1
      5899.5000         1.2828         1.3119         1.1859          1.196       -66.3207      0.4684601              1
      5900.0000         1.2829         1.2981         1.1841         1.1429        -66.555      0.2299194              1
      5900.5000         1.2937         1.2934         1.1822         1.1071       -66.5541      0.2265854              1
      5901.0000         1.3171         1.2761         1.1803         1.0536       -66.5532      0.2232437              1
      5901.5000         1.3405         1.2706         1.1784         0.9732       -66.2339      0.5383072              1
      5902.0000          1.364         1.2677         1.1765         0.9554       -65.9984      0.7695694              1
      5902.5000         1.3784          1.238         1.1747         0.9464       -65.8171      0.9466324              1
      5903.0000         1.3586         1.2207         1.1728         0.9286         -65.72       1.039497              1
      5903.5000         1.3207         1.2016         1.1709         0.9196       -65.6768       1.078453              1
      5904.0000         1.2829         1.2017          1.169         0.9196       -65.3302       1.420822              1
      5904.5000         1.2829         1.1965         1.1671         0.9196       -64.8023       1.944481              1
      5905.0000         1.2847          1.188         1.1653         0.9196       -63.7803       2.962246              1
      5905.5000         1.2901         1.1604         1.1634         0.9375       -63.1834       3.554905              1
      5906.0000         1.3009         1.1585         1.1615         0.9375       -62.8365       3.897572              1
      5906.5000         1.3189         1.1467         1.1596         0.9375       -62.4898       4.240036              1
      5907.0000         1.3279         1.1467         1.1577              1       -62.3939       4.331692              1
