#------------------------------------------------------------------------------
# Created by    : vladimir.rabinovich
# Created on    : 09/19/2023 17:19:21
#------------------------------------------------------------------------------
~Version Information Section
VERS.           2.0     :   CWLS log ASCII Standard - VERSION 2.0
WRAP.           NO      :   One line per depth step
~Well Information Section
#MNEM       .UNIT                                         VALUE :DESCRIPTION
#------------------------------------------------------------------------------
STRT        .FT                                             313 :START DEPTH
STOP        .FT                                           17011 :STOP DEPTH
STEP        .FT                                             0.5 :STEP      
NULL        .                                           -999.25 :NULL      
COMP        .                             MAGNOLIA PETROLEUM CO :COMPANY   
WELL        .                                      LETULLE UNIT :WELL      
FLD         .                                           WILDCAT :FIELD     
LOC         .                                                   :LOCATION  
CNTY        .                                         MATAGORDA :LOCATION  
STAT        .                                             TEXAS :STATE     
CTRY        .                                     UNITED STATES :COUNTRY   
SRVC        .                                                   :SERVICE COMPANY
DATE        .                             9/13/2023 11:18:46 AM :LOG DATE  
API         .                                    42321010770000 :API NUMBER
UWI         .                                    42321010770000 :UNIQUE WELL ID
XCOORD      .                                  733053.658917313 :SURFACE X 
YCOORD      .                                  10456928.2420536 :SURFACE Y 
LAT         .                                        28.7849393 :LATITUDE  
LON         .                                       -95.8329519 :LONGITUDE 
ELEV        .FT                                              38 :ELEVATION VALUE
ELEV_TYPE   .                                                KB :ELEVATION REFERENCE TYPE
~Curve Information Section
#MNEM       .UNIT                                      API CODE :CURVE DESCRIPTION
#------------------------------------------------------------------------------
DEPT        .FT                                                 :DEPTH     
AAM_16      .OHMM                                               :          
AM_16       .OHMM                                               :          
AM_64       .OHMM                                               :          
AO_18_8     .OHMM                                               :          
SP          .MV                                                 :          
SP_NORM     .MV                                                 :SP Normalized
VSH_SP      .V/V                                                :Volume of Shale from SP
~A        DEPTH         AAM_16          AM_16          AM_64        AO_18_8             SP        SP_NORM         VSH_SP
# ...
      6979.5000          0.532         0.4307          0.415         0.6423       -62.8548       1.342731              1
      6980.0000         0.5321         0.4308          0.415         0.6518         -62.82       1.377533              1
      6980.5000         0.5286         0.4309         0.4193         0.6607       -62.4736       1.723934              1
      6981.0000          0.525         0.4246         0.4289         0.6607       -62.4665       1.731033              1
      6981.5000         0.5196         0.4172         0.4289         0.6696       -63.1247       1.072834              1
      6982.0000         0.5161         0.4173         0.4289         0.6786       -63.4298      0.7677345              1
      6982.5000         0.5143         0.4174         0.4289         0.6875       -63.7729       0.424633              1
      6983.0000         0.5125         0.4174         0.4289         0.6964       -64.2827    -0.08516693              1
      6983.5000         0.5107         0.4208          0.429         0.6964       -64.7778     -0.5802689              1
      6984.0000         0.5089         0.4315          0.429         0.7054       -65.3297      -1.132164      0.9975525
      6984.5000         0.5107         0.4316          0.429         0.6964       -65.4228      -1.225266      0.9958284
      6985.0000         0.5125         0.4317          0.429         0.6964       -65.6029      -1.405365      0.9924932
      6985.5000         0.5179         0.4317          0.429         0.6875        -65.601      -1.403465      0.9925284
      6986.0000         0.5232         0.4318         0.4362         0.6875       -65.5763      -1.378769      0.9929858
      6986.5000         0.5286         0.4458         0.4429         0.6696       -65.3212      -1.123665      0.9977099
      6987.0000         0.5321         0.4459         0.4429         0.6607       -65.1597     -0.9621658              1
      6987.5000         0.5357          0.446         0.4429         0.6339       -64.4878     -0.2902679              1
      6988.0000         0.5411          0.446         0.4429         0.6161       -64.1895    0.008033752              1
      6988.5000         0.5446         0.4461         0.4429         0.5982       -63.7551      0.4424324              1
      6989.0000           0.55         0.4538         0.4503         0.5714         -63.22      0.9775314              1
      6989.5000         0.5536         0.4602         0.4568         0.5536        -63.098       1.099533              1
      6990.0000         0.5589         0.4603         0.4568         0.5356       -63.1302       1.067333              1
      6990.5000         0.5625         0.4647         0.4568         0.5271       -63.7331      0.4644318              1
      6991.0000         0.5679         0.4743         0.4569         0.5186       -64.0764      0.1211319              1
      6991.5000         0.5696         0.4883         0.4569         0.5102        -64.751     -0.5534668              1
      6992.0000         0.5714         0.4883         0.4569         0.4927       -65.0263     -0.8287659              1
      6992.5000         0.5714         0.4884         0.4569         0.4843       -65.0246     -0.8270645              1
      6993.0000         0.5714         0.4885         0.4569         0.4758       -65.1729     -0.9753647              1
      6993.5000         0.5714         0.4886         0.4569         0.4762        -65.021     -0.8234711              1
      6994.0000         0.5714         0.4887         0.4569         0.4678       -65.0196     -0.8220673              1
      6994.5000         0.5625         0.4888          0.457         0.4682       -65.0179     -0.8203659              1
      6995.0000         0.5625         0.4889          0.457         0.4686       -64.8697     -0.6721649              1
      6995.5000         0.5589         0.4889          0.457         0.4691       -64.7377     -0.5401688              1
      6996.0000         0.5518          0.489         0.4431         0.4695       -64.4597     -0.2621689              1
      6996.5000         0.5429         0.4838         0.4432           0.47        -64.383     -0.1854706              1
      6997.0000         0.5339         0.4665         0.4361         0.4615       -64.0363       0.161232              1
      6997.5000         0.5268         0.4615         0.4293          0.462       -63.6245      0.5730324              1
      6998.0000         0.5179         0.4596         0.4155         0.4624       -63.0608       1.136734              1
      6998.5000         0.5089         0.4478          0.412         0.4628       -61.9516       2.245934              1
      6999.0000            0.5         0.4388         0.3947         0.4633       -60.5702       3.627331              1
      6999.5000            0.5         0.4341         0.3878         0.4637       -59.4684       4.729134              1
      7000.0000            0.5          0.418          0.374         0.4643       -59.4671       4.730434              1
      7000.5000            0.5         0.4066         0.3625         0.4732       -59.4654       4.732132              1
      7001.0000         0.5001         0.3972         0.3602         0.4732       -60.1469       4.050632              1
      7001.5000          0.502         0.3929         0.3463         0.4732       -62.6897       1.507832              1
      7002.0000         0.5039          0.393         0.3464         0.4732       -66.0994      -1.901871      0.9832987
      7002.5000         0.5129         0.3931         0.3464         0.4732        -66.716      -2.518471      0.9718802
      7003.0000         0.5148         0.3834         0.3325         0.4732        -66.926       -2.72847      0.9679913
      7003.5000         0.5149         0.3794         0.3326         0.4732       -66.9243      -2.726768      0.9680228
      7004.0000         0.5167         0.3794         0.3326         0.4821       -66.9226      -2.725067      0.9680543
      7004.5000         0.5186         0.3795         0.3326         0.4821       -66.5827       -2.38517      0.9743487
      7005.0000         0.5223         0.3796         0.3326         0.4821        -66.236      -2.038467      0.9807691
      7005.5000         0.5259         0.3797         0.3465         0.4821       -65.6908      -1.493271      0.9908653
      7006.0000         0.5278         0.3798         0.3465         0.4821       -65.2562       -1.05867      0.9989135
      7006.5000         0.5333         0.3799         0.3465         0.4821       -64.6427     -0.4451675              1
      7007.0000         0.5387           0.38         0.3531         0.4821       -64.2965    -0.09896851              1
      7007.5000         0.5442           0.38         0.3704         0.4911       -64.1447     0.05283356              1
      7008.0000         0.5496         0.3801         0.3742         0.4911       -63.8664       0.331131              1
      7008.5000         0.5568         0.3874         0.3773         0.4911       -63.9199      0.2776337              1
      7009.0000         0.5658         0.3942         0.3881         0.4911        -64.263    -0.06546783              1
      7009.5000         0.5695         0.3943         0.3981         0.4911       -64.4147     -0.2171707              1
      7010.0000         0.5714         0.3963          0.402         0.4911       -64.6896     -0.4920654              1
      7010.5000         0.5714         0.4051         0.4158         0.4911       -64.9648     -0.7672653              1
      7011.0000         0.5679         0.4084         0.4223         0.4821       -65.0429     -0.8453674              1
      7011.5000         0.5679          0.423         0.4297         0.4821       -65.2381      -1.040565      0.9992488
      7012.0000         0.5696         0.4363         0.4297         0.4821       -65.2361      -1.038567      0.9992858
      7012.5000         0.5679         0.4364         0.4436         0.4821       -65.2345      -1.036964      0.9993155
