#------------------------------------------------------------------------------
# Created by    : vladimir.rabinovich
# Created on    : 09/19/2023 17:19:21
#------------------------------------------------------------------------------
~Version Information Section
VERS.           2.0     :   CWLS log ASCII Standard - VERSION 2.0
WRAP.           NO      :   One line per depth step
~Well Information Section
#MNEM       .UNIT                                         VALUE :DESCRIPTION
#------------------------------------------------------------------------------
STRT        .FT                                             313 :START DEPTH
STOP        .FT                                           17011 :STOP DEPTH
STEP        .FT                                             0.5 :STEP      
NULL        .                                           -999.25 :NULL      
COMP        .                             MAGNOLIA PETROLEUM CO :COMPANY   
WELL        .                                      LETULLE UNIT :WELL      
FLD         .                                           WILDCAT :FIELD     
LOC         .                                                   :LOCATION  
CNTY        .                                         MATAGORDA :LOCATION  
STAT        .                                             TEXAS :STATE     
CTRY        .                                     UNITED STATES :COUNTRY   
SRVC        .                                                   :SERVICE COMPANY
DATE        .                             9/13/2023 11:18:46 AM :LOG DATE  
API         .                                    42321010770000 :API NUMBER
UWI         .                                    42321010770000 :UNIQUE WELL ID
XCOORD      .                                  733053.658917313 :SURFACE X 
YCOORD      .                                  10456928.2420536 :SURFACE Y 
LAT         .                                        28.7849393 :LATITUDE  
LON         .                                       -95.8329519 :LONGITUDE 
ELEV        .FT                                              38 :ELEVATION VALUE
ELEV_TYPE   .                                                KB :ELEVATION REFERENCE TYPE
~Curve Information Section
#MNEM       .UNIT                                      API CODE :CURVE DESCRIPTION
#------------------------------------------------------------------------------
DEPT        .FT                                                 :DEPTH     
AAM_16      .OHMM                                               :          
AM_16       .OHMM                                               :          
AM_64       .OHMM                                               :          
AO_18_8     .OHMM                                               :          
SP          .MV                                                 :          
SP_NORM     .MV                                                 :SP Normalized
VSH_SP      .V/V                                                :Volume of Shale from SP
~A        DEPTH         AAM_16          AM_16          AM_64        AO_18_8             SP        SP_NORM         VSH_SP
# ...
      4768.5000         1.2144          1.058         0.2612         2.0179       -79.7761      -6.988838      0.9034058
      4769.0000         1.1676         1.0379         0.2611         1.8482       -80.0521      -7.204742      0.8999235
      4769.5000         1.1207          1.003         0.2472         1.6607       -80.0512      -7.143753      0.9009072
      4770.0000         1.0757         0.9578         0.2472         1.4821       -79.8676      -6.900055      0.9048378
      4770.5000         1.0288         0.9194         0.2471         1.3125       -78.6663      -5.638664      0.9251828
      4771.0000         0.9593         0.8807         0.2471         1.1696        -75.436      -2.348267      0.9782538
      4771.5000          0.915         0.8357          0.247          1.125       -74.0489     -0.9010773              1
      4772.0000          0.869         0.8088         0.2469         1.1071       -72.6604      0.5475159              1
      4772.5000          0.823         0.7943         0.2365         1.0893       -71.7474       1.520607              1
      4773.0000          0.823         0.7769         0.2191         1.0804         -71.47       1.858101              1
      4773.5000         0.8726         0.7674         0.2016         1.0714       -71.4691        1.91909              1
      4774.0000         0.9239         0.7536         0.1771         1.0446        -71.277       2.171288              1
      4774.5000         0.9735         0.7386         0.1636         1.0089       -70.9142       2.594177              1
      4775.0000         0.9947          0.726         0.1642         0.9732       -70.9134       2.655075              1
      4775.5000         0.9947         0.7261         0.1912         0.9196       -70.9126       2.715965              1
      4776.0000         0.9894         0.7261         0.1985         0.8929       -71.1075       2.581161              1
      4776.5000          0.977         0.7418         0.2326         0.8661       -71.1875       2.561249              1
      4777.0000         0.9646         0.7594         0.2477         0.8482       -71.2464       2.562447              1
      4777.5000         0.9522         0.7769         0.2824         0.8214       -71.4625       2.406433              1
      4778.0000         0.9398         0.8096         0.3172         0.8214       -71.4617       2.467331              1
      4778.5000         0.9398         0.8259          0.357         0.8125       -71.7375       2.251617              1
      4779.0000         0.9398         0.8554         0.3727         0.8214       -72.0773       1.971916              1
      4779.5000         0.9416         0.8887         0.4074         0.8304       -72.9612       2.272125              1
      4780.0000         0.9965         0.9208         0.4422         0.8214       -75.5142       1.696182              1
      4780.5000         1.1081         0.9377         0.4676         0.7857       -78.0965       1.090935              1
      4781.0000         1.2198         0.9618         0.4676         0.7589       -80.9303      0.2341919              1
      4781.5000         1.3315         1.0272         0.4675         0.7411       -86.8555      -3.713951      0.9562266
      4782.0000         1.4411         1.1153         0.4674         0.7321       -92.7807      -7.662102      0.8925468
      4782.5000         1.5518          2.267         0.4674         0.7411       -98.7059      -11.61024       0.828867
      4783.0000         1.7189         2.4969         0.4658         0.7768      -104.6311      -15.55839      0.7651873
      4783.5000         1.8304         2.7105         0.4228         0.8304      -110.5563      -19.50653      0.7015076
      4784.0000         1.8857         2.9495          0.353         0.8839      -116.4815      -25.12347      0.6109117
      4784.5000         1.8857         3.0637         0.3841         0.9643      -122.4067      -31.04868       0.515344
      4785.0000         1.8821         3.1435         0.4136         1.0536      -128.3318      -36.97378      0.4197778
      4785.5000         1.6991         3.1571         0.4255         1.1429       -134.257      -42.89898        0.32421
      4786.0000         1.5161         2.1893         0.4344           1.25      -138.9448      -47.58677      0.2486005
      4786.5000          1.425         1.8186         0.4392         1.3571      -141.5641      -50.20608      0.2063536
      4787.0000         1.2396         1.5359          0.437         1.1786      -145.6243      -54.26627      0.1408666
      4787.5000         1.0559         1.3379         0.4139         1.0714      -149.8714      -58.51337     0.07236493
      4788.0000         0.8726          1.216         0.3883         0.9375      -152.2195      -60.86147     0.03449237
      4788.5000         0.8796         1.0988         0.3698         0.7946      -152.2188      -60.86077     0.03450369
      4789.0000         0.9788         0.9852         0.3559         0.6607      -152.0451      -60.68708     0.03730515
      4789.5000         0.9752         0.8527         0.3498         0.5625      -151.3508      -59.99277     0.04850363
      4790.0000         0.9646          0.761         0.3323            0.5      -150.5565      -59.19848     0.06131486
      4790.5000          0.908         0.6911         0.3141         0.4201      -149.9619      -58.60387     0.07090525
      4791.0000         0.8337         0.6587         0.3169         0.3848      -149.2674      -57.90937     0.08210693
      4791.5000         0.7982         0.6449         0.3279         0.3763      -148.5727      -57.21467      0.0933118
      4792.0000         0.7608         0.6145         0.3278         0.3767      -148.0635      -56.70548      0.1015245
      4792.5000         0.7216         0.5971         0.3278         0.3772      -148.4879      -57.12988     0.09467943
      4793.0000         0.6842         0.5698         0.3277         0.3776      -150.3789      -59.02088     0.06417933
      4793.5000         0.6487         0.5481         0.3277         0.3602      -151.2693      -59.91128      0.0498181
      4794.0000         0.6238         0.5171         0.3276         0.3428      -151.6564      -60.29838     0.04357455
      4794.5000         0.6097         0.4997         0.3276         0.3253      -151.9323      -60.57427     0.03912464
      4795.0000         0.5919          0.479         0.3275         0.3079      -151.6328      -60.27477     0.04395528
      4795.5000         0.5706          0.479         0.3274         0.2994      -150.9309      -59.57287     0.05527632
      4796.0000         0.5493         0.4753         0.3412         0.2909      -149.9933      -58.63528     0.07039876
      4796.5000         0.5279         0.4578         0.3412         0.3003      -149.3716      -58.01357     0.08042625
      4797.0000         0.5155         0.4515         0.3411         0.3097      -148.3655      -57.00747     0.09665372
      4797.5000          0.512         0.4515         0.3411          0.328      -146.9785      -55.62048      0.1190246
      4798.0000         0.5086         0.4516          0.341         0.3373      -146.1172      -54.75918      0.1329165
      4798.5000         0.5069         0.4597         0.3405         0.3378      -145.7634      -54.40537       0.138623
      4799.0000         0.5069         0.4795         0.3271         0.3471      -145.1773      -53.81928      0.1480761
      4799.5000          0.507         0.4934          0.327         0.3565      -144.6508      -53.29278      0.1565681
      4800.0000         0.5643         0.4984         0.3131         0.3748      -145.8373      -54.47927      0.1374311
      4800.5000         0.6513         0.5246          0.313         0.3839      -149.0501      -57.69207     0.08561178
      4801.0000          0.708         0.5491          0.313         0.4018      -150.3238      -58.96578     0.06506803
      4801.5000         0.7664         0.5688         0.3129         0.4286      -150.9973      -59.63927     0.05420525
