#------------------------------------------------------------------------------
# Created by    : vladimir.rabinovich
# Created on    : 09/19/2023 17:19:43
#------------------------------------------------------------------------------
~Version Information Section
VERS.           2.0     :   CWLS log ASCII Standard - VERSION 2.0
WRAP.           NO      :   One line per depth step
~Well Information Section
#MNEM       .UNIT                                         VALUE :DESCRIPTION
#------------------------------------------------------------------------------
STRT        .FT                                              86 :START DEPTH
STOP        .FT                                           17232 :STOP DEPTH
STEP        .FT                                             0.5 :STEP      
NULL        .                                           -999.25 :NULL      
COMP        .                                        EXXON CORP :COMPANY   
WELL        .                               OYSTR LKE TMPRRY GU :WELL      
FLD         .                                           WILDCAT :FIELD     
LOC         .                                                   :LOCATION  
CNTY        .                                         MATAGORDA :LOCATION  
STAT        .                                             TEXAS :STATE     
CTRY        .                                     UNITED STATES :COUNTRY   
SRVC        .                                                   :SERVICE COMPANY
DATE        .                             9/13/2023 11:19:17 AM :LOG DATE  
API         .                                    42321309610000 :API NUMBER
UWI         .                                    42321309610000 :UNIQUE WELL ID
XCOORD      .                                  606681.955270441 :SURFACE X 
YCOORD      .                                  10380406.3085524 :SURFACE Y 
LAT         .                                         28.565886 :LATITUDE  
LON         .                                       -96.2205825 :LONGITUDE 
ELEV        .FT                                              25 :ELEVATION VALUE
ELEV_TYPE   .                                                KB :ELEVATION REFERENCE TYPE
~Curve Information Section
#MNEM       .UNIT                                      API CODE :CURVE DESCRIPTION
#------------------------------------------------------------------------------
DEPT        .FT                                                 :DEPTH     
ASFL        .OHMM                                               :          
CILD        .MMHO                                               :          
ILD         .OHMM                                               :          
SP          .MV                                                 :          
SP_NORM     .MV                                                 :SP Normalized
VSH_SP      .V/V                                                :Volume of Shale from SP
~A        DEPTH           ASFL           CILD            ILD             SP        SP_NORM         VSH_SP
# ...
     14906.0000         0.7672       1421.146        -999.25        -0.3249       1.261258              1
     14906.5000         0.7779       1417.754        -999.25        -0.3892       1.196402              1
     14907.0000         0.7836       1414.479        -999.25        -0.4535       1.131546              1
     14907.5000         0.7892       1412.402        -999.25        -0.5178       1.066691              1
     14908.0000         0.7948       1410.334        -999.25         -0.525       1.058935              1
     14908.5000            0.8       1408.258        -999.25        -0.5243        1.05908              1
     14909.0000         0.8019       1406.182        -999.25        -0.5237       1.059124              1
     14909.5000         0.8037       1404.113        -999.25         -0.523       1.059268              1
     14910.0000         0.8045       1402.037        -999.25        -0.5216       1.060113              1
     14910.5000         0.8045       1399.969        -999.25          -0.51       1.071157              1
     14911.0000         0.8046       1401.535        -999.25        -0.4985       1.082102              1
     14911.5000         0.8046       1410.377        -999.25        -0.4869       1.093146              1
     14912.0000         0.8049       1410.291        -999.25        -0.4754       1.104091              1
     14912.5000         0.8054       1416.107        -999.25        -0.4638       1.115135              1
     14913.0000         0.8058       1439.668        -999.25        -0.4543       1.124079              1
     14913.5000         0.8063       1437.609        -999.25        -0.4458       1.132024              1
     14914.0000         0.8061       1389.658        -999.25        -0.4374       1.139868              1
     14914.5000          0.806       1371.779        -999.25        -0.4289       1.147812              1
     14915.0000         0.8058       1350.717        -999.25        -0.4204       1.155757              1
     14915.5000         0.8057       1340.039        -999.25        -0.4139       1.161701              1
     14916.0000         0.8054       1329.949        -999.25        -0.4083       1.166746              1
     14916.5000         0.8051       1323.803        -999.25        -0.4028        1.17169              1
     14917.0000         0.8048       1317.656        -999.25        -0.3973       1.176634              1
     14917.5000         0.8045       1311.756        -999.25         -0.328       1.245379              1
     14918.0000         0.8041       1311.709        -999.25        -0.2195       1.353323              1
     14918.5000         0.8035       1311.662        -999.25        -0.1111       1.461168              1
     14919.0000         0.8029       1311.889        -999.25         0.0483       1.620012              1
     14919.5000         0.8023       1313.963        -999.25         0.2523       1.823457              1
     14920.0000         0.8017       1316.039        -999.25         0.4238       1.994401              1
     14920.5000         0.8008       1318.115        -999.25         0.4854       2.055445              1
     14921.0000         0.7996       1318.873        -999.25         0.5162        2.08569              1
     14921.5000         0.7985       1317.926        -999.25         0.4753       2.044234              1
     14922.0000         0.7973        1316.98        -999.25         0.4346       2.002978              1
     14922.5000         0.7968       1316.035        -999.25         0.3937       1.961523              1
     14923.0000         0.7966       1315.516        -999.25         0.3479       1.915167              1
     14923.5000         0.7964        1315.02        -999.25          0.227       1.793712              1
     14924.0000         0.7961       1314.523        -999.25         0.1057       1.671856              1
     14924.5000         0.7949       1313.795        -999.25        -0.0152         1.5504              1
     14925.0000         0.7938       1312.797        -999.25        -0.1539       1.411145              1
     14925.5000         0.7926       1311.799        -999.25        -0.3561       1.208389              1
     14926.0000         0.7918       1310.879        -999.25         -0.546       1.017934              1
     14926.5000         0.7911       1310.357        -999.25        -0.7048      0.8585781              1
     14927.0000         0.7903       1309.834        -999.25        -0.8637      0.6991225              1
     14927.5000         0.7895       1309.313        -999.25        -0.9375      0.6247668              1
     14928.0000         0.7879       1309.201        -999.25        -0.9525      0.6092112              1
     14928.5000         0.7863       1309.154        -999.25         -0.955      0.6061557              1
     14929.0000         0.7847       1309.107        -999.25        -0.8236          0.737              1
     14929.5000          0.783       1309.061        -999.25        -0.6926      0.8674444              1
     14930.0000         0.7812       1309.014        -999.25        -0.5616      0.9978889              1
     14930.5000         0.7793       1309.328        -999.25        -0.4315       1.127433              1
     14931.0000         0.7774       1317.313        -999.25        -0.3249       1.233478              1
     14931.5000         0.7754       1332.645        -999.25        -0.2183       1.339522              1
     14932.0000         0.7738       1353.656        -999.25        -0.1117       1.445566              1
     14932.5000         0.7725       1372.416        -999.25        -0.0051       1.551611              1
     14933.0000         0.7712       1400.287        -999.25         0.0341       1.590255              1
     14933.5000         0.7687       1431.781        -999.25         0.0302         1.5858              1
     14934.0000         0.7658       1455.342        -999.25         0.0262       1.581244              1
     14934.5000         0.7632       1467.439        -999.25         0.0223       1.576788              1
     14935.0000         0.7607       1480.371        -999.25         0.0011       1.555033              1
     14935.5000         0.7581       1497.318        -999.25         -0.049       1.504377              1
     14936.0000         0.7569       1511.768        -999.25        -0.0991       1.453722              1
     14936.5000         0.7567        1526.07        -999.25        -0.1491       1.403166              1
     14937.0000         0.7564       1534.887        -999.25        -0.1991        1.35261              1
     14937.5000         0.7564       1543.445        -999.25        -0.2492       1.301955              1
     14938.0000         0.7564       1544.205        -999.25        -0.2993       1.251299              1
     14938.5000         0.7565       1533.318        -999.25        -0.3507       1.199344              1
     14939.0000         0.7622       1490.607        -999.25         -0.404       1.145488              1
     14939.5000         0.7727       1462.297        -999.25        -0.4573       1.091632              1
     14940.0000         0.7902       1441.186        -999.25        -0.5104       1.037977              1
     14940.5000         0.7977       1417.283        -999.25        -0.5637      0.9841211              1
     14941.0000         0.8084       1392.547        -999.25         -0.617      0.9302657              1
     14941.5000          0.817        1385.52        -999.25        -0.6674        0.87931              1
     14942.0000          0.824       1365.217        -999.25        -0.7101      0.8360544              1
     14942.5000          0.829       1365.705        -999.25        -0.7529      0.7926989              1
     14943.0000         0.8339       1368.975        -999.25        -0.7957      0.7493432              1
     14943.5000         0.8382       1372.238        -999.25        -0.8259      0.7185876              1
