#------------------------------------------------------------------------------
# Created by    : vladimir.rabinovich
# Created on    : 09/19/2023 17:19:21
#------------------------------------------------------------------------------
~Version Information Section
VERS.           2.0     :   CWLS log ASCII Standard - VERSION 2.0
WRAP.           NO      :   One line per depth step
~Well Information Section
#MNEM       .UNIT                                         VALUE :DESCRIPTION
#------------------------------------------------------------------------------
STRT        .FT                                             313 :START DEPTH
STOP        .FT                                           17011 :STOP DEPTH
STEP        .FT                                             0.5 :STEP      
NULL        .                                           -999.25 :NULL      
COMP        .                             MAGNOLIA PETROLEUM CO :COMPANY   
WELL        .                                      LETULLE UNIT :WELL      
FLD         .                                           WILDCAT :FIELD     
LOC         .                                                   :LOCATION  
CNTY        .                                         MATAGORDA :LOCATION  
STAT        .                                             TEXAS :STATE     
CTRY        .                                     UNITED STATES :COUNTRY   
SRVC        .                                                   :SERVICE COMPANY
DATE        .                             9/13/2023 11:18:46 AM :LOG DATE  
API         .                                    42321010770000 :API NUMBER
UWI         .                                    42321010770000 :UNIQUE WELL ID
XCOORD      .                                  733053.658917313 :SURFACE X 
YCOORD      .                                  10456928.2420536 :SURFACE Y 
LAT         .                                        28.7849393 :LATITUDE  
LON         .                                       -95.8329519 :LONGITUDE 
ELEV        .FT                                              38 :ELEVATION VALUE
ELEV_TYPE   .                                                KB :ELEVATION REFERENCE TYPE
~Curve Information Section
#MNEM       .UNIT                                      API CODE :CURVE DESCRIPTION
#------------------------------------------------------------------------------
DEPT        .FT                                                 :DEPTH     
AAM_16      .OHMM                                               :          
AM_16       .OHMM                                               :          
AM_64       .OHMM                                               :          
AO_18_8     .OHMM                                               :          
SP          .MV                                                 :          
SP_NORM     .MV                                                 :SP Normalized
VSH_SP      .V/V                                                :Volume of Shale from SP
~A        DEPTH         AAM_16          AM_16          AM_64        AO_18_8             SP        SP_NORM         VSH_SP
# ...
      2524.0000         0.5243         0.4663          0.393         0.0023      -117.8408      -30.49735      0.2084069
      2524.5000          0.591         0.4664         0.3819         0.0023      -118.7711      -31.47111      0.1813581
      2525.0000         0.6214         0.4526         0.3821          0.018      -120.5323      -33.27576       0.131229
      2525.5000         0.5946         0.4378         0.3822          0.036      -121.5663      -34.35321      0.1012997
      2526.0000         0.5802         0.4251         0.3824         0.0631      -122.2557      -35.08606     0.08094279
      2526.5000         0.5532          0.417         0.3825         0.0631      -122.0804      -34.95421     0.08460532
      2527.0000         0.5243         0.4114         0.3827         0.0631      -121.1133      -34.03056      0.1102621
      2527.5000         0.5243         0.4115          0.369         0.0631      -119.8316      -32.79231       0.144658
      2528.0000         0.5315         0.4116         0.3666         0.0631      -119.1353      -32.13947      0.1627926
      2528.5000         0.6286         0.4117         0.3495          0.045      -120.4105      -33.45811      0.1261635
      2529.0000         0.5964         0.4118         0.3323          0.027      -122.0682      -35.15927     0.07890913
      2529.5000         0.5802         0.4119          0.328          0.018      -121.9637      -35.09822     0.08060498
      2530.0000         0.5189          0.412         0.3005        -999.25       -121.445      -34.62297     0.09380637
      2530.5000         0.4577         0.4121         0.2928         0.0178      -120.4003      -33.62173      0.1216187
      2531.0000         0.4272         0.4123         0.2731         0.0178      -119.1964      -32.46128      0.1538533
      2531.5000         0.4273         0.4124         0.2732         0.0178      -118.0564      -31.36472      0.1843132
      2532.0000         0.4273         0.4125         0.2595         0.0178       -114.976      -28.32778      0.2686727
      2532.5000         0.4473         0.4126         0.2597          0.011      -110.1354      -23.53063      0.4019269
      2533.0000          0.496         0.4127         0.2599         0.0205      -105.2948      -18.73348       0.535181
      2533.5000         0.5447          0.429         0.2858          0.039      -100.4542      -13.93633      0.6684352
      2534.0000         0.5935         0.4523         0.3212         0.0574       -95.6137       -9.13929      0.8016864
      2534.5000         0.6651         0.4685         0.3565         0.0849       -90.9716      -4.540642      0.9294266
      2535.0000         0.7152         0.4963         0.3918         0.1034       -88.1691      -1.749344              1
      2535.5000         0.7242         0.5129         0.4272         0.1218       -86.6266     -0.2068481              1
      2536.0000         0.7403         0.5304         0.4625         0.1493       -85.7947      0.6250534              1
      2536.5000         0.7422         0.5479         0.4979         0.1678       -86.2654      0.1543503              1
      2537.0000         0.7459         0.5799         0.5332         0.1953       -87.9587      -1.538948              1
      2537.5000         0.7584         0.6137         0.5686         0.2137       -90.4892      -4.069443      0.9425155
      2538.0000         0.7657         0.6551         0.6039         0.2322       -91.0404      -4.620644      0.9272044
      2538.5000         0.7854         0.7074         0.6392         0.2507       -90.9403      -4.520546      0.9299848
      2539.0000         0.7962         0.7607         0.6746         0.2511       -89.5936      -3.173843      0.9673932
      2539.5000         0.8803         0.8121         0.7099         0.2966       -87.4361      -1.016342              1
      2540.0000         0.9571         0.8509         0.7453         0.2971       -86.8253     -0.4055481              1
      2540.5000         1.0342         0.8891         0.7806         0.3063       -86.3249     0.09485626              1
      2541.0000         1.1046         0.9137         0.8159         0.3153       -86.4879    -0.06814575              1
      2541.5000         1.1696         0.9799         0.8513         0.3514       -87.1493     -0.7295456              1
      2542.0000         1.2328         1.0394         0.8866         0.3874         -90.59      -4.170242      0.9397155
      2542.5000         1.2959         1.1359          0.922         0.4234       -95.1019      -8.682144      0.8143849
      2543.0000         1.4131         1.2073         0.9573         0.4685       -97.5346      -11.11485      0.7468098
      2543.5000         1.5321         1.3041         0.9926         0.5045      -100.1405      -13.72075      0.6744236
      2544.0000         1.5917         1.3739          1.028         0.5495      -101.3739      -14.95415      0.6401626
      2544.5000         1.5918         1.4414         1.0633         0.5856      -102.9098      -16.49004      0.5974988
      2545.0000         1.5324         1.4712         1.0895         0.6306      -103.4527      -17.03294      0.5824182
      2545.5000          1.446         1.5193         1.0947         0.6126      -103.1733      -16.75355      0.5901792
      2546.0000         1.3596         1.5001         1.1087         0.6126       -98.7241      -12.30434      0.7137682
      2546.5000         1.2732         1.1506         1.1089         0.5766       -91.6196      -5.199844      0.9111154
      2547.0000         1.1704         1.0775          1.109         0.5766       -87.5931      -1.173347              1
      2547.5000         1.1197         1.0169         1.1092         0.5586       -85.4591      0.9606552              1
      2548.0000         1.1071         0.9822         1.1093         0.5135       -85.4569      0.9628525              1
      2548.5000         1.0944         0.9429         1.1095         0.4775       -85.4543      0.9654541              1
      2549.0000         1.0799         0.9115         1.1096         0.4324       -85.2899       1.129852              1
      2549.5000         1.0672          0.869         1.1098         0.3874       -84.8956       1.524155              1
      2550.0000         1.0545         0.8517         1.1099         0.3423       -84.6168       1.802956              1
      2550.5000         1.0419         0.8185         1.1101         0.2975       -84.6143        1.80545              1
      2551.0000         1.0274         0.8047         1.1102         0.2978       -84.4509       1.968857              1
      2551.5000         1.0057         0.7997         1.0965         0.2981       -84.3322       2.087555              1
      2552.0000         0.9878         0.7911         1.0967         0.2984       -85.2925       1.127251              1
      2552.5000         0.9737         0.7635         1.0969         0.3077       -87.0903     -0.6705475              1
      2553.0000          0.963         0.7617          1.097          0.326       -88.1244      -1.704643              1
      2553.5000         0.9488         0.7498         1.0972         0.3443        -88.748      -2.328247       0.990882
      2554.0000         0.9364         0.7499         1.0973         0.3625       -89.0226      -2.602844      0.9832543
      2554.5000          0.924           0.75         1.0974         0.3807       -88.9298      -2.510048       0.985832
      2555.0000         0.9134         0.7501         1.0976          0.399       -88.5817      -2.161949      0.9955014
      2555.5000         0.9028         0.7502         1.0978         0.4172       -88.1846      -1.764847              1
      2556.0000         0.8939         0.7503          1.084         0.4264       -87.8855      -1.465744              1
      2556.5000         0.8886         0.7504         1.0792         0.4356       -87.4481      -1.028343              1
      2557.0000         0.8852          0.748         1.0705         0.4448       -86.9127     -0.4929428              1
