#------------------------------------------------------------------------------
# Created by    : vladimir.rabinovich
# Created on    : 09/19/2023 17:19:43
#------------------------------------------------------------------------------
~Version Information Section
VERS.           2.0     :   CWLS log ASCII Standard - VERSION 2.0
WRAP.           NO      :   One line per depth step
~Well Information Section
#MNEM       .UNIT                                         VALUE :DESCRIPTION
#------------------------------------------------------------------------------
STRT        .FT                                              86 :START DEPTH
STOP        .FT                                           17232 :STOP DEPTH
STEP        .FT                                             0.5 :STEP      
NULL        .                                           -999.25 :NULL      
COMP        .                                        EXXON CORP :COMPANY   
WELL        .                               OYSTR LKE TMPRRY GU :WELL      
FLD         .                                           WILDCAT :FIELD     
LOC         .                                                   :LOCATION  
CNTY        .                                         MATAGORDA :LOCATION  
STAT        .                                             TEXAS :STATE     
CTRY        .                                     UNITED STATES :COUNTRY   
SRVC        .                                                   :SERVICE COMPANY
DATE        .                             9/13/2023 11:19:17 AM :LOG DATE  
API         .                                    42321309610000 :API NUMBER
UWI         .                                    42321309610000 :UNIQUE WELL ID
XCOORD      .                                  606681.955270441 :SURFACE X 
YCOORD      .                                  10380406.3085524 :SURFACE Y 
LAT         .                                         28.565886 :LATITUDE  
LON         .                                       -96.2205825 :LONGITUDE 
ELEV        .FT                                              25 :ELEVATION VALUE
ELEV_TYPE   .                                                KB :ELEVATION REFERENCE TYPE
~Curve Information Section
#MNEM       .UNIT                                      API CODE :CURVE DESCRIPTION
#------------------------------------------------------------------------------
DEPT        .FT                                                 :DEPTH     
ASFL        .OHMM                                               :          
CILD        .MMHO                                               :          
ILD         .OHMM                                               :          
SP          .MV                                                 :          
SP_NORM     .MV                                                 :SP Normalized
VSH_SP      .V/V                                                :Volume of Shale from SP
~A        DEPTH           ASFL           CILD            ILD             SP        SP_NORM         VSH_SP
# ...
      5786.0000         0.5496       5102.727        -999.25        -39.131      -38.15692      0.4006949
      5786.5000         0.5653       5058.906        -999.25       -31.8669        -30.885      0.5179839
      5787.0000         0.5969       5019.742        -999.25       -18.9745      -17.98478       0.726052
      5787.5000         0.8017       4969.469        -999.25       -12.2123      -11.21475      0.8352459
      5788.0000         0.8325       4918.813        -999.25        -11.102      -10.09663      0.8532802
      5788.5000         0.8586       4870.594        -999.25        -9.6323      -8.619108      0.8771111
      5789.0000         0.9018        4826.68        -999.25        -5.6756      -4.654586      0.9410551
      5789.5000          0.951       4787.664        -999.25        -2.2084      -1.179564      0.9971038
      5790.0000         0.9967       4761.422        -999.25        -1.3757     -0.3390421              1
      5790.5000         1.0587       4754.203        -999.25        -0.8436        0.20088              1
      5791.0000         1.0228       4762.711        -999.25        -0.7648      0.2875021              1
      5791.5000         0.9952       4771.211        -999.25        -0.8236      0.2365242              1
      5792.0000         1.0055       4779.719        -999.25        -1.0649    0.003046155              1
      5792.5000         1.0532       4788.219        -999.25        -1.3063     -0.2305318              1
      5793.0000         1.1004       4779.711        -999.25        -1.5156     -0.4320096              1
      5793.5000         1.1851       4756.242        -999.25        -1.4885     -0.3970876              1
      5794.0000         1.2579       4732.109        -999.25        -1.4615     -0.3622656              1
      5794.5000         1.4066       4707.367        -999.25        -1.4344     -0.3273433              1
      5795.0000         1.5518       4671.328        -999.25        -1.4074     -0.2925214              1
      5795.5000         1.5859       4639.227        -999.25        -1.3803     -0.2575994              1
      5796.0000         1.5896        4599.25        -999.25        -1.3859     -0.2553773              1
      5796.5000         1.5783       4556.281        -999.25        -1.4114     -0.2730551              1
      5797.0000         1.5418       4538.727        -999.25         -1.437     -0.2908331              1
      5797.5000         1.4825       4528.211        -999.25        -1.4702      -0.316211              1
      5798.0000         1.4232       4532.305        -999.25        -1.5226     -0.3607889              1
      5798.5000         1.3638       4540.836        -999.25         -1.575     -0.4053669              1
      5799.0000         1.2948       4556.648        -999.25        -1.6725     -0.4950448              1
      5799.5000         1.2157        4580.18        -999.25         -2.025     -0.8397229              1
      5800.0000         1.1366       4622.625        -999.25        -2.9693      -1.776201      0.9874806
      5800.5000         1.0574       4677.047        -999.25        -4.0684       -2.87298      0.9697906
      5801.0000         1.1279       4816.328        -999.25        -5.5765      -4.386233      0.9453833
      5801.5000         1.2347       4821.773        -999.25        -7.4154      -6.230287      0.9156405
      5802.0000         1.3348       4827.203        -999.25        -9.5196      -8.339641      0.8816187
      5802.5000         1.3829       4832.406        -999.25       -14.1516      -12.97679      0.8068259
      5803.0000         1.4066       4837.609        -999.25       -18.7614      -17.59175      0.7323912
      5803.5000         1.4131       4862.477        -999.25       -21.5743       -20.4098      0.6869387
      5804.0000         1.3961       4888.789        -999.25       -23.5669      -22.40755      0.6547168
      5804.5000         1.3761       4915.633        -999.25       -24.9635      -23.80931       0.632108
      5805.0000         1.3512       4972.352        -999.25       -26.0676      -24.91856      0.6142167
      5805.5000         1.3359       5074.852        -999.25       -27.1506      -26.00671      0.5966659
      5806.0000         1.3281       5130.789        -999.25       -27.9555      -26.81677      0.5836005
      5806.5000         1.3223       5187.219        -999.25       -28.7194      -27.58582      0.5711964
      5807.0000           1.32        5234.75        -999.25       -29.4834      -28.35497      0.5587907
      5807.5000         1.3178       5246.547        -999.25       -30.0974      -28.97413      0.5488044
      5808.0000         1.3188       5252.617        -999.25       -30.6841      -29.56598      0.5392584
      5808.5000         1.3203       5256.438        -999.25       -31.1922      -30.07923      0.5309801
      5809.0000         1.3243       5260.266        -999.25       -31.7021      -30.59429      0.5226728
      5809.5000          1.334       5263.188        -999.25       -32.4512      -31.34854      0.5105074
      5810.0000         1.3624       5264.859        -999.25       -34.5089      -33.41139      0.4772356
      5810.5000         1.4332       5266.523        -999.25       -37.7877      -36.69535      0.4242686
      5811.0000         1.4281       5268.188        -999.25       -38.5176       -37.4304      0.4124129
      5811.5000         1.3664       5269.578        -999.25        -38.592      -37.50995      0.4111298
      5812.0000         1.3049       5270.703        -999.25       -38.1942      -37.11731      0.4174628
      5812.5000         1.2432       5271.836        -999.25       -37.7654      -36.69366      0.4242958
      5813.0000         1.1795       5277.672        -999.25       -36.8088      -35.74221      0.4396417
      5813.5000          1.102       5286.695        -999.25       -35.7394      -34.67797       0.456807
      5814.0000         1.0245        5322.43        -999.25       -34.3094      -33.25312      0.4797884
      5814.5000         0.9471       5408.297        -999.25       -32.2263      -31.17517      0.5133036
      5815.0000         0.8696       5586.297        -999.25       -30.0503      -29.00433      0.5483173
      5815.5000         0.7921       5793.094        -999.25       -28.2882      -27.24738      0.5766551
      5816.0000         0.7442       5846.977        -999.25       -27.2021      -26.16644      0.5940897
      5816.5000         0.7434        5880.18        -999.25       -26.4499      -25.41939      0.6061389
      5817.0000          0.786       5804.484        -999.25       -25.7392      -24.71384      0.6175187
      5817.5000         0.8294       5729.961        -999.25       -25.0806       -24.0604      0.6280581
      5818.0000         0.8526       5617.688        -999.25        -23.935      -22.91995      0.6464525
      5818.5000         0.8788       5495.344        -999.25       -22.5384       -21.5285      0.6688951
      5819.0000         0.9139       5372.898        -999.25       -21.2323      -20.22755      0.6898782
      5819.5000         1.0577       5250.547        -999.25       -19.4925      -18.49291      0.7178563
      5820.0000         1.2302       5128.102        -999.25       -17.0563      -16.06186      0.7570668
      5820.5000          1.508       4992.648        -999.25       -13.3635      -12.37421       0.816545
      5821.0000         1.8644       4860.422        -999.25        -9.1205      -8.136368      0.8848973
      5821.5000         1.6504        4762.43        -999.25        -2.9742      -1.995222      0.9839481
      5822.0000         1.4363        4731.57        -999.25        -1.3435      -0.369675              1
      5822.5000         1.2221       4775.875        -999.25        -0.2288      0.7398717              1
      5823.0000         1.1325        4824.68        -999.25          0.089       1.052518              1
      5823.5000         1.0925       4871.477        -999.25         0.4036       1.361965              1
