#------------------------------------------------------------------------------
# Created by    : vladimir.rabinovich
# Created on    : 09/19/2023 17:22:47
#------------------------------------------------------------------------------
~Version Information Section
VERS.           2.0     :   CWLS log ASCII Standard - VERSION 2.0
WRAP.           NO      :   One line per depth step
~Well Information Section
#MNEM       .UNIT                                         VALUE :DESCRIPTION
#------------------------------------------------------------------------------
STRT        .FT                                            1029 :START DEPTH
STOP        .FT                                            4870 :STOP DEPTH
STEP        .FT                                             0.5 :STEP      
NULL        .                                           -999.25 :NULL      
COMP        .                              CHAPARRAL ENERGY LLC :COMPANY   
WELL        .                                         ST TR 171 :WELL      
FLD         .                               MATAGORDA BAY SOUTH :FIELD     
LOC         .                                                   :LOCATION  
CNTY        .                                         MATAGORDA :LOCATION  
STAT        .                                             TEXAS :STATE     
CTRY        .                                     UNITED STATES :COUNTRY   
SRVC        .                                                   :SERVICE COMPANY
DATE        .                             9/13/2023 11:19:17 AM :LOG DATE  
API         .                                    42321309080000 :API NUMBER
UWI         .                                    42321309080000 :UNIQUE WELL ID
XCOORD      .                                  571019.162580029 :SURFACE X 
YCOORD      .                                  10362433.1969336 :SURFACE Y 
LAT         .                                        28.5138372 :LATITUDE  
LON         .                                       -96.3299832 :LONGITUDE 
ELEV        .FT                                              19 :ELEVATION VALUE
ELEV_TYPE   .                                                KB :ELEVATION REFERENCE TYPE
~Curve Information Section
#MNEM       .UNIT                                      API CODE :CURVE DESCRIPTION
#------------------------------------------------------------------------------
DEPT        .FT                                                 :DEPTH     
DT          .US/FT                                              :          
GUARD       .OHMM                                               :          
IND         .OHMM                                               :          
SP          .MV                                                 :          
SP_NORM     .MV                                                 :SP Normalized
VSH_SP      .V/V                                                :Volume of Shale from SP
~A        DEPTH             DT          GUARD            IND             SP        SP_NORM         VSH_SP
# ...
      3309.0000       124.9625         0.7154         0.4151       -52.3976      -19.27935      0.2052456
      3309.5000       119.1252         0.7385         0.4151       -51.5152      -18.42543      0.2423724
      3310.0000       108.3185         0.7692         0.4528       -50.2773      -17.21601      0.2949559
      3310.5000        99.8044         0.8151          0.566       -48.8105      -15.77769      0.3574915
      3311.0000        93.8359         1.1623          0.717       -45.9985      -12.99417      0.4785141
      3311.5000        91.8036         2.0302         0.8302        -43.623      -10.64716      0.5805584
      3312.0000        96.9628         2.0302         0.9057       -42.3495      -9.402134      0.6346898
      3312.5000        96.0613         1.7057         0.9811       -41.0103      -8.091415      0.6916776
      3313.0000        93.6921         1.4846         1.0189       -40.2478      -7.357399      0.7235913
      3313.5000        91.7812         1.4846         1.0566       -38.7612      -5.899281      0.7869878
      3314.0000         90.515         1.4846         1.0943       -38.0455      -5.212063      0.8168668
      3314.5000         92.298         1.4846         1.0943       -35.9534      -3.148441      0.9065895
      3315.0000        97.8739         1.4846         1.1321         -34.09      -1.313522      0.9863686
      3315.5000       105.1539         1.3692         1.1698       -33.2933     -0.5453033              1
      3316.0000       112.9016         1.3154         1.2075       -33.2904     -0.5708847              1
      3316.5000       117.0415         1.2385         1.2453       -33.0925     -0.4014626              1
      3317.0000       115.5282         1.2308          1.283       -32.6777    -0.01514435              1
      3317.5000       115.1351         1.2077          1.283       -32.6739    -0.03982544              1
      3318.0000       115.0428         1.1849          1.283       -33.2773     -0.6717072              1
      3318.5000       112.6158         1.1698         1.3208       -33.2737     -0.6965904              1
      3319.0000       111.1622         1.1698         1.3208        -32.916     -0.3673706              1
      3319.5000       109.7203         1.1925         1.3208       -32.6605     -0.1403503              1
      3320.0000       112.4294         1.3231         1.3585       -32.0516      0.4400673              1
      3320.5000       112.8883         1.3462         1.3585       -32.0482      0.4149895              1
      3321.0000       111.8471         1.3615         1.3585       -32.0449      0.3898087              1
      3321.5000       110.9813         1.3538         1.3962       -32.0411      0.3651276              1
      3322.0000       110.5829         1.3462         1.3962       -32.0986      0.2791481              1
      3322.5000       115.0295         1.3231         1.3962       -32.6409     -0.2916336              1
      3323.0000       114.8685         1.3231          1.434       -32.6376     -0.2951889              1
      3323.5000       114.4751         1.3385          1.434       -33.2399      -0.883625              1
      3324.0000       114.1044         1.3538          1.434       -33.2369     -0.8667641              1
      3324.5000       112.8636         1.4154         1.4717       -33.2336     -0.8496056              1
      3325.0000       110.9286         1.4769         1.4717       -33.2302     -0.8323441              1
      3325.5000       110.5089         1.5385         1.5094       -33.2265     -0.8147812              1
      3326.0000       110.4174         1.5692         1.5094       -33.2235     -0.7979164              1
      3326.5000       110.6316         1.5308         1.5094       -33.2202     -0.7807541              1
      3327.0000       111.2845         1.4923         1.5094       -33.2169     -0.7635956              1
      3327.5000       110.5614         1.4231         1.5094       -33.2132     -0.7460327              1
      3328.0000       110.2312         1.3923         1.5094       -33.2102     -0.7291718              1
      3328.5000       110.0592         1.3692         1.5094       -33.2068     -0.7119064              1
      3329.0000       109.8806         1.3615         1.5094       -33.2035     -0.6947441              1
      3329.5000       112.1922         1.3769         1.4717       -33.1998     -0.6771812              1
      3330.0000       116.0802         1.4077          1.434       -33.1968     -0.6603241              1
      3330.5000        118.821         1.4385         1.3962       -32.9551     -0.4047623              1
      3331.0000       121.3084         1.4231         1.3585       -32.9755     -0.4112968              1
      3331.5000       123.0491         1.3923         1.3585       -33.1868     -0.6087341              1
      3332.0000       124.6631         1.3538         1.3208       -33.1834     -0.5914726              1
      3332.5000       126.2696         1.2692          1.283       -33.4244      -0.818615              1
      3333.0000       128.2217         1.2385         1.2453       -33.7828      -1.163151      0.9929065
      3333.5000       130.5623         1.2154         1.2075       -33.1731     -0.5395889              1
      3334.0000       133.0927         1.1925         1.1698         -33.17      -0.522625              1
      3334.5000       134.3806         1.1623         1.1321       -33.1667     -0.5054626              1
      3335.0000       136.0113         1.1547         1.1321       -33.5674     -0.8923035              1
      3335.5000       137.1836         1.1472         1.0943       -33.7661      -1.077145      0.9966459
      3336.0000       136.7676         1.1472         1.0566       -33.7627      -1.059879      0.9973965
      3336.5000       134.2021         1.1472         1.0189       -33.7594      -1.042717      0.9981427
      3337.0000        130.548         1.1623         0.9811        -33.756      -1.025455      0.9988933
      3337.5000       127.8104         1.1849         0.9811       -34.3586      -1.614193       0.973296
      3338.0000        125.872         1.2077         0.9811       -34.3554      -1.597134      0.9740376
      3338.5000       126.2104         1.2385         0.9811       -34.3521      -1.579971      0.9747838
      3339.0000       127.6974         1.2385         0.9811       -34.3487       -1.56271      0.9755344
      3339.5000       129.2761         1.2385         0.9811       -34.3452      -1.545345      0.9762893
      3340.0000       132.9211         1.2231         0.9811        -34.342      -1.528282      0.9770312
      3340.5000       135.6807         1.1623         0.9811       -34.3387      -1.511124      0.9777772
      3341.0000       133.7165          1.117         0.9811       -34.3353      -1.493862      0.9785277
      3341.5000       133.2196         1.0943         0.9811       -34.3319      -1.476601      0.9792782
      3342.0000       132.7617         1.0943         0.9811       -34.9353      -2.066135      0.9536463
      3342.5000       131.9832         1.0943         0.9811       -34.9314      -2.048374      0.9544185
      3343.0000       130.3326         1.1094         0.9811       -35.3569      -2.460011      0.9365213
      3343.5000       128.5351          1.117         0.9811       -35.5307      -2.619953      0.9295673
      3344.0000       126.6207         1.1245         0.9811       -35.5274      -2.602791      0.9303135
      3344.5000       125.2391         1.1245         0.9811       -35.8058      -2.867329      0.9188118
      3345.0000       123.3609         1.1321         0.9811       -36.1268      -3.174465       0.905458
      3345.5000       123.1618         1.1321         0.9811       -36.1233      -3.157101       0.906213
      3346.0000       123.7754         1.1245         0.9811       -36.7267      -3.746643      0.8805807
      3346.5000       124.0061          1.117         0.9811       -37.0108       -4.01688      0.8688313
