#------------------------------------------------------------------------------
# Created by    : vladimir.rabinovich
# Created on    : 09/19/2023 17:21:29
#------------------------------------------------------------------------------
~Version Information Section
VERS.           2.0     :   CWLS log ASCII Standard - VERSION 2.0
WRAP.           NO      :   One line per depth step
~Well Information Section
#MNEM       .UNIT                                         VALUE :DESCRIPTION
#------------------------------------------------------------------------------
STRT        .FT                                            1500 :START DEPTH
STOP        .FT                                            6885 :STOP DEPTH
STEP        .FT                                             0.5 :STEP      
NULL        .                                           -999.25 :NULL      
COMP        .                        HILLHOUSE OPERATING CO LLC :COMPANY   
WELL        .                                  LEWIS J C FAMILY :WELL      
FLD         .                                    LIVE OAK BAYOU :FIELD     
LOC         .                                                   :LOCATION  
CNTY        .                                         MATAGORDA :LOCATION  
STAT        .                                             TEXAS :STATE     
CTRY        .                                     UNITED STATES :COUNTRY   
SRVC        .                                                   :SERVICE COMPANY
DATE        .                             9/13/2023 11:19:17 AM :LOG DATE  
API         .                                    42321308450000 :API NUMBER
UWI         .                                    42321308450000 :UNIQUE WELL ID
XCOORD      .                                  757138.788685477 :SURFACE X 
YCOORD      .                                  10457801.5308193 :SURFACE Y 
LAT         .                                        28.7888954 :LATITUDE  
LON         .                                       -95.7578897 :LONGITUDE 
ELEV        .FT                                              17 :ELEVATION VALUE
ELEV_TYPE   .                                                KB :ELEVATION REFERENCE TYPE
~Curve Information Section
#MNEM       .UNIT                                      API CODE :CURVE DESCRIPTION
#------------------------------------------------------------------------------
DEPT        .FT                                                 :DEPTH     
CALI        .IN                                                 :          
DCOR        .G/C3                                               :          
DPOR        .%                                                  :          
DT          .US/F                                               :          
GR          .GAPI                                               :          
GR_NORM     .GAPI                                               :GammaRay Normalized
ILD         .OHMM                                               :          
ILM         .OHMM                                               :          
LL8         .OHMM                                               :          
NPOR        .%                                                  :          
RHOB        .G/C3                                               :          
SP          .MV                                                 :          
SP_NORM     .MV                                                 :SP Normalized
VSH_GR      .V/V                                                :Volume of Shale from GR
VSH_SP      .V/V                                                :Volume of Shale from SP
~A        DEPTH           CALI           DCOR           DPOR             DT             GR        GR_NORM            ILD            ILM            LL8           NPOR           RHOB             SP        SP_NORM         VSH_GR         VSH_SP
# ...
      6515.0000         7.7244         0.0934        14.1954         92.821        61.4491       65.07682         1.2699         1.3537         1.5175        32.3857         2.4092       -47.6025      -4.920517      0.6824855      0.9165847
      6515.5000         7.7822          0.081        14.6712        94.1594        60.6601       63.69986         1.3414         1.4234         1.3724        32.4735         2.4043       -46.6146      -3.936295      0.6531884      0.9375256
      6516.0000         7.7329         0.0756        13.7134        94.2092        58.1898       59.38864         1.4299         1.4899         1.4496        32.5321         2.4102       -45.4289      -2.754272      0.5614604       0.962675
      6516.5000          7.567         0.0756        12.5763        94.9528        54.5325       53.00587         1.4831         1.5453         1.6548        29.8712         2.4399        -45.034      -2.363049      0.4256567      0.9709989
      6517.0000         7.5032         0.0746        12.0963        93.6149        53.0024        50.3355         1.4762         1.5242         1.7164        28.9125         2.4464        -44.639      -1.971725      0.3688405       0.979325
      6517.5000         7.4884         0.0875        11.8552        92.1778        53.4005       51.03028         1.4428          1.483         1.7802         29.509         2.4498       -44.2441      -1.580502      0.3836229      0.9876489
      6518.0000         7.5084         0.1306         11.405        94.0118        55.3812       54.48703         1.4232         1.4561         1.7883        32.2846         2.4598       -44.4422       -1.78228      0.4571708      0.9833558
      6518.5000         7.5278         0.1286        12.6277        96.5397        56.7685       56.90817         1.4166         1.4494         1.5593        35.2107         2.4449       -44.6403      -1.984058      0.5086845      0.9790626
      6519.0000         7.5287         0.1043        14.3582        96.7877        58.1557       59.32913         1.4166          1.456         1.4427        36.0156         2.4117       -44.6408      -1.988235      0.5601943      0.9789737
      6519.5000         7.5485         0.0727        14.6549        98.4733         59.543       61.75028         1.4101         1.5032         1.3973        35.0284         2.4018       -44.4435      -1.794613       0.611708      0.9830933
      6520.0000          7.648         0.0786        13.7566        94.8552        60.1389       62.79024         1.4165         1.5031         1.6394        29.9478         2.4167       -44.2463      -1.601089      0.6338349      0.9872109
      6520.5000         7.6758         0.0974        12.5001        91.2869        60.1414       62.79461         1.4426         1.5031         1.7962        28.9592          2.438       -44.2467      -1.605167      0.6339279      0.9871241
      6521.0000         7.7651         0.0915         13.872        93.3192        60.1438        62.7988         1.4491          1.503         1.8376        29.2867         2.4212       -44.8403      -2.202446      0.6340171       0.974416
      6521.5000         7.8841         0.0737        15.7221        94.7568        61.1354       64.52935          1.469         1.5377         1.5168        31.3463         2.3885        -46.027      -3.392822      0.6708372      0.9490889
      6522.0000         7.7656         0.0578        16.9446        95.9466        62.5716       67.03584         1.5098         1.5732         1.5447        32.8374         2.3647       -48.2023        -5.5718      0.7241667      0.9027277
      6522.5000         7.5779         0.0484        17.3903        97.4833        61.1893       64.62344         1.5588         1.6242         1.5803        32.3882         2.3583       -48.9936      -6.366776       0.672839      0.8858133
      6523.0000           7.41         0.0395        16.3732        95.3522        56.9886        57.2923         1.5731         1.7001         1.6316        30.9522         2.3756        -48.401      -5.777855      0.5168574      0.8983435
      6523.5000         7.4114         0.0405        13.9215        91.8334        53.6281       51.42749         1.5587         1.7314         1.8883        29.0079         2.4118       -46.4243      -3.804832      0.3920743      0.9403227
      6524.0000          7.452         0.0529        10.3937        88.6118        52.3934       49.27267         1.5096         1.6768         2.2668        28.3486         2.4479       -44.6452      -2.029408      0.3462271      0.9780977
      6524.5000          7.571         0.0955         9.6748        88.6119        53.2374       50.74563         1.5095         1.5586         2.3835        28.5267         2.4885       -43.8547      -1.242588      0.3775666      0.9948385
      6525.0000         7.6107         0.1128         10.868        89.8513        55.0203       53.85718         1.5095         1.5585         1.8881        29.9888         2.4678       -43.0643     -0.4558678      0.4437698              1
      6525.5000         7.6308         0.1025         13.017        94.1638        56.3578       56.19141         1.5373         1.5728         1.5585        32.2874          2.448       -41.4829       1.121857      0.4934343              1
      6526.0000         7.6508         0.0797         14.449        96.5928          56.36       56.19526         1.5727         1.6017         1.3902        33.7495         2.4123       -41.0878       1.513279      0.4935161              1
      6526.5000         7.6908         0.0317        14.8652        96.5434        57.2037       57.66769         1.6312         1.6613         1.3041         32.702         2.4004       -41.0883       1.509102      0.5248445              1
      6527.0000         7.6909         0.0158        14.6839        92.2313        58.7888       60.43404         1.6612         1.7389         1.4887        29.8618         2.4039       -40.8909       1.702824       0.583703              1
      6527.5000         7.5922         0.0213        13.3672         89.307        60.5217       63.45831         1.6918         1.8536         1.7388        26.9317         2.4222       -41.4845       1.105545      0.6480491              1
      6528.0000         7.3946         0.0411        12.7074        87.4237        58.5959       60.09738         1.7789         1.8791         1.9313        26.3315         2.4391        -44.451      -1.864632      0.5765401      0.9816036
      6528.5000          7.296         0.0485        14.4387        85.7385         56.818       56.99455         1.8877         1.9401         2.1649        26.6292         2.4104       -45.8356      -3.252911      0.5105223      0.9520657
      6529.0000         7.2962         0.0485        16.4684        86.3335        57.6118       58.37991         1.9312         1.9758          2.587        27.0456         2.3737       -46.0338      -3.454784      0.5399981      0.9477705
      6529.5000         7.2965         0.0416        16.7952        87.3746         60.186       62.87245           1.94         1.9758         2.5987        27.2528         2.3698       -45.0455      -2.470165      0.6355841      0.9687199
      6530.0000         7.2967         0.0634        14.8505        87.9201        62.2156       66.41452         1.9311         1.9667         2.5516        27.1613         2.3985       -43.2663     -0.6946411      0.7109472              1
      6530.5000         7.3209         0.0837        10.9644        89.8039        61.4846       65.13879         1.8788         1.9222         2.5168        27.3567         2.4663       -42.6735     -0.1055183      0.6838042              1
      6531.0000         7.3353         0.0847        10.3058        90.4981        57.7546       58.62912         1.7949         1.8617         2.5167        27.4578         2.4762       -42.1208      0.4435043      0.5453004              1
      6531.5000         7.3547         0.0793        11.2605        89.3582        56.9585       57.23975         1.6991         1.7463         2.5984        27.9932         2.4624       -41.9233      0.6373253      0.5157393              1
