#------------------------------------------------------------------------------
# Created by    : vladimir.rabinovich
# Created on    : 09/19/2023 17:19:21
#------------------------------------------------------------------------------
~Version Information Section
VERS.           2.0     :   CWLS log ASCII Standard - VERSION 2.0
WRAP.           NO      :   One line per depth step
~Well Information Section
#MNEM       .UNIT                                         VALUE :DESCRIPTION
#------------------------------------------------------------------------------
STRT        .FT                                             313 :START DEPTH
STOP        .FT                                           17011 :STOP DEPTH
STEP        .FT                                             0.5 :STEP      
NULL        .                                           -999.25 :NULL      
COMP        .                             MAGNOLIA PETROLEUM CO :COMPANY   
WELL        .                                      LETULLE UNIT :WELL      
FLD         .                                           WILDCAT :FIELD     
LOC         .                                                   :LOCATION  
CNTY        .                                         MATAGORDA :LOCATION  
STAT        .                                             TEXAS :STATE     
CTRY        .                                     UNITED STATES :COUNTRY   
SRVC        .                                                   :SERVICE COMPANY
DATE        .                             9/13/2023 11:18:46 AM :LOG DATE  
API         .                                    42321010770000 :API NUMBER
UWI         .                                    42321010770000 :UNIQUE WELL ID
XCOORD      .                                  733053.658917313 :SURFACE X 
YCOORD      .                                  10456928.2420536 :SURFACE Y 
LAT         .                                        28.7849393 :LATITUDE  
LON         .                                       -95.8329519 :LONGITUDE 
ELEV        .FT                                              38 :ELEVATION VALUE
ELEV_TYPE   .                                                KB :ELEVATION REFERENCE TYPE
~Curve Information Section
#MNEM       .UNIT                                      API CODE :CURVE DESCRIPTION
#------------------------------------------------------------------------------
DEPT        .FT                                                 :DEPTH     
AAM_16      .OHMM                                               :          
AM_16       .OHMM                                               :          
AM_64       .OHMM                                               :          
AO_18_8     .OHMM                                               :          
SP          .MV                                                 :          
SP_NORM     .MV                                                 :SP Normalized
VSH_SP      .V/V                                                :Volume of Shale from SP
~A        DEPTH         AAM_16          AM_16          AM_64        AO_18_8             SP        SP_NORM         VSH_SP
# ...
     13646.0000         0.7363         0.7986         0.7582         0.7002       -37.9929       1.782894              1
     13646.5000         0.7327         0.7987         0.7582         0.6998       -37.9951        1.79052              1
     13647.0000         0.7274         0.7988         0.7582         0.7083       -37.9975       1.797943              1
     13647.5000         0.7239         0.7989         0.7571         0.7165       -37.9996       1.805668              1
     13648.0000         0.7186         0.7991         0.7444          0.725       -38.0018        1.81329              1
     13648.5000         0.7115         0.7992         0.7444         0.7246        -38.004       1.820911              1
     13649.0000         0.7044         0.7993         0.7444         0.7331        -38.283       1.551739              1
     13649.5000         0.7027         0.7994         0.7342         0.7416       -38.2851       1.559464              1
     13650.0000         0.7044         0.7995         0.7227         0.7501       -38.2873       1.567085              1
     13650.5000         0.7044         0.7996         0.7167           0.75       -38.2895       1.574711              1
     13651.0000         0.7009         0.7998         0.7136         0.7589       -38.5686       1.305435              1
     13651.5000         0.6973         0.7999         0.7029         0.7679       -38.5706       1.313259              1
     13652.0000         0.6973            0.8         0.7029         0.7679        -38.681       1.212681              1
     13652.5000         0.6956         0.8001          0.703         0.7768       -38.8517       1.051807              1
     13653.0000         0.6973         0.8002         0.6973         0.7857       -38.8541       1.059231              1
     13653.5000         0.6991         0.8004         0.6891         0.7857       -38.8561       1.067055              1
     13654.0000         0.7027         0.8005         0.6892         0.7946       -38.7517       1.181274              1
     13654.5000          0.708         0.8006         0.6892         0.7946       -38.5839       1.358902              1
     13655.0000         0.7115         0.7869         0.6892         0.7946       -38.3097       1.642925              1
     13655.5000          0.715         0.7869         0.6892         0.7857       -38.2766       1.685848              1
     13656.0000          0.715         0.7871         0.6893         0.7857       -38.0373       1.934971              1
     13656.5000         0.7133         0.7872         0.6798         0.7857       -37.8668       2.115299              1
     13657.0000         0.7115         0.7873         0.6754         0.7857       -37.7652       2.226719              1
     13657.5000         0.7115         0.7874         0.6755         0.7857       -37.7674       2.234344              1
     13658.0000         0.7115         0.7875         0.6755         0.7946       -37.8715       2.140072              1
     13658.5000         0.7133         0.7877         0.6755         0.8036       -38.0484       1.972992              1
     13659.0000         0.7186         0.7878         0.6756         0.8125       -38.3275       1.703716              1
     13659.5000         0.7221         0.7879         0.6756         0.8214       -38.3295        1.71154              1
     13660.0000         0.7257         0.7779         0.6756         0.8304       -38.4314       1.619465              1
     13660.5000          0.731         0.7743         0.6756         0.8393       -38.6106       1.450089              1
     13661.0000         0.7327         0.7744         0.6723         0.8393       -38.6131       1.457413              1
     13661.5000         0.7327         0.7745         0.6666         0.8304        -38.615       1.465332              1
     13662.0000         0.7327         0.7746         0.6618         0.8214       -38.6172       1.472961              1
     13662.5000         0.7292         0.7609         0.6619         0.8125       -38.6195       1.480484              1
     13663.0000         0.7274          0.761         0.6619         0.8036        -38.622       1.487804              1
     13663.5000         0.7221         0.7611         0.6619         0.7946       -38.6239       1.495731              1
     13664.0000         0.7168         0.7612         0.6619         0.7857       -38.7213       1.408157              1
     13664.5000         0.7115         0.7475         0.6559         0.7768        -38.905        1.23428              1
     13665.0000         0.7044         0.7476         0.6481         0.7679       -38.9075         1.2416              1
     13665.5000         0.7009         0.7477         0.6481         0.7679       -38.9256        1.23333              1
     13666.0000         0.6973         0.7478         0.6482         0.7589       -39.1886      0.9801521              1
     13666.5000         0.6973         0.7479         0.6482         0.7589       -39.1905      0.9880753              1
     13667.0000         0.6973          0.748         0.6482           0.75        -39.193      0.9953957              1
     13667.5000         0.6956         0.7482         0.6483         0.7411       -39.2171      0.9811249              1
     13668.0000         0.6903         0.7483         0.6483         0.7411       -39.4738      0.7342453              1
     13668.5000          0.685         0.7484         0.6483         0.7411        -39.476      0.7418671              1
     13669.0000         0.6779         0.7404         0.6483         0.7411       -39.4785      0.7491951              1
     13669.5000         0.6743         0.7348          0.643         0.7411       -39.4804      0.7571182              1
     13670.0000         0.6726         0.7349         0.6345         0.7411       -39.4827      0.7646408              1
     13670.5000         0.6673          0.735         0.6345         0.7411       -39.4849      0.7722626              1
     13671.0000         0.6655         0.7351         0.6346         0.7321       -39.4874      0.7795906              1
     13671.5000         0.6655         0.7297         0.6346         0.7321       -39.4893      0.7875137              1
     13672.0000         0.6673         0.7215         0.6346         0.7321       -39.4915      0.7951355              1
     13672.5000         0.6655         0.7216         0.6346         0.7321       -39.4938      0.8026581              1
     13673.0000         0.6655         0.7154         0.6347         0.7321       -39.4963      0.8099861              1
     13673.5000          0.669          0.708         0.6347         0.7321       -39.4982      0.8179092              1
     13674.0000         0.6726         0.7068         0.6208         0.7321       -39.5004       0.825531              1
     13674.5000         0.6761         0.6943         0.6209         0.7321       -39.5026      0.8331528              1
     13675.0000         0.6796         0.6944         0.6199         0.7321       -39.2286       1.116982              1
     13675.5000         0.6814         0.6946          0.607         0.7321       -39.2305       1.124905              1
     13676.0000         0.6796         0.6947         0.6071         0.7321       -39.2327       1.132526              1
     13676.5000         0.6743         0.6868         0.6071         0.7321       -39.2349       1.140152              1
     13677.0000          0.669          0.681         0.6071         0.7321       -39.5141      0.8707771              1
     13677.5000         0.6619         0.6811         0.6071         0.7321        -39.516      0.8787003              1
     13678.0000         0.6584         0.6813         0.6072         0.7411       -39.5182       0.886322              1
     13678.5000         0.6602         0.6814         0.6072         0.7411       -39.5204      0.8939476              1
     13679.0000         0.6619         0.6815         0.6072         0.7321        -39.523      0.9011726              1
