#------------------------------------------------------------------------------
# Created by    : vladimir.rabinovich
# Created on    : 09/19/2023 17:21:29
#------------------------------------------------------------------------------
~Version Information Section
VERS.           2.0     :   CWLS log ASCII Standard - VERSION 2.0
WRAP.           NO      :   One line per depth step
~Well Information Section
#MNEM       .UNIT                                         VALUE :DESCRIPTION
#------------------------------------------------------------------------------
STRT        .FT                                            1500 :START DEPTH
STOP        .FT                                            6885 :STOP DEPTH
STEP        .FT                                             0.5 :STEP      
NULL        .                                           -999.25 :NULL      
COMP        .                        HILLHOUSE OPERATING CO LLC :COMPANY   
WELL        .                                  LEWIS J C FAMILY :WELL      
FLD         .                                    LIVE OAK BAYOU :FIELD     
LOC         .                                                   :LOCATION  
CNTY        .                                         MATAGORDA :LOCATION  
STAT        .                                             TEXAS :STATE     
CTRY        .                                     UNITED STATES :COUNTRY   
SRVC        .                                                   :SERVICE COMPANY
DATE        .                             9/13/2023 11:19:17 AM :LOG DATE  
API         .                                    42321308450000 :API NUMBER
UWI         .                                    42321308450000 :UNIQUE WELL ID
XCOORD      .                                  757138.788685477 :SURFACE X 
YCOORD      .                                  10457801.5308193 :SURFACE Y 
LAT         .                                        28.7888954 :LATITUDE  
LON         .                                       -95.7578897 :LONGITUDE 
ELEV        .FT                                              17 :ELEVATION VALUE
ELEV_TYPE   .                                                KB :ELEVATION REFERENCE TYPE
~Curve Information Section
#MNEM       .UNIT                                      API CODE :CURVE DESCRIPTION
#------------------------------------------------------------------------------
DEPT        .FT                                                 :DEPTH     
CALI        .IN                                                 :          
DCOR        .G/C3                                               :          
DPOR        .%                                                  :          
DT          .US/F                                               :          
GR          .GAPI                                               :          
GR_NORM     .GAPI                                               :GammaRay Normalized
ILD         .OHMM                                               :          
ILM         .OHMM                                               :          
LL8         .OHMM                                               :          
NPOR        .%                                                  :          
RHOB        .G/C3                                               :          
SP          .MV                                                 :          
SP_NORM     .MV                                                 :SP Normalized
VSH_GR      .V/V                                                :Volume of Shale from GR
VSH_SP      .V/V                                                :Volume of Shale from SP
~A        DEPTH           CALI           DCOR           DPOR             DT             GR        GR_NORM            ILD            ILM            LL8           NPOR           RHOB             SP        SP_NORM         VSH_GR         VSH_SP
# ...
      2945.0000          7.725         0.0169        29.8359        158.772         66.634       80.12231         0.7546          0.823         0.9569        51.3744         2.1575       -65.1774       1.489265              1              1
      2945.5000         7.7108         0.0391        29.4438        156.035        65.2613       77.86739         0.8616         0.8815         0.9971        51.5815          2.163       -64.9798       1.686867      0.9546252              1
      2946.0000         7.7083         0.0421        29.8898       153.6157        64.0865       75.93711         0.9398         0.9441         1.0535        50.8613         2.1565       -64.9798       1.686867      0.9135556              1
      2946.5000         7.7094         0.0347        30.8442       150.7796        64.0979       75.95284         0.9838          0.966         1.0778        48.9441         2.1367       -65.5726       1.094063      0.9138902              1
      2947.0000          7.731         0.0218        31.1399         150.68         64.307       76.29286         0.9884         0.9705         1.0829        47.3861         2.1322       -65.7703      0.8963623      0.9211247              1
      2947.5000         7.7323         0.0169        30.4489       151.1745        63.5277       75.01143         0.9358         0.9795         1.0683        45.6482         2.1501       -66.1655      0.5011673      0.8938602              1
      2948.0000         7.7334         0.0268         28.412       151.7682        61.1673       71.13619         0.9273         0.9662         1.0253        44.4487         2.1827        -66.956     -0.2893372      0.8114083              1
      2948.5000         7.7745         0.0401        26.4635       151.9654        60.3882       69.85509         0.9065         0.9488         0.9886        42.3817         2.2164       -67.1537     -0.4870377      0.7841508              1
      2949.0000         7.7956         0.0382        25.5616       151.4689        60.7951       70.51963         0.9024         0.9446         0.9887        41.1225         2.2282       -67.7466      -1.079933        0.79829      0.9975021
      2949.5000         7.7761         0.0347        25.8589       150.3777        62.5875       73.45706         0.9361         0.9447         0.9888        41.2097         2.2218       -68.1418      -1.475136      0.8607885       0.985152
      2950.0000         7.7784         0.0297        26.8732       147.8589        66.5512       79.95653         0.9405         0.9491         0.9934        41.7772         2.2025       -68.1418      -1.475136      0.9990751       0.985152
      2950.5000         7.7799         0.0236        27.5046       146.4046        68.1865       82.63625         0.9367         0.9652         1.0103         46.352         2.1965       -69.3079      -2.641235              1      0.9487114
      2951.0000         7.7799         0.0183        28.0659       145.4136        68.7346       83.53242         0.9756         0.9845         1.0352        48.1414         2.1836       -69.9278      -3.261139              1      0.9293394
      2951.5000         7.7799         0.0183        28.6025       143.9317        67.7511       81.91599         1.0259         1.0073         1.0738        50.1777         2.1747       -70.3272      -3.660538              1      0.9168582
      2952.0000         7.7803         0.0257        28.9595       144.8227        66.7675       80.29939         1.0641         1.0166         1.1765        50.2951         2.1658       -71.1215      -4.454834              1      0.8920364
      2952.5000         7.7804         0.0311        29.7354       148.9838        66.9697       80.62812         1.0887         1.0166         1.2037        50.2629         2.1573        -68.754      -2.087334              1      0.9660208
      2953.0000         7.7812         0.0331        30.0924       150.6283        67.5671       81.60516         1.0788         0.9937         1.0887         50.889         2.1479       -67.5723     -0.9056396              1              1
      2953.5000         7.7618         0.0345        31.0479        154.195        67.9669       82.25806         1.0545         0.9758         1.0545        51.7545         2.1306       -66.5882     0.07846069              1              1
      2954.0000          7.782         0.0227        32.2427       155.9188        68.3172       82.82972         1.0261         0.9538         1.0402          52.59         2.1023       -65.4066       1.260063              1              1
      2954.5000         7.7824         0.0048        33.9162       158.1574        71.1392       87.45624          1.003         0.9323         1.0403        55.3405          2.084       -65.0154        1.65126              1              1
      2955.0000         7.8224        -0.0016        34.7518       160.3368        72.2796       89.32406         0.9849         0.9197         1.0499        56.1748         2.0726       -64.6246       2.042061              1              1
      2955.5000          7.862        -0.0017        35.0489       162.6154        69.5672       84.87138         0.9627         0.9113         1.0547         55.665         2.0701       -64.8261       1.840561              1              1
      2956.0000         7.9221         0.0013         34.987       164.2993        66.6573       80.09467          0.941         0.8787         1.0452        54.5255         2.0731       -65.0276       1.639061              1              1
      2956.5000         7.9024         0.0013        34.6258       167.0137        67.7975       81.96218         0.9325         0.8707         1.0263        53.3264          2.079       -65.2291       1.437561              1              1
      2957.0000         7.9427         0.0062        34.0253       167.8058        70.7668       86.83034          0.924          0.855         1.0078        52.6359         2.0923       -65.6282       1.038467              1              1
      2957.5000         7.9827         0.0136        32.8858       168.6967        73.9338       92.02282         0.9199         0.8473         0.9896        51.1075         2.1096       -66.0272      0.6394653              1              1
      2958.0000         8.0028         0.0245        32.1058       169.0922         75.915       95.26999         0.9157         0.8435         0.9629        50.1476         2.1284       -66.4261      0.2405624              1              1
      2958.5000         8.0033         0.0294         31.266       169.1903        77.1056       97.22019         0.9158         0.8397         0.9326         51.073         2.1329       -67.2205      -0.553833              1              1
      2959.0000         8.0433         0.0309        31.2639       169.1894        78.6924       99.82033         0.8992         0.8397           0.92        53.7635         2.1319       -67.6194     -0.9527359              1              1
      2959.5000         8.1227         0.0309        31.4414       169.0893        79.6368       101.3666          0.887         0.8283         0.9117        54.9878         2.1279       -67.8208      -1.154137              1      0.9951832
      2960.0000         8.1824         0.0254        31.4393       168.2954        75.7861       95.04657          0.883         0.8284         0.9076        54.9556         2.1298       -67.6672      -1.000534              1      0.9999833
      2960.5000         8.2619          0.021        31.1978       167.6997         73.023       90.51069         0.8831         0.8284         0.9035        54.4751         2.1338       -67.8286      -1.161934              1      0.9949396
      2961.0000         8.3018         0.0204        31.0155       167.1041        70.4091       86.21958         0.8791          0.836         0.9076        53.6944         2.1343       -68.0299      -1.363235              1      0.9886489
      2961.5000         8.3814         0.0204        31.3732       166.0127        70.4137       86.22414         0.8791         0.8399         0.9077        53.4229         2.1283       -68.0338      -1.367134              1      0.9885271
