#------------------------------------------------------------------------------
# Created by    : vladimir.rabinovich
# Created on    : 09/19/2023 17:21:29
#------------------------------------------------------------------------------
~Version Information Section
VERS.           2.0     :   CWLS log ASCII Standard - VERSION 2.0
WRAP.           NO      :   One line per depth step
~Well Information Section
#MNEM       .UNIT                                         VALUE :DESCRIPTION
#------------------------------------------------------------------------------
STRT        .FT                                            1500 :START DEPTH
STOP        .FT                                            6885 :STOP DEPTH
STEP        .FT                                             0.5 :STEP      
NULL        .                                           -999.25 :NULL      
COMP        .                        HILLHOUSE OPERATING CO LLC :COMPANY   
WELL        .                                  LEWIS J C FAMILY :WELL      
FLD         .                                    LIVE OAK BAYOU :FIELD     
LOC         .                                                   :LOCATION  
CNTY        .                                         MATAGORDA :LOCATION  
STAT        .                                             TEXAS :STATE     
CTRY        .                                     UNITED STATES :COUNTRY   
SRVC        .                                                   :SERVICE COMPANY
DATE        .                             9/13/2023 11:19:17 AM :LOG DATE  
API         .                                    42321308450000 :API NUMBER
UWI         .                                    42321308450000 :UNIQUE WELL ID
XCOORD      .                                  757138.788685477 :SURFACE X 
YCOORD      .                                  10457801.5308193 :SURFACE Y 
LAT         .                                        28.7888954 :LATITUDE  
LON         .                                       -95.7578897 :LONGITUDE 
ELEV        .FT                                              17 :ELEVATION VALUE
ELEV_TYPE   .                                                KB :ELEVATION REFERENCE TYPE
~Curve Information Section
#MNEM       .UNIT                                      API CODE :CURVE DESCRIPTION
#------------------------------------------------------------------------------
DEPT        .FT                                                 :DEPTH     
CALI        .IN                                                 :          
DCOR        .G/C3                                               :          
DPOR        .%                                                  :          
DT          .US/F                                               :          
GR          .GAPI                                               :          
GR_NORM     .GAPI                                               :GammaRay Normalized
ILD         .OHMM                                               :          
ILM         .OHMM                                               :          
LL8         .OHMM                                               :          
NPOR        .%                                                  :          
RHOB        .G/C3                                               :          
SP          .MV                                                 :          
SP_NORM     .MV                                                 :SP Normalized
VSH_GR      .V/V                                                :Volume of Shale from GR
VSH_SP      .V/V                                                :Volume of Shale from SP
~A        DEPTH           CALI           DCOR           DPOR             DT             GR        GR_NORM            ILD            ILM            LL8           NPOR           RHOB             SP        SP_NORM         VSH_GR         VSH_SP
# ...
      6872.0000         9.9152         0.0479        33.6333        113.827        74.9813       88.69344         0.7176         0.7375         0.7898        45.3708         2.0912       -39.9758     -0.4696274              1              1
      6872.5000         9.8071         0.0494        33.2133       113.8305        76.5667       91.46033         0.7046         0.7375         0.7579        45.9667         2.1035       -39.5849    -0.07872772              1              1
      6873.0000         9.2961         0.0375        33.8686        113.834        76.7183       91.72489          0.695         0.7476         0.7719        48.4152         2.0927       -39.5888    -0.08262634              1              1
      6873.5000         9.2356         0.0291        35.7784       113.8896        72.4286       84.23841         0.6949         0.7374          0.786        49.8774          2.056       -39.5927    -0.08652878              1              1
      6874.0000         8.9495         0.0162        36.9115       113.9401        68.4831       77.35268         0.7045          0.734         0.7932        50.9513         2.0437       -39.3992      0.1069717      0.9436741              1
      6874.5000         8.3496         0.0182        35.2372       113.9436        67.1549       75.03468         0.7174         0.7407         0.7824        52.5031         2.0615        -39.403      0.1031723      0.8943549              1
      6875.0000         8.1328         0.0395        33.2639       113.8481        67.7034       75.99194         0.7406         0.7577         0.7612        51.6057         2.1001       -39.2095      0.2966728       0.914722              1
      6875.5000         8.6272         0.0494        32.6346       113.8516        67.9071       76.34742         0.7577         0.7752         0.8415        49.3341         2.1075       -38.8609      0.6452713      0.9222855              1
      6876.0000         9.1591         0.0464        33.4988       113.8544        68.3073       77.04587         0.7681         0.8338         0.9781        47.5095         2.0991       -38.6651      0.8410721      0.9371461              1
      6876.5000         9.2979         0.0429        32.8398       113.9189        68.3125       77.05495         0.7751         0.7893         0.9781        48.0762          2.108       -38.4719       1.034271      0.9373393              1
      6877.0000         9.1206         0.0479        31.4637       113.9611        68.5152        77.4087         0.7786         0.7893         0.8927        49.8672         2.1303        -38.041       1.465172      0.9448659              1
      6877.5000         9.0422         0.0518        30.9831       113.9646        68.5203        77.4176          0.768         0.7893         0.8646        50.8213         2.1367       -37.8474       1.658772      0.9450554              1
      6878.0000         9.1415         0.0335        33.2224       113.9674        69.5131       79.15024         0.7506         0.7892         0.8926        50.8204         2.0996       -37.6538       1.852371      0.9819199              1
      6878.5000         9.2211         0.0063        35.9396       113.7737        70.3083       80.53803          0.727         0.7892         0.9007        50.6396         2.0496       -37.4603       2.045872              1              1
      6879.0000         8.6904        -0.0056         38.747       113.7751        71.1035       81.92583         0.7138         0.7891         0.9007        50.5483           2.01       -37.3071       2.199074              1              1
      6879.5000         7.5434        -0.0041        38.0874       113.8433        71.8987       83.31364         0.7073         0.7574         0.8724         51.204          2.019       -37.5083       1.997871              1              1
      6880.0000         6.1811         0.0098        36.9502       113.8839        73.0419       85.30877          0.704          0.747         0.8604        52.1892         2.0496       -37.5122       1.993973              1              1
      6880.5000         5.8677         0.0285        33.1238       113.8875        72.9457       85.14089         0.7011         0.7436          0.845        54.8173         2.0996       -37.7049       1.801273              1              1
      6881.0000         5.8484          0.037        30.1335       113.9761        70.5315        80.9276         0.6975          0.744         0.8263         56.848         2.1511       -37.7194       1.786774              1              1
      6881.5000         5.9084         0.0429        27.9801       113.8743        68.8105       77.92406         0.6977         0.7442         0.7932        56.8469         2.1896       -37.7243       1.781872       0.955831              1
      6882.0000         6.0867         0.0523        26.7231       113.7725        69.5053       79.13665         0.7041         0.7443         0.7862        55.5903         2.2238       -37.7287       1.777473      0.9816309              1
      6882.5000          6.186         0.0661        24.6293       113.7679        70.3505       80.61172         0.7044         0.7445         0.7972        55.2603         2.2426       -37.1418       2.364372              1              1
      6883.0000         6.2458         0.0904        23.9697       113.8631        71.5406       82.68868         0.7045         0.7447         0.8271        54.9602         2.2465       -37.1067       2.399471              1              1
      6883.5000         6.2464         0.0993        25.3424       113.6816        72.0882       83.64438         0.7046         0.7444         0.8738        54.3911         2.2268       -36.9142       2.591972              1              1
      6884.0000         6.0771         0.0943        27.1335       113.6781        71.5509       82.70667         0.7048         0.7445         0.8982        52.3873         2.1788       -36.9191        2.58707              1              1
      6884.5000         5.8309         0.0696        30.2397       113.6746         71.556       82.71556         0.7049         0.7447         0.9404        51.6388         2.1491        -36.727       2.779171              1              1
      6885.0000         5.7129         0.0592        32.1505       113.6711        72.1536        83.7585         0.7117         0.7381         0.9451        51.6673         2.1115        -36.337        3.16917              1              1
