#------------------------------------------------------------------------------
# Created by    : vladimir.rabinovich
# Created on    : 09/19/2023 17:22:47
#------------------------------------------------------------------------------
~Version Information Section
VERS.           2.0     :   CWLS log ASCII Standard - VERSION 2.0
WRAP.           NO      :   One line per depth step
~Well Information Section
#MNEM       .UNIT                                         VALUE :DESCRIPTION
#------------------------------------------------------------------------------
STRT        .FT                                            1029 :START DEPTH
STOP        .FT                                            4870 :STOP DEPTH
STEP        .FT                                             0.5 :STEP      
NULL        .                                           -999.25 :NULL      
COMP        .                              CHAPARRAL ENERGY LLC :COMPANY   
WELL        .                                         ST TR 171 :WELL      
FLD         .                               MATAGORDA BAY SOUTH :FIELD     
LOC         .                                                   :LOCATION  
CNTY        .                                         MATAGORDA :LOCATION  
STAT        .                                             TEXAS :STATE     
CTRY        .                                     UNITED STATES :COUNTRY   
SRVC        .                                                   :SERVICE COMPANY
DATE        .                             9/13/2023 11:19:17 AM :LOG DATE  
API         .                                    42321309080000 :API NUMBER
UWI         .                                    42321309080000 :UNIQUE WELL ID
XCOORD      .                                  571019.162580029 :SURFACE X 
YCOORD      .                                  10362433.1969336 :SURFACE Y 
LAT         .                                        28.5138372 :LATITUDE  
LON         .                                       -96.3299832 :LONGITUDE 
ELEV        .FT                                              19 :ELEVATION VALUE
ELEV_TYPE   .                                                KB :ELEVATION REFERENCE TYPE
~Curve Information Section
#MNEM       .UNIT                                      API CODE :CURVE DESCRIPTION
#------------------------------------------------------------------------------
DEPT        .FT                                                 :DEPTH     
DT          .US/FT                                              :          
GUARD       .OHMM                                               :          
IND         .OHMM                                               :          
SP          .MV                                                 :          
SP_NORM     .MV                                                 :SP Normalized
VSH_SP      .V/V                                                :Volume of Shale from SP
~A        DEPTH             DT          GUARD            IND             SP        SP_NORM         VSH_SP
# ...
      4829.0000        -999.25         0.6005         0.3438       -84.1103      -30.21808              0
      4829.5000        -999.25         0.6003          0.342       -84.1287      -30.23648              0
      4830.0000        -999.25         0.6001         0.3402       -84.1471      -30.25489              0
      4830.5000        -999.25         0.5998         0.3396       -84.1652      -30.27298              0
      4831.0000        -999.25         0.5996         0.3396       -84.1831      -30.29088              0
      4831.5000        -999.25         0.6071         0.3396       -84.2011      -30.30889              0
      4832.0000        -999.25         0.6069         0.3396        -84.219      -30.32679              0
      4832.5000        -999.25         0.6067         0.3396        -84.237      -30.34478              0
      4833.0000        -999.25         0.6066         0.3396       -84.2549      -30.36268              0
      4833.5000        -999.25         0.5987         0.3396       -84.2819      -30.38968              0
      4834.0000        -999.25         0.5909         0.3396       -84.2998      -30.40758              0
      4834.5000        -999.25         0.5831         0.3396       -84.3178      -30.42559              0
      4835.0000        -999.25         0.5752         0.3396       -83.9587      -30.06649              0
      4835.5000        -999.25         0.5751         0.3396       -83.9767      -30.08448              0
      4836.0000        -999.25         0.5825         0.3396       -83.9946      -30.10238              0
      4836.5000        -999.25         0.5824         0.3396       -83.6355      -29.74328    0.008852334
      4837.0000        -999.25         0.5822         0.3396       -83.2765      -29.38428     0.02123168
      4837.5000        -999.25          0.582         0.3396       -83.2944      -29.40219     0.02061423
      4838.0000        -999.25         0.5819         0.3396       -82.9354      -29.04319     0.03299358
      4838.5000        -999.25         0.5817         0.3396       -82.5763      -28.68409     0.04537635
      4839.0000        -999.25         0.5815         0.3396       -82.2172      -28.32499     0.05775912
      4839.5000        -999.25         0.5738         0.3396       -81.4901      -27.59788     0.08283168
      4840.0000        -999.25         0.5661         0.3396       -81.1311      -27.23889     0.09521077
      4840.5000        -999.25         0.5657         0.3384       -80.7547      -26.86248      0.1081902
      4841.0000        -999.25         0.5654         0.3366       -80.3774      -26.48519      0.1212004
      4841.5000        -999.25         0.5725         0.3348            -80      -26.10778      0.1342143
      4842.0000        -999.25         0.5722         0.3321       -79.2453      -25.35308      0.1602385
      4842.5000        -999.25         0.5718         0.3303       -78.8679      -24.97568      0.1732524
      4843.0000        -999.25          0.579         0.3285       -78.4906      -24.59838      0.1862626
      4843.5000        -999.25         0.5862         0.3268       -78.4906      -24.59838      0.1862626
      4844.0000        -999.25         0.7442          0.325       -78.4906      -24.59838      0.1862626
      4844.5000        -999.25         0.8044         0.3609       -78.8679      -24.97568      0.1732524
      4845.0000        -999.25         3.9558         0.3591       -79.6226      -25.73038      0.1472282
      4845.5000        -999.25         3.9558         0.3573       -79.6226      -25.73038      0.1472282
      4846.0000        -999.25         3.9558         0.3555       -79.6226      -25.73038      0.1472282
      4846.5000        -999.25         3.9558         0.3537       -79.6226      -25.73038      0.1472282
      4847.0000        -999.25         3.9558         0.3519       -79.6226      -25.73038      0.1472282
      4847.5000        -999.25         3.9558         0.3492       -79.6226      -25.73038      0.1472282
      4848.0000        -999.25         3.9558         0.3474       -79.6226      -25.73038      0.1472282
      4848.5000        -999.25         3.9558         0.3456       -79.6226      -25.73038      0.1472282
      4849.0000        -999.25         3.9783         0.3438       -79.6226      -25.73038      0.1472282
      4849.5000        -999.25         3.9779          0.342       -79.6226      -25.73038      0.1472282
      4850.0000        -999.25         3.8718         0.3779       -79.6226      -25.73038      0.1472282
      4850.5000        -999.25         3.7204         0.3759       -79.6335      -25.74128      0.1468523
      4851.0000        -999.25         1.0538         0.3737       -79.6544      -25.76219      0.1461315
      4851.5000        -999.25         0.9846         0.3716       -79.6754      -25.78318      0.1454075
      4852.0000        -999.25         0.9154         0.3705       -79.6963      -25.80408      0.1446869
      4852.5000        -999.25         0.8385         0.3683       -79.7172      -25.82499       0.143966
      4853.0000        -999.25         0.8231         0.3662       -79.7277      -25.83548       0.143604
      4853.5000        -999.25         0.8077          0.364       -79.7486      -25.85638      0.1428834
      4854.0000        -999.25         0.8077          0.363       -79.7696      -25.87738      0.1421592
      4854.5000        -999.25         0.8077         0.3608       -79.7905      -25.89828      0.1414386
      4855.0000        -999.25         0.8077         0.3586       -79.8115      -25.91928      0.1407143
      4855.5000        -999.25         0.8154         0.3565       -79.8219      -25.92968      0.1403557
      4856.0000        -999.25         0.8154         0.3554       -79.8429      -25.95069      0.1396315
      4856.5000        -999.25         0.8154         0.3533       -79.8638      -25.97158      0.1389109
      4857.0000        -999.25         0.8154         0.3511       -79.8848      -25.99259      0.1381866
      4857.5000        -999.25         0.8154         0.3489       -79.9057      -26.01348       0.137466
      4858.0000        -999.25         0.8154         0.3479       -79.9162      -26.02398       0.137104
      4858.5000        -999.25         0.8154         0.3457       -79.9371      -26.04489      0.1363832
      4859.0000        -999.25         0.8154         0.3436       -79.9581      -26.06588      0.1356592
      4859.5000        -999.25         0.8154         0.3414        -79.979      -26.08678      0.1349386
      4860.0000        -999.25         0.8154         0.3403            -80      -26.10778      0.1342143
      4860.5000        -999.25         0.8152         0.3396            -80      -26.10778      0.1342143
      4861.0000        -999.25         0.8148         0.3396            -80      -26.10778      0.1342143
      4861.5000        -999.25         0.8143         0.3396            -80      -26.10778      0.1342143
      4862.0000        -999.25         0.8139         0.3396            -80      -26.10778      0.1342143
      4862.5000        -999.25         0.8135         0.3396            -80      -26.10778      0.1342143
      4863.0000        -999.25         0.8131         0.3396            -80      -26.10778      0.1342143
      4863.5000        -999.25         0.8129         0.3396       -79.6226      -25.73038      0.1472282
      4864.0000        -999.25         0.8125         0.3396       -79.6226      -25.73038      0.1472282
      4864.5000        -999.25          0.812         0.3396       -79.6226      -25.73038      0.1472282
      4865.0000        -999.25         0.8116         0.3396       -79.6226      -25.73038      0.1472282
      4865.5000        -999.25         0.8112         0.3396       -79.6226      -25.73038      0.1472282
      4866.0000        -999.25         0.8108         0.3396       -79.6226      -25.73038      0.1472282
      4866.5000        -999.25         0.8104         0.3396       -79.6226      -25.73038      0.1472282
