#------------------------------------------------------------------------------
# Created by    : vladimir.rabinovich
# Created on    : 09/19/2023 17:19:43
#------------------------------------------------------------------------------
~Version Information Section
VERS.           2.0     :   CWLS log ASCII Standard - VERSION 2.0
WRAP.           NO      :   One line per depth step
~Well Information Section
#MNEM       .UNIT                                         VALUE :DESCRIPTION
#------------------------------------------------------------------------------
STRT        .FT                                              86 :START DEPTH
STOP        .FT                                           17232 :STOP DEPTH
STEP        .FT                                             0.5 :STEP      
NULL        .                                           -999.25 :NULL      
COMP        .                                        EXXON CORP :COMPANY   
WELL        .                               OYSTR LKE TMPRRY GU :WELL      
FLD         .                                           WILDCAT :FIELD     
LOC         .                                                   :LOCATION  
CNTY        .                                         MATAGORDA :LOCATION  
STAT        .                                             TEXAS :STATE     
CTRY        .                                     UNITED STATES :COUNTRY   
SRVC        .                                                   :SERVICE COMPANY
DATE        .                             9/13/2023 11:19:17 AM :LOG DATE  
API         .                                    42321309610000 :API NUMBER
UWI         .                                    42321309610000 :UNIQUE WELL ID
XCOORD      .                                  606681.955270441 :SURFACE X 
YCOORD      .                                  10380406.3085524 :SURFACE Y 
LAT         .                                         28.565886 :LATITUDE  
LON         .                                       -96.2205825 :LONGITUDE 
ELEV        .FT                                              25 :ELEVATION VALUE
ELEV_TYPE   .                                                KB :ELEVATION REFERENCE TYPE
~Curve Information Section
#MNEM       .UNIT                                      API CODE :CURVE DESCRIPTION
#------------------------------------------------------------------------------
DEPT        .FT                                                 :DEPTH     
ASFL        .OHMM                                               :          
CILD        .MMHO                                               :          
ILD         .OHMM                                               :          
SP          .MV                                                 :          
SP_NORM     .MV                                                 :SP Normalized
VSH_SP      .V/V                                                :Volume of Shale from SP
~A        DEPTH           ASFL           CILD            ILD             SP        SP_NORM         VSH_SP
# ...
      9206.0000         0.5933       2068.492        -999.25         6.0835      -1.667587      0.9903248
      9206.5000         0.5954       2063.984        -999.25         5.8732      -1.876709      0.9872941
      9207.0000         0.6023       2059.473        -999.25         5.6848      -2.063929      0.9845808
      9207.5000         0.6103        2057.23        -999.25         5.5161      -2.231451      0.9821529
      9208.0000         0.6193       2056.121        -999.25         5.4614      -2.284972      0.9813772
      9208.5000         0.5961       2056.379        -999.25         5.4755      -2.269693      0.9815987
      9209.0000         0.5554       2064.813        -999.25         5.5248      -2.219214      0.9823302
      9209.5000         0.5404       2085.063        -999.25         5.6105      -2.132336      0.9835894
      9210.0000         0.5282        2114.84        -999.25         5.6962      -2.045457      0.9848484
      9210.5000         0.5322       2243.676        -999.25         5.7817      -1.958778      0.9861047
      9211.0000         0.5421        2366.75        -999.25         5.8198      -1.919499       0.986674
      9211.5000         0.5664        2380.93        -999.25         5.8244      -1.913721      0.9867577
      9212.0000         0.5862       2327.645        -999.25         5.8289      -1.908042        0.98684
      9212.5000          0.602        2294.25        -999.25         5.8335      -1.902263      0.9869237
      9213.0000         0.5931       2256.074        -999.25         5.8351      -1.899484       0.986964
      9213.5000         0.5827       2214.434        -999.25         5.8179      -1.915505      0.9867318
      9214.0000          0.561        2197.98        -999.25         5.8007      -1.931526      0.9864996
      9214.5000         0.5443        2211.82        -999.25         5.7834      -1.947648       0.986266
      9215.0000         0.5314       2225.637        -999.25         5.7662      -1.963669      0.9860338
      9215.5000         0.5184       2245.043        -999.25          5.749       -1.97969      0.9858016
      9216.0000         0.5054        2303.43        -999.25         5.7358      -1.991712      0.9856274
      9216.5000          0.495       2350.688        -999.25         5.7446      -1.981733       0.985772
      9217.0000         0.4856       2519.406        -999.25         5.7534      -1.971754      0.9859166
      9217.5000         0.4779       2694.766        -999.25         5.7622      -1.961775      0.9860612
      9218.0000         0.4705        2761.16        -999.25          5.771      -1.951797      0.9862059
      9218.5000         0.4672       2840.637        -999.25         5.7798      -1.941817      0.9863505
      9219.0000         0.4663       2889.262        -999.25         5.7874      -1.933039      0.9864777
      9219.5000         0.4851       2899.805        -999.25         5.7885       -1.93076      0.9865108
      9220.0000         0.5033       2827.262        -999.25         5.7896      -1.928481      0.9865438
      9220.5000         0.5148       2762.723        -999.25         5.7908      -1.926102      0.9865782
      9221.0000         0.5267       2700.086        -999.25         5.7919      -1.923823      0.9866112
      9221.5000         0.5363       2665.375        -999.25          5.793      -1.921545      0.9866443
      9222.0000          0.539       2610.211        -999.25         5.7941      -1.919266      0.9866773
      9222.5000         0.5356       2537.371        -999.25         5.7952      -1.916987      0.9867103
      9223.0000         0.5322       2468.047        -999.25          5.805      -1.906009      0.9868695
      9223.5000         0.5298       2396.332        -999.25          5.817       -1.89283      0.9870604
      9224.0000         0.5275       2371.313        -999.25         5.8289      -1.879751        0.98725
      9224.5000         0.5251       2377.281        -999.25         5.8408      -1.866672      0.9874395
      9225.0000         0.5228        2387.84        -999.25         5.8527      -1.853593      0.9876291
      9225.5000         0.5222        2401.02        -999.25         5.8424      -1.862714      0.9874969
      9226.0000         0.5216       2416.273        -999.25         5.8312      -1.872736      0.9873517
      9226.5000         0.5222       2431.508        -999.25         5.8201      -1.882657      0.9872079
      9227.0000         0.5287       2440.586        -999.25         5.8089      -1.892678      0.9870626
      9227.5000         0.5352       2449.496        -999.25         5.7978      -1.902599      0.9869189
      9228.0000         0.5417       2458.418        -999.25         5.7793       -1.91992      0.9866678
      9228.5000         0.5497        2380.27        -999.25         5.7482      -1.949842      0.9862342
      9229.0000         0.5583        2336.09        -999.25          5.717      -1.979863      0.9857991
      9229.5000         0.5653       2311.656        -999.25         5.6859      -2.009784      0.9853655
      9230.0000         0.5705       2292.629        -999.25         5.6547      -2.039805      0.9849303
      9230.5000         0.5723       2285.902        -999.25         5.6236      -2.069726      0.9844967
      9231.0000         0.5627        2279.18        -999.25         5.6332      -2.058948      0.9846529
      9231.5000          0.548       2272.477        -999.25          5.672      -2.018969      0.9852324
      9232.0000         0.5372       2265.828        -999.25         5.7108       -1.97899      0.9858117
      9232.5000         0.5261       2279.508        -999.25         5.7496      -1.939012      0.9863911
      9233.0000         0.5171       2341.215        -999.25         5.7884      -1.899033      0.9869705
      9233.5000         0.5102       2450.863        -999.25         5.8279      -1.858354      0.9875601
      9234.0000         0.5105        2520.09        -999.25         5.8714      -1.813675      0.9882076
      9234.5000         0.5108       2554.898        -999.25         5.9151      -1.768796       0.988858
      9235.0000         0.5137       2569.813        -999.25         5.9586      -1.724118      0.9895055
      9235.5000         0.5176       2552.359        -999.25         6.0015      -1.680038      0.9901444
      9236.0000          0.537       2535.223        -999.25         6.0345       -1.64586      0.9906397
      9236.5000         0.5542       2519.992        -999.25         6.0675      -1.611681      0.9911351
      9237.0000         0.5054       2504.734        -999.25         6.1006      -1.577403      0.9916319
      9237.5000         0.5102       2488.648        -999.25         6.1335      -1.543324      0.9921257
      9238.0000         0.5193       2470.734        -999.25         6.1665      -1.509145      0.9926211
      9238.5000         0.5291       2452.379        -999.25         6.1863      -1.488166      0.9929251
      9239.0000         0.5435       2426.016        -999.25         6.2033      -1.469987      0.9931886
      9239.5000         0.5438       2384.859        -999.25         6.2203      -1.451808      0.9934521
      9240.0000         0.5391       2395.797        -999.25         6.2267       -1.44423      0.9935619
      9240.5000         0.5325       2414.566        -999.25         6.1696      -1.500151      0.9927514
      9241.0000          0.528       2422.402        -999.25         6.1125      -1.556072       0.991941
      9241.5000          0.524        2424.66        -999.25         6.0555      -1.611893       0.991132
      9242.0000         0.5218       2419.676        -999.25         5.9983      -1.667914      0.9903201
      9242.5000         0.5209       2414.695        -999.25         5.9595      -1.705536      0.9897748
      9243.0000          0.526        2409.68        -999.25         5.9278      -1.736057      0.9893325
      9243.5000         0.5313       2404.645        -999.25          5.896      -1.766678      0.9888887
