#------------------------------------------------------------------------------
# Created by    : vladimir.rabinovich
# Created on    : 09/19/2023 17:21:29
#------------------------------------------------------------------------------
~Version Information Section
VERS.           2.0     :   CWLS log ASCII Standard - VERSION 2.0
WRAP.           NO      :   One line per depth step
~Well Information Section
#MNEM       .UNIT                                         VALUE :DESCRIPTION
#------------------------------------------------------------------------------
STRT        .FT                                            1500 :START DEPTH
STOP        .FT                                            6885 :STOP DEPTH
STEP        .FT                                             0.5 :STEP      
NULL        .                                           -999.25 :NULL      
COMP        .                        HILLHOUSE OPERATING CO LLC :COMPANY   
WELL        .                                  LEWIS J C FAMILY :WELL      
FLD         .                                    LIVE OAK BAYOU :FIELD     
LOC         .                                                   :LOCATION  
CNTY        .                                         MATAGORDA :LOCATION  
STAT        .                                             TEXAS :STATE     
CTRY        .                                     UNITED STATES :COUNTRY   
SRVC        .                                                   :SERVICE COMPANY
DATE        .                             9/13/2023 11:19:17 AM :LOG DATE  
API         .                                    42321308450000 :API NUMBER
UWI         .                                    42321308450000 :UNIQUE WELL ID
XCOORD      .                                  757138.788685477 :SURFACE X 
YCOORD      .                                  10457801.5308193 :SURFACE Y 
LAT         .                                        28.7888954 :LATITUDE  
LON         .                                       -95.7578897 :LONGITUDE 
ELEV        .FT                                              17 :ELEVATION VALUE
ELEV_TYPE   .                                                KB :ELEVATION REFERENCE TYPE
~Curve Information Section
#MNEM       .UNIT                                      API CODE :CURVE DESCRIPTION
#------------------------------------------------------------------------------
DEPT        .FT                                                 :DEPTH     
CALI        .IN                                                 :          
DCOR        .G/C3                                               :          
DPOR        .%                                                  :          
DT          .US/F                                               :          
GR          .GAPI                                               :          
GR_NORM     .GAPI                                               :GammaRay Normalized
ILD         .OHMM                                               :          
ILM         .OHMM                                               :          
LL8         .OHMM                                               :          
NPOR        .%                                                  :          
RHOB        .G/C3                                               :          
SP          .MV                                                 :          
SP_NORM     .MV                                                 :SP Normalized
VSH_GR      .V/V                                                :Volume of Shale from GR
VSH_SP      .V/V                                                :Volume of Shale from SP
~A        DEPTH           CALI           DCOR           DPOR             DT             GR        GR_NORM            ILD            ILM            LL8           NPOR           RHOB             SP        SP_NORM         VSH_GR         VSH_SP
# ...
      3302.0000         7.9692         0.0208        28.0864         149.88        75.6011       93.50633         1.0172         0.8629         0.8395        47.1501         2.1896       -65.6068     -0.3346024              1              1
      3302.5000         7.9694         0.0208        27.3689         149.88        70.9903       85.45629          1.017         0.9031         0.9072        47.3291         2.1985       -65.2204     0.04380798              1              1
      3303.0000         7.9895         0.0217        26.9503         149.88        68.4128       80.95482         1.0076         0.9538          0.967        48.2551         2.2054       -65.0311      0.2251205              1              1
      3303.5000         7.9897         0.0207        26.7707         149.88        66.6788       77.92544          1.026         1.0166         0.9982        49.8384         2.2084        -65.236     0.01222992      0.9558604              1
      3304.0000           7.99         0.0177         26.412         149.88        68.3665       80.86764         1.0688         1.0495         1.0118        49.6589         2.2128       -65.4408     -0.2005615              1              1
      3304.5000         8.0101         0.0177         26.292       144.8943        70.4014       84.41581         1.1341         1.0883         1.0493        47.7462         2.2128       -65.6464     -0.4141464              1              1
      3305.0000         8.0103         0.0177        26.5308       140.6304        72.3374       87.79139          1.176          1.139         1.1031        44.9372         2.2103       -65.8513      -0.627037              1              1
      3305.5000         7.9907         0.0242        26.8592       137.8757        71.7931       86.83826          1.192         1.1758         1.1336        43.4129         2.2073        -65.859     -0.6427231              1              1
      3306.0000         8.0306         0.0251        26.6498       133.1958        70.4558       84.50121         1.2138         1.1973         1.1334        42.1278         2.2068       -66.0639     -0.8556137              1              1
      3306.5000         8.0586         0.0251        25.9323       131.8302        70.4569       84.49994         1.2303         1.2025         1.1488        41.9781         2.2222       -66.2688      -1.068497              1      0.9980973
      3307.0000         8.0787         0.0246        25.3344       131.0889        70.4585       84.49956          1.247         1.1968         1.1538        43.3523         2.2311       -66.4737      -1.281387              1      0.9921837
      3307.5000         8.0908         0.0223         25.095       130.1292        67.5839       79.47955         1.2468         1.1857         1.1536        46.1607          2.234       -66.8758      -1.691475      0.9889265      0.9807923
      3308.0000         8.1109         0.0211         25.035       129.2108        64.2637       73.68192         1.2638         1.1746         1.1481        47.9533          2.234       -67.0807      -1.904366      0.8655727      0.9748787
      3308.5000         8.1111         0.0251        25.0945       129.4106        62.9265       71.34501         1.2463         1.1573          1.169        47.4749          2.233       -67.4828      -2.314453      0.8158513      0.9634874
      3309.0000         8.1312          0.031        25.3331       129.9092        64.8621       74.71987         1.2403         1.1466         1.1795         45.114         2.2295       -67.6886      -2.528229      0.8876569      0.9575492
      3309.5000         8.1315         0.0374        25.8109       131.0029        66.6488       77.83488         1.2232         1.1359         1.1793          43.53         2.2221       -67.9367      -2.784317      0.9539335      0.9504356
      3310.0000         8.1317          0.033        26.5278       135.3994        67.2944       78.95841         1.2008         1.1357          1.163        44.0975         2.2092       -67.9414      -2.797005      0.9778386      0.9500832
      3310.5000         8.1319         0.0325        26.7665       137.1873        64.7181         74.459         1.1735         1.1149         1.1417        44.6052         2.2072       -67.5149      -2.378494      0.8821064      0.9617085
      3311.0000         8.1666         0.0315         26.826       138.1802        63.0343       71.51723         1.1625         1.0845         1.1208        44.6049         2.2057       -67.1283      -1.999886      0.8195155      0.9722254
      3311.5000         8.2117          0.026        26.8855       140.9817         63.829       72.90097          1.157          1.055         1.1053        44.1265         2.2037       -66.5446      -1.424171      0.8489568      0.9882175
      3312.0000         8.2516         0.0191        27.0047       143.1461        64.9214       74.80427         1.1358         1.0357         1.1001        43.5884         2.2008       -66.1581      -1.045654      0.8894525      0.9987319
      3312.5000         8.2122         0.0196        27.0044       144.5584        65.4188       75.66915         1.1099         1.0168         1.0948        43.7673         2.2012       -66.1658      -1.061348      0.9078543      0.9982959
      3313.0000         8.2521         0.0201        26.7053       145.3331        64.8255       74.63054         1.0748         0.9981         1.0797        44.8726         2.2106         -65.78     -0.6835327      0.8857561              1
      3313.5000         8.2896          0.025        26.1673       145.7526        64.0841       73.33346         1.0407         0.9889         1.0599        45.5296         2.2181       -65.5906      -0.502121      0.8581587              1
      3314.0000         8.3993         0.0185        26.5255       145.2096        63.4916       72.29621         1.0311         0.9797         1.0405        44.6031         2.2062       -65.0068     0.07369232      0.8360896              1
      3314.5000         8.5483          0.017        26.8539       144.8154        62.8977       71.25656         1.0168         0.9795         1.0356        42.8996         2.2066       -64.8173      0.2552032      0.8139694              1
      3315.0000         8.5485          0.021        26.5847       144.7187        61.9079       69.52596         1.0074         0.9793         1.0307        42.0925         2.2111       -64.2334      0.8311157      0.7771481              1
      3315.5000         8.5586         0.0259        26.1659       144.6716        61.1165        68.1416         1.0026         0.9791         1.0305        41.9727          2.218       -64.0439       1.012627      0.7476937              1
      3316.0000         8.5787         0.0279        26.1059       143.9596        60.6716       67.36198         1.0024         0.9789         1.0303         41.584         2.2126       -63.6572       1.391338      0.7311059              1
      3316.5000         8.6186          0.022        27.1813       143.7633         60.971       67.88132         1.0347         0.9787           1.03        40.8068         2.1972       -63.6649       1.375656      0.7421557              1
      3317.0000         8.6287         0.0205        27.8086       142.5767         61.171       68.22717         1.0585         0.9875         1.0298        41.3144         2.1893       -63.6726        1.35997      0.7495142              1
      3317.5000         8.6686          0.019        27.0014        141.885        61.4708        68.7472         1.0778         0.9964         1.0534        42.1807         2.2031       -64.0755      0.9490814      0.7605788              1
      3318.0000         8.9266         0.0259        26.2242       141.6887        61.0753       68.05376         1.0974         1.0145         1.0677        42.6883         2.2318       -64.4778      0.5387955      0.7458248              1
      3318.5000         9.0755         0.0274        24.6103       141.0176        59.3425       65.02648         1.1124         1.0425         1.0724         41.194         2.2437         -64.88      0.1286087      0.6814145              1
