#------------------------------------------------------------------------------
# Created by    : vladimir.rabinovich
# Created on    : 09/19/2023 17:22:47
#------------------------------------------------------------------------------
~Version Information Section
VERS.           2.0     :   CWLS log ASCII Standard - VERSION 2.0
WRAP.           NO      :   One line per depth step
~Well Information Section
#MNEM       .UNIT                                         VALUE :DESCRIPTION
#------------------------------------------------------------------------------
STRT        .FT                                            1029 :START DEPTH
STOP        .FT                                            4870 :STOP DEPTH
STEP        .FT                                             0.5 :STEP      
NULL        .                                           -999.25 :NULL      
COMP        .                              CHAPARRAL ENERGY LLC :COMPANY   
WELL        .                                         ST TR 171 :WELL      
FLD         .                               MATAGORDA BAY SOUTH :FIELD     
LOC         .                                                   :LOCATION  
CNTY        .                                         MATAGORDA :LOCATION  
STAT        .                                             TEXAS :STATE     
CTRY        .                                     UNITED STATES :COUNTRY   
SRVC        .                                                   :SERVICE COMPANY
DATE        .                             9/13/2023 11:19:17 AM :LOG DATE  
API         .                                    42321309080000 :API NUMBER
UWI         .                                    42321309080000 :UNIQUE WELL ID
XCOORD      .                                  571019.162580029 :SURFACE X 
YCOORD      .                                  10362433.1969336 :SURFACE Y 
LAT         .                                        28.5138372 :LATITUDE  
LON         .                                       -96.3299832 :LONGITUDE 
ELEV        .FT                                              19 :ELEVATION VALUE
ELEV_TYPE   .                                                KB :ELEVATION REFERENCE TYPE
~Curve Information Section
#MNEM       .UNIT                                      API CODE :CURVE DESCRIPTION
#------------------------------------------------------------------------------
DEPT        .FT                                                 :DEPTH     
DT          .US/FT                                              :          
GUARD       .OHMM                                               :          
IND         .OHMM                                               :          
SP          .MV                                                 :          
SP_NORM     .MV                                                 :SP Normalized
VSH_SP      .V/V                                                :Volume of Shale from SP
~A        DEPTH             DT          GUARD            IND             SP        SP_NORM         VSH_SP
# ...
      2055.0000       132.7228         1.1472         1.3009       -40.8724       -1.35144              1
      2055.5000       127.9249         1.1247         1.2651       -40.8761      -1.355141              1
      2056.0000       125.9294         1.1248          1.267       -40.8799      -1.358944              1
      2056.5000       126.0221         1.1475         1.2689       -41.4898      -1.968842              1
      2057.0000       125.3513         1.1625         1.2708       -41.4935      -1.972542              1
      2057.5000       125.0445         1.1776         1.2726       -41.7971      -2.276142      0.9827411
      2058.0000       126.6374            1.2         1.2368       -42.7138      -3.192841      0.9254475
      2058.5000       126.0775         1.2075         1.2387       -43.3304      -3.809441        0.88691
      2059.0000       124.4315         1.2302         1.2028       -43.9327      -4.411743      0.8492661
      2059.5000       122.9032         1.2755          1.167        -44.258      -4.737041      0.8289349
      2060.0000       119.1625         1.3208         1.1689        -45.153      -5.632042      0.7729974
      2060.5000       117.5152          1.389         1.1331       -45.7913      -6.270344      0.7331035
      2061.0000       120.9003         1.4347         1.0964        -46.372      -6.851044      0.6968098
      2061.5000       124.3861         1.4124         1.0595       -46.7185       -7.19754      0.6751537
      2062.0000       128.0089         1.3977         1.0226       -47.5922      -8.071243      0.6205473
      2062.5000       130.5403         1.3754         0.9857       -48.2518      -8.730843      0.5793223
      2063.0000       132.8837         1.3607         0.9486       -49.0188      -9.497841      0.5313849
      2063.5000       132.7002         1.3158         0.9115       -49.7854      -10.26444      0.4834723
      2064.0000       132.2223         1.2784         0.8744       -50.6374      -11.11644      0.4302223
      2064.5000       132.2023         1.2486         0.8371       -51.2468      -11.72584      0.3921349
      2065.0000       131.9638         1.2263         0.7998       -51.4797      -11.95874      0.3775787
      2065.5000       131.1379         1.1666         0.7624       -51.8604      -12.33944      0.3537848
      2066.0000       129.6531         1.1145          0.725       -52.4705      -12.94954      0.3156536
      2066.5000       130.7948         1.4614         0.7257         -53.08      -13.55904      0.2775598
      2067.0000       135.1915         1.3712         0.6881       -53.5844      -14.06344      0.2460349
      2067.5000       133.9585         1.2206         0.6505       -54.7068      -15.18584       0.175885
      2068.0000       134.1046         0.8752         0.6128       -54.9097      -15.38874      0.1632037
      2068.5000       134.2468         0.8602          0.575       -54.9132      -15.39224      0.1629848
      2069.0000       132.2747         0.8527         0.5372        -54.917      -15.39604      0.1627474
      2069.5000       131.8142         0.8528         0.4993       -54.9208      -15.39984      0.1625099
      2070.0000       133.1724         0.8528         0.4613       -54.9246      -15.40364      0.1622725
      2070.5000       135.6573         0.8528         0.4615       -54.9283      -15.40734      0.1620412
      2071.0000       137.1123         0.8528         0.4615        -54.932      -15.41104      0.1618099
      2071.5000       137.8068         0.8528         0.4615       -55.3861      -15.86514      0.1334286
      2072.0000       136.4198         0.8604         0.4615       -55.5467      -16.02574      0.1233912
      2072.5000        133.909         0.9057         0.4615       -56.1554      -16.63444     0.08534741
      2073.0000       133.0177         0.9283         0.4615       -56.1592      -16.63824     0.08510995
      2073.5000       132.1251         0.9736         0.4615       -56.7697      -17.24874     0.04695368
      2074.0000       129.3651         1.0189         0.4231       -56.7951      -17.27414     0.04536605
      2074.5000       127.4291         1.0415         0.4231       -57.3826      -17.86164    0.008647442
      2075.0000        126.661         0.9358         0.4231       -57.3863      -17.86534    0.008416176
      2075.5000       127.6722         0.8453         0.4231       -57.9967      -18.47574              0
      2076.0000        128.841         0.8604         0.4231       -57.9999      -18.47894              0
      2076.5000       130.7838          0.883         0.4231       -58.0037      -18.48274              0
      2077.0000       132.6122          0.883         0.3846       -58.0074      -18.48644              0
      2077.5000        130.439         0.8755         0.3846       -58.0116      -18.49064              0
      2078.0000       129.9786         0.8755         0.3846       -58.0149      -18.49394              0
      2078.5000       132.0196         0.8679         0.3846       -58.0187      -18.49774              0
      2079.0000       131.9734         0.8679         0.3846       -58.0225      -18.50154              0
      2079.5000       131.3625         0.8604         0.3846       -57.4205      -17.89954    0.006278515
      2080.0000       129.3714         0.8604         0.3462       -57.4239      -17.90294    0.006066084
      2080.5000       127.4527         0.8528         0.3477       -57.1841      -17.66314     0.02105355
      2081.0000       126.9092         0.8679         0.3493       -56.8254      -17.30444     0.04347229
      2081.5000       126.6024          0.883         0.3508       -56.2233      -16.70234     0.08110356
      2082.0000        127.354         0.8906         0.3523       -56.1188      -16.59784      0.0876348
      2082.5000       130.3227         0.9057         0.3539       -55.3595      -15.83854      0.1350911
      2083.0000       134.1449         0.8906         0.3554       -55.0222      -15.50124      0.1561723
      2083.5000       132.7486         0.8906         0.3952       -54.4201      -14.89914      0.1938035
      2084.0000       131.0593         0.8906         0.3966       -54.2941      -14.77314      0.2016785
      2084.5000       132.1713          0.883         0.3981       -53.8214      -14.30044      0.2312224
      2085.0000       132.5601         0.8755         0.3996       -53.8251      -14.30414      0.2309911
      2085.5000       131.5216         0.8679         0.4011       -53.2229      -13.70194      0.2686286
      2086.0000       129.7152         0.8604         0.4026       -53.0754      -13.55444      0.2778473
      2086.5000       128.4308         0.8755         0.4421       -52.3162      -12.79524      0.3252974
      2087.0000        127.468         0.8981         0.4435       -51.4166      -11.89564      0.3815224
      2087.5000       126.4543         0.9208          0.445       -51.3884      -11.86744      0.3832848
      2088.0000       125.4356         0.9283         0.4464       -49.8664      -10.34544      0.4784098
      2088.5000       124.0972         0.9283         0.4478        -49.003       -9.48204      0.5323725
      2089.0000       122.4907         0.9434         0.4493       -47.7952      -8.274242      0.6078598
      2089.5000       120.9262         0.9585         0.5263        -46.549      -7.028042      0.6857474
      2090.0000        122.313         0.9811         0.6031       -45.5958      -6.074841      0.7453225
      2090.5000       128.2531         1.3057         0.8302       -44.0738      -4.552841      0.8404474
      2091.0000       135.1275         1.5472         0.9811       -42.9616      -3.440643      0.9099598
      2091.5000       140.4364         1.5925         1.1321       -41.6943      -2.173344       0.989166
      2092.0000       141.8193         1.1474         1.2075       -40.5042      -0.983242              1
      2092.5000       139.1193         1.1399         1.2453       -38.9636      0.5573578              1
