#------------------------------------------------------------------------------
# Created by    : vladimir.rabinovich
# Created on    : 09/19/2023 17:19:43
#------------------------------------------------------------------------------
~Version Information Section
VERS.           2.0     :   CWLS log ASCII Standard - VERSION 2.0
WRAP.           NO      :   One line per depth step
~Well Information Section
#MNEM       .UNIT                                         VALUE :DESCRIPTION
#------------------------------------------------------------------------------
STRT        .FT                                              86 :START DEPTH
STOP        .FT                                           17232 :STOP DEPTH
STEP        .FT                                             0.5 :STEP      
NULL        .                                           -999.25 :NULL      
COMP        .                                        EXXON CORP :COMPANY   
WELL        .                               OYSTR LKE TMPRRY GU :WELL      
FLD         .                                           WILDCAT :FIELD     
LOC         .                                                   :LOCATION  
CNTY        .                                         MATAGORDA :LOCATION  
STAT        .                                             TEXAS :STATE     
CTRY        .                                     UNITED STATES :COUNTRY   
SRVC        .                                                   :SERVICE COMPANY
DATE        .                             9/13/2023 11:19:17 AM :LOG DATE  
API         .                                    42321309610000 :API NUMBER
UWI         .                                    42321309610000 :UNIQUE WELL ID
XCOORD      .                                  606681.955270441 :SURFACE X 
YCOORD      .                                  10380406.3085524 :SURFACE Y 
LAT         .                                         28.565886 :LATITUDE  
LON         .                                       -96.2205825 :LONGITUDE 
ELEV        .FT                                              25 :ELEVATION VALUE
ELEV_TYPE   .                                                KB :ELEVATION REFERENCE TYPE
~Curve Information Section
#MNEM       .UNIT                                      API CODE :CURVE DESCRIPTION
#------------------------------------------------------------------------------
DEPT        .FT                                                 :DEPTH     
ASFL        .OHMM                                               :          
CILD        .MMHO                                               :          
ILD         .OHMM                                               :          
SP          .MV                                                 :          
SP_NORM     .MV                                                 :SP Normalized
VSH_SP      .V/V                                                :Volume of Shale from SP
~A        DEPTH           ASFL           CILD            ILD             SP        SP_NORM         VSH_SP
# ...
     17186.0000        -999.25        417.688          1.162         2.5768       8.496815              1
     17186.5000        -999.25        415.144         1.1794         2.5349       8.422225              1
     17187.0000        -999.25       414.7734         1.1947         2.4827       8.337336              1
     17187.5000        -999.25       414.8613         1.2047         2.4175       8.239447              1
     17188.0000        -999.25       415.9897         1.2108          2.335       8.124258              1
     17188.5000        -999.25       417.1211         1.2135         2.2517       8.008268              1
     17189.0000        -999.25        418.252          1.209         2.1714       7.895279              1
     17189.5000        -999.25       419.1914         1.2045         2.0912        7.78239              1
     17190.0000        -999.25        419.981            1.2         2.0112       7.669701              1
     17190.5000        -999.25        419.981         1.1954          1.931       7.556811              1
     17191.0000        -999.25       419.7373         1.2043         1.8434       7.436522              1
     17191.5000        -999.25       405.3931         1.2223         1.7182       7.278633              1
     17192.0000        -999.25       384.8525         1.2867         1.5577       7.085443              1
     17192.5000        -999.25       364.3115         1.3485         1.3054       6.800454              1
     17193.0000        -999.25       325.0356         1.4065         1.0245       6.486865              1
     17193.5000        -999.25       311.4233         1.4649         0.7606       6.190276              1
     17194.0000        -999.25       304.1045         1.5247         0.4803       5.877286              1
     17194.5000        -999.25       303.8896         1.5809         0.1374       5.501698              1
     17195.0000        -999.25       304.1289         1.6298        -0.2177       5.113908              1
     17195.5000        -999.25       304.3691         1.6613        -0.4688       4.830119              1
     17196.0000        -999.25       305.5439         1.6678        -0.6676       4.598629              1
     17196.5000        -999.25       307.1724         1.6582        -0.8767        4.35684              1
     17197.0000        -999.25       307.5688         1.6486        -1.0505       4.150351              1
     17197.5000        -999.25       307.5688         1.6151        -1.1102       4.057962              1
     17198.0000        -999.25       308.8433         1.5597        -1.1537       3.981772              1
     17198.5000        -999.25       313.9116         1.4888         -1.191       3.911783              1
     17199.0000        -999.25       352.4556         1.4078        -1.2234       3.846694              1
     17199.5000        -999.25       399.8799         1.3204        -1.2558       3.781605              1
     17200.0000        -999.25       443.6934          1.235        -1.2875       3.717216              1
     17200.5000        -999.25       461.5093         1.0887        -1.5634       3.408626              1
     17201.0000        -999.25       467.8628         1.0845        -1.5721       3.367237              1
     17201.5000        -999.25       474.2163          1.082        -1.5769       3.329748              1
     17202.0000        -999.25       480.5693         1.0848        -1.5551       3.318859              1
     17202.5000        -999.25       488.0713         1.0902        -1.5285       3.312769              1
     17203.0000        -999.25       495.6221         1.0973        -1.5058        3.30278              1
     17203.5000        -999.25       469.5732         1.1176        -1.4893       3.286591              1
     17204.0000        -999.25       447.4341         1.1378        -1.4729       3.270301              1
     17204.5000        -999.25       421.0435         1.1718        -1.4564       3.254112              1
     17205.0000        -999.25       393.7363         1.2117        -1.4399       3.237923              1
     17205.5000        -999.25       385.5381         1.2459        -1.4086       3.236534              1
     17206.0000        -999.25       374.8594         1.2799         -1.374       3.238444              1
     17206.5000        -999.25       357.3145         1.3116        -1.3393       3.240455              1
     17207.0000        -999.25       339.8184         1.3412         -1.315       3.232066              1
     17207.5000        -999.25       331.6748         1.3708        -1.3084       3.205976              1
     17208.0000        -999.25         330.96         1.4051        -1.3019       3.179788              1
     17208.5000        -999.25       335.1021         1.4415        -1.2953       3.153698              1
     17209.0000        -999.25       340.5879         1.4524        -1.2888       3.127509              1
     17209.5000        -999.25       346.0615          1.446        -1.2822        3.10142              1
     17210.0000        -999.25       351.5718         1.4395        -1.2757        3.07523              1
     17210.5000        -999.25       357.4731         1.4099        -1.2665       3.051741              1
     17211.0000        -999.25       363.3745         1.3782        -1.2552       3.030352              1
     17211.5000        -999.25       369.2759         1.3465        -1.2438       3.009063              1
     17212.0000        -999.25        375.165         1.3155        -1.2325       2.987673              1
     17212.5000        -999.25       384.0962         1.2863        -1.2257       2.961784              1
     17213.0000        -999.25       393.6509          1.257        -1.2191       2.935695              1
     17213.5000        -999.25       402.2764         1.2278        -1.2126       2.909506              1
     17214.0000        -999.25        410.438         1.2053        -1.1977       2.891716              1
     17214.5000        -999.25       418.5752         1.1899        -1.1753       2.881427              1
     17215.0000        -999.25       426.7368         1.1701        -1.1529       2.871138              1
     17215.5000        -999.25       435.3872         1.1496        -1.1176       2.873749              1
     17216.0000        -999.25       444.4775         1.1288        -1.0764       2.882259              1
     17216.5000        -999.25       452.9082          1.108        -1.0421        2.88387              1
     17217.0000        -999.25       458.6016         1.0872         -1.013       2.880281              1
     17217.5000        -999.25       466.6167         1.0647        -0.9548       2.905792              1
     17218.0000        -999.25       484.9678         1.0404        -0.8196       3.008303              1
     17218.5000        -999.25       531.2988          1.016        -0.7846       3.010613              1
     17219.0000        -999.25       558.0557         0.9854        -0.7625       3.000024              1
     17219.5000        -999.25       565.7168         0.9517        -0.7405       2.989335              1
     17220.0000        -999.25       570.1133         0.9193        -0.7228       2.974345              1
     17220.5000        -999.25       570.7217         0.9021        -0.7169       2.947556              1
     17221.0000        -999.25       570.7197         0.9027        -0.7109       2.920867              1
     17221.5000        -999.25       569.7119         0.9109         -0.705       2.894078              1
     17222.0000        -999.25       568.7041         0.9063        -0.7062       2.886614              1
     17222.5000        -999.25       568.3437         0.9015        -0.7111       2.881714              1
     17223.0000        -999.25       572.2656         0.8942        -0.7105       2.882314              1
     17223.5000        -999.25       576.3955         0.8868        -0.6898       2.903014              1
