#------------------------------------------------------------------------------
# Created by    : vladimir.rabinovich
# Created on    : 09/19/2023 17:21:29
#------------------------------------------------------------------------------
~Version Information Section
VERS.           2.0     :   CWLS log ASCII Standard - VERSION 2.0
WRAP.           NO      :   One line per depth step
~Well Information Section
#MNEM       .UNIT                                         VALUE :DESCRIPTION
#------------------------------------------------------------------------------
STRT        .FT                                            1500 :START DEPTH
STOP        .FT                                            6885 :STOP DEPTH
STEP        .FT                                             0.5 :STEP      
NULL        .                                           -999.25 :NULL      
COMP        .                        HILLHOUSE OPERATING CO LLC :COMPANY   
WELL        .                                  LEWIS J C FAMILY :WELL      
FLD         .                                    LIVE OAK BAYOU :FIELD     
LOC         .                                                   :LOCATION  
CNTY        .                                         MATAGORDA :LOCATION  
STAT        .                                             TEXAS :STATE     
CTRY        .                                     UNITED STATES :COUNTRY   
SRVC        .                                                   :SERVICE COMPANY
DATE        .                             9/13/2023 11:19:17 AM :LOG DATE  
API         .                                    42321308450000 :API NUMBER
UWI         .                                    42321308450000 :UNIQUE WELL ID
XCOORD      .                                  757138.788685477 :SURFACE X 
YCOORD      .                                  10457801.5308193 :SURFACE Y 
LAT         .                                        28.7888954 :LATITUDE  
LON         .                                       -95.7578897 :LONGITUDE 
ELEV        .FT                                              17 :ELEVATION VALUE
ELEV_TYPE   .                                                KB :ELEVATION REFERENCE TYPE
~Curve Information Section
#MNEM       .UNIT                                      API CODE :CURVE DESCRIPTION
#------------------------------------------------------------------------------
DEPT        .FT                                                 :DEPTH     
CALI        .IN                                                 :          
DCOR        .G/C3                                               :          
DPOR        .%                                                  :          
DT          .US/F                                               :          
GR          .GAPI                                               :          
GR_NORM     .GAPI                                               :GammaRay Normalized
ILD         .OHMM                                               :          
ILM         .OHMM                                               :          
LL8         .OHMM                                               :          
NPOR        .%                                                  :          
RHOB        .G/C3                                               :          
SP          .MV                                                 :          
SP_NORM     .MV                                                 :SP Normalized
VSH_GR      .V/V                                                :Volume of Shale from GR
VSH_SP      .V/V                                                :Volume of Shale from SP
~A        DEPTH           CALI           DCOR           DPOR             DT             GR        GR_NORM            ILD            ILM            LL8           NPOR           RHOB             SP        SP_NORM         VSH_GR         VSH_SP
# ...
      2231.0000         9.4243         0.0528        27.0236       165.2536        56.7629       65.46858         0.9255         0.8922         0.9094        41.4511         2.2018       -66.6926       2.443207      0.6908209              1
      2231.5000          9.286         0.0469        26.6617       163.7378        56.5707       65.14942         0.9383         0.9046         0.9305        41.0596         2.2068       -66.6926       2.443207      0.6840302              1
      2232.0000         8.8982         0.0384        26.4513       162.0736        56.1801       64.50477         0.9512         0.9171         0.9391        40.9686         2.2112       -66.6926       2.443207      0.6703142              1
      2232.5000         8.7796         0.0325        26.4191       160.6228        55.7896       63.86028         0.9777          0.934         0.9434        40.7274         2.2122       -66.4948       2.641006      0.6566016              1
      2233.0000         8.7009         0.0236        26.3572       159.0929        55.2529       62.97594         0.9958           0.96         0.9521        40.3964         2.2137       -66.4948       2.641006       0.637786              1
      2233.5000         8.7525         0.0187        26.1758        157.344        55.2565       62.97802         1.0142         0.9823         0.9653        40.6641         2.2167        -66.297       2.838806      0.6378302              1
      2234.0000         8.7139         0.0167        25.9347       156.1119        55.8573       63.95975         1.0377         1.0004         0.9876        41.2879         2.2206       -66.2969       2.838905      0.6587181              1
      2234.5000         8.6547         0.0173         25.813       154.1247        56.9563        65.7588         1.0715         1.0096         0.9967        41.2863         2.2216       -66.4948       2.641006      0.6969957              1
      2235.0000         8.5762         0.0187        25.6913       152.4184        58.3973       68.11889         1.0963         1.0236         1.0059        40.2672         2.2246       -66.6926       2.443207      0.7472104              1
      2235.5000         8.5568         0.0201        25.3905       150.7464        59.9897       70.72737         1.1166         1.0521         1.0725        40.5344         2.2315       -67.0883       2.047501        0.80271              1
      2236.0000         8.5657         0.0276        24.9104       149.0969        60.6404       71.79097          1.132          1.057         1.0923        41.8762         2.2424        -67.484       1.642372      0.8253398              1
      2236.5000         8.5859          0.031        23.7134       147.8636        57.8205       67.16106          1.132         1.0667         1.0974        42.3819         2.2602       -67.8798       1.232628       0.726831              1
      2237.0000         8.5171         0.0345        21.6798       147.1684        53.8604       60.66063         1.1218         1.0667         1.1024        41.1251         2.2929       -68.4734      0.6250839      0.5885239              1
      2237.5000         8.4779          0.037        19.6466       145.9757        49.3052       53.18394         1.1167         1.0668         1.0874        39.0918         2.3226       -68.8692      0.2153244      0.4294456              1
      2238.0000         8.2603         0.0286        18.5692       143.7893        45.5431       47.00835         1.1167         1.0668         1.0875        33.8621         2.3434       -69.4629     -0.3923187      0.2980499              1
      2238.5000         7.7452         0.0281        17.9099       142.9929        41.1382       39.77822         1.1015         1.0668         1.0825         30.604         2.3553       -70.0567      -1.000069      0.1442175      0.9999978
      2239.0000         7.5673          0.036        17.0715       142.1433         40.448       38.64209         1.0766         1.0668         1.0629        30.0645         2.3701       -70.6504      -1.607712      0.1200445      0.9803964
      2239.5000         7.5282         0.0439        16.2325        142.234        39.5618        37.1844         1.0767         1.0718         1.0062        29.4052         2.3805       -71.2442      -2.215462     0.08902976      0.9607915
      2240.0000         7.5505         0.0484         17.574       141.0407        37.3859       33.61097         1.0866         1.1016         0.9351        29.2238         2.3582       -72.4719      -3.457108     0.01299927      0.9207385
      2240.5000         7.5908         0.0489        20.1712       136.2743         36.499       32.15214         1.1067         1.1638         0.8691        29.2814         2.2929       -73.0257      -4.024857              0       0.902424
      2241.0000         7.6112         0.0489        23.3947       133.1945        36.4054       31.99471          1.148         1.2072         0.8811        29.5774         2.2394        -75.005      -6.018097              0      0.8381259
      2241.5000         7.6311         0.0504        26.3793       119.8892        37.0561       33.05832         1.1639         1.2754         0.9568        31.1881         2.1978       -77.3803      -8.407356    0.001240913       0.761053
      2242.0000         7.6916         0.0444        28.7067       109.2638        37.7059       34.12046         1.1908          1.366         1.1231        33.2952         2.1691        -79.202        -10.243     0.02383967      0.7018386
      2242.5000         7.6524         0.0405        29.7797       105.0909        36.0756       31.44209         1.2184         1.4169         1.5687        37.3652         2.1562       -81.9333      -12.98824              0      0.6132825
      2243.0000          7.668          0.034        29.8372       101.8721        34.8421       29.41466         1.2466         1.4235         1.9542        38.7078         2.1562       -84.7049       -15.7738              0      0.5234259
      2243.5000         7.6734         0.0251         29.835       101.6711        35.9381       31.20878         1.2581         1.4235         2.2833        39.2133         2.1562       -87.0808      -18.16364              0      0.4463341
      2244.0000         7.6739         0.0207        29.8925       106.2753        37.0347       33.00389         1.2697         1.4171         2.5838        39.6291         2.1562       -88.3091      -19.40588  0.00008270588      0.4062618
      2244.5000         7.7109         0.0167        29.8903       108.3584        37.2387       33.33469         1.2756         1.4042         2.7173        39.5074         2.1567       -90.2498      -21.36053    0.007120985      0.3432086
      2245.0000         7.7345         0.0281        29.8284       112.4275        36.2525       31.71295         1.2468         1.3978         2.4347        38.1313         2.1567       -91.4377      -22.56238              0      0.3044394
      2245.5000         7.7349         0.0395        30.2443       116.2982        36.0597        31.3928          1.202         1.3538         2.2117        35.9487         2.1393       -92.2303      -23.36893              0      0.2784215
      2246.0000         7.7356          0.037        32.2132       125.6877        37.7018       34.08282          1.143         1.2992         2.0275        34.9007         2.1076        -92.825      -23.97758     0.02303874      0.2587878
      2246.5000         7.7362         0.0276        34.1821       127.2739        40.1378       38.07521         1.0056          1.202          1.825        35.4962         2.0769       -94.2116      -25.37813      0.1079832      0.2136088
      2247.0000         7.7562         0.0162        35.6731       127.4721        38.9537       36.12882         0.9177         1.0771         1.6653        36.9574         2.0581       -95.2024      -26.38287     0.06657068      0.1811976
      2247.5000         7.7571         0.0128        35.7306       128.4612        36.9263         32.799         0.8074         0.9563         1.5267        37.8809         2.0611       -95.7972      -26.99162              0      0.1615606
