#------------------------------------------------------------------------------
# Created by    : vladimir.rabinovich
# Created on    : 09/19/2023 17:21:29
#------------------------------------------------------------------------------
~Version Information Section
VERS.           2.0     :   CWLS log ASCII Standard - VERSION 2.0
WRAP.           NO      :   One line per depth step
~Well Information Section
#MNEM       .UNIT                                         VALUE :DESCRIPTION
#------------------------------------------------------------------------------
STRT        .FT                                            1500 :START DEPTH
STOP        .FT                                            6885 :STOP DEPTH
STEP        .FT                                             0.5 :STEP      
NULL        .                                           -999.25 :NULL      
COMP        .                        HILLHOUSE OPERATING CO LLC :COMPANY   
WELL        .                                  LEWIS J C FAMILY :WELL      
FLD         .                                    LIVE OAK BAYOU :FIELD     
LOC         .                                                   :LOCATION  
CNTY        .                                         MATAGORDA :LOCATION  
STAT        .                                             TEXAS :STATE     
CTRY        .                                     UNITED STATES :COUNTRY   
SRVC        .                                                   :SERVICE COMPANY
DATE        .                             9/13/2023 11:19:17 AM :LOG DATE  
API         .                                    42321308450000 :API NUMBER
UWI         .                                    42321308450000 :UNIQUE WELL ID
XCOORD      .                                  757138.788685477 :SURFACE X 
YCOORD      .                                  10457801.5308193 :SURFACE Y 
LAT         .                                        28.7888954 :LATITUDE  
LON         .                                       -95.7578897 :LONGITUDE 
ELEV        .FT                                              17 :ELEVATION VALUE
ELEV_TYPE   .                                                KB :ELEVATION REFERENCE TYPE
~Curve Information Section
#MNEM       .UNIT                                      API CODE :CURVE DESCRIPTION
#------------------------------------------------------------------------------
DEPT        .FT                                                 :DEPTH     
CALI        .IN                                                 :          
DCOR        .G/C3                                               :          
DPOR        .%                                                  :          
DT          .US/F                                               :          
GR          .GAPI                                               :          
GR_NORM     .GAPI                                               :GammaRay Normalized
ILD         .OHMM                                               :          
ILM         .OHMM                                               :          
LL8         .OHMM                                               :          
NPOR        .%                                                  :          
RHOB        .G/C3                                               :          
SP          .MV                                                 :          
SP_NORM     .MV                                                 :SP Normalized
VSH_GR      .V/V                                                :Volume of Shale from GR
VSH_SP      .V/V                                                :Volume of Shale from SP
~A        DEPTH           CALI           DCOR           DPOR             DT             GR        GR_NORM            ILD            ILM            LL8           NPOR           RHOB             SP        SP_NORM         VSH_GR         VSH_SP
# ...
      5087.0000         6.9754         0.0052        38.7928       120.3529        42.3571       44.67535         0.3152         0.3784         0.8979        46.5606         2.0101      -102.1962      -51.57979      0.2484118    0.008239372
      5087.5000         6.9353         0.0008        38.4363       121.0964        42.3007       44.56699         0.2997         0.3615         0.9314         46.473         2.0156      -103.5778      -52.95044      0.2461061              0
      5088.0000         6.9348        -0.0027        37.8709       121.5423        42.9904        45.8818         0.2917         0.3454         0.8658        45.5488          2.022      -104.9595      -54.32121      0.2740809              0
      5088.5000         6.8748        -0.0022        37.2451       120.4999        44.3226        48.4222         0.2864         0.3255         0.7866        42.9815         2.0344      -105.7465      -55.09725      0.3281318              0
      5089.0000         6.8349        -0.0017        36.2911        117.374        44.7627       49.26089         0.2787         0.3082         0.6858        41.4299         2.0483      -106.1364       -55.4762      0.3459765              0
      5089.5000         6.6956        -0.0002         35.098       116.9765        43.3717       46.60678         0.2736         0.3012          0.609        40.8643         2.0676      -105.9723      -55.30116       0.289506              0
      5090.0000         6.6951        -0.0012        33.5465        118.712        39.9516       40.08213         0.2614         0.2985         0.6119        39.3724         2.0973      -104.9754      -54.29332      0.1506836              0
      5090.5000         6.6748         0.0002        33.0105       118.3148        36.9765       34.40631         0.2397         0.2905         0.6435        37.7013         2.1037      -103.1456      -52.45256     0.02992151              0
      5091.0000         6.6545        -0.0012        32.9534       117.4212        35.1895        30.9968         0.2301         0.2762         0.6736        35.8806         2.1072      -102.3469      -51.64292              0    0.007001615
      5091.5000         6.6542        -0.0017        33.4326       116.7757        33.9965       28.72037         0.2228         0.2603         0.6737        34.7173         2.0973       -102.341      -51.62607              0    0.007331923
      5092.0000         6.6931        -0.0018        33.9723       117.1224        33.7926       28.33064         0.2139         0.2431         0.6799        35.9743         2.0874      -102.7316      -52.00572              0              0
      5092.5000         6.6332        -0.0013        34.0938       118.0445        34.3818       29.45376         0.2053         0.2312         0.6707        36.5439         2.0859      -102.9239      -52.18707              0              0
      5093.0000         6.6528         0.0022         34.036       118.7386        35.5649       31.70974         0.2025         0.2209         0.6408        37.2031         2.0874      -103.1157      -52.36793              0              0
      5093.5000         6.6125         0.0022        33.9782       119.8291        36.4991       33.49094         0.2025          0.213         0.6067        37.9819         2.0879      -103.1098      -52.35109     0.01044562              0
      5094.0000          6.612         0.0017        33.9203       119.9277        35.7032       31.97197         0.2025         0.2091         0.5849        39.1194         2.0894      -103.3021      -52.53244              0              0
      5094.5000         6.6118         0.0066         33.743       120.1257        34.7582       30.16859         0.2026         0.2072         0.5512        39.3604         2.0924      -103.0981      -52.31749              0              0
      5095.0000         6.6704         0.0145        33.5059       120.6243        35.0993       30.81846         0.2026         0.2063         0.5438        39.0499         2.0978      -103.2904      -52.49884              0              0
      5095.5000         6.6699          0.016        33.0896       121.1164        36.1345       32.79232         0.2017         0.2063         0.5488        38.6174         2.1008      -103.0863       -52.2838              0              0
      5096.0000         6.6693          0.016        33.0317       121.3838        36.5257       33.53775         0.2008         0.2063         0.5514        38.3504         2.1043      -103.2787      -52.46525     0.01144149              0
      5096.5000         6.6688         0.0111        33.5117       121.5816        37.1148       34.66068         0.1999         0.2054         0.5489        37.8445         2.0963       -103.074       -52.2496     0.03533359              0
      5097.0000         6.6684         0.0031        34.0518       121.6802        37.3079       35.02823         0.1999         0.2045          0.554        36.9799         2.0864      -102.6717      -51.83635     0.04315389    0.003208834
      5097.5000         6.6678         0.0021        34.1733       121.6796        37.6991       35.77367         0.1999         0.2027         0.5747        36.0258         2.0845      -102.4676       -51.6213     0.05901426     0.00742542
      5098.0000         6.6872         0.0026         33.966       121.5302        37.6942       35.76354         0.1999         0.2027         0.5774        35.7588         2.0889        -102.66      -51.80276     0.05879869     0.00386743
      5098.5000         6.6669         0.0026        34.1772       120.9144        37.2933       34.99802         0.1999         0.2027         0.5801        36.5675          2.084      -102.8523      -51.98411     0.04251107   0.0003115336
      5099.0000         6.6548         0.0041        34.4181       120.9138        36.8923       34.23231            0.2         0.2027         0.5748        37.1373         2.0795      -103.0446      -52.16546     0.02621931              0
      5099.5000         6.6461         0.0076        34.3599       121.2108        36.6894       33.84449         0.1991         0.2027         0.5593        37.1674          2.081       -103.237      -52.34692     0.01796779              0
      5100.0000         6.6456           0.01        33.7647       121.3095         36.238       32.98266         0.1991         0.2028         0.5671         36.693         2.0954      -103.2311      -52.33007              0              0
      5100.5000         6.6687         0.0109        33.3766       121.2118        35.4411       31.46179         0.1991         0.2028         0.5883        36.7235         2.0958      -103.4061      -52.49412              0              0
      5101.0000         6.6844         0.0051        33.8549       120.7108        35.2384       31.07434         0.1992          0.201         0.6021        36.8428           2.09      -103.4158      -52.49288              0              0
      5101.5000          6.684        -0.0013        34.6617       119.9342        38.4519       37.20334         0.2048         0.2066         0.5806        38.3369         2.0756      -103.4093      -52.47543     0.08943282              0
      5102.0000         6.7402        -0.0033        35.2594       120.3301        40.6252       41.34812         0.2134         0.2173         0.4727         41.086         2.0633      -103.4028      -52.45798      0.1776196              0
      5102.5000         6.7426        -0.0033        35.6183       120.8243        41.1646       42.37626         0.2214         0.2528         0.4497        42.4606         2.0623      -103.5946      -52.63883      0.1994949              0
      5103.0000         6.7422        -0.0042           35.2       121.2193        38.4381       37.17465         0.2318         0.2647         0.4973        41.9826         2.0697      -103.7856      -52.81889     0.08882239              0
      5103.5000         6.7613        -0.0003        34.3038       121.2671        36.0577       32.63324          0.234         0.2888         0.5706        38.9052         2.0846      -103.9774      -52.99974              0              0
