#------------------------------------------------------------------------------
# Created by    : vladimir.rabinovich
# Created on    : 09/19/2023 17:21:29
#------------------------------------------------------------------------------
~Version Information Section
VERS.           2.0     :   CWLS log ASCII Standard - VERSION 2.0
WRAP.           NO      :   One line per depth step
~Well Information Section
#MNEM       .UNIT                                         VALUE :DESCRIPTION
#------------------------------------------------------------------------------
STRT        .FT                                            1500 :START DEPTH
STOP        .FT                                            6885 :STOP DEPTH
STEP        .FT                                             0.5 :STEP      
NULL        .                                           -999.25 :NULL      
COMP        .                        HILLHOUSE OPERATING CO LLC :COMPANY   
WELL        .                                  LEWIS J C FAMILY :WELL      
FLD         .                                    LIVE OAK BAYOU :FIELD     
LOC         .                                                   :LOCATION  
CNTY        .                                         MATAGORDA :LOCATION  
STAT        .                                             TEXAS :STATE     
CTRY        .                                     UNITED STATES :COUNTRY   
SRVC        .                                                   :SERVICE COMPANY
DATE        .                             9/13/2023 11:19:17 AM :LOG DATE  
API         .                                    42321308450000 :API NUMBER
UWI         .                                    42321308450000 :UNIQUE WELL ID
XCOORD      .                                  757138.788685477 :SURFACE X 
YCOORD      .                                  10457801.5308193 :SURFACE Y 
LAT         .                                        28.7888954 :LATITUDE  
LON         .                                       -95.7578897 :LONGITUDE 
ELEV        .FT                                              17 :ELEVATION VALUE
ELEV_TYPE   .                                                KB :ELEVATION REFERENCE TYPE
~Curve Information Section
#MNEM       .UNIT                                      API CODE :CURVE DESCRIPTION
#------------------------------------------------------------------------------
DEPT        .FT                                                 :DEPTH     
CALI        .IN                                                 :          
DCOR        .G/C3                                               :          
DPOR        .%                                                  :          
DT          .US/F                                               :          
GR          .GAPI                                               :          
GR_NORM     .GAPI                                               :GammaRay Normalized
ILD         .OHMM                                               :          
ILM         .OHMM                                               :          
LL8         .OHMM                                               :          
NPOR        .%                                                  :          
RHOB        .G/C3                                               :          
SP          .MV                                                 :          
SP_NORM     .MV                                                 :SP Normalized
VSH_GR      .V/V                                                :Volume of Shale from GR
VSH_SP      .V/V                                                :Volume of Shale from SP
~A        DEPTH           CALI           DCOR           DPOR             DT             GR        GR_NORM            ILD            ILM            LL8           NPOR           RHOB             SP        SP_NORM         VSH_GR         VSH_SP
# ...
      4730.0000         6.8756        -0.0095        32.9099       118.0773        44.7086       37.22702          0.202         0.2538         0.6385        38.1695         2.1066        -100.75      -47.56596      0.0899366    0.009234976
      4730.5000         6.8554        -0.0095        32.6426       120.4054        43.3678       34.87753         0.2039         0.2585          0.627        37.8425         2.1122      -100.5427      -47.36432     0.03994743     0.01352505
      4731.0000         6.8553        -0.0055        31.2695        119.116        41.9766       32.44007         0.2317         0.2782         0.6271        36.8881         2.1314      -100.3355      -47.16279              0     0.01781301
      4731.5000         6.8545         0.0034        29.8965       116.8357        41.9733       32.42482         0.2807         0.3176         0.6329        35.3357         2.1492       -99.9308      -46.76375              0     0.02630315
      4732.0000         6.8343         0.0138        24.5189       112.8998        43.7026       35.43333         0.3544         0.3642          0.613        31.9305         2.2493       -98.9336      -45.77222     0.05177307     0.04739964
      4732.5000         6.8738         0.0371        19.8576       108.3602        43.1564        34.4706         0.4178         0.4515          0.681        29.8998         2.3325       -95.5665      -42.41078     0.03128937      0.1189196
      4733.0000         6.9524         0.0559        14.3907        91.8979        42.1616       32.72497         0.4947         0.5178         1.2444        23.1467         2.4073       -92.9893      -39.83925              0       0.173633
      4733.5000         6.9719         0.0658        15.1982        83.1842        42.3566       33.05581         0.5622         0.6021          2.001        20.6983         2.3989       -92.0309      -38.88651    0.001187345      0.1939041
      4734.0000         6.9714         0.0356        18.0694        78.4757        45.7735       39.00953         0.6049         0.6627          2.469        23.6582         2.3435       -94.1535      -41.01477      0.1278623      0.1486218
      4734.5000         6.9709         0.0129        27.6947        87.2469        48.2499       43.32189         0.6077         0.6598         2.0014        31.2816         2.1919       -95.5261      -42.39304      0.2196146      0.1192971
      4735.0000         6.9904        -0.0025        32.6581        96.4619        50.0316       46.42185         0.5701          0.619         1.5358        36.6035         2.1137       -96.5038       -43.3764      0.2855712     0.09837447
      4735.5000         6.9701        -0.0049        33.9749       107.5608        47.6979       42.33953         0.5064         0.5472         1.2679        37.6217          2.086       -97.4815      -44.35976      0.1987133     0.07745183
      4736.0000         6.9499         -0.002        34.3655       114.6957        46.9013        40.9398         0.4456          0.486         1.0563        37.5039          2.082       -98.6568      -45.54073      0.1689318      0.0523249
      4736.5000          7.009          0.005        33.8588       119.1544        47.2949       41.61722         0.3747         0.4316         0.9642        37.5649         2.0899       -99.2396       -46.1292      0.1833451     0.03980434
      4737.0000         6.9689          0.007        33.4719       119.3024        47.4901       41.94839         0.2981         0.3886         0.8642        37.5175         2.0974       -99.6248      -46.52006      0.1903913     0.03148805
      4737.5000         6.9685         0.0001        33.9223       118.8553        47.2886       41.58723         0.2697         0.3223         0.7925        37.2703         2.0895      -100.0101      -46.91103       0.182707     0.02316966
      4738.0000         6.9879        -0.0088        34.2231       120.1228         46.492       40.18751         0.2374         0.3165         0.7782        37.2123         2.0821      -100.1979      -47.10449      0.1529257     0.01905344
      4738.5000         6.9676        -0.0054        33.9856       120.2211        45.4969       38.44134         0.2268         0.3094         0.7854        37.3625          2.086      -100.3857      -47.29795      0.1157731     0.01493722
      4739.0000         6.9671         0.0001        33.6287       120.0217        44.1043       36.00147         0.2187         0.3038         0.7999        37.9632         2.0925      -100.5725      -47.49042     0.06386103      0.0108421
      4739.5000         6.9869         0.0056        33.6596       119.6938        42.9106       33.90871         0.2147         0.2983         0.8148        37.9054          2.093      -100.7602      -47.68378     0.01933418     0.00672799
      4740.0000         6.9663        -0.0009        34.2896       120.1388        42.2634       32.76972         0.2148         0.2943         0.8223        38.7442         2.0816       -100.948      -47.87725              0    0.002611769
      4740.5000         6.9833        -0.0033        34.5794       120.7325        44.1315       36.02044         0.2148          0.289         0.8112        39.4317         2.0781      -102.3211      -49.25601     0.06426474              0
      4741.0000         6.9841        -0.0058        34.5279       120.8801        46.6478       40.40244         0.2148         0.2838         0.7893        39.9092         2.0777      -102.9041      -49.84468      0.1574986              0
      4741.5000         6.9619        -0.0063        34.5272       120.0863        48.6169       43.82944          0.209         0.2724         0.7716        39.8489         2.0777      -103.0919      -50.03815      0.2304137              0
      4742.0000         6.9604        -0.0058        34.6462       119.8375         49.048       44.57231         0.2034         0.2627         0.7543        39.5794         2.0767      -102.8846       -49.8365      0.2462194              0
      4742.5000         6.9797        -0.0043         34.526       120.2825        47.9921       42.72005         0.2016          0.251         0.7012        39.2201         2.0777      -103.0725      -50.03007      0.2068096              0
      4743.0000         6.9773        -0.0003        34.1665       120.2319        46.3902       39.91489         0.2016         0.2476         0.6761         38.801         2.0842      -103.0628      -50.02603      0.1471254              0
      4743.5000         6.9758         0.0047        33.7473       118.4966        44.3915       36.41723         0.2016         0.2453         0.6343        38.0828         2.0906      -103.0521        -50.021     0.07270707              0
      4744.0000         6.9743         0.0067         33.627       116.6621        43.8292       35.42641         0.2016         0.2465         0.5869        37.0656         2.0926      -103.0814      -50.05596     0.05162576              0
      4744.5000         6.9729         0.0077        33.2077       115.3727        45.3538       38.07768          0.213          0.258         0.5532        37.0355         2.0986       -102.479      -49.45922      0.1080358              0
      4745.0000         6.9714         0.0121        31.7717       114.5591        47.1678       41.23399         0.2388         0.2789         0.5261        36.7056         2.1223      -101.4823      -48.46819      0.1751912              0
      4745.5000         6.9903         0.0225        29.8572       109.0278        45.9194       39.04576         0.2893         0.3169         0.5583        36.5854         2.1654       -99.6942      -46.68576      0.1286331     0.02796262
      4746.0000         7.0276         0.0349        26.8656        97.4804        44.3174       36.24044         0.3243         0.4075         0.6858         37.482         2.2021        -96.519      -43.51622     0.06894554     0.09539957
      4746.5000         7.0541          0.027         25.669        95.2499        44.1042       35.85886         0.4384         0.4716         0.7688        38.3188         2.2244       -93.9043      -40.90718     0.06082673       0.150911
