#------------------------------------------------------------------------------
# Created by    : vladimir.rabinovich
# Created on    : 09/19/2023 17:22:47
#------------------------------------------------------------------------------
~Version Information Section
VERS.           2.0     :   CWLS log ASCII Standard - VERSION 2.0
WRAP.           NO      :   One line per depth step
~Well Information Section
#MNEM       .UNIT                                         VALUE :DESCRIPTION
#------------------------------------------------------------------------------
STRT        .FT                                            1029 :START DEPTH
STOP        .FT                                            4870 :STOP DEPTH
STEP        .FT                                             0.5 :STEP      
NULL        .                                           -999.25 :NULL      
COMP        .                              CHAPARRAL ENERGY LLC :COMPANY   
WELL        .                                         ST TR 171 :WELL      
FLD         .                               MATAGORDA BAY SOUTH :FIELD     
LOC         .                                                   :LOCATION  
CNTY        .                                         MATAGORDA :LOCATION  
STAT        .                                             TEXAS :STATE     
CTRY        .                                     UNITED STATES :COUNTRY   
SRVC        .                                                   :SERVICE COMPANY
DATE        .                             9/13/2023 11:19:17 AM :LOG DATE  
API         .                                    42321309080000 :API NUMBER
UWI         .                                    42321309080000 :UNIQUE WELL ID
XCOORD      .                                  571019.162580029 :SURFACE X 
YCOORD      .                                  10362433.1969336 :SURFACE Y 
LAT         .                                        28.5138372 :LATITUDE  
LON         .                                       -96.3299832 :LONGITUDE 
ELEV        .FT                                              19 :ELEVATION VALUE
ELEV_TYPE   .                                                KB :ELEVATION REFERENCE TYPE
~Curve Information Section
#MNEM       .UNIT                                      API CODE :CURVE DESCRIPTION
#------------------------------------------------------------------------------
DEPT        .FT                                                 :DEPTH     
DT          .US/FT                                              :          
GUARD       .OHMM                                               :          
IND         .OHMM                                               :          
SP          .MV                                                 :          
SP_NORM     .MV                                                 :SP Normalized
VSH_SP      .V/V                                                :Volume of Shale from SP
~A        DEPTH             DT          GUARD            IND             SP        SP_NORM         VSH_SP
# ...
      4563.0000       114.8795         0.7089         0.4422       -75.5983       -27.2858     0.09359294
      4563.5000       114.8773         0.7012         0.4404       -75.5924      -27.26501      0.0943101
      4564.0000       114.9447         0.7012         0.4385       -75.5863      -27.24401     0.09503411
      4564.5000       115.3462         0.7011         0.4366       -75.5793      -27.22211     0.09578928
      4565.0000        115.944          0.701         0.4347       -75.5742      -27.20211     0.09647883
      4565.5000       116.4845         0.7085         0.4328       -75.5681      -27.18111     0.09720309
      4566.0000       116.9243         0.7084         0.4309        -75.562      -27.16011     0.09792735
      4566.5000       116.7064          0.716          0.429       -75.5556      -27.13882     0.09866149
      4567.0000       116.0882         0.7159         0.4649       -75.6664      -27.23471      0.0953548
      4567.5000       115.1645         0.7158          0.463       -76.1499      -27.70332     0.07919601
      4568.0000       114.1255         0.7234         0.4611       -76.1426      -27.68111     0.07996158
      4568.5000       113.9343         0.7233         0.4592       -76.1377      -27.66132     0.08064415
      4569.0000       114.0851         0.7232         0.4573       -76.1317      -27.64042       0.081365
      4569.5000       114.2367         0.7155         0.4554       -76.1256      -27.61942       0.082089
      4570.0000       114.0808         0.7154         0.4536       -76.1188      -27.59772     0.08283734
      4570.5000       114.0786         0.7074         0.4528       -76.1134      -27.57742     0.08353713
      4571.0000       113.9226         0.7071         0.4528       -76.1074      -27.55652     0.08425798
      4571.5000       113.6139         0.7069         0.4528       -76.1013      -27.53552     0.08498199
      4572.0000       113.5633         0.6989         0.4528       -76.0951      -27.51442     0.08570954
      4572.5000       113.5412         0.6986         0.4528       -76.0892      -27.49363     0.08642671
      4573.0000       114.2202         0.6907         0.4528       -76.3997      -27.78922     0.07623383
      4573.5000       114.6844         0.6904         0.4528       -76.6831      -28.05772     0.06697517
      4574.0000       114.8295         0.6825         0.4528       -77.2834      -28.64313     0.04678871
      4574.5000       114.8273         0.6746         0.4528       -77.4923      -28.83713     0.04009905
      4575.0000       114.8246         0.6667         0.4528        -77.877      -29.20692     0.02734743
      4575.5000       114.3587         0.6589         0.4528       -77.8705      -29.18553     0.02808525
      4576.0000       112.9487         0.6586         0.4528       -77.8648      -29.16493     0.02879557
      4576.5000       111.3077         0.6584         0.4528       -77.8587      -29.14393     0.02951957
      4577.0000       110.7865         0.6582         0.4528       -77.8527      -29.12303     0.03024042
      4577.5000       111.1326         0.6655         0.4528       -77.8466      -29.10204     0.03096429
      4578.0000       111.0017         0.6653         0.4528       -77.8405      -29.08103     0.03168856
      4578.5000       109.9613         0.6726         0.4528       -77.8345      -29.06013     0.03240914
      4579.0000       108.3299         0.6723         0.4528       -77.8277      -29.03843     0.03315761
      4579.5000       106.8289         0.6721         0.4528       -77.8223      -29.01814     0.03385728
      4580.0000       105.2323         0.6794         0.4528       -77.8162      -28.99714     0.03458155
      4580.5000       103.7702         0.6866         0.4517       -77.8102      -28.97624     0.03530213
      4581.0000       101.9299         0.6862         0.4498       -77.8039      -28.95504     0.03603311
      4581.5000        99.7646         0.6934         0.4479        -77.798      -28.93423     0.03675053
      4582.0000         98.164         0.7081         0.4837        -77.792      -28.91334     0.03747111
      4582.5000        98.0588         0.7228         0.4818       -77.7849      -28.89133     0.03822985
      4583.0000        98.3402           0.73           0.48       -77.7798      -28.87134     0.03891925
      4583.5000        95.4609         0.7296         0.4781       -77.7737      -28.85034     0.03964352
      4584.0000        92.7971         0.7292         0.4762       -77.7677      -28.82944      0.0403641
      4584.5000        90.4253         0.7364         0.4743       -77.7611      -28.80794     0.04110547
      4585.0000        87.8768          0.736         0.4724       -77.7555      -28.78745     0.04181224
      4585.5000        85.4825         0.7357         0.4705       -77.4698      -28.48685     0.05217769
      4586.0000         84.407         0.7353         0.4686       -77.1373      -28.13944     0.06415716
      4586.5000         88.571           0.75         0.4668       -77.1214      -28.10865     0.06521909
      4587.0000        92.8624         0.7496         0.4649       -76.5191      -27.49144     0.08650194
      4587.5000        98.2034         0.7492          0.463        -76.513      -27.47045     0.08722594
      4588.0000       101.0508         0.7338         0.4611       -76.5062      -27.44875     0.08797415
      4588.5000       104.1607         0.7258         0.4592       -76.5009      -27.42855     0.08867066
      4589.0000       105.5535         0.7179         0.4573       -76.4948      -27.40755     0.08939493
      4589.5000       102.0286           0.71         0.4554       -76.4887      -27.38655     0.09011894
      4590.0000        98.4991         0.7021         0.4536       -77.0885      -27.97145     0.06994997
      4590.5000        95.5832          0.694         0.4517       -77.6898      -28.55785     0.04972931
      4591.0000        98.5146          0.686         0.4499       -77.6826      -28.53576      0.0504912
      4591.5000       100.4014         0.6781          0.448       -77.6756      -28.51385     0.05124651
      4592.0000       100.6372         0.6702         0.4462       -77.7121      -28.53545     0.05050159
      4592.5000       101.2489         0.6698         0.4434       -78.2705      -29.07896     0.03176012
      4593.0000        97.6868         0.6695         0.4416       -78.2644      -29.05795     0.03248438
      4593.5000        93.2183         0.6766         0.4397       -78.2579      -29.03655     0.03322233
      4594.0000        91.7323         0.6762         0.4379       -78.2523      -29.01606      0.0339291
      4594.5000        98.4798         0.6834         0.4361       -78.2462      -28.99506      0.0346531
      4595.0000       105.5874         0.6755         0.4342       -78.2401      -28.97406     0.03537737
      4595.5000       110.2942         0.6751         0.4324        -78.234      -28.95306     0.03610137
      4596.0000       113.9624         0.6521         0.4305        -78.228      -28.93216     0.03682209
      4596.5000       116.2757         0.6291         0.4287       -78.2219      -28.91116     0.03754609
      4597.0000       117.5643         0.6061         0.4269       -78.2151      -28.88947      0.0382943
      4597.5000       115.4736         0.5831          0.425       -78.2839      -28.94336     0.03643588
      4598.0000       112.2662         0.5827         0.3855       -78.8097      -29.45427     0.01881843
      4598.5000        112.187         0.5899         0.3836       -79.2145      -29.84417    0.005373593
      4599.0000       111.7571         0.6046         0.3818       -79.4037      -30.01847              0
      4599.5000       114.4083         0.6118         0.3422       -79.3976      -29.99747  0.00008734341
      4600.0000       115.3053         0.6114         0.3404       -79.3915      -29.97647   0.0008113466
      4600.5000       114.3001         0.6038         0.3396       -79.3843      -29.95437    0.001573497
