#------------------------------------------------------------------------------
# Created by    : vladimir.rabinovich
# Created on    : 09/19/2023 17:19:43
#------------------------------------------------------------------------------
~Version Information Section
VERS.           2.0     :   CWLS log ASCII Standard - VERSION 2.0
WRAP.           NO      :   One line per depth step
~Well Information Section
#MNEM       .UNIT                                         VALUE :DESCRIPTION
#------------------------------------------------------------------------------
STRT        .FT                                              86 :START DEPTH
STOP        .FT                                           17232 :STOP DEPTH
STEP        .FT                                             0.5 :STEP      
NULL        .                                           -999.25 :NULL      
COMP        .                                        EXXON CORP :COMPANY   
WELL        .                               OYSTR LKE TMPRRY GU :WELL      
FLD         .                                           WILDCAT :FIELD     
LOC         .                                                   :LOCATION  
CNTY        .                                         MATAGORDA :LOCATION  
STAT        .                                             TEXAS :STATE     
CTRY        .                                     UNITED STATES :COUNTRY   
SRVC        .                                                   :SERVICE COMPANY
DATE        .                             9/13/2023 11:19:17 AM :LOG DATE  
API         .                                    42321309610000 :API NUMBER
UWI         .                                    42321309610000 :UNIQUE WELL ID
XCOORD      .                                  606681.955270441 :SURFACE X 
YCOORD      .                                  10380406.3085524 :SURFACE Y 
LAT         .                                         28.565886 :LATITUDE  
LON         .                                       -96.2205825 :LONGITUDE 
ELEV        .FT                                              25 :ELEVATION VALUE
ELEV_TYPE   .                                                KB :ELEVATION REFERENCE TYPE
~Curve Information Section
#MNEM       .UNIT                                      API CODE :CURVE DESCRIPTION
#------------------------------------------------------------------------------
DEPT        .FT                                                 :DEPTH     
ASFL        .OHMM                                               :          
CILD        .MMHO                                               :          
ILD         .OHMM                                               :          
SP          .MV                                                 :          
SP_NORM     .MV                                                 :SP Normalized
VSH_SP      .V/V                                                :Volume of Shale from SP
~A        DEPTH           ASFL           CILD            ILD             SP        SP_NORM         VSH_SP
# ...
     16046.0000         1.4274       1430.455        -999.25        -2.0415     -0.5860434              1
     16046.5000         1.4274       1431.938        -999.25        -2.0401     -0.5807183              1
     16047.0000         1.4274        1434.58        -999.25        -2.0437     -0.5803931              1
     16047.5000         1.4274       1437.359        -999.25         -2.051     -0.5837682              1
     16048.0000         1.4274       1440.145        -999.25        -2.0661     -0.5949429              1
     16048.5000         1.4274       1441.889        -999.25        -2.0969     -0.6218179              1
     16049.0000         1.4274       1442.584        -999.25        -2.1392     -0.6601928              1
     16049.5000         1.4274       1443.277        -999.25        -2.1945     -0.7115679              1
     16050.0000         1.4274       1443.973        -999.25        -2.2641     -0.7772429              1
     16050.5000         1.4271       1444.668        -999.25        -2.3336     -0.8428178              1
     16051.0000         1.4268       1444.742        -999.25        -2.4011     -0.9063926              1
     16051.5000         1.4266       1444.752        -999.25        -2.4319     -0.9332677              1
     16052.0000         1.4263       1444.764        -999.25        -2.4626     -0.9600426              1
     16052.5000          1.426       1444.605        -999.25        -2.4645     -0.9580175              1
     16053.0000         1.4266       1443.188        -999.25        -2.4483     -0.9378923              1
     16053.5000         1.4273       1441.768        -999.25        -2.4322     -0.9178674              1
     16054.0000         1.4281        1440.35        -999.25        -2.4084     -0.8901424              1
     16054.5000         1.4286       1438.932        -999.25        -2.3844     -0.8622172              1
     16055.0000         1.4291       1437.279        -999.25        -2.3605     -0.8343924              1
     16055.5000         1.4296       1435.541        -999.25         -2.348     -0.8179673              1
     16056.0000         1.4299       1428.033        -999.25        -2.3466     -0.8126422              1
     16056.5000         1.4299       1419.316        -999.25        -2.3481      -0.810217              1
     16057.0000         1.4299       1408.074        -999.25        -2.3865      -0.844692              1
     16057.5000         1.4292       1392.891        -999.25        -2.4249     -0.8791671              1
     16058.0000         1.4282       1377.707        -999.25        -2.4632      -0.913542              1
     16058.5000         1.2136       1369.012        -999.25        -2.5209     -0.9673169              1
     16059.0000         0.6646       1364.199        -999.25        -2.5898      -1.032292       0.999532
     16059.5000         0.5005       1368.363        -999.25        -2.6575      -1.096067      0.9986078
     16060.0000         0.4934       1372.527        -999.25        -2.7239      -1.158542      0.9977023
     16060.5000         0.4891       1376.689        -999.25        -2.7595      -1.190217      0.9972432
     16061.0000         0.4859       1379.299        -999.25        -2.7444      -1.171192       0.997519
     16061.5000         0.4832        1381.49        -999.25        -2.7293      -1.152167      0.9977947
     16062.0000         0.4819       1383.682        -999.25        -2.7142      -1.133142      0.9980704
     16062.5000         0.4812       1385.309        -999.25        -2.6976      -1.112616      0.9983679
     16063.0000         0.4807       1384.664        -999.25        -2.6682      -1.079291      0.9988508
     16063.5000         0.4804        1384.02        -999.25        -2.6388      -1.045966      0.9993338
     16064.0000         0.4801       1382.785        -999.25        -2.6095      -1.012741      0.9998153
     16064.5000         0.4798        1381.41        -999.25          -2.58     -0.9793162              1
     16065.0000         0.4796       1380.033        -999.25        -2.5508     -0.9461913              1
     16065.5000         0.4792       1378.479        -999.25         -2.522     -0.9134662              1
     16066.0000         0.4789       1376.672        -999.25        -2.4932     -0.8807411              1
     16066.5000         0.4789       1374.865        -999.25        -2.4644     -0.8480161              1
     16067.0000         0.4792        1371.67        -999.25        -2.4357     -0.8153909              1
     16067.5000         0.4794       1368.082        -999.25        -2.4225     -0.7982658              1
     16068.0000         0.4784       1361.518        -999.25        -2.4105      -0.782341              1
     16068.5000         0.4785       1354.979        -999.25        -2.3984     -0.7663159              1
     16069.0000         0.4794       1323.387        -999.25        -2.3893     -0.7532909              1
     16069.5000         0.4796       473.3716        -999.25        -2.3879     -0.7479658              1
     16070.0000         0.4796        20.0388         1.3459        -2.3866     -0.7427408              1
     16070.5000        -999.25        19.3945         1.0872        -2.3852     -0.7374157              1
     16071.0000        -999.25        17.9832         1.0745        -2.3838     -0.7320906              1
     16071.5000        -999.25          15.79          1.067        -2.3771     -0.7214655              1
     16072.0000        -999.25        11.3733         1.0688        -2.3703     -0.7107406              1
     16072.5000        -999.25         6.5715         1.0706        -2.3636     -0.7001154              1
     16073.0000        -999.25         4.7695         1.0724        -2.3588     -0.6913903              1
     16073.5000        -999.25         2.9734          1.069        -2.3574     -0.6860652              1
     16074.0000        -999.25         1.0988         1.0649         -2.356     -0.6807402              1
     16074.5000        -999.25         2.6719         1.0607        -2.3541     -0.6749152              1
     16075.0000        -999.25         17.752         1.0565        -2.3463       -0.66319              1
     16075.5000        -999.25       187.0444         1.0524        -2.3385     -0.6514652              1
     16076.0000        -999.25       355.9458         1.0416        -2.3307       -0.63974              1
     16076.5000        -999.25       525.2383         1.0276        -2.3225      -0.627615              1
     16077.0000        -999.25       651.7187         1.0136        -2.3142     -0.6153898              1
     16077.5000        -999.25       694.5312         0.7192        -2.3059      -0.603165              1
     16078.0000        -999.25        707.335         0.6982        -2.2971     -0.5904399              1
     16078.5000        -999.25       710.0967         0.6934        -2.2883     -0.5777148              1
     16079.0000        -999.25       709.3975         0.6886        -2.2837     -0.5691897              1
     16079.5000        -999.25       707.1396         0.6852        -2.2823     -0.5638647              1
     16080.0000        -999.25       701.8008         0.6824        -2.2809     -0.5585396              1
     16080.5000        -999.25       696.9502         0.6796        -2.2862     -0.5599146              1
     16081.0000        -999.25       693.1377         0.6769        -2.3071     -0.5768895              1
     16081.5000        -999.25       690.4502         0.6741         -2.328     -0.5938646              1
     16082.0000        -999.25       695.5088         0.6751          -2.35     -0.6119393              1
     16082.5000        -999.25       701.9102         0.6783        -2.3728     -0.6308144              1
     16083.0000        -999.25       712.6621         0.6816        -2.3968     -0.6508894              1
     16083.5000        -999.25       723.4385         0.6848         -2.425     -0.6751642              1
