#------------------------------------------------------------------------------
# Created by    : vladimir.rabinovich
# Created on    : 09/19/2023 17:19:21
#------------------------------------------------------------------------------
~Version Information Section
VERS.           2.0     :   CWLS log ASCII Standard - VERSION 2.0
WRAP.           NO      :   One line per depth step
~Well Information Section
#MNEM       .UNIT                                         VALUE :DESCRIPTION
#------------------------------------------------------------------------------
STRT        .FT                                             313 :START DEPTH
STOP        .FT                                           17011 :STOP DEPTH
STEP        .FT                                             0.5 :STEP      
NULL        .                                           -999.25 :NULL      
COMP        .                             MAGNOLIA PETROLEUM CO :COMPANY   
WELL        .                                      LETULLE UNIT :WELL      
FLD         .                                           WILDCAT :FIELD     
LOC         .                                                   :LOCATION  
CNTY        .                                         MATAGORDA :LOCATION  
STAT        .                                             TEXAS :STATE     
CTRY        .                                     UNITED STATES :COUNTRY   
SRVC        .                                                   :SERVICE COMPANY
DATE        .                             9/13/2023 11:18:46 AM :LOG DATE  
API         .                                    42321010770000 :API NUMBER
UWI         .                                    42321010770000 :UNIQUE WELL ID
XCOORD      .                                  733053.658917313 :SURFACE X 
YCOORD      .                                  10456928.2420536 :SURFACE Y 
LAT         .                                        28.7849393 :LATITUDE  
LON         .                                       -95.8329519 :LONGITUDE 
ELEV        .FT                                              38 :ELEVATION VALUE
ELEV_TYPE   .                                                KB :ELEVATION REFERENCE TYPE
~Curve Information Section
#MNEM       .UNIT                                      API CODE :CURVE DESCRIPTION
#------------------------------------------------------------------------------
DEPT        .FT                                                 :DEPTH     
AAM_16      .OHMM                                               :          
AM_16       .OHMM                                               :          
AM_64       .OHMM                                               :          
AO_18_8     .OHMM                                               :          
SP          .MV                                                 :          
SP_NORM     .MV                                                 :SP Normalized
VSH_SP      .V/V                                                :Volume of Shale from SP
~A        DEPTH         AAM_16          AM_16          AM_64        AO_18_8             SP        SP_NORM         VSH_SP
# ...
     16962.5000         1.4111         1.2858         1.2852         1.1361        -52.587      -3.204285      0.9591799
     16963.0000         1.4148          1.282         1.2945         1.1366       -52.5787      -3.195984      0.9593337
     16963.5000         1.4149         1.2821          1.295         1.1459       -52.5732      -3.190483      0.9594355
     16964.0000          1.415         1.2822         1.2954         1.1285       -52.5677      -3.184982      0.9595374
     16964.5000         1.4151         1.2924         1.3047         1.0933       -52.5622      -3.179482      0.9596393
     16965.0000         1.4116         1.3241         1.3228         1.0759       -52.7361      -3.353382      0.9564189
     16965.5000         1.4063         1.3477           1.35         1.0674       -52.7305      -3.347782      0.9565225
     16966.0000         1.4064         1.3931         1.3681         1.0589       -52.7249      -3.342182      0.9566262
     16966.5000         1.4154         1.4382         1.3862         1.0504       -52.7194      -3.336681      0.9567281
     16967.0000         1.4744         1.4632         1.4044         1.0509       -52.7138      -3.331081      0.9568318
     16967.5000         1.5549         1.5049         1.4225         1.0513       -52.7083      -3.325584      0.9569336
     16968.0000         1.6086          1.505         1.4318         1.0607       -52.7027      -3.319984      0.9570373
     16968.5000         1.6898         1.5154         1.4411         1.0522       -52.6972      -3.314484      0.9571392
     16969.0000         1.7421         1.5191         1.4327         1.0527       -52.8704      -3.487682      0.9539318
     16969.5000          1.735         1.5192         1.3977         1.0531       -52.8647      -3.481983      0.9540374
     16970.0000         1.7297         1.5193         1.3716         1.0536       -52.6818      -3.299084      0.9574244
     16970.5000         1.7064         1.5055         1.3366         1.0625        -52.673      -3.290283      0.9575874
     16971.0000         1.6722         1.5056         1.3017         1.0714       -52.8426      -3.459885      0.9544466
     16971.5000         1.6399         1.4884         1.2756         1.0893       -52.8338      -3.451084      0.9546096
     16972.0000          1.622         1.4711         1.2495          1.125       -52.6464      -3.263683      0.9580799
     16972.5000         1.6221         1.4643         1.2322         1.1518       -52.6376      -3.254883      0.9582429
     16973.0000         1.6222         1.4646          1.215         1.1696       -52.6287      -3.245983      0.9584077
     16973.5000         1.6276         1.4819         1.2154         1.1875       -52.6199      -3.237183      0.9585707
     16974.0000         1.6548         1.4995          1.207         1.1964       -52.6111      -3.228382      0.9587337
     16974.5000         1.6837         1.5064         1.2075         1.2143       -52.6022      -3.219482      0.9588985
     16975.0000         1.7126         1.5207         1.2167           1.25       -52.5934      -3.210682      0.9590614
     16975.5000         1.7541         1.5519          1.226         1.3125        -52.763      -3.380283      0.9559207
     16976.0000          1.783         1.5693         1.2442         1.4286       -52.9326      -3.549881        0.95278
     16976.5000         1.8118         1.6039         1.2623         1.5625       -52.9238      -3.541084      0.9529429
     16977.0000         1.8155         1.6178         1.2893         1.7143       -53.0934      -3.710682      0.9498022
     16977.5000         1.8156          1.618         1.3074         1.7679       -53.0846      -3.701881      0.9499652
     16978.0000         1.8157         1.6253         1.3344         1.7589       -52.8973      -3.514584      0.9534336
     16978.5000         1.7943         1.6321         1.3525         1.7143        -52.884      -3.501282        0.95368
     16979.0000         1.7512         1.6317         1.3795         1.6429       -52.8751      -3.492382      0.9538448
     16979.5000         1.7062         1.6106         1.3799         1.5536       -52.8663      -3.483582      0.9540077
     16980.0000         1.6846          1.576         1.3892         1.4553        -52.679      -3.296284      0.9574762
     16980.5000         1.6397         1.5354         1.3897         1.3932       -52.6702      -3.287483      0.9576392
     16981.0000         1.5966         1.5077         1.3901         1.3758       -52.6614      -3.278683      0.9578022
     16981.5000         1.5734         1.5078         1.3905         1.3584       -52.6527      -3.269981      0.9579633
     16982.0000         1.5735         1.5005         1.3821         1.3321       -52.6439      -3.261185      0.9581262
     16982.5000         1.5736         1.5081         1.3826         1.2968       -52.6351      -3.252384      0.9582892
     16983.0000         1.5808         1.5082         1.3742         1.2615       -52.6263      -3.243584      0.9584522
     16983.5000         1.6168         1.5123         1.3658          1.253       -52.6175      -3.234783      0.9586151
     16984.0000         1.6547         1.5298         1.3574         1.2624       -52.7872      -3.404484      0.9554725
     16984.5000         1.6927         1.5501         1.3578         1.2896       -52.7784      -3.395683      0.9556355
     16985.0000         1.6928         1.5641         1.3494          1.299       -52.7696      -3.386883      0.9557984
     16985.5000         1.6929         1.5683          1.341         1.3084       -52.7608      -3.378082      0.9559615
     16986.0000         1.6299         1.5781         1.3326         1.3177       -52.9305      -3.547783      0.9528188
     16986.5000           1.63         1.5783          1.333          1.336       -52.9218      -3.539082        0.95298
     16987.0000         1.6787         1.5776         1.3246         1.3454        -52.913      -3.530281      0.9531429
     16987.5000         1.7058         1.5646         1.3251         1.3637       -52.9042      -3.521484      0.9533058
     16988.0000         1.7311         1.5647         1.3167         1.3641       -52.8954      -3.512684      0.9534688
     16988.5000         1.7456         1.5371         1.3171         1.3646       -52.8866      -3.503883      0.9536318
     16989.0000         1.7277         1.5094         1.3264          1.374       -52.8778      -3.495083      0.9537948
     16989.5000         1.6882         1.5052         1.3268         1.3655       -52.8691      -3.486382      0.9539559
     16990.0000         1.6486         1.4801         1.3273         1.3481       -52.6798      -3.297081      0.9574615
     16990.5000         1.6091         1.4543         1.3366         1.3485       -52.6765      -3.293781      0.9575226
     16991.0000         1.5893         1.4534          1.337         1.3489       -52.6732      -3.290482      0.9575837
     16991.5000         1.5498         1.4406         1.3375         1.3583         -52.67      -3.287281       0.957643
     16992.0000         1.5301         1.4407         1.3467         1.3766       -52.8455      -3.462784      0.9543929
     16992.5000         1.5266         1.4408         1.3472         1.3681       -52.8423      -3.459583      0.9544522
     16993.0000         1.5231         1.4271         1.3388         1.3418       -53.0181      -3.635384      0.9511966
     16993.5000         1.5177         1.4226         1.3304         1.3154        -53.015      -3.632282       0.951254
     16994.0000         1.5142         1.4053          1.322         1.2712       -53.0118      -3.629082      0.9513133
     16994.5000         1.5179         1.3996         1.3224          1.236        -53.188      -3.805283      0.9480503
     16995.0000         1.5234         1.3997          1.314         1.2096       -53.3642      -3.981483      0.9447873
     16995.5000         1.5667         1.4091         1.3145         1.2101       -53.3612      -3.978481      0.9448429
