#------------------------------------------------------------------------------
# Created by    : vladimir.rabinovich
# Created on    : 09/19/2023 17:22:47
#------------------------------------------------------------------------------
~Version Information Section
VERS.           2.0     :   CWLS log ASCII Standard - VERSION 2.0
WRAP.           NO      :   One line per depth step
~Well Information Section
#MNEM       .UNIT                                         VALUE :DESCRIPTION
#------------------------------------------------------------------------------
STRT        .FT                                            1029 :START DEPTH
STOP        .FT                                            4870 :STOP DEPTH
STEP        .FT                                             0.5 :STEP      
NULL        .                                           -999.25 :NULL      
COMP        .                              CHAPARRAL ENERGY LLC :COMPANY   
WELL        .                                         ST TR 171 :WELL      
FLD         .                               MATAGORDA BAY SOUTH :FIELD     
LOC         .                                                   :LOCATION  
CNTY        .                                         MATAGORDA :LOCATION  
STAT        .                                             TEXAS :STATE     
CTRY        .                                     UNITED STATES :COUNTRY   
SRVC        .                                                   :SERVICE COMPANY
DATE        .                             9/13/2023 11:19:17 AM :LOG DATE  
API         .                                    42321309080000 :API NUMBER
UWI         .                                    42321309080000 :UNIQUE WELL ID
XCOORD      .                                  571019.162580029 :SURFACE X 
YCOORD      .                                  10362433.1969336 :SURFACE Y 
LAT         .                                        28.5138372 :LATITUDE  
LON         .                                       -96.3299832 :LONGITUDE 
ELEV        .FT                                              19 :ELEVATION VALUE
ELEV_TYPE   .                                                KB :ELEVATION REFERENCE TYPE
~Curve Information Section
#MNEM       .UNIT                                      API CODE :CURVE DESCRIPTION
#------------------------------------------------------------------------------
DEPT        .FT                                                 :DEPTH     
DT          .US/FT                                              :          
GUARD       .OHMM                                               :          
IND         .OHMM                                               :          
SP          .MV                                                 :          
SP_NORM     .MV                                                 :SP Normalized
VSH_SP      .V/V                                                :Volume of Shale from SP
~A        DEPTH             DT          GUARD            IND             SP        SP_NORM         VSH_SP
# ...
      2815.0000       119.3907         1.1774         1.2453       -43.2998      -5.548008      0.7782495
      2815.5000       116.5547         1.2615          1.283       -44.4037      -6.663696       0.708519
      2816.0000       113.5479         1.4385         1.3208       -44.9447       -7.21648        0.67397
      2816.5000       109.4635         1.4692         1.3585       -45.5999      -7.883469      0.6322832
      2817.0000       106.7958         1.4769         1.3962       -46.3664      -8.661758      0.5836401
      2817.5000       103.9094         1.4769         1.3962       -46.7715      -9.078644      0.5575848
      2818.0000       102.9354         1.4769          1.434        -47.381      -9.699932      0.5187542
      2818.5000       102.4024         1.4692          1.434       -48.0606      -10.39132      0.4755423
      2819.0000       101.2868         1.4615         1.3585       -49.0558      -11.39831      0.4126055
      2819.5000        98.6682         1.4385         1.2075          -50.2       -12.5543      0.3403563
      2820.0000        95.7581         1.4308         1.1321       -51.6354      -14.00148      0.2499073
      2820.5000        95.1998         1.4229         0.9434       -53.0405      -15.41837      0.1613517
      2821.0000        98.7668         1.4073         0.8302       -54.3182      -16.70786     0.08075881
      2821.5000       101.3992         1.3994          0.717       -55.0848      -17.48625      0.0321095
      2822.0000       102.8093         1.3839         0.6415       -56.4959      -18.90913              0
      2822.5000       103.9486         1.2995         0.6038       -56.6181      -19.04312              0
      2823.0000        104.564         1.2153         0.6038       -57.1079      -19.54471              0
      2823.5000       104.8122         1.1547          0.566       -57.1109       -19.5595              0
      2824.0000        106.124         1.0943         0.5283        -57.114      -19.57439              0
      2824.5000        107.333         1.0264         0.5283        -57.117      -19.58918              0
      2825.0000       105.7979         1.0264         0.5283         -57.12      -19.60396              0
      2825.5000       107.8045         1.0264         0.5283       -57.1236      -19.61935              0
      2826.0000       110.9781         1.0189         0.5283       -57.1261      -19.63364              0
      2826.5000       113.4825         0.9811         0.5283       -57.1291      -19.64843              0
      2827.0000       114.7217         0.9434         0.4906       -57.1321      -19.66321              0
      2827.5000       115.1654         0.9434         0.4906       -57.1356       -19.6785              0
      2828.0000       113.6081         0.9208         0.4906        -56.532      -19.08669              0
      2828.5000       111.4906         0.9208         0.4528       -56.5352      -19.10168              0
      2829.0000       112.7355         0.9132         0.4528       -56.5382      -19.11647              0
      2829.5000        113.797         0.9132         0.4528       -56.5416      -19.13165              0
      2830.0000       113.7982         0.9132         0.4151       -56.4857      -19.08754              0
      2830.5000       113.7997         0.8977         0.3755       -55.9412      -18.55483              0
      2831.0000       113.8047         0.8823         0.3737       -55.5705      -18.19592              0
      2831.5000       114.2704         0.8668         0.3718       -54.7355       -17.3727     0.03920603
      2832.0000       115.1183         0.8589           0.37       -53.9666      -16.61559     0.08652544
      2832.5000        116.877         0.8434         0.3682       -52.2025      -14.86328      0.1960449
      2833.0000       119.3762         0.8355         0.3663       -49.5151      -12.18767      0.3632708
      2833.5000        123.344         0.8276         0.4022       -46.8687      -9.553055      0.5279341
      2834.0000       124.2538         0.8574         0.4004        -44.624      -7.320145       0.667491
      2834.5000       124.8697         0.8948         0.4363       -42.1025      -4.810432       0.824348
      2835.0000       125.6507         0.9246         0.4344       -40.5784      -3.298119      0.9188676
      2835.5000       127.1877         0.9469         0.4703       -40.2139      -2.945408       0.940912
      2836.0000       128.0208         0.9465         0.4685       -39.6104      -2.353695      0.9778941
      2836.5000       127.0253         0.9386         0.4666       -39.3249      -2.079987      0.9950008
      2837.0000       127.9479         0.8854         0.4271       -38.5644      -1.331272              1
      2837.5000       126.8689         0.7944         0.4252       -37.8018     -0.5804596              1
      2838.0000       127.5854         0.7632         0.4234       -37.6493     -0.4397469              1
      2838.5000       131.7922         0.7089         0.3838       -37.5149     -0.3171349              1
      2839.0000       134.4248          0.647          0.382       -37.8114     -0.6254234              1
      2839.5000       137.7235         0.5697         0.4556       -37.2078     -0.0336113              1
      2840.0000       139.5562         0.5309          0.567       -37.2109    -0.04849625              1
      2840.5000       139.9385         0.5384         0.7158       -37.2139    -0.06328583              1
      2841.0000        139.785         0.5766         0.8281       -37.2174    -0.07857513              1
      2841.5000       139.6336         0.6378         0.9027       -37.8261     -0.6990623              1
      2842.0000       139.4796         0.8137         1.0153       -37.8291     -0.6998024              1
      2842.5000       139.0219         0.9801         1.1281       -37.8321     -0.6988144              1
      2843.0000        138.866          1.071         1.2032       -37.8355     -0.6982231              1
      2843.5000        137.868         1.0937         1.2025       -37.8382     -0.6969376              1
      2844.0000        136.795         1.1088         1.2397       -37.8412     -0.6959496              1
      2844.5000       134.8795         1.1163          1.239       -37.8442     -0.6949615              1
      2845.0000       133.6474         1.1162         1.2383       -37.8475     -0.6942749              1
      2845.5000       131.9203         1.1238         1.2376       -38.4564      -1.299187              1
      2846.0000        130.503         1.1466         1.2369       -38.4594      -1.298199              1
      2846.5000       129.0473         1.1771         1.2362       -38.4624      -1.297207              1
      2847.0000       128.2791         1.2152         1.2355       -37.8595     -0.6903229              1
      2847.5000       127.5897         1.2455         1.2345       -37.8624     -0.6892319              1
      2848.0000       127.4382         1.2834         1.2338       -37.8655     -0.6883469              1
      2848.5000       127.9771         1.3363         1.2714        -37.434     -0.2528572              1
      2849.0000       127.9781         1.3437         1.2707       -36.6595       0.525631              1
      2849.5000       126.2502         1.3436         1.3084       -36.0558       1.133316              1
      2850.0000       124.4471         1.3435         1.3078       -36.0594       1.133709              1
      2850.5000       122.2994         1.3434         1.3462        -36.063       1.134094              1
      2851.0000       120.6098         1.3434         1.3846       -36.0655       1.135582              1
      2851.5000       121.7614         1.3509         1.3846       -36.0685        1.13657              1
      2852.0000       124.9893         1.3585         1.3846       -35.7463       1.462757              1
      2852.5000       124.2576          1.366         1.3846       -35.4685       1.744549              1
