#------------------------------------------------------------------------------
# Created by    : vladimir.rabinovich
# Created on    : 09/19/2023 17:19:43
#------------------------------------------------------------------------------
~Version Information Section
VERS.           2.0     :   CWLS log ASCII Standard - VERSION 2.0
WRAP.           NO      :   One line per depth step
~Well Information Section
#MNEM       .UNIT                                         VALUE :DESCRIPTION
#------------------------------------------------------------------------------
STRT        .FT                                              86 :START DEPTH
STOP        .FT                                           17232 :STOP DEPTH
STEP        .FT                                             0.5 :STEP      
NULL        .                                           -999.25 :NULL      
COMP        .                                        EXXON CORP :COMPANY   
WELL        .                               OYSTR LKE TMPRRY GU :WELL      
FLD         .                                           WILDCAT :FIELD     
LOC         .                                                   :LOCATION  
CNTY        .                                         MATAGORDA :LOCATION  
STAT        .                                             TEXAS :STATE     
CTRY        .                                     UNITED STATES :COUNTRY   
SRVC        .                                                   :SERVICE COMPANY
DATE        .                             9/13/2023 11:19:17 AM :LOG DATE  
API         .                                    42321309610000 :API NUMBER
UWI         .                                    42321309610000 :UNIQUE WELL ID
XCOORD      .                                  606681.955270441 :SURFACE X 
YCOORD      .                                  10380406.3085524 :SURFACE Y 
LAT         .                                         28.565886 :LATITUDE  
LON         .                                       -96.2205825 :LONGITUDE 
ELEV        .FT                                              25 :ELEVATION VALUE
ELEV_TYPE   .                                                KB :ELEVATION REFERENCE TYPE
~Curve Information Section
#MNEM       .UNIT                                      API CODE :CURVE DESCRIPTION
#------------------------------------------------------------------------------
DEPT        .FT                                                 :DEPTH     
ASFL        .OHMM                                               :          
CILD        .MMHO                                               :          
ILD         .OHMM                                               :          
SP          .MV                                                 :          
SP_NORM     .MV                                                 :SP Normalized
VSH_SP      .V/V                                                :Volume of Shale from SP
~A        DEPTH           ASFL           CILD            ILD             SP        SP_NORM         VSH_SP
# ...
     13766.0000         0.6843       1832.322        -999.25        -3.3544     -0.5014718              1
     13766.5000         0.6837       1821.033        -999.25        -3.3233     -0.4709272              1
     13767.0000         0.6865       1809.816        -999.25        -3.2921     -0.4402828              1
     13767.5000         0.6892         1798.6        -999.25        -3.2611     -0.4098387              1
     13768.0000         0.6936       1786.869        -999.25        -3.2343      -0.383594              1
     13768.5000         0.6986       1774.182        -999.25        -3.2097     -0.3595498              1
     13769.0000         0.7073       1761.496        -999.25        -3.1849     -0.3353055              1
     13769.5000         0.7128       1748.934        -999.25        -3.1603     -0.3112609              1
     13770.0000         0.7183       1736.516        -999.25        -3.1356     -0.2871165              1
     13770.5000         0.7216       1731.939        -999.25        -3.1109     -0.2629721              1
     13771.0000         0.7248       1732.912        -999.25        -3.0797     -0.2323277              1
     13771.5000         0.7277       1733.889        -999.25        -3.0483     -0.2014835              1
     13772.0000           0.73       1737.238        -999.25        -3.0168     -0.1705389              1
     13772.5000         0.7322       1742.871        -999.25         -2.993     -0.1472945              1
     13773.0000         0.7344       1748.516        -999.25        -3.0262     -0.1810503              1
     13773.5000         0.7356       1754.148        -999.25        -3.0594     -0.2148058              1
     13774.0000         0.7357       1759.328        -999.25        -3.0955     -0.2514613              1
     13774.5000         0.7357       1764.252        -999.25        -3.1401      -0.296617              1
     13775.0000         0.7354       1769.162        -999.25        -3.2422     -0.3992724              1
     13775.5000         0.7337       1769.211        -999.25         -3.369      -0.526628              1
     13776.0000         0.7321       1746.043        -999.25        -3.4875     -0.6456838              1
     13776.5000          0.718       1715.137        -999.25        -3.6264     -0.7851393              1
     13777.0000         0.7122       1692.115        -999.25        -3.7428     -0.9020948              1
     13777.5000         0.7065       1684.107        -999.25        -3.6066     -0.7664506              1
     13778.0000         0.7011       1676.441        -999.25         -3.285     -0.4454062              1
     13778.5000         0.6996        1669.73        -999.25        -2.9625      -0.123462              1
     13779.0000         0.6999       1665.213        -999.25        -2.6754      0.1630826              1
     13779.5000         0.7018       1661.271        -999.25        -2.3944      0.4435272              1
     13780.0000         0.7037       1659.598        -999.25        -2.1488      0.6885715              1
     13780.5000         0.7058        1657.92        -999.25        -1.9677      0.8691158              1
     13781.0000          0.708       1656.914        -999.25        -2.1397      0.6965604              1
     13781.5000         0.7101       1657.322        -999.25        -2.5208      0.3149045              1
     13782.0000         0.7122       1657.732        -999.25        -2.7334      0.1017489              1
     13782.5000         0.7135       1658.143        -999.25        -2.8864    -0.05180645              1
     13783.0000         0.7144       1658.555        -999.25        -2.9971     -0.1630623              1
     13783.5000         0.7152       1658.963        -999.25        -3.0555     -0.2220178              1
     13784.0000          0.716       1659.373        -999.25        -3.1139     -0.2809734              1
     13784.5000         0.7168       1659.455        -999.25        -3.1723     -0.3399291              1
     13785.0000          0.717       1659.059        -999.25        -3.1753     -0.3434844              1
     13785.5000          0.717        1658.66        -999.25        -3.1663     -0.3350403              1
     13786.0000          0.717       1658.264        -999.25        -3.1572     -0.3264959              1
     13786.5000         0.7171       1657.865        -999.25        -3.1482     -0.3180513              1
     13787.0000         0.7171       1658.182        -999.25        -3.1392      -0.309607              1
     13787.5000         0.7178        1658.51        -999.25        -3.1315     -0.3024626              1
     13788.0000         0.7188       1658.838        -999.25        -3.1238     -0.2953181              1
     13788.5000         0.7197       1659.166        -999.25        -3.1161     -0.2881739              1
     13789.0000         0.7207       1659.727        -999.25        -3.1085     -0.2811294              1
     13789.5000         0.7218       1660.361        -999.25        -3.1008     -0.2739849              1
     13790.0000         0.7229       1660.998        -999.25         -3.087     -0.2607405              1
     13790.5000         0.7239       1661.635        -999.25        -3.0583     -0.2325962              1
     13791.0000          0.725       1662.242        -999.25        -3.0296     -0.2044518              1
     13791.5000          0.726        1662.68        -999.25        -3.0009     -0.1763074              1
     13792.0000         0.7266       1663.115        -999.25        -2.9743     -0.1502628              1
     13792.5000         0.7272       1663.553        -999.25        -2.9734     -0.1499188              1
     13793.0000         0.7278       1664.412        -999.25        -2.9725     -0.1495743              1
     13793.5000         0.7285       1665.328        -999.25        -2.9716     -0.1492298              1
     13794.0000         0.7291       1666.244        -999.25        -2.9671     -0.1452854              1
     13794.5000         0.7293       1667.285        -999.25        -2.9517      -0.130441              1
     13795.0000         0.7295       1668.404        -999.25        -2.9362     -0.1154964              1
     13795.5000         0.7297       1669.529        -999.25        -2.9208     -0.1006522              1
     13796.0000           0.73        1671.24        -999.25        -2.8954    -0.07580781              1
     13796.5000         0.7305       1673.172        -999.25        -2.8349    -0.01586342              1
     13797.0000         0.7311       1675.842        -999.25        -2.7746     0.04388094              1
     13797.5000         0.7316       1677.289        -999.25        -2.6751      0.1428254              1
     13798.0000         0.7322       1677.246        -999.25        -2.6369      0.1804698              1
     13798.5000         0.7322       1677.203        -999.25        -2.6998      0.1170142              1
     13799.0000         0.7319       1678.535        -999.25        -2.9472     -0.1309414              1
     13799.5000         0.7317       1682.146        -999.25        -3.2245      -0.408797              1
     13800.0000         0.7354       1685.754        -999.25        -3.2153     -0.4001527              1
     13800.5000         0.7455        1684.18        -999.25        -3.1953     -0.3807082              1
     13801.0000         0.7671       1673.012        -999.25        -3.1752     -0.3611639              1
     13801.5000         0.7824       1658.293        -999.25        -3.1257     -0.3122194              1
     13802.0000         0.7954       1647.861        -999.25        -3.0744     -0.2614748              1
     13802.5000         0.8064        1639.84        -999.25        -3.0125     -0.2001307              1
     13803.0000          0.818       1633.301        -999.25        -2.9198     -0.1079862              1
     13803.5000         0.8271        1626.75        -999.25        -2.8168    -0.00554204              1
