#------------------------------------------------------------------------------
# Created by    : vladimir.rabinovich
# Created on    : 09/19/2023 17:19:21
#------------------------------------------------------------------------------
~Version Information Section
VERS.           2.0     :   CWLS log ASCII Standard - VERSION 2.0
WRAP.           NO      :   One line per depth step
~Well Information Section
#MNEM       .UNIT                                         VALUE :DESCRIPTION
#------------------------------------------------------------------------------
STRT        .FT                                             313 :START DEPTH
STOP        .FT                                           17011 :STOP DEPTH
STEP        .FT                                             0.5 :STEP      
NULL        .                                           -999.25 :NULL      
COMP        .                             MAGNOLIA PETROLEUM CO :COMPANY   
WELL        .                                      LETULLE UNIT :WELL      
FLD         .                                           WILDCAT :FIELD     
LOC         .                                                   :LOCATION  
CNTY        .                                         MATAGORDA :LOCATION  
STAT        .                                             TEXAS :STATE     
CTRY        .                                     UNITED STATES :COUNTRY   
SRVC        .                                                   :SERVICE COMPANY
DATE        .                             9/13/2023 11:18:46 AM :LOG DATE  
API         .                                    42321010770000 :API NUMBER
UWI         .                                    42321010770000 :UNIQUE WELL ID
XCOORD      .                                  733053.658917313 :SURFACE X 
YCOORD      .                                  10456928.2420536 :SURFACE Y 
LAT         .                                        28.7849393 :LATITUDE  
LON         .                                       -95.8329519 :LONGITUDE 
ELEV        .FT                                              38 :ELEVATION VALUE
ELEV_TYPE   .                                                KB :ELEVATION REFERENCE TYPE
~Curve Information Section
#MNEM       .UNIT                                      API CODE :CURVE DESCRIPTION
#------------------------------------------------------------------------------
DEPT        .FT                                                 :DEPTH     
AAM_16      .OHMM                                               :          
AM_16       .OHMM                                               :          
AM_64       .OHMM                                               :          
AO_18_8     .OHMM                                               :          
SP          .MV                                                 :          
SP_NORM     .MV                                                 :SP Normalized
VSH_SP      .V/V                                                :Volume of Shale from SP
~A        DEPTH         AAM_16          AM_16          AM_64        AO_18_8             SP        SP_NORM         VSH_SP
# ...
     12507.0000          0.743         0.6845         0.6432         0.6992       -42.5849       1.003334              1
     12507.5000         0.7376         0.6707         0.6386         0.6987       -42.5829       1.003872              1
     12508.0000         0.7198          0.667         0.6247         0.6894        -42.581       1.004314              1
     12508.5000         0.6984         0.6571         0.6183         0.6889       -42.5791       1.004753              1
     12509.0000         0.6644         0.6573         0.6107         0.6885       -42.5772       1.005196              1
     12509.5000         0.6305         0.6574         0.5967          0.688       -42.5751       1.005836              1
     12510.0000         0.6304         0.6536         0.5967         0.6876       -42.5733        1.00618              1
     12510.5000         0.6303         0.6437         0.5967         0.6875       -42.5714       1.006618              1
     12511.0000         0.6571         0.6439         0.5966         0.6875       -42.5695       1.007061              1
     12511.5000         0.6713          0.644         0.5966         0.6964       -42.5675       1.007599              1
     12512.0000         0.6695         0.6442         0.5965         0.6964       -42.5656       1.008041              1
     12512.5000         0.6642         0.6443         0.5921         0.6875       -42.5637        1.00848              1
     12513.0000         0.6588         0.6444         0.5821         0.6875       -42.5614       1.009323              1
     12513.5000         0.6516         0.6445         0.5702         0.6875       -42.5598       1.009464              1
     12514.0000         0.6516         0.6447         0.5841         0.6786       -42.5579       1.009903              1
     12514.5000         0.6978         0.6452          0.588         0.6786        -42.556       1.010345              1
     12515.0000         0.7458         0.6588         0.6054         0.6696       -42.4986       1.066284              1
     12515.5000         0.7457         0.6589          0.612         0.6696       -42.2755       1.287926              1
     12516.0000         0.7457          0.659         0.6124         0.6696       -42.2736       1.288364              1
     12516.5000         0.7296         0.6591         0.6259         0.6696       -42.2717       1.288807              1
     12517.0000         0.7136         0.6593         0.6259         0.6696       -42.2695       1.289547              1
     12517.5000         0.7135         0.6599          0.626         0.6696       -42.2678       1.289791              1
     12518.0000         0.7241         0.6734          0.626         0.6696       -42.2657       1.290428              1
     12518.5000         0.7453         0.6735          0.626         0.6696        -42.264       1.290672              1
     12519.0000         0.7683         0.6875         0.6335         0.6696        -42.262        1.29121              1
     12519.5000         0.7682         0.6877           0.64         0.6696       -42.2601       1.291653              1
     12520.0000         0.7646         0.6878           0.64         0.6786       -42.2582       1.292091              1
     12520.5000         0.7487         0.6879           0.64         0.6786       -42.2563       1.292534              1
     12521.0000         0.7327         0.6881         0.6401         0.6786       -42.2543       1.293076              1
     12521.5000         0.7149         0.6882         0.6262         0.6786       -42.0648       1.481113              1
     12522.0000         0.6989         0.6883         0.6262         0.6875       -41.9739       1.570557              1
     12522.5000         0.6865         0.6884         0.6263         0.6875       -41.9719       1.571095              1
     12523.0000         0.6864         0.6886         0.6263         0.6875       -41.9699        1.57164              1
     12523.5000         0.6899         0.6881         0.6263         0.6964       -41.9681       1.571976              1
     12524.0000         0.7414         0.6749         0.6257         0.6964       -41.8575       1.681122              1
     12524.5000         0.7414         0.6751         0.6125         0.6964       -41.7162       1.820957              1
     12525.0000         0.7413         0.6752         0.6049         0.6964       -41.6857       1.850002              1
     12525.5000          0.736         0.6753         0.5848         0.7054       -41.6834       1.850842              1
     12526.0000         0.7075         0.6754         0.5709         0.7054       -41.6818       1.850983              1
     12526.5000         0.6772         0.6756         0.5667         0.7054       -41.6799       1.851421              1
     12527.0000         0.6611         0.6757         0.5571         0.7054        -41.678       1.851864              1
     12527.5000          0.661         0.6758         0.5432         0.7054       -41.5285       1.999905              1
     12528.0000         0.6842          0.676         0.5424         0.7054       -41.3975       2.129448              1
     12528.5000         0.7162         0.6761         0.5294         0.7054       -41.3956       2.129887              1
     12529.0000         0.7483         0.6762         0.5216         0.7143       -41.3937       2.130329              1
     12529.5000         0.7804         0.6763         0.5155         0.7143       -41.3917       2.130867              1
     12530.0000         0.7607         0.6765         0.5147         0.7143       -41.3898       2.131306              1
     12530.5000         0.7267         0.6766         0.5017         0.7228       -41.3879       2.131748              1
     12531.0000          0.691         0.6739         0.5017         0.7224        -41.386       2.132187              1
     12531.5000         0.6553          0.663         0.5018         0.7219       -41.3839       2.132832              1
     12532.0000         0.6499         0.6631         0.4879         0.7215       -41.4209       2.094372              1
     12532.5000         0.6428         0.6632         0.4835           0.73       -41.6568       1.857014              1
     12533.0000         0.6374         0.6634         0.4741         0.7295       -41.6549       1.857452              1
     12533.5000         0.6303         0.6496         0.4741         0.7291       -41.7802       1.730694              1
     12534.0000         0.6249         0.6498         0.4602         0.7286       -41.9279       1.581535              1
     12534.5000         0.6178         0.6499         0.4603         0.7282       -41.9257       1.582275              1
     12535.0000         0.6178           0.65         0.4524         0.7277       -41.9238       1.582714              1
     12535.5000         0.6142         0.6363         0.4464         0.7273       -41.9218        1.58326              1
     12536.0000         0.6142         0.6322         0.4326         0.7179         -41.92       1.583599              1
     12536.5000         0.6142          0.615         0.4281         0.7175        -41.918       1.584141              1
     12537.0000         0.6089         0.6089         0.4187         0.7081       -41.9161       1.584579              1
     12537.5000         0.6089         0.6083         0.4188         0.6987       -41.9142       1.585018              1
     12538.0000         0.6089         0.5953         0.4188         0.6983       -42.1889       1.308861              1
     12538.5000         0.6053         0.5954         0.4143         0.6889        -42.187       1.309299              1
     12539.0000         0.6053         0.5956         0.4049         0.6885        -42.185       1.309841              1
     12539.5000         0.5929         0.5818          0.405         0.6791       -42.1831        1.31028              1
     12540.0000         0.5893         0.5819          0.405         0.6697       -42.1809       1.311024              1
