#------------------------------------------------------------------------------
# Created by    : vladimir.rabinovich
# Created on    : 09/19/2023 17:22:47
#------------------------------------------------------------------------------
~Version Information Section
VERS.           2.0     :   CWLS log ASCII Standard - VERSION 2.0
WRAP.           NO      :   One line per depth step
~Well Information Section
#MNEM       .UNIT                                         VALUE :DESCRIPTION
#------------------------------------------------------------------------------
STRT        .FT                                            1029 :START DEPTH
STOP        .FT                                            4870 :STOP DEPTH
STEP        .FT                                             0.5 :STEP      
NULL        .                                           -999.25 :NULL      
COMP        .                              CHAPARRAL ENERGY LLC :COMPANY   
WELL        .                                         ST TR 171 :WELL      
FLD         .                               MATAGORDA BAY SOUTH :FIELD     
LOC         .                                                   :LOCATION  
CNTY        .                                         MATAGORDA :LOCATION  
STAT        .                                             TEXAS :STATE     
CTRY        .                                     UNITED STATES :COUNTRY   
SRVC        .                                                   :SERVICE COMPANY
DATE        .                             9/13/2023 11:19:17 AM :LOG DATE  
API         .                                    42321309080000 :API NUMBER
UWI         .                                    42321309080000 :UNIQUE WELL ID
XCOORD      .                                  571019.162580029 :SURFACE X 
YCOORD      .                                  10362433.1969336 :SURFACE Y 
LAT         .                                        28.5138372 :LATITUDE  
LON         .                                       -96.3299832 :LONGITUDE 
ELEV        .FT                                              19 :ELEVATION VALUE
ELEV_TYPE   .                                                KB :ELEVATION REFERENCE TYPE
~Curve Information Section
#MNEM       .UNIT                                      API CODE :CURVE DESCRIPTION
#------------------------------------------------------------------------------
DEPT        .FT                                                 :DEPTH     
DT          .US/FT                                              :          
GUARD       .OHMM                                               :          
IND         .OHMM                                               :          
SP          .MV                                                 :          
SP_NORM     .MV                                                 :SP Normalized
VSH_SP      .V/V                                                :Volume of Shale from SP
~A        DEPTH             DT          GUARD            IND             SP        SP_NORM         VSH_SP
# ...
      4069.0000        144.874         4.0075         3.2308       -54.3579      -19.85507       0.301664
      4069.5000       143.0996         3.9849         3.2692        -54.361      -19.84431      0.3020626
      4070.0000       141.8636         3.3538         3.1923        -54.364      -19.83344      0.3024651
      4070.5000       142.1861         2.7547         2.6551       -54.3671      -19.82268      0.3028637
      4071.0000       143.3194         2.1509         2.1954         -54.37      -19.81171      0.3032698
      4071.5000       144.4718         2.1283         2.1204       -54.3731      -19.80095      0.3036684
      4072.0000       145.0456         2.1132         2.1223       -54.3761      -19.79008      0.3040709
      4072.5000       145.4009         2.1509         2.0858       -54.3792      -19.77932      0.3044695
      4073.0000       145.7856            2.4         2.0493       -54.5218      -19.90806      0.2997015
      4073.5000       146.8965         2.6113         2.0128       -54.9912      -20.36359      0.2828299
      4074.0000       146.3846         3.0415         2.0148       -54.9943      -20.35283      0.2832285
      4074.5000       146.1617         2.7849         1.9032       -54.9973      -20.34196      0.2836309
      4075.0000       146.3227         1.8803         0.0561       -55.6064       -20.9372      0.2615852
      4075.5000       146.2766         1.4273         0.0581       -55.3034      -20.62033      0.2733209
      4076.0000       145.3367          1.129           0.06       -55.0064      -20.30947      0.2848344
      4076.5000       143.5484         1.0237          0.062       -55.0001      -20.28931      0.2855812
      4077.0000       140.9677         0.9712         0.1016       -54.4063      -19.68164      0.3080874
      4077.5000       134.8763         0.9263         0.1413       -54.4094      -19.67088       0.308486
      4078.0000        129.043          0.904          0.181       -54.4129      -19.66051        0.30887
      4078.5000       124.2172         0.8968         0.2207       -54.4154      -19.64915      0.3092907
      4079.0000        120.669         0.8972         0.2594       -54.2424      -19.46228      0.3162117
      4079.5000       116.9272         0.8825         0.3369       -53.8154      -19.02142        0.33254
      4080.0000       113.1574         0.8753         0.3766       -53.2128      -18.40495      0.3553721
      4080.5000       108.8737         0.8604         0.3774       -52.5759      -17.75419      0.3794745
      4081.0000        107.302         0.8604         0.3774       -52.0063      -17.17073      0.4010842
      4081.5000       106.6284         0.8604         0.3774       -51.6669      -16.81746      0.4141682
      4082.0000       107.1895         0.8604         0.3774       -49.5885       -14.7252      0.4916594
      4082.5000       109.9414         0.8679         0.4151       -48.8937      -14.01653      0.5179063
      4083.0000       111.1949         0.8755         0.4528       -47.3756      -12.48457      0.5746457
      4083.5000       111.5302         0.8981         0.4528       -45.5029        -10.598      0.6445186
      4084.0000       110.8009         0.9434         0.4906         -43.54      -8.621239      0.7177319
      4084.5000       110.0887         2.1736          0.566        -40.773       -5.84037      0.8207271
      4085.0000       109.9341         2.1736         0.6415       -36.8485      -1.902008      0.9665923
      4085.5000       114.2159         2.1434         0.7547       -34.9361     0.02425766              1
      4086.0000       116.9951         1.9481         0.8302        -33.855       1.119221              1
      4086.5000       118.2115         1.7556         0.8679       -33.7879       1.200188              1
      4087.0000       116.0525         1.7481         0.9434       -33.2547        1.74725              1
      4087.5000       113.1281         1.7481         1.0189       -33.2577       1.758114              1
      4088.0000       111.4683         1.7333         1.0943        -33.261       1.768677              1
      4088.5000       109.9233         1.7185         1.1698       -33.8698       1.173744              1
      4089.0000       112.5535         1.7037         1.1698       -33.6363       1.421108              1
      4089.5000       118.1083         1.6889         1.1698       -33.2698       1.801476              1
      4090.0000       118.8906         1.6741         1.1698       -33.2731       1.812035              1
      4090.5000       115.5921         1.6074         1.1698       -33.8819       1.217102              1
      4091.0000       112.2226         1.4846         1.1698        -33.885       1.227867              1
      4091.5000       109.4422         1.3846         1.1698        -33.888       1.238731              1
      4092.0000       108.0725         1.3231         1.1698       -33.8912       1.249393              1
      4092.5000       111.1383         3.1698         1.1698        -33.894        1.26046              1
      4093.0000        114.985         3.1698         1.1698       -33.8971       1.271225              1
      4093.5000       118.0984         3.1698         1.1698       -33.9001       1.282089              1
      4094.0000       120.0895         3.0566         1.1698       -33.9032       1.292854              1
      4094.5000       120.7948         1.9556         1.1698       -34.5122      0.6977196              1
      4095.0000       119.7932         1.8889         1.1698       -34.5152        0.70858              1
      4095.5000       119.2729         1.8148         1.1321       -34.5182      0.7194481              1
      4096.0000       121.6776         1.7481         1.0943       -34.5214      0.7301102              1
      4096.5000       124.0097         1.6593         1.0566       -35.1303      0.1350784              1
      4097.0000       125.2751         1.6519         0.9811       -35.1334      0.1458397              1
      4097.5000       124.5863         1.9037         0.9434       -35.1364      0.1567078              1
      4098.0000       119.4251         1.9037         0.9057       -35.1395       0.167469              1
      4098.5000       114.9546         1.8741         0.8679       -35.1424      0.1784363              1
      4099.0000       112.1319            1.3         0.8302       -35.1455      0.1891975              1
      4099.5000       112.6289         2.7321         0.8302       -35.1485      0.2000656              1
      4100.0000       118.2574         2.7321         0.8302       -35.1515      0.2109261              1
      4100.5000       123.9976         2.7321         0.8302       -36.5047      -1.128407      0.9952442
      4101.0000       125.3768         2.4151         0.8302       -37.2514      -1.861244       0.968102
      4101.5000       125.2218         1.7852         0.8302       -37.5575      -2.153477      0.9572787
      4102.0000       125.1332         1.4692         0.8302       -37.5513      -2.133415      0.9580216
      4102.5000        121.691         1.1472         0.8302       -36.5532      -1.121449      0.9955019
      4103.0000       118.6932         1.1774         0.7925       -34.5634      0.8822136              1
      4103.5000       117.4984         1.2538         0.7925       -33.0521       2.407379              1
      4104.0000       117.9147         1.3154         0.7925       -32.0723       3.401043              1
      4104.5000       120.6114         2.4151         0.7547       -30.7441       4.743109              1
      4105.0000       122.9146         2.4151         0.7547       -30.4997       5.001371              1
      4105.5000       125.6429         2.2566         0.7547       -31.2463       4.268639              1
      4106.0000       128.2044         1.5077          0.717       -32.0479         3.4809              1
      4106.5000       130.8814         1.2923          0.717       -32.1342       3.408466              1
