#------------------------------------------------------------------------------
# Created by    : vladimir.rabinovich
# Created on    : 09/19/2023 17:22:47
#------------------------------------------------------------------------------
~Version Information Section
VERS.           2.0     :   CWLS log ASCII Standard - VERSION 2.0
WRAP.           NO      :   One line per depth step
~Well Information Section
#MNEM       .UNIT                                         VALUE :DESCRIPTION
#------------------------------------------------------------------------------
STRT        .FT                                            1029 :START DEPTH
STOP        .FT                                            4870 :STOP DEPTH
STEP        .FT                                             0.5 :STEP      
NULL        .                                           -999.25 :NULL      
COMP        .                              CHAPARRAL ENERGY LLC :COMPANY   
WELL        .                                         ST TR 171 :WELL      
FLD         .                               MATAGORDA BAY SOUTH :FIELD     
LOC         .                                                   :LOCATION  
CNTY        .                                         MATAGORDA :LOCATION  
STAT        .                                             TEXAS :STATE     
CTRY        .                                     UNITED STATES :COUNTRY   
SRVC        .                                                   :SERVICE COMPANY
DATE        .                             9/13/2023 11:19:17 AM :LOG DATE  
API         .                                    42321309080000 :API NUMBER
UWI         .                                    42321309080000 :UNIQUE WELL ID
XCOORD      .                                  571019.162580029 :SURFACE X 
YCOORD      .                                  10362433.1969336 :SURFACE Y 
LAT         .                                        28.5138372 :LATITUDE  
LON         .                                       -96.3299832 :LONGITUDE 
ELEV        .FT                                              19 :ELEVATION VALUE
ELEV_TYPE   .                                                KB :ELEVATION REFERENCE TYPE
~Curve Information Section
#MNEM       .UNIT                                      API CODE :CURVE DESCRIPTION
#------------------------------------------------------------------------------
DEPT        .FT                                                 :DEPTH     
DT          .US/FT                                              :          
GUARD       .OHMM                                               :          
IND         .OHMM                                               :          
SP          .MV                                                 :          
SP_NORM     .MV                                                 :SP Normalized
VSH_SP      .V/V                                                :Volume of Shale from SP
~A        DEPTH             DT          GUARD            IND             SP        SP_NORM         VSH_SP
# ...
      2549.0000       105.2378         1.3692         1.4717       -51.9297      -12.40874      0.3494537
      2549.5000       104.2803         1.2923         1.2075       -53.3333      -13.81234      0.2617285
      2550.0000       104.3795         1.4154         1.0566       -53.9394      -14.41844      0.2238474
      2550.5000       104.2874         1.5385         0.8679       -53.9394      -14.41844      0.2238474
      2551.0000       102.3154         1.5846         0.7925       -53.9394      -14.41844      0.2238474
      2551.5000       103.7735         1.5923         0.7925       -53.9394      -14.41844      0.2238474
      2552.0000       107.2674            1.5         0.7547       -54.5455      -15.02454       0.185966
      2552.5000       110.4964         1.3231         0.7547       -54.5455      -15.02454       0.185966
      2553.0000       110.1457         1.2154          0.717       -54.5455      -15.02454       0.185966
      2553.5000        108.148          1.117         0.6792       -54.5455      -15.02454       0.185966
      2554.0000       110.5387         1.0868         0.6792       -54.3918      -14.87084      0.1955724
      2554.5000       111.0471         1.0491         0.6415       -53.9394      -14.41844      0.2238474
      2555.0000       110.6028         1.0189         0.6415       -53.9394      -14.41844      0.2238474
      2555.5000       111.3089         0.9887         0.6415       -53.9394      -14.41844      0.2238474
      2556.0000       112.9098         0.9811         0.6038       -53.9394      -14.41844      0.2238474
      2556.5000       114.8473         0.9509         0.6038        -54.266      -14.74504      0.2034349
      2557.0000       114.2856         0.9887          0.566       -54.5455      -15.02454       0.185966
      2557.5000       113.6704         1.0113          0.566       -54.5455      -15.02454       0.185966
      2558.0000       115.6101         1.0113          0.566       -54.5455      -15.02454       0.185966
      2558.5000       116.4424         1.0113         0.5283        -54.889      -15.36804      0.1644974
      2559.0000       114.8963         1.0113         0.5283       -55.1515      -15.63054      0.1480911
      2559.5000       112.3673         0.9509         0.5283       -55.2006      -15.67964      0.1450224
      2560.0000         112.22         0.8981         0.5283       -55.7576      -16.23664      0.1102099
      2560.5000       113.2533         0.8679         0.4906       -55.7576      -16.23664      0.1102099
      2561.0000       113.3564         0.8604         0.4906       -56.3636      -16.84264     0.07233477
      2561.5000       114.7971         0.8604         0.4906       -56.3636      -16.84264     0.07233477
      2562.0000       116.2002         0.8604         0.4528       -56.3636      -16.84264     0.07233477
      2562.5000       117.1438         0.8528         0.4528       -56.3636      -16.84264     0.07233477
      2563.0000       117.8073         0.8453         0.4151       -56.3636      -16.84264     0.07233477
      2563.5000       120.1317         0.8302         0.4151       -56.3636      -16.84264     0.07233477
      2564.0000        121.736         0.8302         0.4151       -56.6025      -17.08154     0.05740356
      2564.5000       121.7461         0.8226         0.4151       -56.9697      -17.44874     0.03445363
      2565.0000       122.5654         0.8075         0.4151       -57.5758      -18.05484              0
      2565.5000       123.2505            0.8         0.4151       -57.5758      -18.05484              0
      2566.0000       123.0201         0.7846         0.4151       -57.3202      -17.79924     0.01254725
      2566.5000       123.4015         0.7769         0.4151       -56.9697      -17.44874     0.03445363
      2567.0000       127.4771         0.7769         0.4151       -56.9697      -17.44874     0.03445363
      2567.5000       130.8628         0.7769         0.4151       -56.9697      -17.44874     0.03445363
      2568.0000       133.2423         0.7769         0.4151       -56.9697      -17.44874     0.03445363
      2568.5000       133.5868         0.7769         0.4151       -56.9697      -17.44874     0.03445363
      2569.0000       132.0817         0.7769         0.4151       -56.9697      -17.44874     0.03445363
      2569.5000        133.617         0.7769         0.3774       -56.9697      -17.44874     0.03445363
      2570.0000       131.8666         0.7769         0.3774       -56.9697      -17.44874     0.03445363
      2570.5000       131.2234         0.7766         0.3393       -56.9697      -17.44874     0.03445363
      2571.0000       134.5356         0.7762          0.339       -56.9697      -17.44874     0.03445363
      2571.5000       134.8421         0.7759         0.3387       -56.9697      -17.44874     0.03445363
      2572.0000       133.8822         0.7755         0.3384       -56.9697      -17.44874     0.03445363
      2572.5000       135.7025         0.7675         0.3381       -56.3636      -16.84264     0.07233477
      2573.0000       134.2246         0.7594         0.3378       -56.3636      -16.84264     0.07233477
      2573.5000       134.2971         0.7666         0.3375       -56.1958      -16.67484     0.08282232
      2574.0000       134.1611         0.7662         0.3372       -55.7576      -16.23664      0.1102099
      2574.5000       132.0485         0.7735         0.3369       -55.7576      -16.23664      0.1102099
      2575.0000       129.9198         0.7809          0.374       -55.7576      -16.23664      0.1102099
      2575.5000       131.5554         0.7805         0.3735       -55.7576      -16.23664      0.1102099
      2576.0000       134.2094         0.7878         0.3732       -55.7576      -16.23664      0.1102099
      2576.5000       134.6418         0.7952         0.3728       -55.7576      -16.23664      0.1102099
      2577.0000       133.9099         0.8023         0.3725       -55.7576      -16.23664      0.1102099
      2577.5000        135.138         0.8095         0.3722       -55.7576      -16.23664      0.1102099
      2578.0000       131.7935         0.8167         0.3718       -55.7576      -16.23664      0.1102099
      2578.5000       130.9169         0.8239         0.4087       -55.7576      -16.23664      0.1102099
      2579.0000       134.8277         0.8311         0.4083       -55.0886      -15.56764      0.1520224
      2579.5000       134.4632         0.8307         0.4079       -54.3267      -14.80574      0.1996412
      2580.0000       133.6954         0.8077         0.4446       -53.9394      -14.41844      0.2238474
      2580.5000       133.0181         0.7154         0.4431       -53.3333      -13.81234      0.2617285
      2581.0000        132.059         0.7077         0.4788       -52.4874      -12.96644      0.3145974
      2581.5000       133.0554         0.7154         0.4775       -50.6736      -11.15264      0.4279599
      2582.0000        136.556         0.7923         0.4761       -49.9116      -10.39064       0.475585
      2582.5000       140.1975          0.883          0.512       -49.0909      -9.569942      0.5268786
      2583.0000       142.5007         1.0113         0.5106       -49.0909      -9.569942      0.5268786
      2583.5000       141.2533         0.9585         0.5093       -49.0909      -9.569942      0.5268786
      2584.0000       138.4762         0.8981          0.508       -49.0909      -9.569942      0.5268786
      2584.5000       136.8591         0.8679         0.5067       -49.0909      -9.569942      0.5268786
      2585.0000       136.0453         0.8679         0.5053       -49.0909      -9.569942      0.5268786
      2585.5000       134.9091         0.8679         0.5033       -49.3606      -9.839642      0.5100224
      2586.0000       133.6617         0.8755          0.502       -50.5477      -11.02674      0.4358287
      2586.5000       132.0413         0.8377         0.5007       -52.7273      -13.20634      0.2996037
