#------------------------------------------------------------------------------
# Created by    : vladimir.rabinovich
# Created on    : 09/19/2023 17:22:47
#------------------------------------------------------------------------------
~Version Information Section
VERS.           2.0     :   CWLS log ASCII Standard - VERSION 2.0
WRAP.           NO      :   One line per depth step
~Well Information Section
#MNEM       .UNIT                                         VALUE :DESCRIPTION
#------------------------------------------------------------------------------
STRT        .FT                                            1029 :START DEPTH
STOP        .FT                                            4870 :STOP DEPTH
STEP        .FT                                             0.5 :STEP      
NULL        .                                           -999.25 :NULL      
COMP        .                              CHAPARRAL ENERGY LLC :COMPANY   
WELL        .                                         ST TR 171 :WELL      
FLD         .                               MATAGORDA BAY SOUTH :FIELD     
LOC         .                                                   :LOCATION  
CNTY        .                                         MATAGORDA :LOCATION  
STAT        .                                             TEXAS :STATE     
CTRY        .                                     UNITED STATES :COUNTRY   
SRVC        .                                                   :SERVICE COMPANY
DATE        .                             9/13/2023 11:19:17 AM :LOG DATE  
API         .                                    42321309080000 :API NUMBER
UWI         .                                    42321309080000 :UNIQUE WELL ID
XCOORD      .                                  571019.162580029 :SURFACE X 
YCOORD      .                                  10362433.1969336 :SURFACE Y 
LAT         .                                        28.5138372 :LATITUDE  
LON         .                                       -96.3299832 :LONGITUDE 
ELEV        .FT                                              19 :ELEVATION VALUE
ELEV_TYPE   .                                                KB :ELEVATION REFERENCE TYPE
~Curve Information Section
#MNEM       .UNIT                                      API CODE :CURVE DESCRIPTION
#------------------------------------------------------------------------------
DEPT        .FT                                                 :DEPTH     
DT          .US/FT                                              :          
GUARD       .OHMM                                               :          
IND         .OHMM                                               :          
SP          .MV                                                 :          
SP_NORM     .MV                                                 :SP Normalized
VSH_SP      .V/V                                                :Volume of Shale from SP
~A        DEPTH             DT          GUARD            IND             SP        SP_NORM         VSH_SP
# ...
      3575.0000       110.3649         1.5963         1.6953        -33.708      0.0941925              1
      3575.5000       104.8809         1.5959         1.7331       -34.1403     -0.3409081              1
      3576.0000       100.3538         1.6416         1.8855        -34.299     -0.5024033              1
      3576.5000        95.3721         1.9257          2.076       -34.2914     -0.4976044              1
      3577.0000        89.4959         2.2061         2.2278       -34.2839     -0.4929047              1
      3577.5000        87.1929         2.3794         2.4551       -34.2763     -0.4880981              1
      3578.0000        87.0693         2.7336         2.6441       -34.8744      -1.089001      0.9961304
      3578.5000        86.7829         2.7636         2.7571       -34.8673      -1.084698      0.9963175
      3579.0000        85.8048         2.8236         2.7564       -35.1068      -1.326996      0.9857828
      3579.5000        87.2341          2.876         2.7557       -35.8508      -2.073795      0.9533132
      3580.0000        89.1438          3.366         2.7549       -36.0567      -2.282497      0.9442393
      3580.5000        90.6683          3.366         2.7547       -36.0492       -2.27779      0.9444439
      3581.0000        91.9297         3.0868         2.7547       -36.2648      -2.496193      0.9349481
      3581.5000        92.6141         2.9434         2.7925       -36.6401      -2.874287      0.9185093
      3582.0000        93.4322         2.8528         2.7547       -36.6316      -2.868587      0.9187571
      3582.5000        94.3853         2.8075          2.717       -37.2847      -3.524487      0.8902397
      3583.0000        95.6006          2.717         2.6038       -37.8296      -4.072186      0.8664267
      3583.5000        96.2189          2.717         2.4906        -37.822      -4.067383      0.8666355
      3584.0000        99.3641         2.6566         2.3774       -37.8133      -4.061485      0.8668919
      3584.5000        105.579         2.1132         2.2642       -37.8069       -4.05788      0.8670487
      3585.0000       110.7745         3.0264         2.1509       -37.7994      -4.053181       0.867253
      3585.5000       113.4196         3.0264         2.0377       -37.7918      -4.048382      0.8674617
      3586.0000       115.8348         2.1057         1.8846       -37.7829      -4.042278       0.867727
      3586.5000       116.3918         1.8538         1.8077       -37.7767      -4.038876       0.867875
      3587.0000       115.9791         1.6385         1.7308       -37.7691      -4.034073      0.8680838
      3587.5000        116.848         1.6231         1.3846       -37.7616      -4.029373      0.8682881
      3588.0000       118.5653         1.6154         1.3462        -37.754      -4.024574      0.8684968
      3588.5000       120.1088         1.6615         1.3462       -37.7463      -4.019669        0.86871
      3589.0000       121.0304         1.6923         1.3462       -37.6109       -3.88707      0.8744752
      3589.5000       120.6845         1.7077         1.3462       -37.1253       -3.40427      0.8954665
      3590.0000        119.635         1.6615         1.3462       -37.1178      -3.399567       0.895671
      3590.5000       118.1452         1.6385         1.3451       -37.1098      -3.394363      0.8958973
      3591.0000       116.7258         1.4412         1.4974       -37.1027      -3.390064      0.8960842
      3591.5000       115.4687         1.4411          1.611       -37.0951      -3.385262       0.896293
      3592.0000       114.4329         1.5621         1.6861       -37.0876      -3.380562      0.8964973
      3592.5000       111.9416         1.6154         1.6845       -36.4733      -2.769058      0.9230844
      3593.0000         107.82         1.6538         1.7212       -36.4664      -2.764957      0.9232627
      3593.5000       105.9441         1.5468         1.7196       -36.2327      -2.534058      0.9333019
      3594.0000       104.6886         1.5468         1.7562       -35.8452      -2.149353      0.9500281
      3594.5000       104.6136         1.5924         1.8308       -35.8368      -2.143753      0.9502716
      3595.0000       106.4296         1.6385         1.9433       -35.8301      -2.139854      0.9504411
      3595.5000       108.4516         2.3774         2.0177       -35.8225      -2.135048      0.9506501
      3596.0000       110.8226         2.3774         1.9777        -35.815      -2.130348      0.9508544
      3596.5000        113.185          2.317         1.9759       -35.8063      -2.124451      0.9511108
      3597.0000       115.3152         2.1585         1.9361       -36.4063      -2.727245      0.9249024
      3597.5000       115.6199         1.7385         1.8964       -36.3984      -2.722145      0.9251241
      3598.0000       115.4645         1.7077         1.8189       -36.3908      -2.717342       0.925333
      3598.5000       115.9199         1.6231         1.7416       -36.3819      -2.711243      0.9255981
      3599.0000       116.4133            1.6         1.6258       -36.3757      -2.707844      0.9257459
      3599.5000       117.1436         1.5769         1.5488       -36.3682      -2.703136      0.9259506
      3600.0000       118.1225         1.5615         1.4719       -35.1515      -1.489239      0.9787288
      3600.5000       119.1199         1.5462         1.5094       -35.7576      -2.098137      0.9522549
      3601.0000       119.3253         1.5308         1.5094       -35.7576      -2.100933      0.9521334
      3601.5000       118.6672         1.5154         1.5472       -35.7576      -2.103733      0.9520116
      3602.0000       117.8501         1.4923         1.5472       -35.7969      -2.145836      0.9501811
      3602.5000        116.843         1.4615         1.4717       -36.3636      -2.715332      0.9254203
      3603.0000       116.4034         1.4462          1.434       -36.3636      -2.718132      0.9252986
      3603.5000       115.8964         1.4462         1.3585       -36.3636      -2.720928       0.925177
      3604.0000       115.5559         1.4538          1.283       -36.3636      -2.723728      0.9250553
      3604.5000       115.3622         1.4769          1.283       -36.3636      -2.726528      0.9249336
      3605.0000       115.1685         1.5077          1.434       -36.3636      -2.729324       0.924812
      3605.5000       115.1194         1.5385         1.5472       -36.3636      -2.732124      0.9246902
      3606.0000       115.2994         1.5692         1.5472       -36.3636      -2.734924      0.9245685
      3606.5000       115.7555            1.6         1.5472       -36.3636       -2.73772      0.9244469
      3607.0000       116.9177         1.6231         1.5849       -36.3636       -2.74052      0.9243252
      3607.5000       118.4836         1.6462         1.5849       -36.3636      -2.743317      0.9242036
      3608.0000       118.9681         1.6615         1.5849       -36.3636      -2.746117      0.9240819
      3608.5000       119.0276         1.6538         1.5849       -36.6725      -3.057816      0.9105297
      3609.0000       118.5269         1.6385         1.5849       -37.5758      -3.963913      0.8711342
      3609.5000       117.3999         1.6154         1.5472       -37.5758      -3.966713      0.8710125
      3610.0000       115.7716            1.6         1.5094       -37.5758      -3.969513      0.8708907
      3610.5000       114.1067         1.5612         1.4713       -37.5758      -3.972309      0.8707691
      3611.0000       113.1577         1.5455         1.4708       -37.5758      -3.975109      0.8706474
      3611.5000       115.2425         1.5222         1.4324       -37.6364      -4.038506      0.8678911
      3612.0000       117.3877         1.5066          1.394       -38.1818      -4.586704      0.8440563
      3612.5000       114.3697         1.5522         1.3555       -38.1818      -4.589504      0.8439346
