#------------------------------------------------------------------------------
# Created by    : vladimir.rabinovich
# Created on    : 09/19/2023 17:22:47
#------------------------------------------------------------------------------
~Version Information Section
VERS.           2.0     :   CWLS log ASCII Standard - VERSION 2.0
WRAP.           NO      :   One line per depth step
~Well Information Section
#MNEM       .UNIT                                         VALUE :DESCRIPTION
#------------------------------------------------------------------------------
STRT        .FT                                            1029 :START DEPTH
STOP        .FT                                            4870 :STOP DEPTH
STEP        .FT                                             0.5 :STEP      
NULL        .                                           -999.25 :NULL      
COMP        .                              CHAPARRAL ENERGY LLC :COMPANY   
WELL        .                                         ST TR 171 :WELL      
FLD         .                               MATAGORDA BAY SOUTH :FIELD     
LOC         .                                                   :LOCATION  
CNTY        .                                         MATAGORDA :LOCATION  
STAT        .                                             TEXAS :STATE     
CTRY        .                                     UNITED STATES :COUNTRY   
SRVC        .                                                   :SERVICE COMPANY
DATE        .                             9/13/2023 11:19:17 AM :LOG DATE  
API         .                                    42321309080000 :API NUMBER
UWI         .                                    42321309080000 :UNIQUE WELL ID
XCOORD      .                                  571019.162580029 :SURFACE X 
YCOORD      .                                  10362433.1969336 :SURFACE Y 
LAT         .                                        28.5138372 :LATITUDE  
LON         .                                       -96.3299832 :LONGITUDE 
ELEV        .FT                                              19 :ELEVATION VALUE
ELEV_TYPE   .                                                KB :ELEVATION REFERENCE TYPE
~Curve Information Section
#MNEM       .UNIT                                      API CODE :CURVE DESCRIPTION
#------------------------------------------------------------------------------
DEPT        .FT                                                 :DEPTH     
DT          .US/FT                                              :          
GUARD       .OHMM                                               :          
IND         .OHMM                                               :          
SP          .MV                                                 :          
SP_NORM     .MV                                                 :SP Normalized
VSH_SP      .V/V                                                :Volume of Shale from SP
~A        DEPTH             DT          GUARD            IND             SP        SP_NORM         VSH_SP
# ...
      2283.0000       116.2315         1.0415         0.5283       -53.5418      -14.02084      0.2486973
      2283.5000       120.8071         1.0642         0.5283       -53.5351      -14.01414      0.2491162
      2284.0000       122.6567         0.9283         0.5283       -52.9249      -13.40394      0.2872536
      2284.5000       121.7293         0.9132         0.5283       -52.9188      -13.39784      0.2876348
      2285.0000       120.7808         0.8981         0.5283       -52.9128      -13.39184      0.2880099
      2285.5000       120.9858          0.883         0.5283       -52.3006      -12.77964      0.3262725
      2286.0000       123.5994          0.883         0.5283       -51.0826      -11.56164      0.4023974
      2286.5000       126.7785         0.8755         0.5283       -50.7985      -11.27754      0.4201536
      2287.0000       123.7537         0.8679         0.5283       -49.6142      -10.09324      0.4941723
      2287.5000       121.9763         0.8679         0.5283       -48.0339      -8.512943       0.592941
      2288.0000       121.1479         0.8679          0.566       -46.0971      -6.576141      0.7139912
      2288.5000        121.843         0.8755         0.6038       -45.0782      -5.557243      0.7776723
      2289.0000       125.0761          0.883         0.6415       -43.1596      -3.638641      0.8975849
      2289.5000       128.3805         0.9132          0.717        -41.343      -1.822041              1
      2290.0000       130.7394         0.9585         0.8302       -41.2426      -1.721642              1
      2290.5000       131.9613         1.0264         0.9811       -40.7253      -1.204342              1
      2291.0000       131.2864         1.0491         1.0566       -40.3306     -0.8096428              1
      2291.5000       129.8007         1.0642         1.0943       -39.5006     0.02035904              1
      2292.0000       127.7936         1.0943         1.1698       -39.4951     0.02585983              1
      2292.5000       125.6434         1.1321         1.2075       -39.4891     0.03185654              1
      2293.0000       122.9516         1.1623          1.283       -39.1126      0.4083595              1
      2293.5000       120.8369         1.1698         1.3585       -38.8703      0.6506577              1
      2294.0000        118.307         1.2228         1.3962        -38.865      0.6559563              1
      2294.5000       114.8708         1.2913          1.434        -38.859      0.6619568              1
      2295.0000       114.7132         1.3295         1.4717       -38.8529      0.6680565              1
      2295.5000       114.7513         1.3982         1.4717       -38.8461      0.6748581              1
      2296.0000       113.1856          1.406         1.4717       -38.8409      0.6800575              1
      2296.5000       113.4683         1.3987         1.4717       -38.8349       0.686058              1
      2297.0000       115.1914         1.3912         1.4717       -38.8288      0.6921577              1
      2297.5000       116.4635         1.3914         1.4717       -39.4279     0.09305954              1
      2298.0000       115.9513         1.3992         1.4717       -39.4229     0.09805679              1
      2298.5000        113.602          1.407          1.434       -39.4168      0.1041565              1
      2299.0000        113.598         1.4149         1.3962       -39.4108       0.110157              1
      2299.5000       113.6213         1.3997         1.3962       -39.4036      0.1173592              1
      2300.0000       112.4024         1.3615          1.434       -38.7927      0.7282562              1
      2300.5000       112.9676         1.1849         1.4717       -38.9412      0.5797577              1
      2301.0000       115.6333         1.1925         1.4717       -39.0699      0.4510574              1
      2301.5000       120.1097         1.2077         1.4717       -38.7734      0.7475586              1
      2302.0000       123.5802         1.2154         1.3962       -38.7684      0.7525597              1
      2302.5000       126.0045         1.2308         1.3585       -38.5652      0.9557571              1
      2303.0000       127.2443         1.2308          1.283       -38.1501       1.370857              1
      2303.5000          128.8         1.2077         1.2453       -38.1433       1.377659              1
      2304.0000       130.0745         1.1321         1.2075       -38.7446      0.7763596              1
      2304.5000       131.6681         1.1019         1.2075       -38.7379      0.7830582              1
      2305.0000       131.5101         1.0792         1.2075       -38.7318      0.7891579              1
      2305.5000       131.2365         1.0717         1.2075       -39.3314      0.1895561              1
      2306.0000       131.3455         1.0566         1.1698       -40.0521     -0.5311432              1
      2306.5000       131.3441         1.0415         1.1321       -40.5317      -1.010742              1
      2307.0000       130.7225          1.034         1.0943       -40.9704      -1.449444              1
      2307.5000       134.0801         1.0264         1.0566       -41.1255      -1.604542              1
      2308.0000       136.0107         1.0189         1.0566       -41.1194      -1.598442              1
      2308.5000        136.311         1.0189         1.0566       -41.1133      -1.592342              1
      2309.0000       137.1541         1.0113         1.0566       -41.1063      -1.585342              1
      2309.5000       138.5326         1.0113         1.0566       -41.1011      -1.580143              1
      2310.0000       134.4933         1.0113         1.0566        -41.095      -1.574043              1
      2310.5000       132.7369         1.0113         1.0935        -41.089      -1.568043              1
      2311.0000       131.9114          1.034         1.0927       -41.0823       -1.56134              1
      2311.5000       130.3266         1.0566         1.1298       -41.0768      -1.555843              1
      2312.0000        128.185         1.0868          1.129       -41.0707      -1.549744              1
      2312.5000        128.359          1.117         1.1283       -41.0646      -1.543644              1
      2313.0000       131.5843         1.1472         1.1654       -41.0582      -1.537243              1
      2313.5000       135.1273         1.1698         1.1647       -41.0524      -1.531441              1
      2314.0000       136.3647         1.1925         1.1636       -41.0463      -1.525341              1
      2314.5000       135.4295         1.1925         1.1628        -41.039      -1.518044              1
      2315.0000        135.251            1.2         1.2002       -41.0341      -1.513142              1
      2315.5000       134.2048         1.2154         1.1995       -41.1994      -1.678444              1
      2316.0000       129.2349         1.2385         1.1988       -41.6279      -2.106941      0.9933162
      2316.5000       125.6102         1.2692         1.2362        -41.621       -2.10004      0.9937475
      2317.0000       122.0206            1.3         1.2352       -42.2222      -2.701241      0.9561725
      2317.5000       119.4404         1.3308         1.2345       -42.2157       -2.69474      0.9565787
      2318.0000       115.2359         1.3615         1.2339       -42.5858      -3.064842      0.9334474
      2318.5000       115.3947            1.4         1.2332       -42.8096      -3.288643      0.9194598
      2319.0000       118.7748         1.4154         1.2325       -42.8035      -3.282543      0.9198411
      2319.5000        120.736         1.4077         1.2318       -42.7974      -3.276443      0.9202223
      2320.0000       122.4564         1.3615         1.2311       -42.7913      -3.270344      0.9206035
      2320.5000        122.466         1.3077         1.2308        -42.785      -3.264042      0.9209974
