#------------------------------------------------------------------------------
# Created by    : vladimir.rabinovich
# Created on    : 09/19/2023 17:22:47
#------------------------------------------------------------------------------
~Version Information Section
VERS.           2.0     :   CWLS log ASCII Standard - VERSION 2.0
WRAP.           NO      :   One line per depth step
~Well Information Section
#MNEM       .UNIT                                         VALUE :DESCRIPTION
#------------------------------------------------------------------------------
STRT        .FT                                            1029 :START DEPTH
STOP        .FT                                            4870 :STOP DEPTH
STEP        .FT                                             0.5 :STEP      
NULL        .                                           -999.25 :NULL      
COMP        .                              CHAPARRAL ENERGY LLC :COMPANY   
WELL        .                                         ST TR 171 :WELL      
FLD         .                               MATAGORDA BAY SOUTH :FIELD     
LOC         .                                                   :LOCATION  
CNTY        .                                         MATAGORDA :LOCATION  
STAT        .                                             TEXAS :STATE     
CTRY        .                                     UNITED STATES :COUNTRY   
SRVC        .                                                   :SERVICE COMPANY
DATE        .                             9/13/2023 11:19:17 AM :LOG DATE  
API         .                                    42321309080000 :API NUMBER
UWI         .                                    42321309080000 :UNIQUE WELL ID
XCOORD      .                                  571019.162580029 :SURFACE X 
YCOORD      .                                  10362433.1969336 :SURFACE Y 
LAT         .                                        28.5138372 :LATITUDE  
LON         .                                       -96.3299832 :LONGITUDE 
ELEV        .FT                                              19 :ELEVATION VALUE
ELEV_TYPE   .                                                KB :ELEVATION REFERENCE TYPE
~Curve Information Section
#MNEM       .UNIT                                      API CODE :CURVE DESCRIPTION
#------------------------------------------------------------------------------
DEPT        .FT                                                 :DEPTH     
DT          .US/FT                                              :          
GUARD       .OHMM                                               :          
IND         .OHMM                                               :          
SP          .MV                                                 :          
SP_NORM     .MV                                                 :SP Normalized
VSH_SP      .V/V                                                :Volume of Shale from SP
~A        DEPTH             DT          GUARD            IND             SP        SP_NORM         VSH_SP
# ...
      4335.0000       108.0791         0.8077          0.566       -73.9394      -32.06065     0.08645159
      4335.5000       108.0587            0.8         0.6038       -73.9394      -32.04678     0.08685931
      4336.0000       107.6317         0.6943         0.6038       -73.9394      -32.03292     0.08726715
      4336.5000       106.5781         0.6943         0.6038       -73.9394      -32.01905     0.08767487
      4337.0000       105.6275         0.8154         0.6415       -73.9394      -32.00519     0.08808271
      4337.5000       105.9744         0.8538         0.6792       -73.9394      -31.99133     0.08849043
      4338.0000       106.5904         0.8846         0.6792       -73.3333      -31.37136      0.1067248
      4338.5000       107.7402         0.9231         0.6792       -73.3333      -31.35749      0.1071325
      4339.0000       108.4048         0.9462         0.6415       -73.3333      -31.34363      0.1075404
      4339.5000        110.509         0.8769         0.6415       -73.3333      -31.32977      0.1079481
      4340.0000        111.409            0.8         0.6038       -73.3333       -31.3159      0.1083559
      4340.5000       111.4599         0.7321          0.566       -73.4284      -31.39714      0.1059666
      4341.0000       111.4605         0.6792         0.5283       -73.9394      -31.89427     0.09134495
      4341.5000        111.589         0.6717         0.5283       -74.3434      -32.28441     0.07987034
      4342.0000       111.9727         0.6642         0.4906       -74.5455      -32.47264     0.07433397
      4342.5000       112.5359         0.6566         0.4528       -75.3654      -33.27868     0.05062698
      4343.0000       112.9966         0.6566         0.4151       -76.6251      -34.52451      0.0139849
      4343.5000       112.9972         0.6491         0.4151       -77.3856      -35.27115              0
      4344.0000       112.5931         0.6415         0.4151       -77.5758      -35.44748              0
      4344.5000       112.0782          0.634         0.4151       -77.5758      -35.43362              0
      4345.0000       112.1027          0.634         0.4151       -77.5758      -35.41975              0
      4345.5000       112.2948         0.6264         0.4151       -77.5758      -35.40589              0
      4346.0000       112.5869         0.6189         0.4151       -78.1818      -35.99803              0
      4346.5000       112.6941         0.6113         0.4151       -78.1818      -35.98417              0
      4347.0000       112.5185         0.6189         0.4151       -78.1818       -35.9703              0
      4347.5000       112.1443         0.6491         0.4151       -78.1818      -35.95644              0
      4348.0000       111.7757         0.6717         0.4151       -78.1818      -35.94257              0
      4348.5000       112.3898         0.6717         0.4151       -78.1818      -35.92871              0
      4349.0000       112.6971         0.6566         0.4151       -78.1818      -35.91484              0
      4349.5000       112.8178         0.6566         0.4151       -78.1818      -35.90098              0
      4350.0000       113.2015         0.6566         0.3774       -78.1818      -35.88711              0
      4350.5000       114.8462         0.6566         0.3774       -78.1818      -35.87325              0
      4351.0000       114.8468         0.6491         0.3774       -78.1818      -35.85938              0
      4351.5000       115.0247         0.6415         0.3774       -78.1818      -35.84552              0
      4352.0000       115.0163         0.6264         0.3774       -78.1818      -35.83165              0
      4352.5000       113.9284         0.6113         0.3774       -78.1818      -35.81779              0
      4353.0000       112.3951         0.5962         0.3774       -78.1818      -35.80392              0
      4353.5000        112.835         0.5962         0.3774       -78.1818      -35.79006              0
      4354.0000       112.1652         0.6113         0.3774       -78.1818       -35.7762              0
      4354.5000       112.7038         0.6566         0.3774       -78.1818      -35.76233              0
      4355.0000       112.8577         0.7019         0.3774       -78.1818      -35.74847              0
      4355.5000       112.3799         0.7019         0.3774       -78.1818       -35.7346              0
      4356.0000       111.9015         0.7019         0.4151       -78.1818      -35.72074              0
      4356.5000       111.6326         0.6943         0.4151       -78.1818      -35.70687              0
      4357.0000       113.9517         0.6868         0.4151       -77.8357      -35.34691              0
      4357.5000       114.0316         0.6792         0.4151       -77.5758      -35.07314              0
      4358.0000       113.7466         0.5811         0.4151       -77.5758      -35.05928              0
      4358.5000       113.6288         0.5811         0.4151       -77.5758      -35.04541              0
      4359.0000       113.4588         0.6642         0.3774       -77.2178      -34.67355    0.009601593
      4359.5000       113.2129         0.7094         0.3774       -76.9697      -34.41159     0.01730616
      4360.0000       112.8305         0.6189         0.3774       -76.9697      -34.39772       0.017714
      4360.5000       112.0975         0.6189         0.3774       -76.9697      -34.38386     0.01812172
      4361.0000       111.5736          0.634         0.3774       -76.9697         -34.37     0.01852955
      4361.5000       110.9167         0.6491         0.3774       -76.9697      -34.35613     0.01893728
      4362.0000       110.4423         0.6642         0.3774       -76.9697      -34.34227     0.01934512
      4362.5000       110.3896         0.6717         0.3774       -76.9697       -34.3284     0.01975284
      4363.0000       111.6688         0.6717         0.3774       -76.9697      -34.31454     0.02016068
      4363.5000       113.7008         0.6642         0.3774       -76.3636      -33.69457     0.03839493
      4364.0000       114.8587         0.6491         0.3774       -76.3636      -33.68071     0.03880277
      4364.5000       115.4766          0.634         0.3774       -76.3636      -33.66684     0.03921049
      4365.0000       114.6121         0.6038         0.3774       -76.3636      -33.65298     0.03961832
      4365.5000       113.2719         0.5736         0.3774       -76.3636      -33.63911     0.04002605
      4366.0000       111.8424         0.5887         0.4151       -76.3636      -33.62525     0.04043388
      4366.5000       110.2643         0.5962         0.4151       -76.3636      -33.61139     0.04084161
      4367.0000        109.265         0.6038         0.4151       -76.3636      -33.59752     0.04124944
      4367.5000       108.0662         0.6113         0.4151       -76.3636      -33.58366     0.04165717
      4368.0000       106.6367         0.6264         0.4151       -76.3636      -33.56979       0.042065
      4368.5000       105.6655         0.6415         0.4151       -76.3636      -33.55593     0.04247273
      4369.0000       105.7024         0.6642         0.4151       -75.9447      -33.12316     0.05520114
      4369.5000       106.3774         0.6868         0.4151       -75.7576       -32.9222      0.0611119
      4370.0000        107.159         0.7019         0.4151       -75.7576      -32.90833     0.06151973
      4370.5000       107.5084          0.717         0.4151       -75.4805      -32.61737     0.07007745
      4371.0000        107.464         0.7094         0.4151       -75.1515       -32.2745     0.08016182
      4371.5000       106.6001         0.6943         0.4151       -75.1515      -32.26064     0.08056955
      4372.0000        105.627         0.6717         0.4528       -75.1515      -32.24677     0.08097738
      4372.5000       104.9034         0.6566         0.4528       -75.1515      -32.23291     0.08138511
