#------------------------------------------------------------------------------
# Created by    : vladimir.rabinovich
# Created on    : 09/19/2023 17:19:43
#------------------------------------------------------------------------------
~Version Information Section
VERS.           2.0     :   CWLS log ASCII Standard - VERSION 2.0
WRAP.           NO      :   One line per depth step
~Well Information Section
#MNEM       .UNIT                                         VALUE :DESCRIPTION
#------------------------------------------------------------------------------
STRT        .FT                                              86 :START DEPTH
STOP        .FT                                           17232 :STOP DEPTH
STEP        .FT                                             0.5 :STEP      
NULL        .                                           -999.25 :NULL      
COMP        .                                        EXXON CORP :COMPANY   
WELL        .                               OYSTR LKE TMPRRY GU :WELL      
FLD         .                                           WILDCAT :FIELD     
LOC         .                                                   :LOCATION  
CNTY        .                                         MATAGORDA :LOCATION  
STAT        .                                             TEXAS :STATE     
CTRY        .                                     UNITED STATES :COUNTRY   
SRVC        .                                                   :SERVICE COMPANY
DATE        .                             9/13/2023 11:19:17 AM :LOG DATE  
API         .                                    42321309610000 :API NUMBER
UWI         .                                    42321309610000 :UNIQUE WELL ID
XCOORD      .                                  606681.955270441 :SURFACE X 
YCOORD      .                                  10380406.3085524 :SURFACE Y 
LAT         .                                         28.565886 :LATITUDE  
LON         .                                       -96.2205825 :LONGITUDE 
ELEV        .FT                                              25 :ELEVATION VALUE
ELEV_TYPE   .                                                KB :ELEVATION REFERENCE TYPE
~Curve Information Section
#MNEM       .UNIT                                      API CODE :CURVE DESCRIPTION
#------------------------------------------------------------------------------
DEPT        .FT                                                 :DEPTH     
ASFL        .OHMM                                               :          
CILD        .MMHO                                               :          
ILD         .OHMM                                               :          
SP          .MV                                                 :          
SP_NORM     .MV                                                 :SP Normalized
VSH_SP      .V/V                                                :Volume of Shale from SP
~A        DEPTH           ASFL           CILD            ILD             SP        SP_NORM         VSH_SP
# ...
      3506.0000         0.7908       1898.377        -999.25       -54.7988      -36.83473    0.004590882
      3506.5000         0.7389       1982.436        -999.25       -55.0627      -37.09863              0
      3507.0000         0.6912       2213.926        -999.25       -55.3068      -37.34273              0
      3507.5000         0.6815       2320.824        -999.25       -55.3981      -37.43403              0
      3508.0000         0.6652       2420.188        -999.25       -55.4893      -37.52523              0
      3508.5000         0.6448       2527.035        -999.25       -55.5806      -37.61653              0
      3509.0000           0.63       2684.492        -999.25       -55.6088      -37.64473              0
      3509.5000          0.634       2650.359        -999.25       -55.6075      -37.64342              0
      3510.0000          0.647         2488.5        -999.25        -55.303      -37.33893              0
      3510.5000         0.6605       2414.027        -999.25       -54.5539      -36.58983     0.01139365
      3511.0000         0.6746       2343.316        -999.25       -53.9975      -36.03343     0.02684922
      3511.5000         0.6883       2261.457        -999.25       -53.4414      -35.47733     0.04229651
      3512.0000         0.6964       2178.426        -999.25       -53.0493      -35.08523     0.05318811
      3512.5000         0.6919       2158.621        -999.25       -52.7631      -34.79903     0.06113815
      3513.0000         0.6823        2218.23        -999.25        -52.477      -34.51293     0.06908533
      3513.5000         0.6719       2277.789        -999.25       -52.1907      -34.22663     0.07703813
      3514.0000         0.6551       2364.832        -999.25       -52.0881      -34.12403     0.07988814
      3514.5000         0.6406       2464.785        -999.25       -52.0594      -34.09533     0.08068541
      3515.0000         0.6288       2640.262        -999.25       -52.0307      -34.06663     0.08148257
      3515.5000         0.7357       2570.113        -999.25        -52.025      -34.06093     0.08164088
      3516.0000         0.8126       2486.984        -999.25       -52.0238      -34.05973     0.08167426
      3516.5000         0.9401       2398.328        -999.25       -52.0226      -34.05853     0.08170763
      3517.0000          0.952       2304.734        -999.25       -51.9792      -34.01513     0.08291319
      3517.5000         0.9364       2314.172        -999.25       -51.9231      -33.95903     0.08447149
      3518.0000         0.9206        2380.43        -999.25       -51.8669      -33.90283     0.08603255
      3518.5000         0.8887        2455.25        -999.25       -51.8229      -33.85883     0.08725484
      3519.0000         0.8421       2563.414        -999.25       -51.7805      -33.81643     0.08843263
      3519.5000         0.8068       2703.172        -999.25        -51.016      -33.05193      0.1096687
      3520.0000          0.762       2835.102        -999.25       -49.6479      -31.68383      0.1476715
      3520.5000         0.7165       3128.602        -999.25       -47.5971      -29.63303      0.2046382
      3521.0000         0.6808       2847.719        -999.25       -42.4297      -24.46563      0.3481771
      3521.5000         0.6414        2566.84        -999.25       -33.5919      -15.62783      0.5936715
      3522.0000         0.6742       2285.957        -999.25       -32.2926      -14.32853      0.6297632
      3522.5000         0.7901       2071.285        -999.25        -31.191      -13.22693      0.6603631
      3523.0000         0.9019       1942.484        -999.25       -29.2634      -11.29933      0.7139076
      3523.5000         0.9454       1813.584        -999.25       -27.3043      -9.340227       0.768327
      3524.0000         0.9653       1684.684        -999.25       -25.7036      -7.739527      0.8127909
      3524.5000         1.0029       1555.783        -999.25       -25.0703      -7.106226      0.8303826
      3525.0000          1.013        1426.98        -999.25       -24.4371      -6.473026      0.8479715
      3525.5000         0.9937        1298.08        -999.25       -24.2781      -6.314026      0.8523881
      3526.0000         0.9693       1112.359        -999.25       -24.3231      -6.359026      0.8511382
      3526.5000         0.9169       949.2285        -999.25       -25.1246      -7.160526      0.8288743
      3527.0000         0.8687        1023.41        -999.25       -26.5942      -8.630127       0.788052
      3527.5000         0.8441       1097.641        -999.25       -28.3526      -10.38853      0.7392076
      3528.0000         0.8318       1171.869        -999.25       -29.9431      -11.97903      0.6950271
      3528.5000         0.8183         1246.1        -999.25       -31.3837      -13.41963      0.6550104
      3529.0000         0.8122       1320.037        -999.25       -33.0553      -15.09123       0.608577
      3529.5000         0.8074       1417.299        -999.25       -35.4854      -17.52133      0.5410742
      3530.0000         0.8036       1531.725        -999.25       -35.8336      -17.86953      0.5314021
      3530.5000          0.801       1601.945        -999.25       -34.1532      -16.18913      0.5780799
      3531.0000          0.801       1672.801        -999.25       -32.4803      -14.51623      0.6245492
      3531.5000         0.8017       1718.742        -999.25       -30.0887      -12.12463      0.6909826
      3532.0000         0.8036       1752.898        -999.25       -27.8694      -9.905327      0.7526298
      3532.5000         0.8054       1716.029        -999.25        -26.816      -8.851927      0.7818909
      3533.0000         0.8073       1671.604        -999.25       -25.8811      -7.917027      0.8078604
      3533.5000         0.8092       1612.996        -999.25       -25.2587      -7.294626      0.8251493
      3534.0000         0.8112       1544.463        -999.25       -25.0941      -7.130028      0.8297215
      3534.5000         0.8144        1501.26        -999.25       -25.4087      -7.444628      0.8209826
      3535.0000         0.8177       1458.033        -999.25       -25.7232      -7.759127      0.8122465
      3535.5000         0.8206       1429.805        -999.25       -26.3892      -8.425127      0.7937465
      3536.0000         0.8214       1407.934        -999.25       -27.4443      -9.480227      0.7644382
      3536.5000         0.8223       1386.076        -999.25       -28.4995      -10.53543       0.735127
      3537.0000         0.8231       1364.219        -999.25        -29.805      -11.84093      0.6988631
      3537.5000         0.8228        1330.77        -999.25       -31.4902      -13.52613       0.652052
      3538.0000         0.8214       1299.365        -999.25       -33.3837      -15.41963      0.5994548
      3538.5000           0.82       1551.871        -999.25       -38.5027      -20.53863      0.4572603
      3539.0000         0.8105       1708.889        -999.25       -40.7804      -22.81633      0.3939909
      3539.5000         0.7856       1820.039        -999.25       -43.0902      -25.12613      0.3298298
      3540.0000         0.7393       2402.363        -999.25       -45.4509      -27.48683      0.2642548
      3540.5000         0.6819        2444.93        -999.25       -49.0507      -31.08663      0.1642603
      3541.0000         0.6456       2587.375        -999.25       -51.7298      -33.76573     0.08984089
      3541.5000         0.6016       2795.789        -999.25       -52.8491      -34.88503      0.0587493
      3542.0000         0.5804       3004.297        -999.25       -53.3903      -35.42623      0.0437159
      3542.5000         0.5695       3212.707        -999.25       -53.9169      -35.95283     0.02908813
      3543.0000         0.5584       3421.219        -999.25       -54.3392      -36.37513     0.01735761
      3543.5000         0.5477       3624.738        -999.25       -54.6747      -36.71063    0.008038097
