#------------------------------------------------------------------------------
# Created by    : vladimir.rabinovich
# Created on    : 09/19/2023 17:19:21
#------------------------------------------------------------------------------
~Version Information Section
VERS.           2.0     :   CWLS log ASCII Standard - VERSION 2.0
WRAP.           NO      :   One line per depth step
~Well Information Section
#MNEM       .UNIT                                         VALUE :DESCRIPTION
#------------------------------------------------------------------------------
STRT        .FT                                             313 :START DEPTH
STOP        .FT                                           17011 :STOP DEPTH
STEP        .FT                                             0.5 :STEP      
NULL        .                                           -999.25 :NULL      
COMP        .                             MAGNOLIA PETROLEUM CO :COMPANY   
WELL        .                                      LETULLE UNIT :WELL      
FLD         .                                           WILDCAT :FIELD     
LOC         .                                                   :LOCATION  
CNTY        .                                         MATAGORDA :LOCATION  
STAT        .                                             TEXAS :STATE     
CTRY        .                                     UNITED STATES :COUNTRY   
SRVC        .                                                   :SERVICE COMPANY
DATE        .                             9/13/2023 11:18:46 AM :LOG DATE  
API         .                                    42321010770000 :API NUMBER
UWI         .                                    42321010770000 :UNIQUE WELL ID
XCOORD      .                                  733053.658917313 :SURFACE X 
YCOORD      .                                  10456928.2420536 :SURFACE Y 
LAT         .                                        28.7849393 :LATITUDE  
LON         .                                       -95.8329519 :LONGITUDE 
ELEV        .FT                                              38 :ELEVATION VALUE
ELEV_TYPE   .                                                KB :ELEVATION REFERENCE TYPE
~Curve Information Section
#MNEM       .UNIT                                      API CODE :CURVE DESCRIPTION
#------------------------------------------------------------------------------
DEPT        .FT                                                 :DEPTH     
AAM_16      .OHMM                                               :          
AM_16       .OHMM                                               :          
AM_64       .OHMM                                               :          
AO_18_8     .OHMM                                               :          
SP          .MV                                                 :          
SP_NORM     .MV                                                 :SP Normalized
VSH_SP      .V/V                                                :Volume of Shale from SP
~A        DEPTH         AAM_16          AM_16          AM_64        AO_18_8             SP        SP_NORM         VSH_SP
# ...
     10296.0000         0.6088         0.5702            0.5         0.8877       -42.1594       -1.54097      0.9899821
     10296.5000         0.6035         0.5747            0.5         0.8515       -42.1592       -1.54232       0.989957
     10297.0000         0.5929         0.5843         0.4861         0.8422       -42.1589      -1.543571      0.9899338
     10297.5000         0.5821         0.5844         0.4861         0.8147       -42.1586      -1.544823      0.9899107
     10298.0000         0.5696         0.5706         0.4722         0.7965       -42.1583       -1.54607      0.9898876
     10298.5000         0.5571         0.5661         0.4583         0.7782       -42.3384      -1.727726      0.9865236
     10299.0000         0.5446         0.5569         0.4514          0.751       -42.4344      -1.825272      0.9847172
     10299.5000         0.5321          0.557         0.4306         0.7327       -42.4341      -1.826527      0.9846939
     10300.0000         0.5196         0.5571         0.4306         0.7144       -42.3232      -1.717175       0.986719
     10300.5000         0.5053         0.5572         0.4167         0.6964       -42.1569      -1.552425      0.9897699
     10301.0000         0.4891         0.5573         0.4028         0.6786       -42.1566      -1.553677      0.9897467
     10301.5000         0.4748         0.5574         0.3889         0.6518       -41.8798      -1.278427       0.994844
     10302.0000         0.4657         0.5561         0.3889         0.6339       -41.7702      -1.170376      0.9968449
     10302.5000         0.4621         0.5437         0.3889         0.6161       -41.2463     -0.6480293              1
     10303.0000         0.4638         0.5354         0.3889         0.5982       -40.7724     -0.1756783              1
     10303.5000         0.4744           0.53         0.3889         0.5804       -40.4557      0.1394691              1
     10304.0000          0.494         0.5256         0.3889         0.5625       -40.1103      0.4833221              1
     10304.5000         0.5135         0.4835          0.375         0.5625       -39.7645      0.8275681              1
     10305.0000         0.5331         0.4748          0.375         0.5625       -39.6648      0.9257202              1
     10305.5000         0.5526         0.4749          0.375         0.5625       -39.3879       1.201069              1
     10306.0000         0.5525         0.4611          0.375         0.5625       -39.2804       1.307018              1
     10306.5000         0.5524         0.4612          0.375         0.5714       -39.1107        1.47517              1
     10307.0000         0.5505         0.4526          0.375         0.5893       -39.1104       1.473915              1
     10307.5000         0.5487         0.4394          0.375         0.5982       -39.4239       1.158867              1
     10308.0000         0.5414         0.4337          0.375         0.6071       -39.6631      0.9181137              1
     10308.5000         0.5342         0.4199         0.3785         0.6071       -39.8383      0.7413673              1
     10309.0000         0.5252           0.42         0.3889         0.6161       -40.4924     0.08571243              1
     10309.5000         0.5215         0.4201         0.3993         0.6161       -40.8052     -0.2286339              1
     10310.0000         0.5179         0.4113         0.4028         0.6161       -41.0452     -0.4701881              1
     10310.5000         0.5143         0.4064         0.4028         0.6161        -41.219     -0.6455383              1
     10311.0000         0.5125         0.4065         0.4028         0.6161       -41.3212     -0.7492905              1
     10311.5000         0.5107         0.4066         0.4167         0.6161       -41.5976      -1.027237      0.9994956
     10312.0000         0.5089         0.4067         0.4167         0.6161       -41.5973      -1.028492      0.9994724
     10312.5000         0.5089         0.4068         0.4167         0.6071        -41.597      -1.029739      0.9994493
     10313.0000         0.5107         0.4069         0.4167         0.6071       -41.5967      -1.030991      0.9994261
     10313.5000         0.5125         0.4154         0.4132         0.6071       -41.5965      -1.032341      0.9994011
     10314.0000         0.5161         0.4209         0.4028         0.6071       -41.5962      -1.033592      0.9993779
     10314.5000         0.5179          0.421         0.4028         0.6071        -41.768      -1.206944      0.9961677
     10315.0000         0.5179         0.4211         0.4028         0.6071       -41.8723       -1.31279      0.9942076
     10315.5000         0.5179         0.4212         0.3889         0.6071        -41.872      -1.314045      0.9941844
     10316.0000         0.5125         0.4213         0.3889         0.5982       -41.8717      -1.315292      0.9941612
     10316.5000         0.5036         0.4214         0.3854         0.5982       -41.8714      -1.316544      0.9941381
     10317.0000         0.4911         0.4215          0.375         0.5982       -41.8711      -1.317795      0.9941149
     10317.5000         0.4821          0.424          0.375         0.5982       -41.9032      -1.351444      0.9934918
     10318.0000         0.4732          0.431          0.375         0.5982       -42.1472      -1.596996      0.9889445
     10318.5000         0.4696         0.4356         0.3715         0.5982       -42.1469      -1.598248      0.9889213
     10319.0000         0.4679         0.4357         0.3611         0.5982       -42.1467      -1.599598      0.9888963
     10319.5000         0.4696         0.4358         0.3611         0.5893       -42.1464      -1.600849      0.9888732
     10320.0000          0.475         0.4359         0.3611         0.5893       -42.4227      -1.878696      0.9837279
     10320.5000         0.4767          0.436         0.3611          0.589       -42.4225      -1.880051      0.9837028
     10321.0000         0.4802         0.4361         0.3611         0.5797       -42.4222      -1.881298      0.9836797
     10321.5000         0.4819         0.4223         0.3611         0.5792       -42.4219      -1.882553      0.9836564
     10322.0000         0.4836         0.4224         0.3611         0.5698       -42.4216      -1.883801      0.9836333
     10322.5000         0.4817         0.4225         0.3611         0.5694        -42.698      -2.161755       0.978486
     10323.0000         0.4816         0.4226         0.3611           0.56       -42.6977      -2.163002      0.9784629
     10323.5000         0.4798         0.4227         0.3611         0.5596       -42.6974      -2.164253      0.9784397
     10324.0000         0.4779         0.4089          0.375         0.5591       -42.6971      -2.165504      0.9784166
     10324.5000         0.4742         0.4026          0.375         0.5587       -42.6969      -2.166851      0.9783916
     10325.0000         0.4723         0.3952          0.375         0.5582       -42.6966      -2.168106      0.9783684
     10325.5000         0.4705         0.3863          0.375         0.5578       -42.6963      -2.169353      0.9783453
     10326.0000         0.4686         0.3815          0.375         0.5573        -42.696      -2.170605      0.9783221
     10326.5000         0.4667         0.3816         0.3889          0.548       -42.6958      -2.171955      0.9782971
     10327.0000         0.4631         0.3717         0.3889         0.5475       -42.6954      -2.173107      0.9782758
     10327.5000         0.4576         0.3679         0.3889         0.5471       -42.7215      -2.200756      0.9777638
     10328.0000         0.4504          0.368         0.3889         0.5466       -42.9715      -2.452309      0.9731054
     10328.5000         0.4467         0.3681         0.3889         0.5462       -42.9713      -2.453655      0.9730805
     10329.0000         0.4449         0.3682         0.3958         0.5457        -42.971       -2.45491      0.9730572
