#------------------------------------------------------------------------------
# Created by    : vladimir.rabinovich
# Created on    : 09/19/2023 17:19:43
#------------------------------------------------------------------------------
~Version Information Section
VERS.           2.0     :   CWLS log ASCII Standard - VERSION 2.0
WRAP.           NO      :   One line per depth step
~Well Information Section
#MNEM       .UNIT                                         VALUE :DESCRIPTION
#------------------------------------------------------------------------------
STRT        .FT                                              86 :START DEPTH
STOP        .FT                                           17232 :STOP DEPTH
STEP        .FT                                             0.5 :STEP      
NULL        .                                           -999.25 :NULL      
COMP        .                                        EXXON CORP :COMPANY   
WELL        .                               OYSTR LKE TMPRRY GU :WELL      
FLD         .                                           WILDCAT :FIELD     
LOC         .                                                   :LOCATION  
CNTY        .                                         MATAGORDA :LOCATION  
STAT        .                                             TEXAS :STATE     
CTRY        .                                     UNITED STATES :COUNTRY   
SRVC        .                                                   :SERVICE COMPANY
DATE        .                             9/13/2023 11:19:17 AM :LOG DATE  
API         .                                    42321309610000 :API NUMBER
UWI         .                                    42321309610000 :UNIQUE WELL ID
XCOORD      .                                  606681.955270441 :SURFACE X 
YCOORD      .                                  10380406.3085524 :SURFACE Y 
LAT         .                                         28.565886 :LATITUDE  
LON         .                                       -96.2205825 :LONGITUDE 
ELEV        .FT                                              25 :ELEVATION VALUE
ELEV_TYPE   .                                                KB :ELEVATION REFERENCE TYPE
~Curve Information Section
#MNEM       .UNIT                                      API CODE :CURVE DESCRIPTION
#------------------------------------------------------------------------------
DEPT        .FT                                                 :DEPTH     
ASFL        .OHMM                                               :          
CILD        .MMHO                                               :          
ILD         .OHMM                                               :          
SP          .MV                                                 :          
SP_NORM     .MV                                                 :SP Normalized
VSH_SP      .V/V                                                :Volume of Shale from SP
~A        DEPTH           ASFL           CILD            ILD             SP        SP_NORM         VSH_SP
# ...
      2366.0000         0.7037       1721.055        -999.25       -34.9735      -17.00943      0.1170926
      2366.5000         0.7034       1749.523        -999.25        -35.293      -17.32893     0.09829847
      2367.0000         0.7031       1770.479        -999.25       -35.4998      -17.53573     0.08613362
      2367.5000         0.6916       1787.652        -999.25       -35.6428      -17.67873     0.07772199
      2368.0000         0.6371       1802.619        -999.25       -35.8093      -17.84523     0.06792787
      2368.5000         0.6236       1815.592        -999.25        -35.991      -18.02693     0.05723953
      2369.0000         0.6162        1832.32        -999.25       -36.2612      -18.29713     0.04134548
      2369.5000         0.6101         1927.4        -999.25        -36.523      -18.55893     0.02594555
      2370.0000         0.6054       2130.609        -999.25       -36.7529      -18.78883       0.012422
      2370.5000         0.6015       2248.512        -999.25       -36.7787      -18.81463      0.0109042
      2371.0000          0.598       2346.113        -999.25       -36.7679      -18.80383     0.01153968
      2371.5000         0.5978       2377.738        -999.25        -36.757      -18.79293     0.01218078
      2372.0000         0.5975       2394.375        -999.25       -36.7455      -18.78143     0.01285733
      2372.5000         0.5977       2406.055        -999.25       -36.7243      -18.76023     0.01410428
      2373.0000         0.5981       2415.523        -999.25       -36.7263      -18.76223      0.0139867
      2373.5000          0.597       2429.254        -999.25       -36.8429      -18.87883    0.007127874
      2374.0000         0.5919       2471.895        -999.25       -37.0117      -19.04763              0
      2374.5000         0.5837       2518.367        -999.25       -37.1927      -19.22863              0
      2375.0000         0.5751       2573.988        -999.25       -37.3784      -19.41433              0
      2375.5000          0.569       2624.438        -999.25       -37.5607      -19.59663              0
      2376.0000         0.5631       2669.617        -999.25       -37.7167      -19.75263              0
      2376.5000         0.5603       2704.672        -999.25       -37.7162      -19.75213              0
      2377.0000         0.5581       2746.266        -999.25       -37.7156      -19.75153              0
      2377.5000         0.5582       2797.984        -999.25       -37.6962      -19.73213              0
      2378.0000         0.5588       2841.688        -999.25       -37.6183      -19.65423              0
      2378.5000         0.5612       2874.707        -999.25       -36.1017      -18.13763     0.05072784
      2379.0000         0.5635       2522.238        -999.25       -35.7599      -17.79583     0.07083376
      2379.5000         0.5677       2484.574        -999.25       -35.5685      -17.60443     0.08209251
      2380.0000         0.5735       2480.438        -999.25       -35.5327      -17.56863     0.08419845
      2380.5000         0.5793       2485.703        -999.25       -35.4968      -17.53273     0.08631022
      2381.0000         0.5836       2492.883        -999.25       -35.4609      -17.49683     0.08842199
      2381.5000         0.5872           2502        -999.25       -35.5017      -17.53763     0.08602187
      2382.0000         0.5908       2512.035        -999.25       -35.5425      -17.57843     0.08362198
      2382.5000         0.5932       2521.984        -999.25        -35.603      -17.63893     0.08006309
      2383.0000         0.5948       2531.848        -999.25       -35.7154      -17.75133     0.07345133
      2383.5000         0.5963       2541.395        -999.25       -35.8278      -17.86373     0.06683955
      2384.0000         0.5979       2549.289        -999.25       -35.9506      -17.98653     0.05961609
      2384.5000          0.598       2548.273        -999.25        -36.082      -18.11793     0.05188661
      2385.0000         0.5981       2547.113        -999.25       -36.2084      -18.24433     0.04445132
      2385.5000         0.5982       2545.805        -999.25       -36.3157      -18.35163     0.03813957
      2386.0000         0.5982       2542.832        -999.25       -36.4185      -18.45443      0.0320926
      2386.5000         0.5968       2539.859        -999.25       -36.4497      -18.48563     0.03025728
      2387.0000         0.5951       2546.043        -999.25        -36.481      -18.51693     0.02841613
      2387.5000         0.5934       2567.211        -999.25       -36.5478      -18.58372     0.02448677
      2388.0000         0.5916        2599.07        -999.25       -36.6282      -18.66413     0.01975721
      2388.5000         0.5898       2638.023        -999.25       -36.7087      -18.74463     0.01502205
      2389.0000          0.588       2723.508        -999.25       -36.8677      -18.90363    0.005669089
      2389.5000         0.5853       2768.492        -999.25       -37.1399      -19.17583              0
      2390.0000         0.5824       2800.805        -999.25       -37.2936      -19.32952              0
      2390.5000         0.5794       2847.348        -999.25        -37.425      -19.46093              0
      2391.0000         0.5778       2878.844        -999.25       -37.5564      -19.59233              0
      2391.5000         0.5767       2894.867        -999.25       -37.6877      -19.72363              0
      2392.0000         0.5757       2894.348        -999.25       -37.8192      -19.85513              0
      2392.5000         0.5759       2875.977        -999.25       -37.8836      -19.91953              0
      2393.0000         0.5765       2848.801        -999.25       -37.8981      -19.93403              0
      2393.5000          0.577       2823.242        -999.25       -37.9086      -19.94453              0
      2394.0000         0.5774       2801.684        -999.25       -37.9064      -19.94233              0
      2394.5000         0.5776       2779.086        -999.25       -37.9041      -19.94003              0
      2395.0000         0.5779       2762.188        -999.25       -37.9019      -19.93783              0
      2395.5000         0.5782       2750.852        -999.25       -37.8997      -19.93563              0
      2396.0000         0.5791       2748.109        -999.25       -37.9129      -19.94883              0
      2396.5000         0.5802       2746.953        -999.25       -37.9308      -19.96673              0
      2397.0000         0.5813       2745.793        -999.25       -37.9487      -19.98463              0
      2397.5000         0.5825       2746.336        -999.25       -37.9666      -20.00253              0
      2398.0000         0.5842       2746.988        -999.25        -37.976      -20.01193              0
      2398.5000          0.586       2747.047        -999.25       -37.9844      -20.02033              0
      2399.0000          0.588       2746.965        -999.25       -37.9927      -20.02863              0
      2399.5000           0.59       2726.293        -999.25       -37.9864      -20.02233              0
      2400.0000         0.5937       2683.324        -999.25       -37.9183      -19.95423              0
      2400.5000         0.6012       2625.586        -999.25       -37.7758      -19.81173              0
      2401.0000         0.6162       2497.949        -999.25       -37.5277      -19.56363              0
      2401.5000         0.6314       2426.242        -999.25       -37.1737      -19.20963              0
      2402.0000         0.6565       2395.824        -999.25       -36.7668      -18.80273     0.01160431
      2402.5000         0.6845        2359.52        -999.25       -35.9746      -18.01053      0.0582042
      2403.0000         0.7344       2259.668        -999.25       -35.3789      -17.41483     0.09324557
      2403.5000         0.7677       2058.934        -999.25       -34.7526      -16.78853      0.1300866
