#------------------------------------------------------------------------------
# Created by    : vladimir.rabinovich
# Created on    : 09/19/2023 17:22:47
#------------------------------------------------------------------------------
~Version Information Section
VERS.           2.0     :   CWLS log ASCII Standard - VERSION 2.0
WRAP.           NO      :   One line per depth step
~Well Information Section
#MNEM       .UNIT                                         VALUE :DESCRIPTION
#------------------------------------------------------------------------------
STRT        .FT                                            1029 :START DEPTH
STOP        .FT                                            4870 :STOP DEPTH
STEP        .FT                                             0.5 :STEP      
NULL        .                                           -999.25 :NULL      
COMP        .                              CHAPARRAL ENERGY LLC :COMPANY   
WELL        .                                         ST TR 171 :WELL      
FLD         .                               MATAGORDA BAY SOUTH :FIELD     
LOC         .                                                   :LOCATION  
CNTY        .                                         MATAGORDA :LOCATION  
STAT        .                                             TEXAS :STATE     
CTRY        .                                     UNITED STATES :COUNTRY   
SRVC        .                                                   :SERVICE COMPANY
DATE        .                             9/13/2023 11:19:17 AM :LOG DATE  
API         .                                    42321309080000 :API NUMBER
UWI         .                                    42321309080000 :UNIQUE WELL ID
XCOORD      .                                  571019.162580029 :SURFACE X 
YCOORD      .                                  10362433.1969336 :SURFACE Y 
LAT         .                                        28.5138372 :LATITUDE  
LON         .                                       -96.3299832 :LONGITUDE 
ELEV        .FT                                              19 :ELEVATION VALUE
ELEV_TYPE   .                                                KB :ELEVATION REFERENCE TYPE
~Curve Information Section
#MNEM       .UNIT                                      API CODE :CURVE DESCRIPTION
#------------------------------------------------------------------------------
DEPT        .FT                                                 :DEPTH     
DT          .US/FT                                              :          
GUARD       .OHMM                                               :          
IND         .OHMM                                               :          
SP          .MV                                                 :          
SP_NORM     .MV                                                 :SP Normalized
VSH_SP      .V/V                                                :Volume of Shale from SP
~A        DEPTH             DT          GUARD            IND             SP        SP_NORM         VSH_SP
# ...
      1523.0000       114.9053         1.0164         1.1967       -43.0303      -2.578476      0.9586803
      1523.5000       114.4433         1.0318         1.1974       -43.0303      -2.581173      0.9584876
      1524.0000       115.1808         1.0473         1.1982       -43.0303       -2.58387       0.958295
      1524.5000         116.18          1.055         1.1989       -43.0303      -2.586567      0.9581023
      1525.0000       116.6622         1.0552         1.1997       -43.0303      -2.589264      0.9579097
      1525.5000       117.0433         1.0629         1.2005       -43.0303      -2.591961      0.9577171
      1526.0000        117.512         1.0631         1.2012       -43.0303      -2.594658      0.9575244
      1526.5000        118.015         1.0632          1.202       -43.0303      -2.597359      0.9573315
      1527.0000       118.5442         1.0633         1.2027       -43.0303      -2.600056      0.9571389
      1527.5000       120.0273         1.0634         1.2414       -43.0303      -2.602753      0.9569463
      1528.0000       122.1135         1.0636         1.2421       -43.0303       -2.60545      0.9567536
      1528.5000       122.9225         1.0637         1.2428       -43.0303      -2.608147       0.956561
      1529.0000        121.769         1.0638         1.2435       -43.6364      -3.216942      0.9130756
      1529.5000        119.996          1.064         1.2442       -43.6364      -3.219639      0.9128829
      1530.0000       118.5001         1.0565         1.2449       -43.6364      -3.222336      0.9126903
      1530.5000       120.4561         1.0491         1.2075       -43.6364      -3.225033      0.9124976
      1531.0000       121.6833         1.0415         1.2075       -43.6364       -3.22773       0.912305
      1531.5000       119.3699         1.0415         1.1698       -43.6364      -3.230427      0.9121124
      1532.0000        118.524         1.0189         1.1321       -43.6364      -3.233124      0.9119197
      1532.5000       118.9117         1.0113         1.1321       -43.6364      -3.235821      0.9117271
      1533.0000       120.8071         1.0038         1.0943       -43.6364      -3.238518      0.9115344
      1533.5000       122.7211         0.9962         1.0566       -43.6364      -3.241219      0.9113415
      1534.0000       124.5541         0.9962         1.0566       -43.6364      -3.243916      0.9111489
      1534.5000       125.6622         0.9887         1.0189       -43.6364      -3.246613      0.9109563
      1535.0000       125.3418         0.9887         0.9811       -43.6364       -3.24931      0.9107636
      1535.5000       124.6812         0.9887         0.9811       -43.6364      -3.252007       0.910571
      1536.0000       123.7209         0.9962         0.9811       -43.9397      -3.558006      0.8887138
      1536.5000       125.0395         0.9962         0.9811       -44.8485      -4.469501       0.823607
      1537.0000       127.2273         0.9962         0.9811       -45.4545      -5.078197      0.7801288
      1537.5000       129.9993         0.9962         0.9811       -45.6062      -5.232597      0.7691002
      1538.0000        131.112         0.9962         0.9811       -46.0606      -5.689693      0.7364505
      1538.5000       132.7116         1.0038         1.0566       -46.0606       -5.69239      0.7362579
      1539.0000       133.4803         1.0189         1.0566       -46.0606      -5.695087      0.7360652
      1539.5000       133.9368          1.034         1.0566       -46.0606      -5.697784      0.7358726
      1540.0000       132.7058         1.0491         1.0566       -46.0606      -5.700481      0.7356799
      1540.5000       129.8674         1.0942         1.0943       -46.6667       -6.30928      0.6921943
      1541.0000       127.1717         1.1244         1.1698        -46.667      -6.312279      0.6919801
      1541.5000        125.559         1.1622         1.2453       -47.2727      -6.920677       0.648523
      1542.0000       125.7759            1.2          1.283        -47.576      -7.226673      0.6266662
      1542.5000       127.3767         1.2536         1.3208       -47.8788      -7.532169       0.604845
      1543.0000       129.7747         1.2994         1.3585       -48.4848      -8.140865      0.5613667
      1543.5000       132.8486         1.3299         1.3962       -48.4848      -8.143562      0.5611741
      1544.0000       135.2638         1.3603          1.434       -48.7882      -8.449661      0.5393099
      1544.5000       135.1027         1.3907         1.4717       -49.0909      -8.755058      0.5174958
      1545.0000       132.8386          1.421         1.5094       -49.6973      -9.364155       0.473989
      1545.5000       133.7766         1.5122         1.5472        -50.303      -9.972553      0.4305319
      1546.0000       137.3153         1.5271         1.5472       -50.6063      -10.27855       0.408675
      1546.5000        139.421         1.4128         1.5094       -50.9091      -10.58405      0.3868539
      1547.0000       141.2788         1.3822         1.4717       -50.9095      -10.58714      0.3866327
      1547.5000       142.3944            1.2         1.3208       -51.6672      -11.34754      0.3323185
      1548.0000       144.2485         1.1311         1.1698       -52.4247      -12.10774      0.2780184
      1548.5000       144.0525         1.1003         1.0189       -53.3333      -13.01904      0.2129258
      1549.0000       140.9633         1.0695         0.8679       -53.9405      -13.62893      0.1693619
      1549.5000       139.7324         1.0463          0.717       -55.9094      -15.60053     0.02853339
      1550.0000       138.8319          1.023         0.6792       -56.3636      -16.05743              0
      1550.5000       135.6955         1.0078         0.6792       -56.9697      -16.66623              0
      1551.0000         132.66          0.985         0.6415       -56.9697      -16.66892              0
      1551.5000       135.6776         0.9699         0.6038       -56.9697      -16.67162              0
      1552.0000       137.3564         0.9548         0.6038       -56.9697      -16.67432              0
      1552.5000       134.4877         0.9473         0.6038       -56.9697      -16.67701              0
      1553.0000         131.73         0.9552         0.6038       -56.9697      -16.67971              0
      1553.5000       130.4846         0.9631         0.6038       -56.9697      -16.68241              0
      1554.0000       129.5309          0.971         0.6038        -56.666      -16.38141              0
      1554.5000       130.5149         0.9636         0.6038       -55.7576       -15.4757      0.0374497
      1555.0000       135.7156         0.9562         0.6038        -55.757       -15.4778     0.03729984
      1555.5000       140.0888         0.9488          0.566       -54.9995        -14.723     0.09121431
      1556.0000       142.8113         0.9414          0.566       -54.5455       -14.2717      0.1234501
      1556.5000       140.6742         0.9265          0.566       -53.9394      -13.66829      0.1665505
      1557.0000       138.3186         0.9192          0.566       -54.5455      -14.27709      0.1230649
      1557.5000       137.2454         0.9118          0.566       -54.5455      -14.27979      0.1228722
      1558.0000       136.0305          0.897          0.566       -54.8491      -14.58608      0.1009941
      1558.5000       135.1919         0.8897         0.5283       -55.1515      -14.89118     0.07920129
      1559.0000       134.4701         0.8749         0.5283       -54.5449      -14.28728      0.1223373
      1559.5000       133.1457         0.8601          0.566       -53.7872      -13.53228       0.176266
      1560.0000       132.3154         0.8528          0.566       -52.4223      -12.17007      0.2735664
      1560.5000       131.7531         0.8453         0.5663       -50.9091      -10.65957      0.3814594
