#------------------------------------------------------------------------------
# Created by    : vladimir.rabinovich
# Created on    : 09/19/2023 17:22:47
#------------------------------------------------------------------------------
~Version Information Section
VERS.           2.0     :   CWLS log ASCII Standard - VERSION 2.0
WRAP.           NO      :   One line per depth step
~Well Information Section
#MNEM       .UNIT                                         VALUE :DESCRIPTION
#------------------------------------------------------------------------------
STRT        .FT                                            1029 :START DEPTH
STOP        .FT                                            4870 :STOP DEPTH
STEP        .FT                                             0.5 :STEP      
NULL        .                                           -999.25 :NULL      
COMP        .                              CHAPARRAL ENERGY LLC :COMPANY   
WELL        .                                         ST TR 171 :WELL      
FLD         .                               MATAGORDA BAY SOUTH :FIELD     
LOC         .                                                   :LOCATION  
CNTY        .                                         MATAGORDA :LOCATION  
STAT        .                                             TEXAS :STATE     
CTRY        .                                     UNITED STATES :COUNTRY   
SRVC        .                                                   :SERVICE COMPANY
DATE        .                             9/13/2023 11:19:17 AM :LOG DATE  
API         .                                    42321309080000 :API NUMBER
UWI         .                                    42321309080000 :UNIQUE WELL ID
XCOORD      .                                  571019.162580029 :SURFACE X 
YCOORD      .                                  10362433.1969336 :SURFACE Y 
LAT         .                                        28.5138372 :LATITUDE  
LON         .                                       -96.3299832 :LONGITUDE 
ELEV        .FT                                              19 :ELEVATION VALUE
ELEV_TYPE   .                                                KB :ELEVATION REFERENCE TYPE
~Curve Information Section
#MNEM       .UNIT                                      API CODE :CURVE DESCRIPTION
#------------------------------------------------------------------------------
DEPT        .FT                                                 :DEPTH     
DT          .US/FT                                              :          
GUARD       .OHMM                                               :          
IND         .OHMM                                               :          
SP          .MV                                                 :          
SP_NORM     .MV                                                 :SP Normalized
VSH_SP      .V/V                                                :Volume of Shale from SP
~A        DEPTH             DT          GUARD            IND             SP        SP_NORM         VSH_SP
# ...
      1295.0000       131.5715         0.9142         0.6664       -44.2424      -2.560623      0.9439377
      1295.5000       129.8435         1.0059         0.6676       -43.6364      -1.957317              1
      1296.0000       129.7263         1.0595         0.7068       -43.3567      -1.680317              1
      1296.5000       130.6265         1.1208         0.7459       -43.0303      -1.356613              1
      1297.0000        133.411         1.1746         0.8235       -43.0303       -1.35931              1
      1297.5000       138.3156         1.2436         0.8624       -43.6364      -1.968105              1
      1298.0000       142.3715         1.2439         0.9013       -43.6364      -1.970806              1
      1298.5000       141.2423         1.2442         0.9401        -44.529      -2.866104      0.9133896
      1299.0000       138.9372         1.2445         0.9789       -44.8485      -3.188301      0.8811699
      1299.5000       138.0738         1.2297         0.9798       -45.4545      -3.796997      0.8203003
      1300.0000       139.0197         1.2149         0.9807       -46.0594      -4.404594      0.7595406
      1300.5000       143.2936         1.2076         0.9442       -46.6619      -5.009792      0.6990207
      1301.0000       145.5386            1.2         0.9451       -47.2655      -5.616089      0.6383911
      1301.5000       145.0198         1.1923         0.9081       -47.4339      -5.787186      0.6212814
      1302.0000       145.2983          1.177         0.9089       -48.1947      -6.550682      0.5449318
      1302.5000       147.8666         1.1694         0.9097       -48.4685      -6.827179      0.5172821
      1303.0000        151.372         1.1617         0.8726       -48.5039      -6.865276      0.5134724
      1303.5000       153.0609         1.1465         0.8734       -49.0685      -7.432575      0.4567425
      1304.0000       146.5968         1.1313         0.8742       -49.0655       -7.43227       0.456773
      1304.5000       140.5507         1.1237          0.875        -48.456       -6.82547       0.517453
      1305.0000       136.1608         1.1314         0.8758       -48.4533       -6.82547       0.517453
      1305.5000       132.0193         1.1391          0.877       -48.4503      -6.825165      0.5174835
      1306.0000       129.3398         1.1544         0.8396       -48.0695      -6.447063      0.5552937
      1306.5000       134.2452          1.162         0.8404       -47.8379      -6.218159      0.5781841
      1307.0000       143.2231         1.1772         0.8411       -47.7483      -6.131256      0.5868744
      1307.5000       142.3509         1.1848         0.8419       -47.2261      -5.611755      0.6388245
      1308.0000       140.5524         1.1848         0.8427        -47.223      -5.611351      0.6388649
      1308.5000       141.9775         1.1924         0.8435       -47.2198      -5.610847      0.6389152
      1309.0000        144.909         1.1773         0.8442        -47.217      -5.610744      0.6389256
      1309.5000       144.2431         1.1622          0.845       -47.2139      -5.610344      0.6389656
      1310.0000       143.7774         1.1396         0.8458       -47.2109      -5.610039      0.6389961
      1310.5000       143.4008         1.1173          0.848       -47.2078      -5.609638      0.6390362
      1311.0000       140.2969         1.0951         0.8498       -47.2048      -5.609333      0.6390667
      1311.5000       136.1635         1.0879         0.8516       -47.2018      -5.609035      0.6390964
      1312.0000       132.0937         1.0807         0.8535       -46.7484      -5.158333      0.6841667
      1312.5000       129.3129          1.081         0.8938       -45.9836      -4.396229      0.7603771
      1313.0000        129.694         1.0814         0.8956        -45.821      -4.236324      0.7763675
      1313.5000        132.558         1.0818         0.9359       -44.7373      -3.155323      0.8844677
      1314.0000        136.421         1.0821         0.9377       -44.1558      -2.576519      0.9423481
      1314.5000       136.8154           1.09          0.978       -43.5473      -1.970715              1
      1315.0000       134.6057         1.1055         1.0183       -43.5442      -1.970314              1
      1315.5000       134.2977         1.1287         1.0595       -43.5412      -1.970009              1
      1316.0000       134.6955         1.1441         1.0614       -43.5378      -1.969307              1
      1316.5000       136.4956          1.152         1.1016       -43.5352      -1.969402              1
      1317.0000       141.8216         1.1599         1.1035       -43.5321      -1.969002              1
      1317.5000       143.6641         1.1678         1.1438       -43.5291      -1.968697              1
      1318.0000       141.8308         1.1757         1.1456       -43.5257      -1.967995              1
      1318.5000       135.7093         1.1836         1.1859       -44.1294      -2.574394      0.9425606
      1319.0000       130.7579         1.1991         1.1877       -44.3583      -2.805992      0.9194008
      1319.5000       128.8795         1.2148          1.228       -44.7291      -3.179489      0.8820511
      1320.0000       126.5288         1.2384         1.2683       -44.7258      -3.178886      0.8821114
      1320.5000       127.3096         1.2542         1.2711       -45.3295      -3.785282      0.8214718
      1321.0000       130.3715         1.2699         1.3498       -45.3261       -3.78458       0.821542
      1321.5000       131.9822         1.2857         1.3516        -45.323       -3.78418       0.821582
      1322.0000        128.354         1.3014         1.3535       -45.9259      -4.389774      0.7610226
      1322.5000       125.8569         1.3172         1.3553        -45.923      -4.389572      0.7610428
      1323.0000       124.2806         1.3252         1.3571         -45.92      -4.389267      0.7610733
      1323.5000       122.9154         1.3256          1.359        -45.917      -4.388966      0.7611035
      1324.0000       123.4945         1.3261         1.3608       -45.9139      -4.388561      0.7611439
      1324.5000        124.952         1.3265         1.3626       -45.9109       -4.38826       0.761174
      1325.0000       125.8523         1.3269         1.3645       -45.9079      -4.387959      0.7612041
      1325.5000       126.1374         1.3349         1.3672       -46.5103      -4.993057      0.7006943
      1326.0000       126.2903         1.3507          1.369       -46.5079      -4.993355      0.7006645
      1326.5000        125.982         1.3895         1.3709       -46.5049      -4.993053      0.7006947
      1327.0000       126.5137         1.4283         1.3727       -46.1726      -4.663448      0.7336552
      1327.5000        129.513         1.3902         1.3745       -45.2862      -3.779747      0.8220253
      1328.0000        131.804         1.3444         1.3379       -45.2836      -3.779842      0.8220158
      1328.5000       132.5616         1.2987         1.2628       -45.2806      -3.779541      0.8220459
      1329.0000       133.0469         1.2375         1.2262       -45.2776      -3.779236      0.8220764
      1329.5000       133.1959         1.1617         1.1511       -45.2742      -3.778534      0.8221466
      1330.0000       133.5783         1.0187         1.1529        -45.209       -3.71603       0.828397
      1330.5000       133.7731         0.9435         1.1538       -44.6624      -3.172127      0.8827873
      1331.0000       133.1982         0.8907         1.1538       -44.6594      -3.171825      0.8828174
      1331.5000       129.3519         0.9438         1.1538       -45.2621      -3.777222      0.8222778
      1332.0000       127.4403         0.9591         1.1538       -45.2594      -3.777218      0.8222782
      1332.5000       126.1445         0.9895         1.1538       -45.2564       -3.77692      0.8223079
