#------------------------------------------------------------------------------
# Created by    : vladimir.rabinovich
# Created on    : 09/19/2023 17:19:43
#------------------------------------------------------------------------------
~Version Information Section
VERS.           2.0     :   CWLS log ASCII Standard - VERSION 2.0
WRAP.           NO      :   One line per depth step
~Well Information Section
#MNEM       .UNIT                                         VALUE :DESCRIPTION
#------------------------------------------------------------------------------
STRT        .FT                                              86 :START DEPTH
STOP        .FT                                           17232 :STOP DEPTH
STEP        .FT                                             0.5 :STEP      
NULL        .                                           -999.25 :NULL      
COMP        .                                        EXXON CORP :COMPANY   
WELL        .                               OYSTR LKE TMPRRY GU :WELL      
FLD         .                                           WILDCAT :FIELD     
LOC         .                                                   :LOCATION  
CNTY        .                                         MATAGORDA :LOCATION  
STAT        .                                             TEXAS :STATE     
CTRY        .                                     UNITED STATES :COUNTRY   
SRVC        .                                                   :SERVICE COMPANY
DATE        .                             9/13/2023 11:19:17 AM :LOG DATE  
API         .                                    42321309610000 :API NUMBER
UWI         .                                    42321309610000 :UNIQUE WELL ID
XCOORD      .                                  606681.955270441 :SURFACE X 
YCOORD      .                                  10380406.3085524 :SURFACE Y 
LAT         .                                         28.565886 :LATITUDE  
LON         .                                       -96.2205825 :LONGITUDE 
ELEV        .FT                                              25 :ELEVATION VALUE
ELEV_TYPE   .                                                KB :ELEVATION REFERENCE TYPE
~Curve Information Section
#MNEM       .UNIT                                      API CODE :CURVE DESCRIPTION
#------------------------------------------------------------------------------
DEPT        .FT                                                 :DEPTH     
ASFL        .OHMM                                               :          
CILD        .MMHO                                               :          
ILD         .OHMM                                               :          
SP          .MV                                                 :          
SP_NORM     .MV                                                 :SP Normalized
VSH_SP      .V/V                                                :Volume of Shale from SP
~A        DEPTH           ASFL           CILD            ILD             SP        SP_NORM         VSH_SP
# ...
      4646.0000         0.6047       3265.211        -999.25       -62.8627      -59.52041              0
      4646.5000         0.6025       3256.688        -999.25       -62.7793      -59.43928              0
      4647.0000         0.6007       3248.172        -999.25       -62.6958      -59.35805              0
      4647.5000          0.599       3239.652        -999.25        -62.606      -59.27051              0
      4648.0000         0.5974       3233.723        -999.25       -62.5126      -59.17938              0
      4648.5000         0.5958       3229.996        -999.25       -62.4192      -59.08825              0
      4649.0000         0.5931       3226.273        -999.25       -62.4004      -59.07171              0
      4649.5000         0.5895       3222.551        -999.25       -62.5643      -59.23788              0
      4650.0000          0.584       3227.055        -999.25        -62.728      -59.40385              0
      4650.5000         0.5783       3233.594        -999.25        -62.882      -59.56012              0
      4651.0000         0.5753       3240.137        -999.25       -63.0187      -59.69908              0
      4651.5000         0.5724       3255.875        -999.25       -63.1539      -59.83655              0
      4652.0000         0.5705         3272.5        -999.25       -63.1979      -59.88282              0
      4652.5000         0.5688       3289.996        -999.25       -63.2419      -59.92909              0
      4653.0000         0.5676       3317.305        -999.25       -63.2859      -59.97535              0
      4653.5000         0.5663       3357.941        -999.25       -63.2506      -59.94232              0
      4654.0000         0.5651        3420.68        -999.25       -63.0229      -59.71689              0
      4654.5000         0.5625       3470.266        -999.25       -62.7755      -59.47176              0
      4655.0000         0.5563       3547.379        -999.25       -62.5263      -59.22482              0
      4655.5000         0.5493       3642.734        -999.25       -62.2769      -58.97769   0.0003846267
      4656.0000           0.54       3720.438        -999.25       -61.9177      -58.62076    0.006538654
      4656.5000         0.5278       3765.133        -999.25       -61.5001      -58.20542     0.01369963
      4657.0000         0.5117       3801.316        -999.25       -60.9716      -57.67919     0.02277256
      4657.5000         0.4927       3831.855        -999.25       -60.1581      -56.86796     0.03675934
      4658.0000         0.4796       3854.984        -999.25       -59.1165      -55.82862     0.05467888
      4658.5000         0.4708       3862.734        -999.25       -58.4765       -55.1909     0.06567422
      4659.0000         0.4639       3823.715        -999.25       -57.8649      -54.58156     0.07618003
      4659.5000         0.4585       3772.664        -999.25       -57.3002      -54.01913     0.08587712
      4660.0000         0.4623       3708.457        -999.25       -56.7519      -53.47309     0.09529147
      4660.5000         0.4767       3453.492        -999.25       -56.4399      -53.16336      0.1006317
      4661.0000         0.4914       3116.863        -999.25       -57.6295      -54.35523      0.0800822
      4661.5000         0.5228       2897.402        -999.25       -58.8898       -55.6178     0.05831383
      4662.0000         0.5861       2704.148        -999.25       -60.0695      -56.79976     0.03793513
      4662.5000         0.6802       2510.699        -999.25       -60.5989      -57.33143     0.02876841
      4663.0000         0.7088       2317.449        -999.25       -60.5956       -57.3304     0.02878623
      4663.5000         0.7136       2207.766        -999.25       -60.3198      -57.05687     0.03350231
      4664.0000         0.7159        2118.18        -999.25        -59.873      -56.61234     0.04116663
      4664.5000         0.7174       2051.188        -999.25       -59.1202       -55.8618     0.05410688
      4665.0000          0.718       2004.588        -999.25       -58.3024      -55.04626     0.06816785
      4665.5000         0.7204       1961.701        -999.25       -57.5583      -54.30444       0.080958
      4666.0000         0.7338       1921.189        -999.25       -57.2457       -53.9941     0.08630858
      4666.5000          0.744       1882.508        -999.25       -57.6806      -54.43127     0.07877126
      4667.0000         0.7507       1845.492        -999.25       -58.1159      -54.86884     0.07122698
      4667.5000         0.7557        1818.67        -999.25       -58.5381       -55.2933     0.06390855
      4668.0000         0.7564       1858.816        -999.25       -58.8013      -55.55877     0.05933157
      4668.5000         0.7553       1913.584        -999.25       -59.0646      -55.82434     0.05475274
      4669.0000         0.7396       1974.953        -999.25        -59.252        -56.014     0.05148269
      4669.5000         0.7233        2041.85        -999.25       -59.2984      -56.06268     0.05064353
      4670.0000         0.7104       2159.992        -999.25       -59.3447      -56.11124      0.0498062
      4670.5000         0.6909       2445.371        -999.25       -59.3911      -56.15991      0.0489671
      4671.0000         0.6728       3387.086        -999.25       -59.3343      -56.10538     0.04990729
      4671.5000         0.6595       3467.746        -999.25       -59.2551      -56.02844     0.05123375
      4672.0000         0.6485       3553.516        -999.25       -59.1758      -55.95141     0.05256192
      4672.5000         0.6373       3565.691        -999.25       -59.0966      -55.87448     0.05388832
      4673.0000         0.6236       3568.965        -999.25       -59.2689      -56.04905     0.05087852
      4673.5000         0.6052       3570.102        -999.25       -59.4641      -56.24651     0.04747397
      4674.0000         0.5909       3566.168        -999.25       -59.6398      -56.42448     0.04440551
      4674.5000         0.5781       3562.234        -999.25       -59.5836      -56.37054     0.04533544
      4675.0000         0.5692       3557.496        -999.25       -59.5178      -56.30701     0.04643085
      4675.5000         0.5614       3548.109        -999.25       -59.5209      -56.31238     0.04633825
      4676.0000         0.5547       3538.613        -999.25       -59.5699      -56.36365     0.04545435
      4676.5000         0.5514       3528.566        -999.25       -59.6189      -56.41491     0.04457046
      4677.0000         0.5511       3519.207        -999.25       -59.6841      -56.48238     0.04340718
      4677.5000         0.5507        3510.07        -999.25       -59.7936      -56.59415     0.04148023
      4678.0000         0.5507           3502        -999.25       -59.9031      -56.70591     0.03955321
      4678.5000         0.5506       3495.719        -999.25       -60.0383      -56.84338     0.03718304
      4679.0000         0.5511       3489.426        -999.25       -60.2244      -57.03175     0.03393535
      4679.5000         0.5534        3486.32        -999.25       -60.4611      -57.27072     0.02981515
      4680.0000         0.5556       3487.824        -999.25        -60.918      -57.72989     0.02189853
      4680.5000         0.5578       3491.395        -999.25       -61.9988      -58.81295    0.003224998
      4681.0000         0.5601       3500.625        -999.25       -62.1842      -59.00062              0
      4681.5000         0.5622       3509.863        -999.25       -62.1631      -58.98179   0.0003139891
      4682.0000         0.5643       3519.398        -999.25       -62.1421      -58.96305   0.0006369887
      4682.5000         0.5664       3530.156        -999.25       -62.0972      -58.92042    0.001372041
      4683.0000         0.5682       3540.906        -999.25       -62.0091      -58.83459    0.002851881
      4683.5000         0.5697       3547.461        -999.25        -61.921      -58.74876    0.004331786
