#------------------------------------------------------------------------------
# Created by    : vladimir.rabinovich
# Created on    : 09/19/2023 17:19:21
#------------------------------------------------------------------------------
~Version Information Section
VERS.           2.0     :   CWLS log ASCII Standard - VERSION 2.0
WRAP.           NO      :   One line per depth step
~Well Information Section
#MNEM       .UNIT                                         VALUE :DESCRIPTION
#------------------------------------------------------------------------------
STRT        .FT                                             313 :START DEPTH
STOP        .FT                                           17011 :STOP DEPTH
STEP        .FT                                             0.5 :STEP      
NULL        .                                           -999.25 :NULL      
COMP        .                             MAGNOLIA PETROLEUM CO :COMPANY   
WELL        .                                      LETULLE UNIT :WELL      
FLD         .                                           WILDCAT :FIELD     
LOC         .                                                   :LOCATION  
CNTY        .                                         MATAGORDA :LOCATION  
STAT        .                                             TEXAS :STATE     
CTRY        .                                     UNITED STATES :COUNTRY   
SRVC        .                                                   :SERVICE COMPANY
DATE        .                             9/13/2023 11:18:46 AM :LOG DATE  
API         .                                    42321010770000 :API NUMBER
UWI         .                                    42321010770000 :UNIQUE WELL ID
XCOORD      .                                  733053.658917313 :SURFACE X 
YCOORD      .                                  10456928.2420536 :SURFACE Y 
LAT         .                                        28.7849393 :LATITUDE  
LON         .                                       -95.8329519 :LONGITUDE 
ELEV        .FT                                              38 :ELEVATION VALUE
ELEV_TYPE   .                                                KB :ELEVATION REFERENCE TYPE
~Curve Information Section
#MNEM       .UNIT                                      API CODE :CURVE DESCRIPTION
#------------------------------------------------------------------------------
DEPT        .FT                                                 :DEPTH     
AAM_16      .OHMM                                               :          
AM_16       .OHMM                                               :          
AM_64       .OHMM                                               :          
AO_18_8     .OHMM                                               :          
SP          .MV                                                 :          
SP_NORM     .MV                                                 :SP Normalized
VSH_SP      .V/V                                                :Volume of Shale from SP
~A        DEPTH         AAM_16          AM_16          AM_64        AO_18_8             SP        SP_NORM         VSH_SP
# ...
     11401.5000         0.5979         0.5581         0.6455         0.4286       -41.9762     -0.4216194              1
     11402.0000         0.6014         0.5621         0.6692         0.4286       -41.9737     -0.4177513              1
     11402.5000         0.6049         0.5722         0.6929         0.4375       -41.9712     -0.4138756              1
     11403.0000         0.6119         0.5783         0.7165         0.4464       -41.9687     -0.4100075              1
     11403.5000         0.6189         0.5958         0.7402         0.4554       -41.9662     -0.4061356              1
     11404.0000         0.6524          0.609         0.7639         0.4643       -41.9637     -0.4022636              1
     11404.5000         0.7143         0.6143         0.7875         0.4732       -41.9612     -0.3983917              1
     11405.0000         0.7461         0.6144         0.8135         0.4821       -42.0903      -0.526123              1
     11405.5000          0.808         0.6145         0.7649         0.4911       -42.2328     -0.6672478              1
     11406.0000         0.8402         0.6211         0.6905            0.5       -42.2303     -0.6633797              1
     11406.5000         0.8402         0.6286         0.6126         0.5089       -42.2884     -0.7201042              1
     11407.0000         0.8401         0.6287         0.5503         0.5179        -42.502     -0.9323349              1
     11407.5000         0.7987          0.639         0.5349         0.5268       -42.4995      -0.928463              1
     11408.0000         0.7384         0.6428         0.5229         0.5357       -42.7735      -1.201092      0.9962761
     11408.5000         0.6976         0.6591          0.523         0.5446       -42.7711      -1.197319      0.9963459
     11409.0000         0.6568         0.6708         0.5232         0.5536       -42.8945      -1.319351      0.9940861
     11409.5000         0.6143         0.6709         0.5373         0.5625       -43.0427      -1.466179       0.991367
     11410.0000         0.6142          0.671         0.5375         0.5714       -43.0401      -1.462208      0.9914406
     11410.5000         0.6142         0.6711         0.5461         0.5804       -43.3147      -1.735435      0.9863808
     11411.0000         0.6195         0.6712         0.5656         0.5982       -43.3117      -1.731064      0.9864618
     11411.5000         0.6301         0.6714         0.5797         0.5893       -43.4154      -1.833393      0.9845668
     11412.0000         0.6354         0.6715         0.5799         0.5982       -43.5835      -2.000122      0.9814792
     11412.5000          0.646         0.6716         0.5801         0.6071        -43.581       -1.99625      0.9815509
     11413.0000         0.6566         0.6641         0.5941         0.6161       -43.6986       -2.11248      0.9793985
     11413.5000         0.6673         0.6579         0.5943          0.625       -43.8526      -2.265106      0.9765721
     11414.0000         0.6779         0.6581         0.5945         0.6339         -43.85      -2.261135      0.9766456
     11414.5000         0.6885         0.6537         0.5947         0.6339       -44.1246      -2.534363      0.9715859
     11415.0000         0.7009         0.6444         0.5949         0.6429       -44.1217      -2.530094      0.9716649
     11415.5000         0.7009         0.6446          0.595         0.6518       -44.3054      -2.712421      0.9682885
     11416.0000         0.7009         0.6308         0.5952         0.6518       -44.3934      -2.799049      0.9666843
     11416.5000         0.7009         0.6309         0.5954         0.6607       -44.3909      -2.795177       0.966756
     11417.0000         0.6761         0.6227         0.5956         0.6696       -44.3884      -2.791309      0.9668276
     11417.5000         0.6708         0.6173         0.5946         0.6696       -44.3859      -2.787434      0.9668994
     11418.0000         0.6655         0.6174          0.582         0.6786       -44.3832      -2.783367      0.9669747
     11418.5000         0.6637         0.6175         0.5822         0.6786       -44.3809      -2.779694      0.9670427
     11419.0000         0.6619         0.6176         0.5824         0.6786       -44.3784      -2.775822      0.9671144
     11419.5000         0.6619         0.6177         0.5826         0.6875       -44.3759       -2.77195      0.9671861
     11420.0000         0.6584         0.6178         0.5828         0.6875       -44.3732      -2.767879      0.9672615
     11420.5000          0.653         0.6179          0.583         0.6961       -44.3304      -2.723705      0.9680795
     11421.0000         0.6423         0.6181         0.5756         0.6957       -44.0917      -2.483639      0.9725252
     11421.5000         0.6334         0.6182         0.5694         0.6952       -44.0892      -2.479763       0.972597
     11422.0000         0.6245         0.6183         0.5557         0.6948       -44.0865      -2.475693      0.9726723
     11422.5000         0.6155         0.6184         0.5559         0.6943       -44.0842      -2.472023      0.9727403
     11423.0000         0.6084         0.6092         0.5561         0.6939       -44.0817      -2.468151       0.972812
     11423.5000         0.6065         0.6048         0.5424         0.6934       -44.0792      -2.464279      0.9728837
     11424.0000         0.6064          0.591         0.5426          0.693       -44.0765      -2.460209      0.9729591
     11424.5000         0.6081          0.585         0.5351         0.6836       -44.0742      -2.456535      0.9730271
     11425.0000         0.6115         0.5774          0.529         0.6832       -44.0717      -2.452667      0.9730988
     11425.5000         0.6185         0.5775         0.5292         0.6738       -44.0692      -2.448792      0.9731705
     11426.0000         0.6238          0.571         0.5253         0.6734       -43.7899      -2.168125       0.978368
     11426.5000          0.629         0.5638         0.5157          0.664       -43.7876      -2.164452      0.9784361
     11427.0000          0.636         0.5639          0.502         0.6635       -43.6842      -2.059681      0.9803763
     11427.5000         0.6359         0.5641         0.5022         0.6542        -43.506      -1.880108      0.9837017
     11428.0000         0.6358         0.5642         0.5023         0.6537       -43.5032      -1.875938      0.9837789
     11428.5000         0.6322         0.5643         0.4951         0.6444       -43.2244      -1.595764      0.9889674
     11429.0000         0.6285         0.5644         0.4888          0.635       -43.1236      -1.493595      0.9908593
     11429.5000         0.6231         0.5645          0.489         0.6345       -42.9427      -1.311321      0.9942348
     11430.0000         0.6177         0.5647         0.4892         0.6252       -42.9399      -1.307152       0.994312
     11430.5000         0.6124         0.5648         0.4894          0.625       -42.6611      -1.026978      0.9995004
     11431.0000         0.6088         0.5649         0.4896         0.6161       -42.6586      -1.023109       0.999572
     11431.5000         0.6088          0.565         0.4897         0.6161       -42.6561      -1.019238      0.9996437
     11432.0000         0.6159         0.5651         0.4899         0.6161       -42.6533      -1.015068       0.999721
     11432.5000         0.6248         0.5652         0.4901         0.6161       -42.6268     -0.9871941              1
     11433.0000         0.6336         0.5653         0.4903         0.6161        -42.372     -0.7310257              1
     11433.5000         0.6425         0.5654         0.4904         0.6161       -42.3695       -0.72715              1
     11434.0000         0.6513         0.5613         0.4906         0.6071       -42.3667     -0.7229805              1
     11434.5000         0.6602         0.5518         0.4908         0.6071       -42.3645     -0.7194061              1
