#------------------------------------------------------------------------------
# Created by    : vladimir.rabinovich
# Created on    : 09/19/2023 17:22:47
#------------------------------------------------------------------------------
~Version Information Section
VERS.           2.0     :   CWLS log ASCII Standard - VERSION 2.0
WRAP.           NO      :   One line per depth step
~Well Information Section
#MNEM       .UNIT                                         VALUE :DESCRIPTION
#------------------------------------------------------------------------------
STRT        .FT                                            1029 :START DEPTH
STOP        .FT                                            4870 :STOP DEPTH
STEP        .FT                                             0.5 :STEP      
NULL        .                                           -999.25 :NULL      
COMP        .                              CHAPARRAL ENERGY LLC :COMPANY   
WELL        .                                         ST TR 171 :WELL      
FLD         .                               MATAGORDA BAY SOUTH :FIELD     
LOC         .                                                   :LOCATION  
CNTY        .                                         MATAGORDA :LOCATION  
STAT        .                                             TEXAS :STATE     
CTRY        .                                     UNITED STATES :COUNTRY   
SRVC        .                                                   :SERVICE COMPANY
DATE        .                             9/13/2023 11:19:17 AM :LOG DATE  
API         .                                    42321309080000 :API NUMBER
UWI         .                                    42321309080000 :UNIQUE WELL ID
XCOORD      .                                  571019.162580029 :SURFACE X 
YCOORD      .                                  10362433.1969336 :SURFACE Y 
LAT         .                                        28.5138372 :LATITUDE  
LON         .                                       -96.3299832 :LONGITUDE 
ELEV        .FT                                              19 :ELEVATION VALUE
ELEV_TYPE   .                                                KB :ELEVATION REFERENCE TYPE
~Curve Information Section
#MNEM       .UNIT                                      API CODE :CURVE DESCRIPTION
#------------------------------------------------------------------------------
DEPT        .FT                                                 :DEPTH     
DT          .US/FT                                              :          
GUARD       .OHMM                                               :          
IND         .OHMM                                               :          
SP          .MV                                                 :          
SP_NORM     .MV                                                 :SP Normalized
VSH_SP      .V/V                                                :Volume of Shale from SP
~A        DEPTH             DT          GUARD            IND             SP        SP_NORM         VSH_SP
      1029.0000        -999.25         1.0406         1.2282         1.0877       33.42303              1
      1029.5000        -999.25         1.0487         1.2293         1.1053       33.44063              1
      1030.0000        -999.25         1.0566         1.3075         1.1321       33.46743              1
      1030.5000       107.6214         1.1172         1.3081         1.1321       33.46743              1
      1031.0000       103.2992         1.1401         1.3088         0.7547       33.09003              1
      1031.5000       101.7179         1.1633         1.3094         0.7547       33.09003              1
      1032.0000       103.4526         1.1712         1.3103         0.7547       33.09003              1
      1032.5000       104.2711         1.1715          1.311         0.7547       33.09003              1
      1033.0000       104.7762         1.1718         1.3116         0.7547       33.09003              1
      1033.5000       105.3232         1.1722         1.3122         0.7547       33.09003              1
      1034.0000       107.1126         1.1801         1.3128         0.7547       33.09003              1
      1034.5000       109.8016         1.1804         1.3135         0.7547       33.09003              1
      1035.0000       113.2183         1.1884         1.3141         0.3774       32.71273              1
      1035.5000       116.1114         1.2041         1.3147         0.3774       32.71273              1
      1036.0000       118.7932         1.2196         1.3153         0.3774       32.71273              1
      1036.5000       120.5983         1.2426         1.3159         0.3774       32.71273              1
      1037.0000       114.7952         1.2656         1.3169         0.3774       32.71273              1
      1037.5000       113.0742          1.281         1.3554         0.3774       32.71273              1
      1038.0000       115.1409         1.2965         1.3939         0.3774       32.71273              1
      1038.5000       117.0387         1.3119         1.4322         0.3774       32.71273              1
      1039.0000       117.5248           1.32         1.4706         0.3774       32.71273              1
      1039.5000        118.399         1.3279         1.5088              0       32.33533              1
      1040.0000       121.4749         1.3358         1.5089         -0.009       32.32633              1
      1040.5000        127.439         1.3511         1.5103          0.018       32.35333              1
      1041.0000        133.443         1.3587         1.5116          0.036       32.37133              1
      1041.5000       140.1922         1.3664         1.5136        -0.3242       32.01113              1
      1042.0000       145.7589         1.3742         1.4771        -0.3064       32.02893              1
      1042.5000       146.0327          1.382         1.4405        -0.2887       32.04663              1
      1043.0000       143.8619         1.3897         1.4417        -0.2709       32.06443              1
      1043.5000       144.6407         1.3975          1.481        -0.2531       32.08223              1
      1044.0000       147.5355         1.4129         1.4823        -0.2352       32.10013              1
      1044.5000       147.4936          1.413         1.4842        -0.2173       32.11803              1
      1045.0000        146.293          1.459         1.4856        -2.1025       30.23283              1
      1045.5000       146.9283         1.4745         1.4869        -6.6586       25.67673              1
      1046.0000        149.201         1.4747         1.4882       -13.1315       19.20383              1
      1046.5000       145.1002         1.4444         1.4895       -16.1804       16.15493              1
      1047.0000       143.8465          1.437         1.4908       -19.2353       13.10003              1
      1047.5000       142.8817         1.4296         1.4922       -22.2329       10.10243              1
      1048.0000       139.4691         1.4298         1.4942       -24.8335       7.501831              1
      1048.5000       134.1129         1.4378         1.4955       -27.4291       4.906231              1
      1049.0000       129.4779          1.438         1.4968       -28.5357       3.799631              1
      1049.5000       127.8013         1.4459         1.4982       -29.6403        2.69503              1
      1050.0000       127.9496         1.4538         1.4998       -30.7427        1.59263              1
      1050.5000       127.3508         1.4616         1.5003       -31.4754        0.85993              1
      1051.0000        130.016         1.4694         1.5008       -31.4677      0.8676319              1
      1051.5000       132.0105         1.4772         1.5012       -31.8312      0.5319328              1
      1052.0000       132.3779         1.4697         1.5017       -31.8238       0.711113              1
      1052.5000       128.2075         1.4621         1.5022       -32.1883      0.5183907              1
      1053.0000       123.1137         1.4317         1.5029       -32.1812      0.6972733              1
      1053.5000       118.8851         1.4013         1.4651       -32.1741      0.8761482              1
      1054.0000       112.5354         1.3556         1.4275       -32.5399      0.6821251              1
      1054.5000       108.8876         1.2796         1.3517       -32.5331      0.8607063              1
      1055.0000       108.7772         1.1961         1.2761       -32.5263       1.039288              1
      1055.5000       112.9767         1.0898         1.2388       -32.8935      0.8438644              1
      1056.0000       118.6531         1.0901         1.2395        -32.887       1.022141              1
      1056.5000       123.4097          1.098         1.2022       -33.2552      0.8257217              1
      1057.0000       127.3453         1.1059         1.2029       -33.2459       1.006802              1
      1057.5000       125.2922         1.1215         1.2037       -33.6152      0.8092804              1
      1058.0000       118.0704         1.1294         1.2044       -33.6094      0.9868546              1
      1058.5000       113.5521         1.1451         1.2051       -33.6035       1.164536              1
      1059.0000       113.2389         1.1454         1.2059       -33.2211       1.718716              1
      1059.5000        113.178          1.138         1.1688       -32.0842       3.027393              1
      1060.0000       112.7159         1.1306         1.1695       -27.5529       7.730474              1
      1060.5000       111.8358         1.1233         1.1706         0.0184       35.47355              1
      1061.0000       114.9885         1.1237         1.1717         0.0368       35.66373              1
      1061.5000       116.3509         1.1164         1.1727        -0.6992       35.09951              1
      1062.0000       109.9857         1.1091         1.1738         -1.058       34.91249              1
      1062.5000       105.2093         1.1095          1.137        -1.7939       34.34837              1
      1063.0000       106.4275         1.1099         1.1381        -2.1527       34.16135              1
      1063.5000       110.6186         1.1103         1.1391        -2.8887       33.59713              1
      1064.0000       111.8784         1.1183         1.1782        -3.2475        33.4101              1
      1064.5000       112.8155         1.1187         1.1798        -3.2291       33.60028              1
      1065.0000       114.8494         1.1268          1.219        -3.5879       33.41326              1
      1065.5000       113.9874         1.1349         1.2201        -6.5869       30.58604              1
      1066.0000        109.882         1.1429         1.2213        -6.1914       31.15332              1
      1066.5000       106.8052         1.1433         1.2224        -3.9098        33.6067              1
