#------------------------------------------------------------------------------
# Created by    : vladimir.rabinovich
# Created on    : 09/19/2023 17:21:29
#------------------------------------------------------------------------------
~Version Information Section
VERS.           2.0     :   CWLS log ASCII Standard - VERSION 2.0
WRAP.           NO      :   One line per depth step
~Well Information Section
#MNEM       .UNIT                                         VALUE :DESCRIPTION
#------------------------------------------------------------------------------
STRT        .FT                                            1500 :START DEPTH
STOP        .FT                                            6885 :STOP DEPTH
STEP        .FT                                             0.5 :STEP      
NULL        .                                           -999.25 :NULL      
COMP        .                        HILLHOUSE OPERATING CO LLC :COMPANY   
WELL        .                                  LEWIS J C FAMILY :WELL      
FLD         .                                    LIVE OAK BAYOU :FIELD     
LOC         .                                                   :LOCATION  
CNTY        .                                         MATAGORDA :LOCATION  
STAT        .                                             TEXAS :STATE     
CTRY        .                                     UNITED STATES :COUNTRY   
SRVC        .                                                   :SERVICE COMPANY
DATE        .                             9/13/2023 11:19:17 AM :LOG DATE  
API         .                                    42321308450000 :API NUMBER
UWI         .                                    42321308450000 :UNIQUE WELL ID
XCOORD      .                                  757138.788685477 :SURFACE X 
YCOORD      .                                  10457801.5308193 :SURFACE Y 
LAT         .                                        28.7888954 :LATITUDE  
LON         .                                       -95.7578897 :LONGITUDE 
ELEV        .FT                                              17 :ELEVATION VALUE
ELEV_TYPE   .                                                KB :ELEVATION REFERENCE TYPE
~Curve Information Section
#MNEM       .UNIT                                      API CODE :CURVE DESCRIPTION
#------------------------------------------------------------------------------
DEPT        .FT                                                 :DEPTH     
CALI        .IN                                                 :          
DCOR        .G/C3                                               :          
DPOR        .%                                                  :          
DT          .US/F                                               :          
GR          .GAPI                                               :          
GR_NORM     .GAPI                                               :GammaRay Normalized
ILD         .OHMM                                               :          
ILM         .OHMM                                               :          
LL8         .OHMM                                               :          
NPOR        .%                                                  :          
RHOB        .G/C3                                               :          
SP          .MV                                                 :          
SP_NORM     .MV                                                 :SP Normalized
VSH_GR      .V/V                                                :Volume of Shale from GR
VSH_SP      .V/V                                                :Volume of Shale from SP
~A        DEPTH           CALI           DCOR           DPOR             DT             GR        GR_NORM            ILD            ILM            LL8           NPOR           RHOB             SP        SP_NORM         VSH_GR         VSH_SP
# ...
      3659.0000         8.2536          0.022        31.6204       149.8689        75.8031       91.63805         0.9244         0.8398         0.8797        49.6671         2.1256       -63.2831      -3.713955              1      0.9304114
      3659.5000         8.4415         0.0199         30.604       149.8688        77.7803       94.88694          0.937          0.832         0.8715        49.2787         2.1385       -63.8806      -4.319439              1      0.9148862
      3660.0000         8.4909         0.0135        29.8865       149.8687        80.3507         99.109         0.9411         0.8357         0.9038        50.1752         2.1563        -63.688      -4.134827              1      0.9196199
      3660.5000         8.4039          0.013        30.6629       149.8685        80.8931       100.0041         0.9366         0.8393         0.9078        53.4323         2.1479       -62.3088      -2.763615              1      0.9547791
      3661.0000         8.2061         0.0081        31.4991       149.8684        78.1736       95.54803         0.9279         0.8315         0.9118        55.7633         2.1277       -61.3654      -1.828201              1      0.9787641
      3661.5000         8.0646         0.0086        32.1561       149.8683        75.0083       90.36063         0.9235         0.7979         0.9117        55.5243         2.1188       -60.5388       -1.00959              1      0.9997541
      3662.0000         8.0082         0.0061        32.4843       149.8681        73.5728       88.01099         0.9149         0.7691         0.8951         55.136         2.1138       -60.1479     -0.6266785              1              1
      3662.5000           7.85         0.0056        32.3048        149.868        73.4735       87.85337         0.8739          0.755         0.8787        55.5546         2.1153       -59.9548     -0.4415665              1              1
      3663.0000         7.6126         0.0146        31.3181       149.8679         73.176       87.37063         0.8423         0.7514         0.8627        56.6904         2.1272       -59.9592     -0.4539566              1              1
      3663.5000         7.5335         0.0254        30.2717       149.8677        71.8898       85.26589         0.8194         0.7513         0.8316        57.1987          2.147       -59.9637     -0.4664383              1              1
      3664.0000         7.5334         0.0368         29.823       149.8676        70.0603       82.26988         0.8044         0.7615         0.8276        55.5253         2.1554        -59.771     -0.2817268              1              1
      3664.5000         7.5334         0.0319        29.8226       149.8674        70.2574       82.59852         0.7968         0.7683         0.8275        53.5529         2.1564       -59.5778    -0.09651566              1              1
      3665.0000         7.5927         0.0334        29.7623       149.8673        70.6522       83.25147         0.8004         0.7859          0.835        52.7162         2.1584       -59.5823     -0.1090012              1              1
      3665.5000         7.5927         0.0399        29.3434       149.8672        72.4314       86.17556         0.8263         0.8075         0.8463         53.592         2.1629       -59.7845      -0.319191              1              1
      3666.0000         7.5808         0.0394        29.1039        149.867        74.2106       89.09965         0.8452         0.8186         0.8579        54.0017         2.1664       -60.1843     -0.7269783              1              1
      3666.5000         7.5709         0.0355        28.9241       149.8669        75.4452       91.13029         0.8645         0.8335         0.8736        54.0018         2.1674       -60.3865     -0.9371681              1              1
      3667.0000         7.5708         0.0293        29.5214       149.8668        75.4445       91.13444         0.8843         0.8448         0.8855        53.0455         2.1634        -60.391     -0.9496498              1              1
      3667.5000         7.6499         0.0266        30.2981       149.8666        74.8505       90.16525         0.8964         0.8524         0.8976        52.7168         2.1481       -60.5932       -1.15984              1      0.9959015
      3668.0000         7.6697         0.0177        31.9716       149.8665        73.6633       88.22295         0.9044         0.8601          0.914        52.5674         2.1259       -60.5982      -1.172829              1      0.9955685
      3668.5000         7.7389         0.0058        32.2703       149.8664        72.2293       85.87576         0.9042         0.8678         0.9222        52.2686         2.1145       -60.6027      -1.185314              1      0.9952484
      3669.0000         7.8278         0.0014        30.8349       149.8662        72.6241       86.52873         0.9082         0.8676         0.9221        51.7605         2.1323       -60.4512      -1.041801              1      0.9989282
      3669.5000         8.0552         0.0069        28.4429       149.8661        74.2054       89.12814         0.9206         0.8714         0.9261        50.8638         2.1714       -60.6517       -1.25029              1      0.9935823
      3670.0000         8.3122         0.0158        25.9611        149.866        75.2423       90.83448         0.9416         0.8833         0.9218        49.0701         2.2036       -60.8139      -1.420479              1      0.9892185
      3670.5000         8.3814         0.0217        24.1369       149.8658        72.8198       86.86566         0.9855         0.9076         0.9216        47.4259         2.2481       -60.8184      -1.432964              1      0.9896913
      3671.0000         8.2924         0.0173        23.8971       149.8657        69.8529       82.00374          1.008         0.9075         0.9257        45.5424         2.2511       -60.8229       -1.44545              1      0.9893941
      3671.5000         8.2845         0.0143        23.9862       148.3079        66.6884       76.81766         1.0353         0.9441         0.9469        44.8248         2.2511       -60.8274      -1.457939      0.9322906      0.9890967
      3672.0000         8.2251         0.0079         23.268       142.8537        63.5239       71.63156         1.0311         0.9822         0.9759        45.0639          2.265       -60.6346      -1.273129      0.8219481       0.993497
      3672.5000         8.2053         0.0169        21.1446       139.9781        61.1992       67.82318          1.109         1.0219          1.012        44.9741         2.2982       -60.6391      -1.285614      0.7409188      0.9931996
      3673.0000         8.2214         0.0288        19.8283       137.1026        61.4953       68.31422           1.15         1.0591         1.0353         43.808         2.3214       -60.6436      -1.298103      0.7513665      0.9929023
      3673.5000          8.225         0.0397        20.0071       135.0204        66.8835       77.15888         1.2091         1.0736         1.0351        41.6251          2.317       -60.6481      -1.310593      0.9395507      0.9926049
      3674.0000         8.2448         0.0446        20.4848       130.1612        71.4795        84.7039         1.2654         1.1236         1.0588        40.7877         2.3091       -60.8503      -1.520779              1      0.9876005
      3674.5000         8.3041         0.0486        21.2018       126.1651        75.9776       92.08837         1.2944         1.1759         1.1337        42.0434         2.2967       -60.8548      -1.533264              1      0.9873033
      3675.0000         8.3238         0.0427        22.8756       125.9179        76.9155       93.63229          1.312         1.2139         1.1865        43.1497          2.273        -61.057       -1.74345              1      0.9822988
      3675.5000         8.4622         0.0279        25.2672       125.9179         73.208       87.55541         1.3118         1.2305         1.2532        43.4486         2.2488       -61.0615      -1.755939              1      0.9820014
