#------------------------------------------------------------------------------
# Created by    : vladimir.rabinovich
# Created on    : 09/19/2023 17:19:21
#------------------------------------------------------------------------------
~Version Information Section
VERS.           2.0     :   CWLS log ASCII Standard - VERSION 2.0
WRAP.           NO      :   One line per depth step
~Well Information Section
#MNEM       .UNIT                                         VALUE :DESCRIPTION
#------------------------------------------------------------------------------
STRT        .FT                                             313 :START DEPTH
STOP        .FT                                           17011 :STOP DEPTH
STEP        .FT                                             0.5 :STEP      
NULL        .                                           -999.25 :NULL      
COMP        .                             MAGNOLIA PETROLEUM CO :COMPANY   
WELL        .                                      LETULLE UNIT :WELL      
FLD         .                                           WILDCAT :FIELD     
LOC         .                                                   :LOCATION  
CNTY        .                                         MATAGORDA :LOCATION  
STAT        .                                             TEXAS :STATE     
CTRY        .                                     UNITED STATES :COUNTRY   
SRVC        .                                                   :SERVICE COMPANY
DATE        .                             9/13/2023 11:18:46 AM :LOG DATE  
API         .                                    42321010770000 :API NUMBER
UWI         .                                    42321010770000 :UNIQUE WELL ID
XCOORD      .                                  733053.658917313 :SURFACE X 
YCOORD      .                                  10456928.2420536 :SURFACE Y 
LAT         .                                        28.7849393 :LATITUDE  
LON         .                                       -95.8329519 :LONGITUDE 
ELEV        .FT                                              38 :ELEVATION VALUE
ELEV_TYPE   .                                                KB :ELEVATION REFERENCE TYPE
~Curve Information Section
#MNEM       .UNIT                                      API CODE :CURVE DESCRIPTION
#------------------------------------------------------------------------------
DEPT        .FT                                                 :DEPTH     
AAM_16      .OHMM                                               :          
AM_16       .OHMM                                               :          
AM_64       .OHMM                                               :          
AO_18_8     .OHMM                                               :          
SP          .MV                                                 :          
SP_NORM     .MV                                                 :SP Normalized
VSH_SP      .V/V                                                :Volume of Shale from SP
~A        DEPTH         AAM_16          AM_16          AM_64        AO_18_8             SP        SP_NORM         VSH_SP
# ...
     14751.5000         0.8895         0.9072         0.7567         0.8214       -52.5615      -3.178783      0.9596522
     14752.0000         0.9003         0.9014         0.7566         0.8036       -52.5643      -3.181583      0.9596003
     14752.5000         0.9129         0.8937         0.7565         0.7857       -52.5671      -3.184383      0.9595485
     14753.0000         0.9201         0.8938         0.7563         0.7768       -52.5703      -3.187584      0.9594892
     14753.5000         0.9256         0.8801         0.7561         0.7768       -52.5726      -3.189884      0.9594466
     14754.0000         0.9275          0.874          0.756         0.7768       -52.4259      -3.043182      0.9621633
     14754.5000         0.9311         0.8568         0.7558         0.7679       -52.3015      -2.918781       0.964467
     14755.0000         0.9437         0.8528         0.7557         0.7679       -52.3042      -2.921482       0.964417
     14755.5000         0.9581         0.8391         0.7694         0.7589        -52.307      -2.924282      0.9643651
     14756.0000         0.9707         0.8393         0.7693           0.75       -52.3097      -2.926983      0.9643151
     14756.5000         0.9743         0.8293         0.7733         0.7411       -52.3125      -2.929783      0.9642633
     14757.0000          0.978         0.8257         0.7829           0.75       -52.3156      -2.932884      0.9642059
     14757.5000         0.9852         0.8258         0.7966         0.7589        -52.164      -2.781284      0.9670132
     14758.0000         0.9925         0.8328         0.7964         0.7679       -52.0441      -2.661385      0.9692336
     14758.5000         1.0105           0.84         0.8007         0.7768       -52.0469      -2.664185      0.9691818
     14759.0000         1.0268          0.854           0.81         0.7857       -52.0496      -2.666882      0.9691318
     14759.5000         1.0449         0.8855         0.8237         0.8036       -52.0524      -2.669682        0.96908
     14760.0000         1.0685          0.903         0.8247         0.8302       -52.0554      -2.672684      0.9690244
     14760.5000          1.092         0.9239         0.8373         0.8574       -52.0579      -2.675182      0.9689781
     14761.0000         1.1173         0.9382         0.8372         0.8757       -52.0606      -2.677883      0.9689281
     14761.5000         1.1822         0.9557         0.8231         0.8942       -52.0634      -2.680683      0.9688762
     14762.0000         1.1769         0.9733         0.8217         0.8946       -52.0662      -2.683483      0.9688244
     14762.5000         1.1644         0.9938          0.809         0.8951       -52.0689      -2.686184      0.9687744
     14763.0000         1.1393         1.0078         0.8004         0.8776       -52.0718      -2.689083      0.9687207
     14763.5000         1.1249          1.008         0.7809         0.8424       -52.0744      -2.691685      0.9686725
     14764.0000         1.0998         1.0081         0.7792         0.8071       -52.0772      -2.694485      0.9686207
     14764.5000         1.0728         1.0083         0.7565         0.7718       -52.0799      -2.697182      0.9685707
     14765.0000         1.0477         1.0067         0.7388         0.7366       -52.0827      -2.699982      0.9685189
     14765.5000         1.0334         0.9721         0.7386         0.6924       -52.0854      -2.702682      0.9684688
     14766.0000         1.0335         0.9533         0.7246         0.6928       -52.0882      -2.705482       0.968417
     14766.5000         1.0354         0.9534         0.7244         0.6932        -52.091      -2.708282      0.9683651
     14767.0000         1.0391         0.9536         0.7243         0.8365       -52.0937      -2.710983      0.9683151
     14767.5000         1.0464          0.963         0.7241         0.9083       -52.0965      -2.713783      0.9682633
     14768.0000         1.0951          0.998         0.7239         1.1052       -52.0992      -2.716484      0.9682133
     14768.5000         1.1493         1.0234         0.7293         1.2754       -52.1025      -2.719784      0.9681522
     14769.0000         1.2016         1.0527         0.7375          1.258       -52.1047      -2.721981      0.9681115
     14769.5000         1.2553         1.0653         0.7374         1.1602       -52.1075      -2.724781      0.9680596
     14770.0000         1.2428         1.0485         0.7694         1.0982       -52.1102      -2.727482      0.9680096
     14770.5000         1.2144         1.0101         0.7984         1.0451       -52.1134      -2.730682      0.9679503
     14771.0000         1.1858         0.9809         0.8342         0.9919       -52.1158      -2.733082      0.9679059
     14771.5000         1.1714         0.9636         0.8895         0.9388       -52.1185      -2.735783      0.9678559
     14772.0000         1.1445         0.9551         0.9033         0.8768       -52.1213      -2.738583       0.967804
     14772.5000         1.1157         0.9414         0.8972         0.8236       -52.1244      -2.741684      0.9677466
     14773.0000          1.087         0.9257         0.8796         0.7973       -52.1268      -2.744083      0.9677022
     14773.5000         1.0583         0.9085         0.8612         0.7799       -52.1299      -2.747185      0.9676448
     14774.0000         1.0439         0.9002         0.8471         0.7625       -52.1323      -2.749584      0.9676003
     14774.5000          1.044         0.9004         0.8407          0.745       -52.1353      -2.752583      0.9675448
     14775.0000         1.0225         0.8844         0.8329         0.7276       -52.1378      -2.755081      0.9674985
     14775.5000          1.019         0.8672         0.8328         0.7191       -52.1408      -2.758083      0.9674429
     14776.0000         1.0137         0.8592         0.8228         0.7106       -52.1046      -2.721882      0.9681133
     14776.5000         1.0065         0.8455         0.8186         0.7022       -51.8694      -2.486683      0.9724689
     14777.0000          1.003         0.8456         0.8184         0.7026       -51.8722      -2.489483       0.972417
     14777.5000         0.9995         0.8458         0.8183         0.7209        -51.875      -2.492283      0.9723651
     14778.0000         0.9943         0.8364         0.8181         0.7392       -51.8777      -2.494984      0.9723151
     14778.5000         0.9836         0.8322          0.818         0.7575       -51.8806      -2.497883      0.9722614
     14779.0000         0.9694         0.8324         0.8146         0.7847       -51.8322      -2.449482      0.9731578
     14779.5000         0.9606         0.8325         0.8038         0.8119       -51.6093      -2.226582      0.9772855
     14780.0000         0.9589         0.8425         0.8036         0.8302       -51.6121      -2.229382      0.9772336
     14780.5000         0.9697         0.8467         0.8035         0.8574       -51.8916      -2.508884      0.9720577
     14781.0000         1.0002         0.8668         0.7929         0.8578       -51.8942      -2.511482      0.9720096
     14781.5000         1.0111         0.8952         0.7754         0.8493        -51.897      -2.514282      0.9719577
     14782.0000         1.0112         0.9127         0.7717         0.8411       -51.8997      -2.516983      0.9719077
     14782.5000         1.0094         0.9305         0.7612         0.8415       -51.9025      -2.519783      0.9718559
     14783.0000         1.0077         0.9479          0.761         0.8419       -52.1819      -2.799183      0.9666818
     14783.5000         1.0132         0.9586         0.7609         0.8424       -52.1846      -2.801884      0.9666318
     14784.0000         1.0313         0.9587         0.7607         0.8339       -52.1879      -2.805183      0.9665707
     14784.5000         1.0494         0.9589         0.7533         0.8343       -52.1901      -2.807384      0.9665299
