#------------------------------------------------------------------------------
# Created by    : vladimir.rabinovich
# Created on    : 09/19/2023 17:19:21
#------------------------------------------------------------------------------
~Version Information Section
VERS.           2.0     :   CWLS log ASCII Standard - VERSION 2.0
WRAP.           NO      :   One line per depth step
~Well Information Section
#MNEM       .UNIT                                         VALUE :DESCRIPTION
#------------------------------------------------------------------------------
STRT        .FT                                             313 :START DEPTH
STOP        .FT                                           17011 :STOP DEPTH
STEP        .FT                                             0.5 :STEP      
NULL        .                                           -999.25 :NULL      
COMP        .                             MAGNOLIA PETROLEUM CO :COMPANY   
WELL        .                                      LETULLE UNIT :WELL      
FLD         .                                           WILDCAT :FIELD     
LOC         .                                                   :LOCATION  
CNTY        .                                         MATAGORDA :LOCATION  
STAT        .                                             TEXAS :STATE     
CTRY        .                                     UNITED STATES :COUNTRY   
SRVC        .                                                   :SERVICE COMPANY
DATE        .                             9/13/2023 11:18:46 AM :LOG DATE  
API         .                                    42321010770000 :API NUMBER
UWI         .                                    42321010770000 :UNIQUE WELL ID
XCOORD      .                                  733053.658917313 :SURFACE X 
YCOORD      .                                  10456928.2420536 :SURFACE Y 
LAT         .                                        28.7849393 :LATITUDE  
LON         .                                       -95.8329519 :LONGITUDE 
ELEV        .FT                                              38 :ELEVATION VALUE
ELEV_TYPE   .                                                KB :ELEVATION REFERENCE TYPE
~Curve Information Section
#MNEM       .UNIT                                      API CODE :CURVE DESCRIPTION
#------------------------------------------------------------------------------
DEPT        .FT                                                 :DEPTH     
AAM_16      .OHMM                                               :          
AM_16       .OHMM                                               :          
AM_64       .OHMM                                               :          
AO_18_8     .OHMM                                               :          
SP          .MV                                                 :          
SP_NORM     .MV                                                 :SP Normalized
VSH_SP      .V/V                                                :Volume of Shale from SP
~A        DEPTH         AAM_16          AM_16          AM_64        AO_18_8             SP        SP_NORM         VSH_SP
# ...
      1418.5000         0.8054         0.8407         0.7574         0.9643       -52.8336      -1.478062              1
      1419.0000         0.8054         0.8496         0.7669         0.9464       -50.0674       1.293736              1
      1419.5000         0.8196         0.8496          0.767         0.9464       -47.3011       4.065632              1
      1420.0000         0.8357         0.8496         0.7671         0.9464       -44.5349       6.837433              1
      1420.5000         0.8536         0.8584         0.7673         0.9464        -42.838       8.539932              1
      1421.0000         0.8696         0.8584         0.7717         0.9464       -43.9339       7.449631              1
      1421.5000         0.8875         0.8584         0.7814         0.9464       -46.0364        5.35273              1
      1422.0000         0.9054         0.8673         0.7815         0.9464       -47.5661       3.828625              1
      1422.5000         0.9214         0.8673         0.7817         0.9554        -48.602       2.798325              1
      1423.0000         0.9393         0.8673         0.7818         0.9643       -49.2633        2.14262              1
      1423.5000         0.9554         0.8761         0.7877         0.9643       -49.6281       1.783421              1
      1424.0000         0.9732         0.8761          0.796         0.9911       -49.5784       1.838722              1
      1424.5000         0.9911          0.885         0.7961         1.0089       -49.2316       2.191116              1
      1425.0000         0.9929          0.885         0.8045         1.0268       -48.6982       2.730118              1
      1425.5000         0.9946         0.8938         0.8102         1.0536       -47.9639       3.470013              1
      1426.0000         0.9946         0.9027         0.8104         1.0714       -47.3133       4.126213              1
      1426.5000         0.9964         0.9027         0.8243         1.0893       -46.5039       4.941212              1
      1427.0000         0.9964         0.9115         0.8245         1.1161       -45.6519       5.798809              1
      1427.5000         0.9982         0.9115         0.8246         1.1339       -44.9166       6.539711              1
      1428.0000         0.9982         0.9115          0.835         1.1518       -43.9906       7.471306              1
      1428.5000              1         0.9115         0.8387         1.1786       -43.1814       8.286106              1
      1429.0000              1         0.9115         0.8389         1.1964       -42.1434       9.329704              1
      1429.5000              1         0.9115         0.8462         1.2143       -41.5926       9.886101              1
      1430.0000              1         0.9204          0.853         1.2411       -40.9914        10.4929              1
      1430.5000              1         0.9204          0.867         1.2589       -40.7606        10.7293              1
      1431.0000              1         0.9292         0.8671         1.2768       -40.5744        10.9211              1
      1431.5000              1         0.9292         0.8749         1.3036       -41.3116        10.1895              1
      1432.0000              1         0.9381         0.8813         1.3214       -43.6678       7.838894              1
      1432.5000              1         0.9381         0.8823         1.3661       -48.2735       3.238792              1
      1433.0000              1         0.9469         0.8954         1.3661       -50.6216      0.8962898              1
      1433.5000         0.9982         0.9469         0.9036         1.3661       -51.8189      -0.295414              1
      1434.0000         0.9982         0.9558         0.9095         1.3661       -52.1404     -0.6113129              1
      1434.5000              1         0.9646         0.9235         1.3661         -52.37     -0.8353119              1
      1435.0000         1.0018         0.9646         0.9236         1.3661        -51.817     -0.2767181              1
      1435.5000         1.0054         0.9735         0.9324         1.3661        -50.708       0.837883              1
      1436.0000         1.0107         0.9823         0.9378         1.3571        -50.063        1.48848              1
      1436.5000         1.0179         0.9912         0.9398         1.3393       -49.4849       2.072178              1
      1437.0000         1.0321              1         0.9519         1.3214       -49.1382       2.424477              1
      1437.5000         1.0518         1.0177          0.952         1.3036       -48.7671       2.801174              1
      1438.0000         1.0732         1.0265         0.9522         1.2857       -48.4895       3.084377              1
      1438.5000         1.0929         1.0442         0.9499         1.2857       -48.9437       2.635773              1
      1439.0000         1.1125         1.0531         0.9326         1.2857       -50.3252       1.259872              1
      1439.5000         1.1339         1.0708         0.9249         1.3482       -51.7066     -0.1159325              1
      1440.0000         1.1536         1.0796         0.9112         1.4196       -53.0881      -1.491833              1
      1440.5000         1.1839         1.0883         0.8974         1.5268       -54.4695      -2.867638      0.9826472
      1441.0000         1.2036         1.0967         0.8911         1.5982        -55.851      -4.243538      0.9551293
      1441.5000         1.2286         1.1052         0.8638         1.6786       -56.1025      -4.489437      0.9502113
      1442.0000         1.2286         1.1225         0.8286         1.6875       -54.5735      -2.954842      0.9809031
      1442.5000         1.2286          1.131         0.7943         1.6964       -52.9054      -1.281139              1
      1443.0000          1.225         1.1484         0.7526         1.7054       -52.3512      -0.721344              1
      1443.5000         1.2179         1.1657         0.7044         1.7054       -52.2376     -0.6021423              1
      1444.0000         1.2107         1.1831         0.6757         1.7054       -51.7094    -0.06834793              1
      1444.5000         1.2018         1.2094         0.6061         1.7054       -51.5179      0.1287537              1
      1445.0000            1.2         1.2357         0.5439         1.7054       -53.5624      -1.910149              1
      1445.5000         1.1982         1.2621         0.4972         1.7054       -56.5603      -4.902451       0.941951
      1446.0000         1.2089         1.2795         0.4965         1.7054       -59.6863       -8.02285       0.879543
      1446.5000         1.3179         1.3059         0.4836         1.6786       -67.8343      -16.16525       0.716695
      1447.0000         1.4265         1.3412         0.4837         1.5982       -72.6181      -20.94346      0.6211308
      1447.5000         1.5345         1.3676         0.4839         1.5089       -77.8018      -26.12156      0.5175688
      1448.0000         1.5841         1.4564         0.4979         1.4286       -83.7062      -32.02036      0.3995928
      1448.5000         1.5841         1.4919          0.498         1.3393       -90.2365      -38.54506      0.2690987
      1449.0000         1.4726         1.5273         0.5065         1.2589       -97.7618      -46.06477      0.1187047
      1449.5000         1.3679         1.5628         0.5121         1.1696      -100.9687      -49.26606      0.0546788
      1450.0000         1.3679         1.5983         0.5105         1.0893      -103.4975      -51.78926    0.004214706
      1450.5000         1.3714         1.6339         0.4985              1      -103.5379      -51.82407      0.0035186
      1451.0000         1.4319         1.6696         0.4987         0.9107      -103.4679      -51.74847    0.005030517
      1451.5000          1.524         1.7054          0.485         0.8839      -103.2313      -51.50627    0.009874573
