#------------------------------------------------------------------------------
# Created by    : vladimir.rabinovich
# Created on    : 09/19/2023 17:19:43
#------------------------------------------------------------------------------
~Version Information Section
VERS.           2.0     :   CWLS log ASCII Standard - VERSION 2.0
WRAP.           NO      :   One line per depth step
~Well Information Section
#MNEM       .UNIT                                         VALUE :DESCRIPTION
#------------------------------------------------------------------------------
STRT        .FT                                              86 :START DEPTH
STOP        .FT                                           17232 :STOP DEPTH
STEP        .FT                                             0.5 :STEP      
NULL        .                                           -999.25 :NULL      
COMP        .                                        EXXON CORP :COMPANY   
WELL        .                               OYSTR LKE TMPRRY GU :WELL      
FLD         .                                           WILDCAT :FIELD     
LOC         .                                                   :LOCATION  
CNTY        .                                         MATAGORDA :LOCATION  
STAT        .                                             TEXAS :STATE     
CTRY        .                                     UNITED STATES :COUNTRY   
SRVC        .                                                   :SERVICE COMPANY
DATE        .                             9/13/2023 11:19:17 AM :LOG DATE  
API         .                                    42321309610000 :API NUMBER
UWI         .                                    42321309610000 :UNIQUE WELL ID
XCOORD      .                                  606681.955270441 :SURFACE X 
YCOORD      .                                  10380406.3085524 :SURFACE Y 
LAT         .                                         28.565886 :LATITUDE  
LON         .                                       -96.2205825 :LONGITUDE 
ELEV        .FT                                              25 :ELEVATION VALUE
ELEV_TYPE   .                                                KB :ELEVATION REFERENCE TYPE
~Curve Information Section
#MNEM       .UNIT                                      API CODE :CURVE DESCRIPTION
#------------------------------------------------------------------------------
DEPT        .FT                                                 :DEPTH     
ASFL        .OHMM                                               :          
CILD        .MMHO                                               :          
ILD         .OHMM                                               :          
SP          .MV                                                 :          
SP_NORM     .MV                                                 :SP Normalized
VSH_SP      .V/V                                                :Volume of Shale from SP
~A        DEPTH           ASFL           CILD            ILD             SP        SP_NORM         VSH_SP
# ...
      6926.0000         0.5625       2113.793        -999.25         3.4355     -0.7457602              1
      6926.5000         0.5553       2133.102        -999.25         3.4158     -0.7664266              1
      6927.0000         0.5487       2153.992        -999.25         3.3961     -0.7870932              1
      6927.5000         0.5423       2190.031        -999.25         3.4075     -0.7766597              1
      6928.0000         0.5361       2232.648        -999.25         3.4285     -0.7566264              1
      6928.5000         0.5299       2273.059        -999.25         3.4495     -0.7365928              1
      6929.0000         0.5252       2301.754        -999.25         3.4705     -0.7165594              1
      6929.5000         0.5213       2323.016        -999.25         3.4915     -0.6965261              1
      6930.0000         0.5187       2339.953        -999.25         3.5124     -0.6765926              1
      6930.5000         0.5168       2354.488        -999.25         3.5334      -0.656559              1
      6931.0000         0.5147       2366.848        -999.25         3.5544     -0.6365256              1
      6931.5000         0.5125       2381.418        -999.25         3.5754      -0.616492              1
      6932.0000         0.5103        2399.73        -999.25         3.5726     -0.6202588              1
      6932.5000          0.507       2417.801        -999.25         3.5536     -0.6402252              1
      6933.0000         0.5031       2441.563        -999.25         3.5345     -0.6602919              1
      6933.5000         0.4991       2471.906        -999.25         3.5155     -0.6802583              1
      6934.0000         0.4943        2493.34        -999.25         3.4965     -0.7002249              1
      6934.5000         0.4894        2512.07        -999.25         3.4774     -0.7202914              1
      6935.0000         0.4858       2530.531        -999.25         3.4584      -0.740258              1
      6935.5000         0.4835       2519.164        -999.25         3.4383     -0.7613246              1
      6936.0000         0.4855       2478.535        -999.25         3.4179      -0.782691              1
      6936.5000         0.4909       2397.621        -999.25         3.3975     -0.8040576              1
      6937.0000         0.5042       2315.234        -999.25          3.377     -0.8255241              1
      6937.5000         0.5179       2254.352        -999.25         3.3566     -0.8468907              1
      6938.0000         0.5344       2196.121        -999.25         3.3362     -0.8682573              1
      6938.5000         0.5502       2146.137        -999.25         3.3301     -0.8753238              1
      6939.0000         0.5543       2085.156        -999.25         3.3522     -0.8541903              1
      6939.5000         0.5578       2052.457        -999.25         3.3744      -0.832957              1
      6940.0000         0.5583       2032.635        -999.25         3.3965     -0.8118234              1
      6940.5000         0.5572       2034.637        -999.25         3.4171     -0.7921901              1
      6941.0000         0.5486       2046.225        -999.25         3.4036     -0.8066566              1
      6941.5000          0.537       2078.973        -999.25           3.39      -0.821223              1
      6942.0000         0.5178       2119.379        -999.25         3.3765     -0.8356898              1
      6942.5000         0.4853       2250.621        -999.25          3.363     -0.8501563              1
      6943.0000         0.4744       2440.629        -999.25         3.3999     -0.8142228              1
      6943.5000         0.4755        2514.32        -999.25         3.4768     -0.7382894              1
      6944.0000         0.4773       2521.203        -999.25         3.5536     -0.6624558              1
      6944.5000         0.4801        2528.16        -999.25         3.6305     -0.5865223              1
      6945.0000         0.4828       2525.895        -999.25         3.6931      -0.524889              1
      6945.5000         0.4857       2522.648        -999.25         3.7161     -0.5028555              1
      6946.0000          0.489       2518.992        -999.25         3.7392      -0.480722              1
      6946.5000         0.4922       2515.305        -999.25         3.7622      -0.458688              1
      6947.0000         0.4946       2511.621        -999.25         3.7876     -0.4342546              1
      6947.5000         0.4946       2507.938        -999.25          3.825     -0.3978212              1
      6948.0000         0.4942       2508.938        -999.25         3.8623     -0.3614879              1
      6948.5000         0.4902       2512.898        -999.25         3.9273     -0.2974544              1
      6949.0000         0.4863       2516.406        -999.25          3.998      -0.227721              1
      6949.5000         0.4858       2518.641        -999.25         4.0607     -0.1659875              1
      6950.0000         0.4864       2520.875        -999.25         4.1148      -0.112854              1
      6950.5000         0.4905       2519.895        -999.25         4.1689    -0.05972052              1
      6951.0000         0.4951       2515.852        -999.25         4.1595    -0.07008696              1
      6951.5000         0.5013       2460.465        -999.25         4.0377     -0.1928535              1
      6952.0000         0.5073       2330.453        -999.25          3.916     -0.3155203              1
      6952.5000         0.5113       2269.523        -999.25         3.7722     -0.4602866              1
      6953.0000         0.5149       2246.113        -999.25         3.5593     -0.6741533              1
      6953.5000         0.5162       2236.492        -999.25         3.3467     -0.8877199              1
      6954.0000         0.5175       2239.094        -999.25          3.124      -1.111386      0.9982035
      6954.5000         0.5176       2245.723        -999.25         2.8979      -1.338453      0.9945411
      6955.0000          0.517       2252.352        -999.25         2.6719      -1.565419      0.9908803
      6955.5000         0.5159       2261.273        -999.25         2.5411      -1.697186       0.988755
      6956.0000         0.5133        2278.09        -999.25         2.4911      -1.748152       0.987933
      6956.5000         0.5108       2300.258        -999.25         2.6954      -1.544819      0.9912126
      6957.0000         0.5078       2330.527        -999.25          2.961      -1.280186      0.9954809
      6957.5000         0.5042       2354.637        -999.25         3.2559     -0.9862523              1
      6958.0000         0.5006       2402.629        -999.25           3.49     -0.7531188              1
      6958.5000         0.4969        2451.09        -999.25         3.6691     -0.5749853              1
      6959.0000         0.4933       2472.055        -999.25         3.8484     -0.3966517              1
      6959.5000         0.4917       2482.547        -999.25         4.0215     -0.2245183              1
      6960.0000         0.4904       2484.344        -999.25         4.1858    -0.06118488              1
      6960.5000         0.4905       2486.137        -999.25         4.3675      0.1195483              1
      6961.0000         0.4919       2485.629        -999.25         4.5718      0.3228822              1
      6961.5000         0.4934       2484.816        -999.25          4.767      0.5171156              1
      6962.0000         0.4951       2484.004        -999.25         4.8779       0.627049              1
      6962.5000         0.4968       2483.191        -999.25         4.9888      0.7369823              1
      6963.0000         0.4985       2478.762        -999.25         5.0748      0.8220158              1
      6963.5000          0.499       2473.176        -999.25         5.0364       0.782649              1
