#------------------------------------------------------------------------------
# Created by    : vladimir.rabinovich
# Created on    : 09/19/2023 17:19:21
#------------------------------------------------------------------------------
~Version Information Section
VERS.           2.0     :   CWLS log ASCII Standard - VERSION 2.0
WRAP.           NO      :   One line per depth step
~Well Information Section
#MNEM       .UNIT                                         VALUE :DESCRIPTION
#------------------------------------------------------------------------------
STRT        .FT                                             313 :START DEPTH
STOP        .FT                                           17011 :STOP DEPTH
STEP        .FT                                             0.5 :STEP      
NULL        .                                           -999.25 :NULL      
COMP        .                             MAGNOLIA PETROLEUM CO :COMPANY   
WELL        .                                      LETULLE UNIT :WELL      
FLD         .                                           WILDCAT :FIELD     
LOC         .                                                   :LOCATION  
CNTY        .                                         MATAGORDA :LOCATION  
STAT        .                                             TEXAS :STATE     
CTRY        .                                     UNITED STATES :COUNTRY   
SRVC        .                                                   :SERVICE COMPANY
DATE        .                             9/13/2023 11:18:46 AM :LOG DATE  
API         .                                    42321010770000 :API NUMBER
UWI         .                                    42321010770000 :UNIQUE WELL ID
XCOORD      .                                  733053.658917313 :SURFACE X 
YCOORD      .                                  10456928.2420536 :SURFACE Y 
LAT         .                                        28.7849393 :LATITUDE  
LON         .                                       -95.8329519 :LONGITUDE 
ELEV        .FT                                              38 :ELEVATION VALUE
ELEV_TYPE   .                                                KB :ELEVATION REFERENCE TYPE
~Curve Information Section
#MNEM       .UNIT                                      API CODE :CURVE DESCRIPTION
#------------------------------------------------------------------------------
DEPT        .FT                                                 :DEPTH     
AAM_16      .OHMM                                               :          
AM_16       .OHMM                                               :          
AM_64       .OHMM                                               :          
AO_18_8     .OHMM                                               :          
SP          .MV                                                 :          
SP_NORM     .MV                                                 :SP Normalized
VSH_SP      .V/V                                                :Volume of Shale from SP
~A        DEPTH         AAM_16          AM_16          AM_64        AO_18_8             SP        SP_NORM         VSH_SP
       313.0000          1.975         0.0619         2.3036         0.1875       -37.6991      -3.032433              1
       313.5000          1.975         0.6372            2.5         0.1875       -38.2301      -2.343304              1
       314.0000          1.975         1.2124         2.6518         0.1875       -38.7611      -1.654182              1
       314.5000          1.975         1.7876         2.7946         0.1875        -39.292     -0.9649544              1
       315.0000          1.975         2.3661         2.9464         0.1964        -39.823     -0.2758293              1
       315.5000          1.975         2.9464         3.0885         0.1964       -42.6786      -1.911304              1
       316.0000          1.975         3.5929         3.2389         0.1964       -43.2143      -1.226875              1
       316.5000          1.975         3.7257         3.3805         0.1964       -44.4643      -1.256752              1
       317.0000          1.975         3.8673          3.531         0.1964          -47.5      -3.072327              1
       317.5000          1.975              4         3.6814         0.2054       -49.6429      -3.995098              1
       318.0000          1.975         4.1681          3.823         0.2054       -51.0714      -4.203476              1
       318.5000          1.975         4.1858         3.9735         0.2054       -52.1429      -4.054848              1
       319.0000          1.975         4.1858          4.115         0.2054       -53.2143       -3.90612              1
       319.5000          1.975         4.1858         4.2655         0.2054       -54.2857      -3.757401              1
       320.0000          1.975         4.1681         4.4071         0.2054       -55.1786      -3.430172              1
       320.5000          1.975         4.1239         4.5575         0.2054       -56.0671      -3.098545              1
       321.0000          1.975         4.0796         4.6991         0.2054       -56.5954      -2.406723              1
       321.5000          1.975         4.0354         4.7965         0.2143       -57.1232      -1.714394              1
       322.0000          1.975         4.0088         4.8938         0.2143       -57.4722     -0.8432655              1
       322.5000          1.975         4.0088         5.0267         0.2143       -57.6427       0.206356              1
       323.0000          1.975         4.0088          5.098         0.2143        -57.813      0.8536682              1
       323.5000          1.975         4.1062         5.2315         0.2143       -57.9831       0.683567              1
       324.0000          1.975         4.2301         5.3737         0.2143       -57.9751      0.6915665              1
       324.5000          1.975          4.354          5.507         0.2143       -58.1451      0.5215683              1
       325.0000          1.975          4.469         5.6401         0.2232       -58.3148      0.3518677              1
       325.5000          1.975         4.5929          5.782         0.2232       -58.4845      0.1821671              1
       326.0000          1.975         4.7876         5.9149         0.2232        -58.654     0.01266861              1
       326.5000          1.975         4.7965         5.9856         0.2232       -58.8233     -0.1566315              1
       327.0000          1.975         4.8938         6.0029         0.2232       -58.8149     -0.1482315              1
       327.5000          1.975         4.9912          6.047         0.2232       -58.8066     -0.1399307              1
       328.0000          1.975         5.0443         6.0733         0.2232       -58.7982     -0.1315308              1
       328.5000          1.975         5.1418         6.0996         0.2321       -58.9672     -0.3005333              1
       329.0000          1.975         5.2392         6.1171         0.2321       -58.9588     -0.2921333              1
       329.5000         1.9768         5.3365         6.1167         0.2321       -59.1276     -0.4609337              1
       330.0000         1.9768         5.3364         6.1163         0.2321       -59.1191     -0.4524307              1
       330.5000         1.9768         5.3363          6.116         0.2411        -59.115     -0.4483337              1
       331.0000         1.9768         5.3363         6.0625         0.3036        -59.292     -0.6253319              1
       331.5000         1.9768          5.292         5.8496         0.3214        -59.292     -0.6253319              1
       332.0000         1.9768         5.1858         5.5487         0.4107        -59.292     -0.6253319              1
       332.5000         1.9768         5.0885         5.2478         0.5179        -59.469     -0.8023338              1
       333.0000         1.9768         4.9381         5.2478         0.5893        -59.469     -0.8023338              1
       333.5000         1.9768         4.8407         5.2478         1.9554        -59.469     -0.8023338              1
       334.0000         1.9768         4.7345         5.2478         3.3274        -59.646      -0.979332              1
       334.5000         1.9768         4.6372         5.2301         3.8053        -59.646      -0.979332              1
       335.0000         1.9768         4.5398         5.2478         4.2946        -59.823      -1.156334              1
       335.5000         1.9768         4.4336         5.2655         4.7768        -59.823      -1.156334              1
       336.0000         1.9768         4.3363         5.2832         5.0179        -59.823      -1.156334              1
       336.5000         1.9768         4.2389         5.3097         5.5089            -60      -1.333332              1
       337.0000         1.9768         4.1327         5.3451              6            -60      -1.333332              1
       337.5000         1.9768         4.0531         5.3894         6.0357            -60      -1.333332              1
       338.0000         1.9768         4.0354         5.4248         6.0446            -60      -1.333332              1
       338.5000         1.9768         4.0354          5.469         6.0625            -60      -1.333332              1
       339.0000         1.9768         4.0354         5.5044         6.1696            -60      -1.333332              1
       339.5000         1.9768         4.0088         5.5487         6.3125            -60      -1.333332              1
       340.0000         1.9768         4.0973         5.5841         6.4732            -60      -1.333332              1
       340.5000         1.9768         4.2741         5.6283         6.6518            -60      -1.333332              1
       341.0000         1.9768         4.4509         5.6637         6.8304            -60      -1.333332              1
       341.5000         1.9768         4.6279         5.6903         7.0089            -60      -1.333332              1
       342.0000         1.9768         4.7429         5.6903         7.0089       -60.1786      -1.511932              1
       342.5000         1.9768         4.7428          5.646         7.0089       -60.5357      -1.869034              1
       343.0000         1.9768         4.7604         5.5929              7       -60.5357      -1.869034              1
       343.5000         1.9768          4.787         5.5398              7        -59.646      -0.979332              1
       344.0000         1.9768         4.7069         5.4956         6.9554        -59.646      -0.979332              1
       344.5000         1.9768         4.6268         5.4425         6.9286        -59.823      -1.156334              1
       345.0000         1.9768         4.5467         5.3894         6.8393            -60      -1.333332              1
       345.5000         1.9768         4.4665         5.3451         6.7321            -60      -1.333332              1
       346.0000         1.9768         4.3773          5.292         6.6339            -60      -1.333332              1
