#------------------------------------------------------------------------------
# Created by    : vladimir.rabinovich
# Created on    : 09/19/2023 17:19:43
#------------------------------------------------------------------------------
~Version Information Section
VERS.           2.0     :   CWLS log ASCII Standard - VERSION 2.0
WRAP.           NO      :   One line per depth step
~Well Information Section
#MNEM       .UNIT                                         VALUE :DESCRIPTION
#------------------------------------------------------------------------------
STRT        .FT                                              86 :START DEPTH
STOP        .FT                                           17232 :STOP DEPTH
STEP        .FT                                             0.5 :STEP      
NULL        .                                           -999.25 :NULL      
COMP        .                                        EXXON CORP :COMPANY   
WELL        .                               OYSTR LKE TMPRRY GU :WELL      
FLD         .                                           WILDCAT :FIELD     
LOC         .                                                   :LOCATION  
CNTY        .                                         MATAGORDA :LOCATION  
STAT        .                                             TEXAS :STATE     
CTRY        .                                     UNITED STATES :COUNTRY   
SRVC        .                                                   :SERVICE COMPANY
DATE        .                             9/13/2023 11:19:17 AM :LOG DATE  
API         .                                    42321309610000 :API NUMBER
UWI         .                                    42321309610000 :UNIQUE WELL ID
XCOORD      .                                  606681.955270441 :SURFACE X 
YCOORD      .                                  10380406.3085524 :SURFACE Y 
LAT         .                                         28.565886 :LATITUDE  
LON         .                                       -96.2205825 :LONGITUDE 
ELEV        .FT                                              25 :ELEVATION VALUE
ELEV_TYPE   .                                                KB :ELEVATION REFERENCE TYPE
~Curve Information Section
#MNEM       .UNIT                                      API CODE :CURVE DESCRIPTION
#------------------------------------------------------------------------------
DEPT        .FT                                                 :DEPTH     
ASFL        .OHMM                                               :          
CILD        .MMHO                                               :          
ILD         .OHMM                                               :          
SP          .MV                                                 :          
SP_NORM     .MV                                                 :SP Normalized
VSH_SP      .V/V                                                :Volume of Shale from SP
~A        DEPTH           ASFL           CILD            ILD             SP        SP_NORM         VSH_SP
# ...
     10346.0000         0.4994       2673.988        -999.25          2.941      -1.136191      0.9980262
     10346.5000         0.4966       2693.949        -999.25         3.0209      -1.053855      0.9992195
     10347.0000         0.4943       2710.652        -999.25         3.1306     -0.9417186              1
     10347.5000         0.4922       2723.199        -999.25         3.1725     -0.8973825              1
     10348.0000         0.4906       2702.262        -999.25         3.0572      -1.010246      0.9998515
     10348.5000         0.4909       2676.043        -999.25          2.942       -1.12301      0.9982172
     10349.0000         0.4967       2636.324        -999.25         2.8245      -1.238073      0.9965497
     10349.5000         0.5025       2606.484        -999.25         2.7015      -1.358637      0.9948024
     10350.0000         0.5068       2584.988        -999.25         2.5787      -1.479001       0.993058
     10350.5000         0.5112       2565.863        -999.25         2.4557      -1.599565      0.9913107
     10351.0000         0.5136       2554.711        -999.25          2.364      -1.688829       0.990017
     10351.5000          0.515           2554        -999.25          2.306      -1.744392      0.9892117
     10352.0000         0.5125       2568.137        -999.25          2.248      -1.799956      0.9884064
     10352.5000         0.5089       2591.125        -999.25         2.2372       -1.80832      0.9882852
     10353.0000         0.5054        2623.41        -999.25         2.2376      -1.805484      0.9883263
     10353.5000         0.5013        2672.23        -999.25          2.242      -1.798647      0.9884254
     10354.0000         0.4963       2717.281        -999.25         2.2505      -1.787711      0.9885839
     10354.5000         0.4915        2740.27        -999.25          2.259      -1.776775      0.9887424
     10355.0000         0.4893       2760.816        -999.25         2.2675      -1.765839      0.9889009
     10355.5000         0.4872       2779.746        -999.25         2.2761      -1.754802      0.9890608
     10356.0000         0.4884       2791.582        -999.25         2.2959      -1.732566      0.9893831
     10356.5000         0.4896       2803.445        -999.25         2.3206       -1.70543      0.9897764
     10357.0000         0.4908       2768.055        -999.25         2.3453      -1.678294      0.9901696
     10357.5000         0.4919       2767.797        -999.25           2.37      -1.651157      0.9905629
     10358.0000         0.4927       2758.293        -999.25         2.3947      -1.624021      0.9909562
     10358.5000         0.4933        2748.77        -999.25         2.4443      -1.571985      0.9917104
     10359.0000         0.4939       2728.121        -999.25          2.497      -1.516849      0.9925094
     10359.5000         0.4945       2723.293        -999.25         2.5498      -1.461613        0.99331
     10360.0000          0.495       2718.469        -999.25         2.6024      -1.406576      0.9941076
     10360.5000         0.4953       2714.219        -999.25         2.6552       -1.35134      0.9949081
     10361.0000         0.4954       2710.309        -999.25         2.6999      -1.304204      0.9955912
     10361.5000         0.4955       2707.004        -999.25         2.7407      -1.260967      0.9962178
     10362.0000         0.4955       2705.234        -999.25         2.7815      -1.217731      0.9968445
     10362.5000         0.4952       2703.469        -999.25         2.8224      -1.174395      0.9974725
     10363.0000          0.495       2709.313        -999.25         2.8697      -1.124659      0.9981933
     10363.5000         0.4923       2723.008        -999.25         2.9186      -1.073323      0.9989374
     10364.0000          0.487       2743.242        -999.25         2.9675      -1.021986      0.9996814
     10364.5000         0.4811       2774.047        -999.25         3.0164       -0.97065              1
     10365.0000         0.4751        2849.23        -999.25         3.0651     -0.9195139              1
     10365.5000         0.4702       2935.152        -999.25         3.0583     -0.9238775              1
     10366.0000         0.4658       2965.078        -999.25         3.0514     -0.9283414              1
     10366.5000         0.4628       2977.406        -999.25         3.0445     -0.9328051              1
     10367.0000         0.4602       2984.484        -999.25         3.0377     -0.9371691              1
     10367.5000         0.4692       2989.004        -999.25         3.0308     -0.9416325              1
     10368.0000         0.4716       2987.035        -999.25         3.0285     -0.9414964              1
     10368.5000          0.474        2977.77        -999.25         3.0289     -0.9386604              1
     10369.0000         0.4766       2966.836        -999.25         3.0293     -0.9358239              1
     10369.5000         0.4792       2951.969        -999.25         3.0297     -0.9329877              1
     10370.0000         0.4815       2936.641        -999.25         3.0301     -0.9301515              1
     10370.5000          0.483       2916.992        -999.25         3.0255     -0.9323151              1
     10371.0000         0.4845        2897.34        -999.25         3.0065      -0.948879              1
     10371.5000          0.486       2847.863        -999.25         2.9876     -0.9653428              1
     10372.0000         0.4878       2810.758        -999.25         2.9686     -0.9819064              1
     10372.5000         0.4965       2761.453        -999.25         2.9541     -0.9939704              1
     10373.0000          0.507        2723.18        -999.25         2.9545     -0.9911342              1
     10373.5000         0.5178       2657.664        -999.25         2.9549     -0.9882977              1
     10374.0000         0.5288       2559.047        -999.25         2.9553     -0.9854615              1
     10374.5000         0.5383       2477.813        -999.25         2.9557     -0.9826255              1
     10375.0000         0.5461        2427.48        -999.25         2.9282      -1.007689      0.9998885
     10375.5000         0.5501       2390.523        -999.25         2.8947      -1.038753      0.9994383
     10376.0000         0.5533        2355.57        -999.25         2.8611      -1.069917      0.9989867
     10376.5000         0.5573       2335.258        -999.25         2.7919       -1.13668      0.9980191
     10377.0000         0.5616       2312.852        -999.25         2.6638      -1.262344      0.9961979
     10377.5000         0.5691        2282.34        -999.25         2.5356      -1.388108      0.9943752
     10378.0000         0.5808       2218.484        -999.25         2.3959      -1.525372      0.9923859
     10378.5000         0.5896       2160.488        -999.25         2.2339      -1.684935      0.9900734
     10379.0000         0.5962       2139.152        -999.25         2.0723      -1.844099      0.9877667
     10379.5000         0.6014       2112.645        -999.25         2.0005      -1.913463      0.9867614
     10380.0000         0.6065        2077.98        -999.25         1.9669      -1.944627      0.9863098
     10380.5000         0.6114       2063.191        -999.25         1.9551       -1.95399       0.986174
     10381.0000         0.6112       2052.352        -999.25         1.9748      -1.931854      0.9864948
     10381.5000         0.6091       2041.174        -999.25         1.9945      -1.909718      0.9868157
     10382.0000         0.6058       2041.729        -999.25         2.0142      -1.887582      0.9871365
     10382.5000          0.601       2050.887        -999.25         2.0571      -1.842245      0.9877936
     10383.0000         0.5961       2075.344        -999.25         2.1394      -1.757509      0.9890216
     10383.5000          0.591       2103.172        -999.25         2.2218      -1.672673      0.9902511
