#------------------------------------------------------------------------------
# Created by    : vladimir.rabinovich
# Created on    : 09/19/2023 17:21:29
#------------------------------------------------------------------------------
~Version Information Section
VERS.           2.0     :   CWLS log ASCII Standard - VERSION 2.0
WRAP.           NO      :   One line per depth step
~Well Information Section
#MNEM       .UNIT                                         VALUE :DESCRIPTION
#------------------------------------------------------------------------------
STRT        .FT                                            1500 :START DEPTH
STOP        .FT                                            6885 :STOP DEPTH
STEP        .FT                                             0.5 :STEP      
NULL        .                                           -999.25 :NULL      
COMP        .                        HILLHOUSE OPERATING CO LLC :COMPANY   
WELL        .                                  LEWIS J C FAMILY :WELL      
FLD         .                                    LIVE OAK BAYOU :FIELD     
LOC         .                                                   :LOCATION  
CNTY        .                                         MATAGORDA :LOCATION  
STAT        .                                             TEXAS :STATE     
CTRY        .                                     UNITED STATES :COUNTRY   
SRVC        .                                                   :SERVICE COMPANY
DATE        .                             9/13/2023 11:19:17 AM :LOG DATE  
API         .                                    42321308450000 :API NUMBER
UWI         .                                    42321308450000 :UNIQUE WELL ID
XCOORD      .                                  757138.788685477 :SURFACE X 
YCOORD      .                                  10457801.5308193 :SURFACE Y 
LAT         .                                        28.7888954 :LATITUDE  
LON         .                                       -95.7578897 :LONGITUDE 
ELEV        .FT                                              17 :ELEVATION VALUE
ELEV_TYPE   .                                                KB :ELEVATION REFERENCE TYPE
~Curve Information Section
#MNEM       .UNIT                                      API CODE :CURVE DESCRIPTION
#------------------------------------------------------------------------------
DEPT        .FT                                                 :DEPTH     
CALI        .IN                                                 :          
DCOR        .G/C3                                               :          
DPOR        .%                                                  :          
DT          .US/F                                               :          
GR          .GAPI                                               :          
GR_NORM     .GAPI                                               :GammaRay Normalized
ILD         .OHMM                                               :          
ILM         .OHMM                                               :          
LL8         .OHMM                                               :          
NPOR        .%                                                  :          
RHOB        .G/C3                                               :          
SP          .MV                                                 :          
SP_NORM     .MV                                                 :SP Normalized
VSH_GR      .V/V                                                :Volume of Shale from GR
VSH_SP      .V/V                                                :Volume of Shale from SP
~A        DEPTH           CALI           DCOR           DPOR             DT             GR        GR_NORM            ILD            ILM            LL8           NPOR           RHOB             SP        SP_NORM         VSH_GR         VSH_SP
# ...
      5801.0000         6.8026         0.0162        22.0509       107.9315        73.2007       87.16638         0.6043         0.6806         0.9675        36.7813          2.284       -65.5675      -18.92951              1      0.6617073
      5801.5000         6.8229         0.0103        23.6638       108.0797        69.2971       78.06835         0.6099         0.6964         1.0036        37.0794         2.2637       -67.3435      -20.70782      0.9589011      0.6281543
      5802.0000         6.8429         0.0004        25.1572       108.0296        66.9262       72.54217         0.6044         0.6964         1.1303        36.6604         2.2389       -69.1195      -22.48614      0.8413227      0.5946011
      5802.5000          6.843         -0.001        25.6945       107.7812        66.7313       72.08704         0.5801         0.6715         1.1996        35.9425         2.2251       -70.6978      -24.06675      0.8316391      0.5647782
      5803.0000         6.8237          0.001        25.9928       108.5739        67.5255        73.9369         0.5442         0.6357         1.1833         35.404         2.2201       -71.8808      -25.25206       0.870998      0.5424139
      5803.5000         6.8438         0.0138        26.1118       110.0111        68.5175       76.24772         0.4945         0.5937         1.0085         35.254         2.2176       -74.4472      -27.82077      0.9201642      0.4939477
      5804.0000          6.844         0.0248        26.6193       111.4481        69.1139       77.63666         0.4412         0.5369         0.8998        35.9404         2.2087       -77.4492      -30.82509      0.9497162      0.4372624
      5804.5000         6.9235         0.0317        27.7838       113.4801        69.1169       77.64262         0.4177         0.4812         0.8755        37.2842         2.1929       -81.7923       -35.1705       0.949843      0.3552736
      5805.0000         6.9633         0.0292        28.6197       114.1242        68.5263       76.26532         0.3918         0.4661         0.8836        38.9563         2.1766       -84.3593      -37.73981      0.9205387       0.306796
      5805.5000         6.9618         0.0198        29.0972        113.975        67.3927       73.62257         0.3727         0.4494         0.9041        40.3893         2.1687       -83.1709      -36.55372      0.8643101      0.3291751
      5806.0000          6.962         0.0104        29.0368       112.4373        65.2189       68.55575          0.348         0.4353         0.9209        39.9405         2.1677       -81.9825      -35.36763      0.7565053      0.3515541
      5806.5000         6.9623        -0.0004        28.7375       112.4866        63.5398       64.64174         0.3577         0.4334         0.9684         37.998         2.1726       -79.9637      -33.35115      0.6732285       0.389601
      5807.0000         6.9626        -0.0009        27.7811        112.486         63.246        63.9561         0.3677         0.4354         0.9729        37.2206         2.1875       -76.6018      -29.99156      0.6586404      0.4529895
      5807.5000          6.953         0.0011        26.3467       111.8905        66.1676       70.76376         0.3956         0.4455         0.8523        38.5344         2.2118       -71.0663      -24.45837      0.8034843      0.5573893
      5808.0000         6.9236          0.009         24.733       111.9891        69.3357       78.14584         0.4315         0.4771         0.7067        41.8487         2.2341       -63.1985      -16.59289      0.9605497      0.7057946
      5808.5000         6.8864         0.0224        24.3145       115.2901        69.5365       78.61281         0.4772         0.5134         0.7036        42.2068          2.246       -59.9955       -13.3922      0.9704853       0.766185
      5809.0000         6.8667         0.0298        24.9113       118.9282        67.9568       74.93047          0.486         0.5325         0.7433        42.5942         2.2425       -58.0565      -11.45551      0.8921377      0.8027263
      5809.5000         6.8494         0.0368        25.8069       122.1995        67.1684       73.09222         0.4928         0.5424         0.7502        42.7128         2.2257       -58.8448      -12.24612       0.853026      0.7878091
      5810.0000         6.8675         0.0338        27.4193       124.3804        65.1931       68.48792         0.4928         0.5424         0.7641        43.6976         2.2079       -61.9637      -15.36733       0.755062      0.7289183
      5810.5000         6.8479         0.0294        28.6732       124.7763        62.6243       62.50056         0.4581         0.5206         0.7267        43.9954         2.1802       -70.0623      -23.46825      0.6276716      0.5760708
      5811.0000         6.8326          0.019        31.2412       123.1398         57.286       50.05905         0.4239         0.4818         0.7071        43.3076         2.1485       -78.5558      -31.96406      0.3629586      0.4157725
      5811.5000         6.8288         0.0002        33.6897       120.1154        52.5412       39.00065         0.3613         0.4377         0.7302        42.2614         2.0985       -87.0491      -40.45967      0.1276734      0.2554779
      5812.0000          6.829        -0.0062        34.7941       117.2691        50.1702       33.47425         0.3253         0.3887         0.7105        39.5426         2.0727       -93.8029      -47.21578     0.01009044      0.1280041
      5812.5000         6.8101        -0.0097        34.3454       112.9258        50.1731       33.48005         0.2969         0.3532         0.6945        37.3617         2.0797       -97.9501       -51.3653     0.01021389     0.04971141
      5813.0000         6.8099         0.0007        33.2099        111.914        51.3139       36.13766         0.2673         0.3314         0.7472        37.1221         2.0985       -99.4878       -52.9053     0.06675874     0.02065464
      5813.5000         6.8101         0.0067        32.4925       111.6512        51.3165       36.14275         0.2331         0.3094         0.8301        37.3288         2.1114      -100.0776      -53.49741     0.06686702    0.009482762
      5814.0000         6.8105         0.0092        32.2231       111.5164        48.4524       29.46721         0.2128         0.2824          0.885        37.4491         2.1178      -100.6674      -54.08953              0              0
      5814.5000         6.8108         0.0077        32.4912       110.4253         48.355       29.23925         0.2014         0.2531         0.8041        36.8511         2.1124       -100.862      -54.28644              0              0
      5815.0000          6.811         0.0013         32.789       111.1275        50.7818       34.89378         0.1996         0.2342         0.7373        36.6414          2.108      -100.8591      -54.28585     0.04029319              0
      5815.5000         6.8114         0.0018        32.9079       112.3772        54.7412       44.11994         0.1997         0.2198         0.6792        37.0288          2.108      -100.8562      -54.28527      0.2365945              0
      5816.0000         6.7919         0.0077        32.0114       111.6829        56.9202       49.19696         0.2024         0.2138         0.6459         37.267         2.1149      -100.8532      -54.28458      0.3446161              0
      5816.5000         6.7921         0.0162        31.6524       110.7403        57.9122       51.50779         0.1997         0.2148         0.6032        36.9676         2.1248      -100.8503      -54.28399      0.3937828              0
      5817.0000         6.7925         0.0207         31.443       110.9878        59.2999       54.74075         0.1997         0.2208         0.5456        36.0711         2.1283      -100.6495       -54.0855      0.4625691              0
      5817.5000         6.7928         0.0187         31.502        111.235        61.4789       59.81783         0.2025         0.2291         0.4504        35.9814         2.1283       -99.4612      -52.89951       0.570592     0.02076397
