#------------------------------------------------------------------------------
# Created by    : vladimir.rabinovich
# Created on    : 09/19/2023 17:19:21
#------------------------------------------------------------------------------
~Version Information Section
VERS.           2.0     :   CWLS log ASCII Standard - VERSION 2.0
WRAP.           NO      :   One line per depth step
~Well Information Section
#MNEM       .UNIT                                         VALUE :DESCRIPTION
#------------------------------------------------------------------------------
STRT        .FT                                             313 :START DEPTH
STOP        .FT                                           17011 :STOP DEPTH
STEP        .FT                                             0.5 :STEP      
NULL        .                                           -999.25 :NULL      
COMP        .                             MAGNOLIA PETROLEUM CO :COMPANY   
WELL        .                                      LETULLE UNIT :WELL      
FLD         .                                           WILDCAT :FIELD     
LOC         .                                                   :LOCATION  
CNTY        .                                         MATAGORDA :LOCATION  
STAT        .                                             TEXAS :STATE     
CTRY        .                                     UNITED STATES :COUNTRY   
SRVC        .                                                   :SERVICE COMPANY
DATE        .                             9/13/2023 11:18:46 AM :LOG DATE  
API         .                                    42321010770000 :API NUMBER
UWI         .                                    42321010770000 :UNIQUE WELL ID
XCOORD      .                                  733053.658917313 :SURFACE X 
YCOORD      .                                  10456928.2420536 :SURFACE Y 
LAT         .                                        28.7849393 :LATITUDE  
LON         .                                       -95.8329519 :LONGITUDE 
ELEV        .FT                                              38 :ELEVATION VALUE
ELEV_TYPE   .                                                KB :ELEVATION REFERENCE TYPE
~Curve Information Section
#MNEM       .UNIT                                      API CODE :CURVE DESCRIPTION
#------------------------------------------------------------------------------
DEPT        .FT                                                 :DEPTH     
AAM_16      .OHMM                                               :          
AM_16       .OHMM                                               :          
AM_64       .OHMM                                               :          
AO_18_8     .OHMM                                               :          
SP          .MV                                                 :          
SP_NORM     .MV                                                 :SP Normalized
VSH_SP      .V/V                                                :Volume of Shale from SP
~A        DEPTH         AAM_16          AM_16          AM_64        AO_18_8             SP        SP_NORM         VSH_SP
# ...
      3629.5000         0.6071         0.4937         0.2977         0.2321       -140.254      -57.35126     0.04489382
      3630.0000         0.6179         0.4869         0.2457         0.1964      -139.7678      -56.86189     0.05318839
      3630.5000         0.6411         0.4731         0.2008         0.1696      -139.5968       -56.6877     0.05614071
      3631.0000         0.6589         0.4694         0.1735         0.1786      -139.7684      -56.85611     0.05328628
      3631.5000         0.6679         0.4594         0.1735         0.1875      -139.7359      -56.82043     0.05389107
      3632.0000         0.6643         0.4733         0.1735         0.1875      -139.3905      -56.47184     0.05979932
      3632.5000         0.6571         0.5327         0.1736         0.1875      -138.7035      -55.78165     0.07149738
      3633.0000         0.6464         0.6332         0.1736         0.1964      -137.8331      -54.90807     0.08630397
      3633.5000          0.675         0.7281         0.1736         0.2143      -137.2479      -54.31967     0.09627675
      3634.0000         0.9679         0.8203         0.1736         0.2321      -136.9025      -53.97109      0.1021849
      3634.5000         1.1153         0.8948          0.188         0.2768      -136.5571      -53.62251      0.1080931
      3635.0000         1.4089         0.9911         0.2152         0.3304      -136.1745      -53.23672      0.1146318
      3635.5000         1.5571         1.1132         0.2297         0.3839      -135.5898      -52.64883       0.124596
      3636.0000         1.5571         1.2367         0.2606         0.4554      -135.6884      -52.74425      0.1229789
      3636.5000         1.5571         1.2963         0.2852         0.4911       -136.868      -53.92066      0.1030396
      3637.0000         1.5071         1.3339         0.3262         0.4732      -138.0476      -55.09708     0.08310027
      3637.5000         1.4036         1.3339         0.3407         0.4196      -139.2272       -56.2735     0.06316105
      3638.0000         1.2482         1.3201         0.3754         0.3661      -140.4068      -57.44991     0.04322194
      3638.5000         1.1946         1.2855         0.4028         0.3125      -141.5864      -58.62631     0.02328284
      3639.0000         1.2661         1.2105         0.4371         0.3125       -142.766      -59.80274    0.003343356
      3639.5000         1.3429         1.1323         0.4514         0.3125      -142.5245      -59.55805    0.007490643
      3640.0000         1.3304         1.0846         0.4687         0.3125      -140.8799      -57.91026     0.03541927
      3640.5000         1.3089         1.0687         0.4787         0.4018       -139.497      -56.52417     0.05891237
      3641.0000         1.2875          1.057         0.4787         0.5268      -139.5965      -56.62048     0.05727994
      3641.5000         1.2661         1.0663         0.4492         0.5893      -140.4473       -57.4681     0.04291353
      3642.0000         1.2446         1.0849         0.3642         0.5357      -141.7109      -58.72852     0.02155045
      3642.5000         1.2232         1.0988         0.2256         0.4732      -142.5707      -59.58513    0.007031715
      3643.0000         1.2232         1.1049         0.1326         0.2768      -142.9167      -59.92795     0.00122122
      3643.5000         1.2232         1.1128         0.1049         0.2589      -143.0948      -60.10286              0
      3644.0000         1.2232         1.1129          0.101         0.2589      -142.8185      -59.82337    0.002993697
      3644.5000         1.2393         1.1492         0.0986         0.2589      -142.5421      -59.54379    0.007732456
      3645.0000         1.3625         1.2144         0.1189         0.2589      -142.4441      -59.44261     0.00944726
      3645.5000         1.6107         1.3414         0.1621         0.4464      -141.9315      -58.92682     0.01818951
      3646.0000         1.7339         1.5292         0.2101         0.5268      -140.8832      -57.87532     0.03601152
      3646.5000         1.8589         1.6402         0.2523         0.6161      -140.2729      -57.26185     0.04640935
      3647.0000         1.8589         1.6132          0.299         0.7232      -139.6797      -56.66546     0.05651765
      3647.5000         1.8589         1.5332         0.3274         0.8125      -139.3343      -56.31688     0.06242577
      3648.0000         1.6554         1.4461         0.3488         0.9018      -139.2245      -56.20389     0.06434088
      3648.5000         1.5196         1.3134         0.3683         0.9911      -139.3369       -56.3131     0.06248979
      3649.0000         1.3821         1.1749         0.3684         0.9911      -140.8177      -57.79072     0.03744546
      3649.5000         1.1784         1.0859         0.3677         0.9911      -142.2134      -59.18322     0.01384373
      3650.0000         1.0396         1.0289         0.3504         0.6518      -143.6517      -60.61835              0
      3650.5000         0.9946         0.9632         0.3408         0.4911      -144.5918      -61.55525              0
      3651.0000         0.9643         0.9185         0.3269         0.3929      -145.8782      -62.83848              0
      3651.5000         0.9339         0.8919         0.3116         0.2946      -146.4187      -63.37579              0
      3652.0000         0.9036          0.892         0.2812         0.2321      -146.4191      -63.37299              0
      3652.5000         0.9036         0.8921         0.2716         0.2143      -146.3923      -63.34302              0
      3653.0000         0.9036         0.8921         0.2578         0.2054      -146.1429      -63.09042              0
      3653.5000         0.9375         0.8922          0.257         0.1964      -145.9783      -62.92265              0
      3654.0000         0.9946         0.9084         0.2397         0.2054      -145.5903      -62.53146              0
      3654.5000         1.0523          0.948         0.2302         0.2143      -145.5905      -62.52847              0
      3655.0000         1.0829         0.9921         0.2164         0.2411      -145.6863      -62.62108              0
      3655.5000         1.0829         1.0312         0.2164         0.2589      -145.8677       -62.7993              0
      3656.0000         1.0793         1.0604         0.2164         0.2679      -146.1446      -63.07302              0
      3656.5000         1.0541         1.0729         0.2164         0.2589      -146.4473      -63.37252              0
      3657.0000          1.027         1.0643         0.2303           0.25      -146.7933      -63.71534              0
      3657.5000          1.027         1.0453         0.2312         0.2411      -146.9753      -63.89415              0
      3658.0000         1.0324         1.0259         0.2486         0.2411       -146.699      -63.61467              0
      3658.5000         1.0378         0.9791         0.2581           0.25      -146.3973      -63.30978              0
      3659.0000         1.0793         0.9174          0.272         0.2589      -145.9579       -62.8672              0
      3659.5000         1.1622         0.8375          0.272         0.2679      -145.2667      -62.17281              0
      3660.0000          1.164         0.8009         0.2765         0.2679      -144.4871      -61.39003              0
      3660.5000         1.0811         0.7255         0.2859         0.2679      -143.7852      -60.68494              0
      3661.0000              1         0.6571         0.2859         0.2679      -141.4301      -58.32665     0.02836182
      3661.5000         0.8786          0.602          0.287         0.2589      -139.4595      -56.35287     0.06181581
      3662.0000         0.7964         0.5691         0.3043         0.2411      -139.1679      -56.05807     0.06681229
      3662.5000         0.7161         0.5343         0.3137         0.2232      -139.0722       -55.9592     0.06848817
