#------------------------------------------------------------------------------
# Created by    : vladimir.rabinovich
# Created on    : 09/19/2023 17:19:43
#------------------------------------------------------------------------------
~Version Information Section
VERS.           2.0     :   CWLS log ASCII Standard - VERSION 2.0
WRAP.           NO      :   One line per depth step
~Well Information Section
#MNEM       .UNIT                                         VALUE :DESCRIPTION
#------------------------------------------------------------------------------
STRT        .FT                                              86 :START DEPTH
STOP        .FT                                           17232 :STOP DEPTH
STEP        .FT                                             0.5 :STEP      
NULL        .                                           -999.25 :NULL      
COMP        .                                        EXXON CORP :COMPANY   
WELL        .                               OYSTR LKE TMPRRY GU :WELL      
FLD         .                                           WILDCAT :FIELD     
LOC         .                                                   :LOCATION  
CNTY        .                                         MATAGORDA :LOCATION  
STAT        .                                             TEXAS :STATE     
CTRY        .                                     UNITED STATES :COUNTRY   
SRVC        .                                                   :SERVICE COMPANY
DATE        .                             9/13/2023 11:19:17 AM :LOG DATE  
API         .                                    42321309610000 :API NUMBER
UWI         .                                    42321309610000 :UNIQUE WELL ID
XCOORD      .                                  606681.955270441 :SURFACE X 
YCOORD      .                                  10380406.3085524 :SURFACE Y 
LAT         .                                         28.565886 :LATITUDE  
LON         .                                       -96.2205825 :LONGITUDE 
ELEV        .FT                                              25 :ELEVATION VALUE
ELEV_TYPE   .                                                KB :ELEVATION REFERENCE TYPE
~Curve Information Section
#MNEM       .UNIT                                      API CODE :CURVE DESCRIPTION
#------------------------------------------------------------------------------
DEPT        .FT                                                 :DEPTH     
ASFL        .OHMM                                               :          
CILD        .MMHO                                               :          
ILD         .OHMM                                               :          
SP          .MV                                                 :          
SP_NORM     .MV                                                 :SP Normalized
VSH_SP      .V/V                                                :Volume of Shale from SP
~A        DEPTH           ASFL           CILD            ILD             SP        SP_NORM         VSH_SP
# ...
      1226.0000         0.9994       853.4111        -999.25       -23.6933      -1.144291              1
      1226.5000              1       851.9951        -999.25       -23.6738      -1.119173              1
      1227.0000         0.9982        851.917        -999.25       -23.6542      -1.093958              1
      1227.5000         0.9948       854.9814        -999.25       -23.6504      -1.084543              1
      1228.0000         0.9913       859.1182        -999.25       -23.6478      -1.076326              1
      1228.5000         0.9874       863.2549        -999.25       -23.6451       -1.06801              1
      1229.0000         0.9832       867.3916        -999.25       -23.6425      -1.059795              1
      1229.5000          0.979        872.667        -999.25       -23.6156      -1.027279              1
      1230.0000         0.9748       880.6328        -999.25       -23.5651     -0.9711628              1
      1230.5000         0.9713       888.5986        -999.25       -23.5146     -0.9150486              1
      1231.0000         0.9678       895.6162        -999.25       -23.4594     -0.8542309              1
      1231.5000         0.9643       902.3525        -999.25       -23.3889     -0.7781162              1
      1232.0000         0.9641       907.0293        -999.25       -23.3299      -0.713501              1
      1232.5000         0.9654       905.5166        -999.25       -23.2821     -0.6600838              1
      1233.0000         0.9667       904.0039        -999.25       -23.2343     -0.6066685              1
      1233.5000         0.9723       902.4922        -999.25       -23.1858     -0.5525532              1
      1234.0000         0.9855       893.0039        -999.25       -23.1233      -0.484436              1
      1234.5000         0.9977       883.3643        -999.25       -23.0608     -0.4163208              1
      1235.0000         1.0048       875.0625        -999.25       -22.9983     -0.3482056              1
      1235.5000         1.0109       867.3486        -999.25       -22.9579      -0.302187              1
      1236.0000         1.0182       859.6367        -999.25        -22.924     -0.2626724              1
      1236.5000          1.023       852.9307        -999.25       -22.8858     -0.2188568              1
      1237.0000         1.0258       846.4336        -999.25       -22.8362     -0.1636429              1
      1237.5000         1.0286       840.1133        -999.25       -22.7867     -0.1085243              1
      1238.0000         1.0303         834.79        -999.25       -22.7734    -0.08960915              1
      1238.5000         1.0319       829.4678        -999.25       -22.7708     -0.0813942              1
      1239.0000         1.0334       825.7568        -999.25       -22.7681    -0.07307816              1
      1239.5000         1.0341       823.8721        -999.25       -22.7655     -0.0648613              1
      1240.0000         1.0348       821.9873        -999.25       -22.7659    -0.05964661              1
      1240.5000         1.0355       820.1191        -999.25       -22.7721    -0.06023026              1
      1241.0000         1.0356        820.041        -999.25       -22.7783     -0.0608139              1
      1241.5000         1.0352       819.9629        -999.25       -22.7845    -0.06139946              1
      1242.0000         1.0348       819.8848        -999.25       -22.7906    -0.06188202              1
      1242.5000         1.0344       818.5586        -999.25        -22.847     -0.1126671              1
      1243.0000         1.0344        814.917        -999.25       -22.9078     -0.1678524              1
      1243.5000         1.0344       811.2764        -999.25       -22.9685     -0.2229347              1
      1244.0000         1.0345       808.2383        -999.25       -23.0188     -0.2676201              1
      1244.5000         1.0345       806.7471        -999.25       -23.0682     -0.3194695              1
      1245.0000         1.0346       805.2559        -999.25        -23.121     -0.3863087              1
      1245.5000           1.04       803.7646        -999.25       -23.1865     -0.4658489              1
      1246.0000         1.0485       802.2734        -999.25       -23.3128     -0.6061878              1
      1246.5000         1.0662        799.501        -999.25       -23.4403     -0.7477283              1
      1247.0000         1.0793       796.5156        -999.25       -23.5897     -0.9111691              1
      1247.5000         1.0928       793.4473        -999.25       -23.8256      -1.161108              1
      1248.0000         1.1042       789.9756        -999.25       -24.0451      -1.394646              1
      1248.5000         1.1109       786.5039        -999.25       -24.1776      -1.541187              1
      1249.0000          1.115        783.625        -999.25       -24.3621      -1.739727              1
      1249.5000         1.1172       782.8789        -999.25       -24.7428      -2.134466      0.9865534
      1250.0000         1.1158       794.8203        -999.25        -25.185      -2.590706      0.9409294
      1250.5000         1.1115       805.2959        -999.25       -25.4519      -2.871645      0.9128355
      1251.0000         1.0905        814.709        -999.25       -25.6845      -3.118284      0.8881716
      1251.5000         1.0766       835.9248        -999.25       -25.9044      -3.352224      0.8647776
      1252.0000         1.0653       864.3125        -999.25       -26.7603      -4.222164      0.7777836
      1252.5000         1.0538       885.4883        -999.25       -26.9097      -4.385605      0.7614395
      1253.0000         1.0423       903.9697        -999.25       -27.0925      -4.582443      0.7417557
      1253.5000          1.033       920.8369        -999.25       -27.1717      -4.675682      0.7324318
      1254.0000         1.0233        935.998        -999.25        -27.198      -4.716022      0.7283977
      1254.5000         1.0115       952.3799        -999.25       -27.2244      -4.756462      0.7243538
      1255.0000         0.9827       971.1914        -999.25       -27.4205      -4.966602      0.7033398
      1255.5000         0.9622       987.7646        -999.25       -27.5133      -5.073441      0.6926559
      1256.0000         0.9458       1005.166        -999.25       -27.6061      -5.180281      0.6819719
      1256.5000         0.9339       1017.679        -999.25       -27.6989      -5.287121      0.6712879
      1257.0000         0.9326       1028.574        -999.25       -27.7316       -5.33386      0.6666139
      1257.5000         0.9313       1038.531        -999.25       -27.7446      -5.360901      0.6639099
      1258.0000           0.93       1048.486        -999.25       -27.7337      -5.364038      0.6635962
      1258.5000         0.9287       1055.861        -999.25       -27.6514      -5.295778      0.6704222
      1259.0000         0.9287       1060.828        -999.25       -27.5692      -5.227619      0.6772381
      1259.5000         0.9288       1068.701        -999.25       -27.4868      -5.159258      0.6840742
      1260.0000         0.9264       1076.738        -999.25       -27.4045      -5.090998      0.6909002
      1260.5000         0.9207       1087.354        -999.25       -27.5898      -5.290337      0.6709663
      1261.0000         0.9046        1222.82        -999.25       -28.0915      -5.806076      0.6193924
      1261.5000         0.8674       1269.482        -999.25       -28.5186      -6.247217      0.5752783
      1262.0000         0.7615       1369.945        -999.25       -28.8302      -6.572857      0.5427143
      1262.5000         0.7406       1480.957        -999.25       -29.0111      -6.767797      0.5232202
      1263.0000         0.7299        1535.84        -999.25       -29.1503      -6.921034      0.5078966
      1263.5000         0.7217       1569.609        -999.25       -29.3278      -7.112576      0.4887424
