#------------------------------------------------------------------------------
# Created by    : vladimir.rabinovich
# Created on    : 09/19/2023 17:22:47
#------------------------------------------------------------------------------
~Version Information Section
VERS.           2.0     :   CWLS log ASCII Standard - VERSION 2.0
WRAP.           NO      :   One line per depth step
~Well Information Section
#MNEM       .UNIT                                         VALUE :DESCRIPTION
#------------------------------------------------------------------------------
STRT        .FT                                            1029 :START DEPTH
STOP        .FT                                            4870 :STOP DEPTH
STEP        .FT                                             0.5 :STEP      
NULL        .                                           -999.25 :NULL      
COMP        .                              CHAPARRAL ENERGY LLC :COMPANY   
WELL        .                                         ST TR 171 :WELL      
FLD         .                               MATAGORDA BAY SOUTH :FIELD     
LOC         .                                                   :LOCATION  
CNTY        .                                         MATAGORDA :LOCATION  
STAT        .                                             TEXAS :STATE     
CTRY        .                                     UNITED STATES :COUNTRY   
SRVC        .                                                   :SERVICE COMPANY
DATE        .                             9/13/2023 11:19:17 AM :LOG DATE  
API         .                                    42321309080000 :API NUMBER
UWI         .                                    42321309080000 :UNIQUE WELL ID
XCOORD      .                                  571019.162580029 :SURFACE X 
YCOORD      .                                  10362433.1969336 :SURFACE Y 
LAT         .                                        28.5138372 :LATITUDE  
LON         .                                       -96.3299832 :LONGITUDE 
ELEV        .FT                                              19 :ELEVATION VALUE
ELEV_TYPE   .                                                KB :ELEVATION REFERENCE TYPE
~Curve Information Section
#MNEM       .UNIT                                      API CODE :CURVE DESCRIPTION
#------------------------------------------------------------------------------
DEPT        .FT                                                 :DEPTH     
DT          .US/FT                                              :          
GUARD       .OHMM                                               :          
IND         .OHMM                                               :          
SP          .MV                                                 :          
SP_NORM     .MV                                                 :SP Normalized
VSH_SP      .V/V                                                :Volume of Shale from SP
~A        DEPTH             DT          GUARD            IND             SP        SP_NORM         VSH_SP
# ...
      1789.0000        133.364         1.1761         0.5629       -57.6424      -18.12144              0
      1789.5000       134.0499         1.1226         0.5641       -57.6394      -18.11844              0
      1790.0000       134.3924         1.0922         0.5277       -58.2423      -18.72134              0
      1790.5000       133.9703         1.0463         0.5283       -58.2394      -18.71844              0
      1791.0000       132.6066         1.0234         0.4906       -58.2364      -18.71544              0
      1791.5000       131.1534         1.0159         0.4906       -58.2333      -18.71234              0
      1792.0000       129.7072         1.0084         0.4528       -58.2302      -18.70924              0
      1792.5000       128.4419         1.0086         0.4528       -58.2273      -18.70634              0
      1793.0000       127.6427         1.0164         0.4151       -58.2242      -18.70324              0
      1793.5000       128.2771         1.0242         0.4151        -58.656      -19.13504              0
      1794.0000        130.589         1.0091         0.3774       -58.8242      -19.30324              0
      1794.5000       133.9734         0.9407         0.3774       -58.2152      -18.69424              0
      1795.0000       136.6197         0.8952         0.3396       -58.2121      -18.69114              0
      1795.5000       137.2505         0.8727         0.3396       -58.2091      -18.68814              0
      1796.0000        136.082         0.8578         0.3396        -58.206      -18.68504              0
      1796.5000       132.8996         0.8429         0.3396       -58.0622      -18.54124              0
      1797.0000       130.7893         0.8508         0.3396       -57.5939      -18.07294              0
      1797.5000       128.6778         0.8587         0.3396       -57.5909      -18.06994              0
      1798.0000       128.3154         0.8741         0.3396       -57.5879      -18.06694              0
      1798.5000       130.4434          0.882         0.3019       -57.5849      -18.06394              0
      1799.0000       131.3654         0.8898         0.3019       -57.2818      -17.76084     0.01494741
      1799.5000       130.5428         0.8978         0.3396       -56.9727      -17.45174     0.03426623
      1800.0000       130.6288          0.883         0.3396       -56.9697      -17.44874     0.03445363
      1800.5000       131.3666         0.8679         0.3399        -56.803      -17.28204     0.04487228
      1801.0000       131.8669         0.8453         0.3402       -56.3515      -16.83054     0.07309103
      1801.5000       132.3896         0.8226         0.3405       -56.3445      -16.82354     0.07352853
      1802.0000       132.6841         0.8151         0.3408       -56.3029      -16.78194     0.07612872
      1802.5000       132.1361         0.8226         0.3412       -55.7273      -16.20634      0.1121037
      1803.0000       129.6028         0.8302         0.3415       -55.7212      -16.20024      0.1124849
      1803.5000        128.388         0.8528         0.3418       -55.7145      -16.19354      0.1129036
      1804.0000       129.3508         0.8604         0.3421       -55.7091      -16.18814      0.1132412
      1804.5000       131.8305         0.8453         0.3424       -55.4698      -15.94884      0.1281974
      1805.0000       133.5205         0.8377         0.3427       -55.0909      -15.56994      0.1518786
      1805.5000       133.1422         0.8604         0.3432       -55.0844      -15.56344      0.1522849
      1806.0000        133.916         0.9057         0.3435       -55.0788      -15.55784      0.1526349
      1806.5000        134.597         0.9283         0.3438       -55.0727      -15.55174      0.1530161
      1807.0000       133.3684         0.9208         0.3441       -55.0667      -15.54574      0.1533911
      1807.5000       133.7854         0.8906         0.3444       -55.0605      -15.53954      0.1537786
      1808.0000       134.0635         0.8679         0.3447          -55.2      -15.67904      0.1450598
      1808.5000         133.54         0.8528          0.345       -55.6545      -16.13354      0.1166537
      1809.0000       133.8307         0.8302         0.3454       -55.6474      -16.12644      0.1170974
      1809.5000       133.3212         0.8151         0.3457       -55.6211      -16.10014       0.118741
      1810.0000       130.2679            0.8          0.346       -55.0303      -15.50934      0.1556661
      1810.5000       128.1718            0.8         0.3462       -55.0242      -15.50324      0.1560473
      1811.0000       129.5065         0.8226         0.3462       -55.0174      -15.49644      0.1564724
      1811.5000       134.5309         1.4264         0.3462       -55.0121      -15.49114      0.1568036
      1812.0000       139.2661         1.2981         0.3462       -55.0061      -15.48514      0.1571786
      1812.5000       143.9683         1.1623         0.3462            -55      -15.47904      0.1575599
      1813.0000       141.5082         0.9585         0.3462       -54.9934      -15.47244      0.1579723
      1813.5000       137.7305         0.8075         0.3462       -54.9879      -15.46694      0.1583161
      1814.0000       134.3246         0.8075         0.3462       -54.7273      -15.20634      0.1746037
      1814.5000       131.1572         0.8075         0.3462       -54.3697      -14.84874      0.1969535
      1815.0000       128.1327            0.8         0.3077       -54.3634      -14.84244      0.1973474
      1815.5000       126.2791         0.8075         0.3077       -53.7515      -14.23054      0.2355912
      1816.0000       126.5718         0.8075         0.3077       -53.7455      -14.22454      0.2359662
      1816.5000       130.1163         0.8075         0.3077       -53.2878      -13.76684      0.2645724
      1817.0000       135.0337         0.7925         0.3462       -52.5212      -13.00024       0.312485
      1817.5000       136.1067         0.7849         0.3846       -52.5151      -12.99414      0.3128662
      1818.0000       135.1253         0.7774         0.3846       -52.1817      -12.66074      0.3337035
      1818.5000       134.8184         0.7774         0.4231        -51.896      -12.37504      0.3515599
      1819.0000       137.3264         0.7774         0.4231       -50.1712      -10.65024      0.4593599
      1819.5000       139.8094         0.7849         0.4231       -42.5884      -3.067444      0.9332848
      1820.0000       139.3568         0.7849         0.4615       -40.9697      -1.448742              1
      1820.5000       135.1658         0.8151         0.5014        -40.963      -1.442043              1
      1821.0000       134.3581         0.8454         0.5411       -40.3515     -0.8305435              1
      1821.5000       136.6879         0.8605         0.5425       -40.3455      -0.824543              1
      1822.0000       137.8256         0.8757         0.5821       -40.7394      -1.218441              1
      1822.5000       138.8446          0.891         0.6217       -42.1512      -2.630241      0.9606099
      1823.0000        141.451         0.9062         0.6612       -42.9817      -3.460743      0.9087036
      1823.5000       142.6776         0.9063         0.6624       -44.2333      -4.712341      0.8304787
      1824.0000       131.7876         0.8989         0.6636       -45.4304      -5.909443      0.7556598
      1824.5000       128.6945         0.8989         0.6649       -46.9757      -7.454742      0.6590786
      1825.0000       128.3544         0.8914         0.6661        -47.879      -8.358044      0.6026223
      1825.5000       128.1428         0.9068         0.6679       -50.0306      -10.50964      0.4681473
      1826.0000       126.3682         0.9603         0.6691        -51.805      -12.28404      0.3572474
      1826.5000       125.3611          0.991         0.7083       -51.1939      -11.67294      0.3954411
