#------------------------------------------------------------------------------
# Created by    : vladimir.rabinovich
# Created on    : 09/19/2023 17:19:21
#------------------------------------------------------------------------------
~Version Information Section
VERS.           2.0     :   CWLS log ASCII Standard - VERSION 2.0
WRAP.           NO      :   One line per depth step
~Well Information Section
#MNEM       .UNIT                                         VALUE :DESCRIPTION
#------------------------------------------------------------------------------
STRT        .FT                                             313 :START DEPTH
STOP        .FT                                           17011 :STOP DEPTH
STEP        .FT                                             0.5 :STEP      
NULL        .                                           -999.25 :NULL      
COMP        .                             MAGNOLIA PETROLEUM CO :COMPANY   
WELL        .                                      LETULLE UNIT :WELL      
FLD         .                                           WILDCAT :FIELD     
LOC         .                                                   :LOCATION  
CNTY        .                                         MATAGORDA :LOCATION  
STAT        .                                             TEXAS :STATE     
CTRY        .                                     UNITED STATES :COUNTRY   
SRVC        .                                                   :SERVICE COMPANY
DATE        .                             9/13/2023 11:18:46 AM :LOG DATE  
API         .                                    42321010770000 :API NUMBER
UWI         .                                    42321010770000 :UNIQUE WELL ID
XCOORD      .                                  733053.658917313 :SURFACE X 
YCOORD      .                                  10456928.2420536 :SURFACE Y 
LAT         .                                        28.7849393 :LATITUDE  
LON         .                                       -95.8329519 :LONGITUDE 
ELEV        .FT                                              38 :ELEVATION VALUE
ELEV_TYPE   .                                                KB :ELEVATION REFERENCE TYPE
~Curve Information Section
#MNEM       .UNIT                                      API CODE :CURVE DESCRIPTION
#------------------------------------------------------------------------------
DEPT        .FT                                                 :DEPTH     
AAM_16      .OHMM                                               :          
AM_16       .OHMM                                               :          
AM_64       .OHMM                                               :          
AO_18_8     .OHMM                                               :          
SP          .MV                                                 :          
SP_NORM     .MV                                                 :SP Normalized
VSH_SP      .V/V                                                :Volume of Shale from SP
~A        DEPTH         AAM_16          AM_16          AM_64        AO_18_8             SP        SP_NORM         VSH_SP
# ...
     15857.0000         1.1688         1.1902         1.2707         0.8839        -50.899       -4.77898      0.9300189
     15857.5000         1.1509         1.1826         1.2445         0.8839        -50.899      -4.774044      0.9301103
     15858.0000         1.1167         1.1766         1.2182         0.8929        -50.899      -4.769104      0.9302018
     15858.5000         1.0808         1.1628         1.1919         0.8929       -50.6224      -4.487564      0.9354155
     15859.0000         1.0628         1.1586         1.1721         0.9018       -50.5799      -4.440128      0.9362939
     15859.5000         1.0269         1.1335          1.172         0.9107       -50.3458      -4.201088      0.9407206
     15860.0000          1.027         1.1078         1.1858         0.9195       -50.3458      -4.196148      0.9408121
     15860.5000         1.0271         1.1079         1.1871         0.9288       -50.0692      -3.914612      0.9460257
     15861.0000         1.0272         1.1036         1.2176         0.9471       -50.0692      -3.909672      0.9461172
     15861.5000         1.0291         1.0943         1.2348         0.9476       -50.0692      -3.904732      0.9462087
     15862.0000         1.0526         1.0944          1.255          0.948       -50.0692      -3.899796      0.9463001
     15862.5000         1.0779         1.0945         1.2688         0.9485       -49.7925      -3.618156      0.9515156
     15863.0000         1.1158         1.0901         1.2688         0.9489       -49.7925      -3.613216      0.9516071
     15863.5000         1.1412         1.0809          1.276         0.9315       -49.7925       -3.60828      0.9516985
     15864.0000         1.1665         1.0811         1.2825          0.932       -49.7925       -3.60334        0.95179
     15864.5000         1.1774         1.0825         1.2827         0.9145       -49.7925        -3.5984      0.9518815
     15865.0000         1.1612         1.0999         1.2963         0.9061       -49.8289      -3.629864      0.9512988
     15865.5000         1.1433         1.1257         1.3033         0.8887       -50.0692      -3.865223      0.9469403
     15866.0000         1.1272          1.151         1.3239         0.8713       -50.0692      -3.860283      0.9470318
     15866.5000         1.1093          1.165         1.3238         0.8717       -50.0692      -3.855347      0.9471232
     15867.0000         1.0932           1.17         1.3377         0.8722       -50.0692      -3.850407      0.9472147
     15867.5000         1.0842         1.1791         1.3376         0.8815       -50.0692      -3.845467      0.9473062
     15868.0000         1.0681         1.1792         1.3272         0.8909       -50.0692       -3.84053      0.9473976
     15868.5000         1.0502         1.1655         1.3097         0.9895       -50.0692       -3.83559      0.9474891
     15869.0000         1.0412         1.1656         1.2957         1.1495       -50.0692       -3.83065      0.9475806
     15869.5000         1.0413         1.1572         1.2956         1.2649       -50.0692      -3.825714      0.9476719
     15870.0000         1.0414         1.1382         1.2956         1.2565       -50.0692      -3.820774      0.9477634
     15870.5000         1.0451         1.1228         1.2816         1.2481       -50.0692      -3.815834      0.9478549
     15871.0000         1.0524         1.1107         1.2785         1.2397       -50.0692      -3.810898      0.9479463
     15871.5000         1.0561         1.1108         1.2676         1.2313       -50.0692      -3.805958      0.9480378
     15872.0000         1.0616         1.0971         1.2577         1.2141       -50.0692      -3.801018      0.9481293
     15872.5000         1.0653         1.0972         1.2397          1.188        -50.167      -3.893883      0.9464096
     15873.0000         1.0708         1.0973         1.2368         1.1707       -50.3458      -4.067741        0.94319
     15873.5000         1.0745         1.0975         1.2256         1.1535       -50.3458      -4.062801      0.9432815
     15874.0000         1.0818         1.0976         1.2256         1.1539       -50.3458      -4.057865      0.9433728
     15874.5000         1.0819         1.0977         1.2255          1.172       -50.3458      -4.052925      0.9434643
     15875.0000         1.0946         1.0979         1.2254         1.1902       -50.6224      -4.324585      0.9384336
     15875.5000         1.1091         1.1069         1.2254          1.226       -50.6224      -4.319645      0.9385251
     15876.0000         1.1236          1.112         1.2253         1.2441       -50.6224      -4.314709      0.9386165
     15876.5000         1.1399          1.142         1.2252         1.2711       -50.6224      -4.309769       0.938708
     15877.0000         1.1562         1.1595         1.2252         1.2981       -50.6224      -4.304829      0.9387994
     15877.5000         1.1707          1.177         1.2309         1.3074       -50.6224      -4.299892      0.9388909
     15878.0000          1.187         1.1958         1.2389         1.3167       -50.6224      -4.294952      0.9389824
     15878.5000         1.2033          1.212         1.2388         1.3083       -50.6224      -4.290012      0.9390739
     15879.0000         1.0467         1.2238          1.241          1.291        -50.899      -4.561676       0.934043
     15879.5000         1.0467         1.2239         1.2526         1.2738       -50.9894      -4.647137      0.9324604
     15880.0000         1.0468          1.224         1.2525         1.2477       -51.1757      -4.828499      0.9291019
     15880.5000         1.0469         1.2242         1.2524         1.2304       -51.1757      -4.823563      0.9291933
     15881.0000         1.0722         1.2243         1.2524          1.222       -51.1757      -4.818623      0.9292848
     15881.5000         1.0975         1.2244         1.2523         1.2136       -51.1757      -4.813683      0.9293762
     15882.0000         1.1373         1.2246         1.2434         1.2052       -51.0187      -4.651745      0.9323751
     15882.5000         1.1626         1.2247         1.2383         1.2057       -50.3458      -3.973904      0.9449277
     15883.0000         1.1879         1.2188         1.2226         1.2061       -50.0516      -3.674767      0.9504673
     15883.5000          1.215         1.2111         1.2052         1.2154       -49.7925      -3.410728      0.9553569
     15884.0000         1.2151         1.1974         1.1878         1.2158       -49.7925      -3.405788      0.9554484
     15884.5000         1.2152         1.1975         1.1685         1.2163       -49.7925      -3.400848      0.9555398
     15885.0000         1.2153         1.1976          1.153         1.2344       -49.7925      -3.395912      0.9556313
     15885.5000         1.1884         1.1978         1.1357         1.2525       -49.7925      -3.390972      0.9557227
     15886.0000         1.1758         1.1979         1.1267         1.2618       -49.7925      -3.386032      0.9558142
     15886.5000         1.1489         1.2119         1.1266         1.2711       -50.0692      -3.657795      0.9507816
     15887.0000          1.122          1.212         1.1126         1.2804       -50.0692      -3.652855      0.9508731
     15887.5000          1.095         1.2122         1.1126          1.272       -50.0692      -3.647915      0.9509645
     15888.0000         1.0807         1.2123         1.1125         1.2459       -50.0692      -3.642979      0.9510559
     15888.5000         1.0538         1.2124         1.1124         1.2198       -50.0692      -3.638039      0.9511474
     15889.0000         1.0268         1.2126         1.1124         1.1937       -50.0692      -3.633099      0.9512389
     15889.5000         0.9999         1.2127         1.1123         1.1588       -50.0692      -3.628162      0.9513303
     15890.0000         0.9982         1.2128         1.1122         1.1238       -50.0692      -3.623222      0.9514218
