#------------------------------------------------------------------------------
# Created by    : vladimir.rabinovich
# Created on    : 09/19/2023 17:19:43
#------------------------------------------------------------------------------
~Version Information Section
VERS.           2.0     :   CWLS log ASCII Standard - VERSION 2.0
WRAP.           NO      :   One line per depth step
~Well Information Section
#MNEM       .UNIT                                         VALUE :DESCRIPTION
#------------------------------------------------------------------------------
STRT        .FT                                              86 :START DEPTH
STOP        .FT                                           17232 :STOP DEPTH
STEP        .FT                                             0.5 :STEP      
NULL        .                                           -999.25 :NULL      
COMP        .                                        EXXON CORP :COMPANY   
WELL        .                               OYSTR LKE TMPRRY GU :WELL      
FLD         .                                           WILDCAT :FIELD     
LOC         .                                                   :LOCATION  
CNTY        .                                         MATAGORDA :LOCATION  
STAT        .                                             TEXAS :STATE     
CTRY        .                                     UNITED STATES :COUNTRY   
SRVC        .                                                   :SERVICE COMPANY
DATE        .                             9/13/2023 11:19:17 AM :LOG DATE  
API         .                                    42321309610000 :API NUMBER
UWI         .                                    42321309610000 :UNIQUE WELL ID
XCOORD      .                                  606681.955270441 :SURFACE X 
YCOORD      .                                  10380406.3085524 :SURFACE Y 
LAT         .                                         28.565886 :LATITUDE  
LON         .                                       -96.2205825 :LONGITUDE 
ELEV        .FT                                              25 :ELEVATION VALUE
ELEV_TYPE   .                                                KB :ELEVATION REFERENCE TYPE
~Curve Information Section
#MNEM       .UNIT                                      API CODE :CURVE DESCRIPTION
#------------------------------------------------------------------------------
DEPT        .FT                                                 :DEPTH     
ASFL        .OHMM                                               :          
CILD        .MMHO                                               :          
ILD         .OHMM                                               :          
SP          .MV                                                 :          
SP_NORM     .MV                                                 :SP Normalized
VSH_SP      .V/V                                                :Volume of Shale from SP
~A        DEPTH           ASFL           CILD            ILD             SP        SP_NORM         VSH_SP
# ...
     12626.0000         0.7198       1721.383        -999.25        -3.8814      -4.624657      0.9474688
     12626.5000         0.7214       1716.658        -999.25        -3.8679      -4.606585      0.9477307
     12627.0000         0.7233       1712.521        -999.25        -3.8543      -4.588412      0.9479941
     12627.5000         0.7253       1708.396        -999.25        -3.8408       -4.57034       0.948256
     12628.0000         0.7274       1704.258        -999.25         -3.824      -4.548967      0.9485657
     12628.5000         0.7298       1700.182        -999.25        -3.7889      -4.509295      0.9491407
     12629.0000         0.7337       1696.094        -999.25        -3.7539      -4.469723      0.9497142
     12629.5000         0.7376       1692.018        -999.25        -3.7189       -4.43015      0.9502877
     12630.0000         0.7415        1688.74        -999.25        -3.6838      -4.390478      0.9508626
     12630.5000         0.7453         1686.5        -999.25        -3.6488      -4.350905      0.9514362
     12631.0000         0.7439       1684.262        -999.25        -3.6013      -4.298833      0.9521908
     12631.5000         0.7418        1682.01        -999.25        -3.4978      -4.190761      0.9537571
     12632.0000         0.7399       1679.654        -999.25         -3.394      -4.082388      0.9553277
     12632.5000         0.7382       1677.305        -999.25        -3.3501      -4.033916      0.9560302
     12633.0000         0.7365       1671.123        -999.25        -3.3385      -4.017743      0.9562646
     12633.5000         0.7428       1661.896        -999.25        -3.3167      -3.991371      0.9566468
     12634.0000         0.7521       1651.326        -999.25        -3.2348      -3.904899         0.9579
     12634.5000         0.7929       1640.709        -999.25        -3.2701      -3.935626      0.9574547
     12635.0000         0.8245       1623.914        -999.25        -3.3373      -3.998254       0.956547
     12635.5000         0.8414       1592.621        -999.25        -3.4896      -4.145981      0.9544061
     12636.0000         0.8467       1548.146        -999.25        -3.8239      -4.475709      0.9496274
     12636.5000         0.8488       1522.516        -999.25        -4.0363      -4.683537      0.9466154
     12637.0000         0.8506       1493.322        -999.25        -4.1354      -4.778064      0.9452454
     12637.5000           0.85       1481.936        -999.25        -4.1907      -4.828792      0.9445103
     12638.0000         0.8421       1475.455        -999.25        -4.1572      -4.790719       0.945062
     12638.5000         0.8207       1474.063        -999.25        -4.0083      -4.637247      0.9472863
     12639.0000         0.7875       1482.973        -999.25        -3.8595      -4.483874      0.9495091
     12639.5000         0.7647       1529.742        -999.25         -3.766      -4.385802      0.9509304
     12640.0000         0.7549       1578.365        -999.25        -3.6797       -4.29493      0.9522474
     12640.5000         0.7469       1601.457        -999.25        -3.5936      -4.204257      0.9535615
     12641.0000         0.7482       1620.057        -999.25        -3.5075      -4.113585      0.9548756
     12641.5000         0.7497       1637.975        -999.25        -3.4611      -4.062613      0.9556143
     12642.0000         0.7514       1642.172        -999.25        -3.4148       -4.01174      0.9563516
     12642.5000         0.7545       1644.721        -999.25        -3.3685      -3.960868      0.9570889
     12643.0000         0.7576       1645.734        -999.25        -3.3221      -3.909895      0.9578276
     12643.5000         0.7605        1646.75        -999.25        -3.2758      -3.859023      0.9585649
     12644.0000         0.7624       1647.732        -999.25        -3.2465       -3.82515      0.9590558
     12644.5000         0.7642        1647.85        -999.25        -3.2288      -3.802878      0.9593786
     12645.0000          0.766       1647.967        -999.25        -3.2112      -3.780706      0.9596999
     12645.5000         0.7649       1648.084        -999.25        -3.1936      -3.758533      0.9600213
     12646.0000         0.7609       1647.061        -999.25         -3.176      -3.736361      0.9603426
     12646.5000         0.7613       1643.979        -999.25        -3.1502      -3.705988      0.9607828
     12647.0000         0.7618       1640.896        -999.25         -3.093      -3.644216       0.961678
     12647.5000         0.7626        1637.48        -999.25        -3.0357      -3.582344      0.9625747
     12648.0000         0.7654       1633.605        -999.25        -2.9785      -3.520571        0.96347
     12648.5000         0.7709       1629.467        -999.25        -2.9213      -3.458799      0.9643652
     12649.0000         0.7788       1624.951        -999.25        -2.9105      -3.443427       0.964588
     12649.5000          0.784       1619.764        -999.25        -2.9146      -3.442954      0.9645948
     12650.0000         0.7879       1574.461        -999.25        -2.9187      -3.442482      0.9646017
     12650.5000         0.7896       1558.033        -999.25        -2.9228      -3.442009      0.9646086
     12651.0000         0.7913       1545.803        -999.25        -2.9268      -3.441437      0.9646168
     12651.5000         0.7924       1538.428        -999.25        -2.9421      -3.452165      0.9644614
     12652.0000         0.7935       1538.246        -999.25        -2.9656      -3.471092      0.9641871
     12652.5000         0.7946       1538.066        -999.25        -2.9891       -3.49002      0.9639128
     12653.0000         0.7957       1537.885        -999.25        -3.0126      -3.508947      0.9636384
     12653.5000         0.7969       1537.703        -999.25         -3.019      -3.510775       0.963612
     12654.0000         0.7962       1538.041        -999.25        -3.0118      -3.499003      0.9637825
     12654.5000          0.795       1540.867        -999.25        -3.0046       -3.48723      0.9639532
     12655.0000         0.7939       1551.906        -999.25        -2.9913      -3.469358      0.9642122
     12655.5000         0.7888       1573.338        -999.25        -2.9223      -3.395785      0.9652784
     12656.0000         0.7827       1579.695        -999.25        -2.8532      -3.322113      0.9663462
     12656.5000         0.7761       1585.664        -999.25        -2.7423       -3.20664      0.9680197
     12657.0000         0.7714       1591.035        -999.25          -2.63      -3.089768      0.9697135
     12657.5000         0.7669       1595.057        -999.25        -2.4266      -2.881796      0.9727276
     12658.0000         0.7658       1599.072        -999.25        -2.1697      -2.620323      0.9765171
     12658.5000         0.7657       1603.094        -999.25        -2.0193      -2.465351       0.978763
     12659.0000         0.7664       1607.107        -999.25        -1.8905      -2.331979       0.980696
     12659.5000          0.768       1611.551        -999.25        -1.8271      -2.264006       0.981681
     12660.0000         0.7702       1616.043        -999.25        -1.8312      -2.263534      0.9816879
     12660.5000         0.7724       1620.533        -999.25        -1.8352      -2.262961      0.9816962
     12661.0000         0.7717       1625.025        -999.25        -1.8733      -2.296489      0.9812103
     12661.5000         0.7704       1629.516        -999.25        -1.9114      -2.330017      0.9807244
     12662.0000         0.7713        1633.85        -999.25        -1.9495      -2.363544      0.9802385
     12662.5000         0.7724       1638.047        -999.25        -1.9876      -2.397072      0.9797526
     12663.0000         0.7692       1642.246        -999.25        -2.0051      -2.409999      0.9795652
     12663.5000          0.766       1646.445        -999.25        -1.9936      -2.393927      0.9797981
