#------------------------------------------------------------------------------
# Created by    : vladimir.rabinovich
# Created on    : 09/19/2023 17:19:43
#------------------------------------------------------------------------------
~Version Information Section
VERS.           2.0     :   CWLS log ASCII Standard - VERSION 2.0
WRAP.           NO      :   One line per depth step
~Well Information Section
#MNEM       .UNIT                                         VALUE :DESCRIPTION
#------------------------------------------------------------------------------
STRT        .FT                                            1596 :START DEPTH
STOP        .FT                                            6079 :STOP DEPTH
STEP        .FT                                             0.5 :STEP      
NULL        .                                           -999.25 :NULL      
COMP        .                                 EOG RESOURCES INC :COMPANY   
WELL        .                                     ST TR 00721-S :WELL      
FLD         .                                  SHERMAN OFFSHORE :FIELD     
LOC         .                                                   :LOCATION  
CNTY        .                      MATAGORDA ISLAND SMALL BLOCK :LOCATION  
STAT        .                                             TEXAS :STATE     
CTRY        .                                     UNITED STATES :COUNTRY   
SRVC        .                                                   :SERVICE COMPANY
DATE        .                             9/13/2023 11:19:17 AM :LOG DATE  
API         .                                    42603300060000 :API NUMBER
UWI         .                                    42603300060000 :UNIQUE WELL ID
XCOORD      .                                  491308.028993428 :SURFACE X 
YCOORD      .                                  10247941.6299489 :SURFACE Y 
LAT         .                                        28.1931224 :LATITUDE  
LON         .                                       -96.5672747 :LONGITUDE 
ELEV        .FT                                              74 :ELEVATION VALUE
ELEV_TYPE   .                                                KB :ELEVATION REFERENCE TYPE
~Curve Information Section
#MNEM       .UNIT                                      API CODE :CURVE DESCRIPTION
#------------------------------------------------------------------------------
DEPT        .FT                                                 :DEPTH     
ASFL        .OHMM                                               :          
CILD        .MMHO                                               :          
ILD         .OHMM                                               :          
SP          .MV                                                 :          
SP_NORM     .MV                                                 :SP Normalized
VSH_SP      .V/V                                                :Volume of Shale from SP
~A        DEPTH           ASFL           CILD            ILD             SP        SP_NORM         VSH_SP
# ...
      4256.0000         0.8429       3142.272         0.4056       -84.0631       -52.7378       0.105244
      4256.5000         0.8396       3187.933         0.3955       -86.2124       -54.8871     0.06225799
      4257.0000         0.8363       3233.593         0.3854       -89.0615       -57.7362    0.005276031
      4257.5000          0.833       3263.584         0.3753       -89.8528       -58.5275              0
      4258.0000         0.8297       3325.414         0.3752       -90.5464       -59.2211              0
      4258.5000         0.8264       3387.244         0.3661       -91.4376       -60.1123              0
      4259.0000         0.8229       3449.073         0.3647       -91.9336       -60.6083              0
      4259.5000          0.813       3510.903         0.3645       -92.1332       -60.8079              0
      4260.0000          0.807       3572.732         0.3642       -92.1352       -60.8099              0
      4260.5000         0.7991        3646.24          0.364       -91.9397       -60.6144              0
      4261.0000         0.7931       3669.917         0.3637       -91.6454       -60.3201              0
      4261.5000         0.7892        3717.27         0.3635       -91.2523      -59.92699              0
      4262.0000         0.7852        3756.75         0.3632       -91.0567       -59.7314              0
      4262.5000         0.7772       3780.486          0.363       -90.7624       -59.4371              0
      4263.0000         0.7693       3843.641         0.3627       -90.7645       -59.4392              0
      4263.5000         0.7673       3835.888         0.3723       -90.8653         -59.54              0
      4264.0000         0.7731       3816.267         0.3721       -91.9539       -60.6286              0
      4264.5000         0.8439       3804.578         0.3915        -91.956       -60.6307              0
      4265.0000         0.8439       3733.909         0.4109       -91.8592       -60.5339              0
      4265.5000         0.8379       3584.297         0.4191       -91.5649       -60.2396              0
      4266.0000         0.8339       3371.829         0.4301       -91.0731       -59.7478              0
      4266.5000          0.826       3159.361         0.4397       -90.5813        -59.256              0
      4267.0000          0.822       2946.893          0.469       -88.5091       -57.1838     0.01632401
      4267.5000         0.8161       2722.865         0.4786       -86.6345       -55.3092     0.05381607
      4268.0000         0.8121       2610.148          0.498        -86.044       -54.7187     0.06562607
      4268.5000         0.8101        2497.43         0.5175       -84.9596       -53.6343     0.08731399
      4269.0000         0.8986       2384.713         0.5369       -83.8752       -52.5499      0.1090021
      4269.5000         0.9005       2003.051         0.5465       -82.7909       -51.4656       0.130688
      4270.0000         0.8985       1979.564         0.5477       -82.8918       -51.5665        0.12867
      4270.5000         0.8965       1995.371         0.5488       -83.0915       -51.7662      0.1246761
      4271.0000         0.8019       2104.441           0.55       -83.1923        -51.867      0.1226601
      4271.5000          0.796       2138.237         0.5512       -83.2932       -51.9679      0.1206421
      4272.0000         0.7979       2172.034         0.5524       -83.1966       -51.8713       0.122574
      4272.5000         0.8136        2205.83         0.5536       -83.0012       -51.6759      0.1264821
      4273.0000         0.8292       2255.889         0.5547       -82.8058       -51.4805        0.13039
      4273.5000         0.8449       2259.888         0.5559       -82.5116      -51.18629      0.1362741
      4274.0000         0.8547       2263.949         0.5571       -82.1187       -50.7934      0.1441321
      4274.5000         0.8547       2256.205         0.5583       -80.3432       -49.0179       0.179642
      4275.0000         0.8278       2253.669         0.5595       -80.2477       -48.9224       0.181552
      4275.5000          0.801       2244.651         0.5606        -80.545       -49.2197      0.1756061
      4276.0000          0.762       2236.907         0.5618       -81.7575       -50.4322       0.151356
      4276.5000         0.7541       2229.099         0.5627       -83.2167       -51.8914      0.1221721
      4277.0000         0.7521       2213.483         0.5526       -83.2178      -51.89249      0.1221501
      4277.5000          0.752       2205.739         0.5523       -83.1212       -51.7959       0.124082
      4278.0000         0.7559       2205.866         0.5521        -82.827       -51.5017       0.129966
      4278.5000         0.7578       2205.929          0.542       -82.3354       -51.0101       0.139798
      4279.0000           0.74       2250.405         0.5417       -82.3375       -51.0122       0.139756
      4279.5000         0.7144        2294.88         0.5317       -82.6359       -51.3106       0.133788
      4280.0000         0.6809       2339.355         0.5216        -83.428       -52.1027       0.117946
      4280.5000         0.6691       2383.831         0.5115       -86.2948       -54.9695     0.06061004
      4281.0000         0.6866       2428.306         0.4916       -86.2969       -54.9716     0.06056808
      4281.5000         0.7102       2472.781         0.4815       -86.1015       -54.7762     0.06447601
      4282.0000         0.7102       2517.257         0.4714       -86.4284       -55.1031     0.05793808
      4282.5000         0.7102       2561.732         0.4613       -86.7552       -55.4299     0.05140198
      4283.0000         0.7003       2606.208         0.4512       -87.0821       -55.7568     0.04486404
      4283.5000         0.6864       2650.683         0.4411       -87.4089       -56.0836      0.0383281
      4284.0000         0.6785       2695.159          0.431       -87.8893        -56.564     0.02872009
      4284.5000         0.6726        2738.89         0.4308            -88       -56.6747     0.02650604
      4285.0000         0.6686           2800         0.4207       -88.6833      -57.35799     0.01284012
      4285.5000         0.6685       2861.078         0.4205       -88.8828       -57.5575    0.008850098
      4286.0000         0.6685       2922.172         0.4104       -89.2798       -57.9545   0.0009100342
      4286.5000         0.6704       2983.266         0.4101       -89.4794       -58.1541              0
      4287.0000         0.6802        3044.36            0.4       -90.8637       -59.5384              0
      4287.5000           0.69       3105.453           0.39       -91.3594       -60.0341              0
      4288.0000         0.6938       3166.547         0.3897       -91.7564       -60.4311              0
      4288.5000         0.7095       3227.641         0.3796       -92.1533        -60.828              0
      4289.0000         0.7213       3314.645         0.3794       -92.4516       -61.1263              0
      4289.5000          0.733       3350.121         0.3791       -92.7498       -61.4245              0
      4290.0000          0.735       3387.093         0.3789       -93.7401      -62.41479              0
      4290.5000         0.7683       3424.064         0.3688       -94.4332      -63.10789              0
      4291.0000         0.7782       3461.036         0.3685         -94.14       -62.8147              0
      4291.5000         0.7879       3498.007         0.3585       -94.3385       -63.0132              0
      4292.0000         0.7918       3534.979         0.3582       -94.3405       -63.0152              0
      4292.5000         0.7917        3571.95          0.358       -94.2438       -62.9185              0
      4293.0000         0.7917       3608.922         0.3577       -94.1471       -62.8218              0
      4293.5000         0.7897       3645.893         0.3575       -94.0504       -62.7251              0
