#------------------------------------------------------------------------------
# Created by    : vladimir.rabinovich
# Created on    : 09/19/2023 17:22:47
#------------------------------------------------------------------------------
~Version Information Section
VERS.           2.0     :   CWLS log ASCII Standard - VERSION 2.0
WRAP.           NO      :   One line per depth step
~Well Information Section
#MNEM       .UNIT                                         VALUE :DESCRIPTION
#------------------------------------------------------------------------------
STRT        .FT                                             494 :START DEPTH
STOP        .FT                                            8323 :STOP DEPTH
STEP        .FT                                             0.5 :STEP      
NULL        .                                           -999.25 :NULL      
COMP        .                                       MONSANTO CO :COMPANY   
WELL        .                                     ST TR 00293-S :WELL      
FLD         .                                           WILDCAT :FIELD     
LOC         .                                                   :LOCATION  
CNTY        .                             GALVESTON SMALL BLOCK :LOCATION  
STAT        .                                             TEXAS :STATE     
CTRY        .                                     UNITED STATES :COUNTRY   
SRVC        .                                                   :SERVICE COMPANY
DATE        .                             9/13/2023 11:19:17 AM :LOG DATE  
API         .                                    42605300230000 :API NUMBER
UWI         .                                    42605300230000 :UNIQUE WELL ID
XCOORD      .                                  996050.411534576 :SURFACE X 
YCOORD      .                                  10568409.9475512 :SURFACE Y 
LAT         .                                        29.1061939 :LATITUDE  
LON         .                                        -95.018267 :LONGITUDE 
ELEV        .FT                                              81 :ELEVATION VALUE
ELEV_TYPE   .                                                KB :ELEVATION REFERENCE TYPE
~Curve Information Section
#MNEM       .UNIT                                      API CODE :CURVE DESCRIPTION
#------------------------------------------------------------------------------
DEPT        .FT                                                 :DEPTH     
DT          .US/F                                               :          
GR          .GAPI                                               :          
GR_NORM     .GAPI                                               :GammaRay Normalized
ILD         .OHMM                                               :          
SFL         .OHMM                                               :          
SP          .MV                                                 :          
SP_NORM     .MV                                                 :SP Normalized
VSH_GR      .V/V                                                :Volume of Shale from GR
VSH_SP      .V/V                                                :Volume of Shale from SP
~A        DEPTH             DT             GR        GR_NORM            ILD            SFL             SP        SP_NORM         VSH_GR         VSH_SP
# ...
      8285.0000       123.3179        -999.25        -999.25         0.6216         0.7612        20.2913    -0.06657982        -999.25              1
      8285.5000       122.6146        -999.25        -999.25         0.6306         0.7856        19.9922      0.2325191        -999.25              1
      8286.0000       121.9103        -999.25        -999.25         0.6398         0.7958         19.693      0.5317192        -999.25              1
      8286.5000       121.4836        -999.25        -999.25         0.6491         0.7742        19.5057      0.7190208        -999.25              1
      8287.0000       121.5499        -999.25        -999.25         0.6489         0.7775        19.4728      0.7519207        -999.25              1
      8287.5000       121.6162        -999.25        -999.25         0.6477         0.7836        19.4398      0.7849197        -999.25              1
      8288.0000       121.7614        -999.25        -999.25         0.6465         0.7905        19.4031      0.8216209        -999.25              1
      8288.5000       121.9271        -999.25        -999.25         0.6453         0.7975        19.2643      0.9604206        -999.25              1
      8289.0000       122.0927        -999.25        -999.25         0.6402         0.7856        19.1256       1.099119        -999.25              1
      8289.5000       122.3827        -999.25        -999.25         0.6328         0.7719         19.102       1.122721        -999.25              1
      8290.0000        122.698        -999.25        -999.25         0.6256         0.7668         19.213       1.011721        -999.25              1
      8290.5000       123.0137        -999.25        -999.25         0.6184         0.7638        19.3241      0.9006195        -999.25              1
      8291.0000       123.3291        -999.25        -999.25         0.6141         0.7682        19.4265      0.7982197        -999.25              1
      8291.5000       123.4955        -999.25        -999.25         0.6107         0.7736        19.4295      0.7952194        -999.25              1
      8292.0000       123.6592        -999.25        -999.25         0.6072         0.7728        19.4326        0.79212        -999.25              1
      8292.5000        123.085        -999.25        -999.25         0.6044         0.7576        19.4356      0.7891197        -999.25              1
      8293.0000       122.3899        -999.25        -999.25         0.6023         0.7406         19.362      0.8627205        -999.25              1
      8293.5000       121.5181        -999.25        -999.25         0.6002         0.7217        19.1972       1.027519        -999.25              1
      8294.0000        120.645        -999.25        -999.25         0.5977         0.7214        19.1775        1.04722        -999.25              1
      8294.5000       119.7108        -999.25        -999.25          0.594         0.7394        19.5299      0.6948204        -999.25              1
      8295.0000       118.7528        -999.25        -999.25         0.5904         0.7707         19.888      0.3367195        -999.25              1
      8295.5000       118.2062        -999.25        -999.25         0.5882         0.7953        20.2694    -0.04467964        -999.25              1
      8296.0000       118.4063        -999.25        -999.25         0.5913         0.7996         20.239    -0.01428032        -999.25              1
      8296.5000       118.8258        -999.25        -999.25         0.5945         0.7686        19.0348        1.18992        -999.25              1
      8297.0000       119.2449        -999.25        -999.25         0.5995         0.7306        17.8344        2.39032        -999.25              1
      8297.5000       119.5248        -999.25        -999.25         0.6067         0.7129        16.6844       3.540319        -999.25              1
      8298.0000       119.6448        -999.25        -999.25         0.6139         0.7048        17.3369       2.887819        -999.25              1
      8298.5000       119.7646        -999.25        -999.25         0.6214         0.7242        18.0199       2.204821        -999.25              1
      8299.0000       119.8824        -999.25        -999.25         0.6302         0.7857        18.7599       1.464821        -999.25              1
      8299.5000       119.8875        -999.25        -999.25         0.6391         0.8545         19.499      0.7257195        -999.25              1
      8300.0000       119.8926        -999.25        -999.25          0.644         0.9254        19.9254      0.2993202        -999.25              1
      8300.5000       119.8976        -999.25        -999.25         0.6497         0.9605         19.812      0.4127197        -999.25              1
      8301.0000       119.9139        -999.25        -999.25         0.6591         0.7681        19.6978      0.5269203        -999.25              1
      8301.5000       120.0057        -999.25        -999.25         0.6705         0.6764        19.3216        0.90312        -999.25              1
      8302.0000       120.0973        -999.25        -999.25         0.6745         0.6849        18.9454        1.27932        -999.25              1
      8302.5000       120.1891        -999.25        -999.25          0.656         0.6976        18.5692       1.655519        -999.25              1
      8303.0000       120.2723        -999.25        -999.25         0.6221         0.7103        18.1416        2.08312        -999.25              1
      8303.5000       120.3516        -999.25        -999.25         0.5928         0.7201        17.6422        2.58252        -999.25              1
      8304.0000       120.4307        -999.25        -999.25         0.5706           0.73        17.1419       3.082821        -999.25              1
      8304.5000       120.5098        -999.25        -999.25         0.5642         0.7462        16.6437        3.58102        -999.25              1
      8305.0000       120.5236        -999.25        -999.25         0.5677         0.7334        16.4361        3.78862        -999.25              1
      8305.5000       120.5212        -999.25        -999.25         0.5742         0.6931        16.2288        3.99592        -999.25              1
      8306.0000       120.5188        -999.25        -999.25         0.5808         0.6642        16.1356       4.089121        -999.25              1
      8306.5000       120.5242        -999.25        -999.25         0.5774         0.6969        16.6758        3.54892        -999.25              1
      8307.0000       120.6034        -999.25        -999.25         0.5735          0.728        17.2151       3.009621        -999.25              1
      8307.5000       120.6825        -999.25        -999.25         0.5703         0.7594        17.7554        2.46932        -999.25              1
      8308.0000       120.7616        -999.25        -999.25         0.5724          0.771        18.6876       1.537121        -999.25              1
      8308.5000       120.8323        -999.25        -999.25         0.5744         0.7345        19.6255      0.5992203        -999.25              1
      8309.0000        120.873        -999.25        -999.25         0.5768         0.7097        20.5633     -0.3385792        -999.25              1
      8309.5000       120.9137        -999.25        -999.25         0.5804         0.7083        21.7266      -1.501881        -999.25      0.9936471
      8310.0000       120.9545        -999.25        -999.25          0.584         0.7068         22.967      -2.742279        -999.25      0.9779459
      8310.5000        -999.25        -999.25        -999.25         0.5876         0.7126        24.1236       -3.89888        -999.25      0.9633053
      8311.0000        -999.25        -999.25        -999.25         0.5913         0.7188        25.2099       -4.98518        -999.25      0.9495547
