#------------------------------------------------------------------------------
# Created by    : vladimir.rabinovich
# Created on    : 09/19/2023 17:19:43
#------------------------------------------------------------------------------
~Version Information Section
VERS.           2.0     :   CWLS log ASCII Standard - VERSION 2.0
WRAP.           NO      :   One line per depth step
~Well Information Section
#MNEM       .UNIT                                         VALUE :DESCRIPTION
#------------------------------------------------------------------------------
STRT        .FT                                            1596 :START DEPTH
STOP        .FT                                            6079 :STOP DEPTH
STEP        .FT                                             0.5 :STEP      
NULL        .                                           -999.25 :NULL      
COMP        .                                 EOG RESOURCES INC :COMPANY   
WELL        .                                     ST TR 00721-S :WELL      
FLD         .                                  SHERMAN OFFSHORE :FIELD     
LOC         .                                                   :LOCATION  
CNTY        .                      MATAGORDA ISLAND SMALL BLOCK :LOCATION  
STAT        .                                             TEXAS :STATE     
CTRY        .                                     UNITED STATES :COUNTRY   
SRVC        .                                                   :SERVICE COMPANY
DATE        .                             9/13/2023 11:19:17 AM :LOG DATE  
API         .                                    42603300060000 :API NUMBER
UWI         .                                    42603300060000 :UNIQUE WELL ID
XCOORD      .                                  491308.028993428 :SURFACE X 
YCOORD      .                                  10247941.6299489 :SURFACE Y 
LAT         .                                        28.1931224 :LATITUDE  
LON         .                                       -96.5672747 :LONGITUDE 
ELEV        .FT                                              74 :ELEVATION VALUE
ELEV_TYPE   .                                                KB :ELEVATION REFERENCE TYPE
~Curve Information Section
#MNEM       .UNIT                                      API CODE :CURVE DESCRIPTION
#------------------------------------------------------------------------------
DEPT        .FT                                                 :DEPTH     
ASFL        .OHMM                                               :          
CILD        .MMHO                                               :          
ILD         .OHMM                                               :          
SP          .MV                                                 :          
SP_NORM     .MV                                                 :SP Normalized
VSH_SP      .V/V                                                :Volume of Shale from SP
~A        DEPTH           ASFL           CILD            ILD             SP        SP_NORM         VSH_SP
# ...
      3952.0000         0.9093       933.3537         1.1308       -34.4632     -0.5166321              1
      3952.5000         0.9112       927.8017         1.1207       -34.6631     -0.7386551              1
      3953.0000         0.9131       894.2332         1.1204       -34.8631     -0.9607735              1
      3953.5000          0.913       910.0222         1.1116       -34.9641      -1.083897      0.9985281
      3954.0000          0.913       921.9158           1.11        -35.065      -1.206921      0.9963698
      3954.5000         0.9129       933.8094         1.0999        -35.067      -1.231045      0.9959466
      3955.0000         0.9129       945.7032         1.0897       -35.0689      -1.255066      0.9955252
      3955.5000         0.9128         953.66         1.0796       -35.0709      -1.279186       0.995102
      3956.0000         0.9108        961.617         1.0793       -35.0728      -1.303211      0.9946805
      3956.5000         0.9068       961.7084          1.079       -35.0748      -1.327332      0.9942573
      3957.0000         0.9028       961.7828         1.0786       -35.1757      -1.450356       0.992099
      3957.5000         0.8988       969.7399         1.0785       -35.1777      -1.474476      0.9916759
      3958.0000         0.8928       973.7604          1.078       -35.1796      -1.498497      0.9912544
      3958.5000         0.8869       981.7176         1.0779       -35.1816      -1.522621      0.9908312
      3959.0000         0.8809       981.8006         1.0776       -35.1835      -1.546642      0.9904098
      3959.5000         0.8828       981.8836          1.087       -35.2845      -1.669765      0.9882497
      3960.0000         0.8907       978.0295         1.0966       -35.5834      -1.990788      0.9826177
      3960.5000         0.9214       966.3009          1.116       -35.8824      -2.311909      0.9769841
      3961.0000         0.9521       950.6349         1.1452       -36.0824      -2.534035      0.9730871
      3961.5000         0.9828        903.471         1.1745       -36.6783      -3.152054      0.9622447
      3962.0000         1.0282       891.7419         1.2037       -37.6703      -4.166176      0.9444531
      3962.5000         1.0321        856.389         1.2428       -39.5543      -6.072296      0.9110124
      3963.0000         1.0792       801.3496         1.3016       -40.1493      -6.689419      0.9001856
      3963.5000         1.1262       765.9998         1.3505       -41.8353      -8.397545      0.8702185
      3964.0000         1.1733       746.3913         1.4191       -44.6094      -11.19377       0.821162
      3964.5000         1.2203       718.9117          1.468       -44.6113      -11.21779      0.8207405
      3965.0000         1.2674        703.244          1.517       -44.5143      -11.14291      0.8220542
      3965.5000         1.3055       679.7013         1.5954       -44.3182      -10.96893      0.8251064
      3966.0000         1.3094       663.9964         1.6247       -44.1222      -10.79506      0.8281569
      3966.5000         1.2325       628.6779         1.5906       -43.9261      -10.62108      0.8312091
      3967.0000         1.2344       613.0094         1.6313       -43.6311       -10.3482      0.8359965
      3967.5000         1.2364       609.1532         1.6416        -43.435      -10.17422      0.8390487
      3968.0000         1.2677       621.0066         1.6103       -43.0409      -9.802246      0.8455746
      3968.5000         1.3051       646.5018         1.5468       -42.6469      -9.430367      0.8520988
      3969.0000         1.0059       668.4601          1.496       -42.4508       -9.25639      0.8551511
      3969.5000         0.9681       713.9642         1.4006       -42.1558      -8.983509      0.8599384
      3970.0000         0.9304       759.4683         1.3167       -41.8607      -8.710529      0.8647276
      3970.5000         0.8927       804.9723         1.2423       -41.4666      -8.338554      0.8712534
      3971.0000          0.854       850.4764         1.1758       -41.2706      -8.164677      0.8743039
      3971.5000         0.8421       895.9804         1.1161       -40.8765      -7.792698      0.8808299
      3972.0000         0.8362       941.4845         1.0622       -40.5814      -7.519722      0.8856189
      3972.5000         0.8302       986.9886         1.0132       -40.1874      -7.147842      0.8921431
      3973.0000         0.8262       1035.358         0.9658       -39.8923      -6.874866      0.8969322
      3973.5000         0.8242       1047.213         0.9549       -39.7953      -6.799988      0.8982458
      3974.0000         0.8301       1070.922         0.9338       -39.8962      -6.923008      0.8960876
      3974.5000         0.8383       1078.881         0.9269       -40.0962       -7.14513      0.8921907
      3975.0000         1.0091       1082.902         0.9234       -40.2961      -7.367157      0.8882955
      3975.5000         1.0189       998.2704         1.0017       -40.6941      -7.787277      0.8809249
      3976.0000         1.1425       913.6384         1.0945       -41.2911      -8.406399      0.8700632
      3976.5000         1.2661       829.0064         1.2063         -41.59      -8.727421      0.8644312
      3977.0000         1.4066       744.3744         1.3434         -41.79      -8.949543      0.8605343
      3977.5000         1.3967       659.7424         1.5157       -41.8909      -9.072567       0.858376
      3978.0000         1.4006       520.2895          1.922       -41.9919       -9.19569       0.856216
      3978.5000         1.4026       488.8672         2.0455       -42.0928       -9.31871      0.8540577
      3979.0000         1.4025       358.9988         2.7855       -42.0948      -9.342831      0.8536345
      3979.5000         1.4025        359.077         2.7849       -46.9479      -14.21805      0.7681044
      3980.0000         1.4004        367.033         2.7246       -46.3177      -13.60998      0.7787723
      3980.5000         0.9081       606.5393         1.6487       -45.6874       -13.0018      0.7894421
      3981.0000         0.8982        698.767         1.4311       -45.0571      -12.39362      0.8001119
      3981.5000         0.9001       790.9947         1.2642       -44.4269      -11.78554        0.81078
      3982.0000         0.9392       883.2224         1.1322       -42.8005      -10.18126      0.8389252
      3982.5000         0.9783       1017.293          0.983       -42.8995      -10.30239      0.8368002
      3983.0000         1.0358       1040.921         0.8076       -52.3087      -19.73371      0.6713384
      3983.5000         1.0417       1220.895         0.7975        -61.718      -29.16513      0.5058749
      3984.0000         0.9412       1427.104         0.7874       -71.1272      -38.59645      0.3404132
      3984.5000         0.9431       1454.714         0.8068       -77.2647      -44.75608      0.2323495
      3985.0000         0.9999       1454.756          0.836       -77.3646       -44.8781      0.2302088
      3985.5000         1.0567       1323.552         0.8653       -71.2342      -38.76982      0.3373716
      3986.0000         1.1135       1192.349         0.9339       -65.1038      -32.66154      0.4445344
      3986.5000         2.2038       1061.145         0.9533       -58.9734      -26.55326      0.5516971
      3987.0000         2.2035       935.2977         0.9825        -52.843      -20.44499      0.6588598
      3987.5000         2.1735       931.4423         0.9921       -46.7126      -14.33671      0.7660226
      3988.0000         1.1229        923.649         0.9721       -42.8229      -10.46913      0.8338749
      3988.5000         1.0097       935.5051         0.9521       -40.5051      -8.173454      0.8741499
      3989.0000         0.9407       1041.714         0.9026       -38.1873      -5.877777       0.914425
      3989.5000         0.9165       1147.924         0.8728       -35.8695        -3.5821         0.9547
