#------------------------------------------------------------------------------
# Created by    : vladimir.rabinovich
# Created on    : 09/19/2023 17:19:43
#------------------------------------------------------------------------------
~Version Information Section
VERS.           2.0     :   CWLS log ASCII Standard - VERSION 2.0
WRAP.           NO      :   One line per depth step
~Well Information Section
#MNEM       .UNIT                                         VALUE :DESCRIPTION
#------------------------------------------------------------------------------
STRT        .FT                                            1596 :START DEPTH
STOP        .FT                                            6079 :STOP DEPTH
STEP        .FT                                             0.5 :STEP      
NULL        .                                           -999.25 :NULL      
COMP        .                                 EOG RESOURCES INC :COMPANY   
WELL        .                                     ST TR 00721-S :WELL      
FLD         .                                  SHERMAN OFFSHORE :FIELD     
LOC         .                                                   :LOCATION  
CNTY        .                      MATAGORDA ISLAND SMALL BLOCK :LOCATION  
STAT        .                                             TEXAS :STATE     
CTRY        .                                     UNITED STATES :COUNTRY   
SRVC        .                                                   :SERVICE COMPANY
DATE        .                             9/13/2023 11:19:17 AM :LOG DATE  
API         .                                    42603300060000 :API NUMBER
UWI         .                                    42603300060000 :UNIQUE WELL ID
XCOORD      .                                  491308.028993428 :SURFACE X 
YCOORD      .                                  10247941.6299489 :SURFACE Y 
LAT         .                                        28.1931224 :LATITUDE  
LON         .                                       -96.5672747 :LONGITUDE 
ELEV        .FT                                              74 :ELEVATION VALUE
ELEV_TYPE   .                                                KB :ELEVATION REFERENCE TYPE
~Curve Information Section
#MNEM       .UNIT                                      API CODE :CURVE DESCRIPTION
#------------------------------------------------------------------------------
DEPT        .FT                                                 :DEPTH     
ASFL        .OHMM                                               :          
CILD        .MMHO                                               :          
ILD         .OHMM                                               :          
SP          .MV                                                 :          
SP_NORM     .MV                                                 :SP Normalized
VSH_SP      .V/V                                                :Volume of Shale from SP
~A        DEPTH           ASFL           CILD            ILD             SP        SP_NORM         VSH_SP
# ...
      1900.0000         1.2419       1998.025         0.6318        -74.184      -33.22014       0.104996
      1900.5000         1.2434        2095.71         0.6055       -74.9747      -34.01085     0.08303208
      1901.0000         0.9655       2203.363         0.5826       -75.5675      -34.60364     0.06656551
      1901.5000         0.9714       2270.491         0.5629       -76.3588      -35.39495      0.0445848
      1902.0000          1.001       2325.774         0.5433       -77.1495      -36.18564     0.02262105
      1902.5000         1.1001       2365.262         0.5236       -77.9402      -36.97635   0.0006570816
      1903.0000         1.1886       2388.956         0.5139       -77.5436      -36.57975     0.01167371
      1903.5000         1.1827       2452.134         0.4942       -77.6422      -36.67834    0.008934975
      1904.0000         1.1121        2491.62         0.4746       -77.8392      -36.87535     0.00346258
      1904.5000         1.0415       2523.209         0.4648       -77.9372      -36.97335   0.0007403691
      1905.0000          0.971       2550.849         0.4649       -77.8377      -36.87384    0.003504329
      1905.5000         0.9004       2614.021          0.465       -77.7382      -36.77434    0.006268289
      1906.0000         0.8353       2669.298          0.465       -77.5398      -36.57595     0.01177926
      1906.5000         0.8373       2783.798         0.4652       -77.2424      -36.27855     0.02004041
      1907.0000         0.8732       2795.643         0.4653       -77.1432      -36.17935     0.02279589
      1907.5000         0.9092       2723.431         0.4654       -76.8458      -35.88195     0.03105704
      1908.0000         0.9452       2651.219         0.4655       -75.0525      -34.08864     0.08087105
      1908.5000         0.9811       2579.008         0.4655       -73.2592      -32.29535      0.1306849
      1909.0000         1.0229       2506.796         0.4755       -71.4659      -30.50204      0.1804989
      1909.5000          1.019       2428.464         0.4855       -69.6218      -28.65795      0.2317237
      1910.0000         1.0131       2436.361         0.4856       -70.8088      -29.84494      0.1987516
      1910.5000         0.7821       2488.388         0.4857       -72.1448      -31.18094      0.1616405
      1911.0000         0.7795       2540.416         0.4858       -73.4809      -32.51705      0.1245264
      1911.5000         0.7769       2610.079         0.4859       -74.4666      -33.50274     0.09714603
      1912.0000         0.7743        2610.08         0.4959       -74.6639      -33.70005     0.09166537
      1912.5000         0.9401       2598.236         0.5058       -74.5643      -33.60044     0.09443209
      1913.0000         0.9421       2586.393         0.5257       -72.0669      -31.10305      0.1638043
      1913.5000          0.946        2450.14         0.5356       -68.6271      -27.66324      0.2593544
      1914.0000          0.948       2313.887         0.5555         -68.33      -27.36615      0.2676071
      1914.5000         1.0027       2177.635         0.5555       -68.2305      -27.26664       0.270371
      1915.0000         1.0586       1986.332         0.5556       -68.1309      -27.16704      0.2731377
      1915.5000         1.0547       1982.386         0.5459       -69.5897      -28.62584      0.2326155
      1916.0000         1.0547       1982.389         0.5361       -71.0484      -30.08455       0.192096
      1916.5000         1.0586       2122.103         0.5164       -72.5072      -31.54335      0.1515737
      1917.0000         1.0626       2261.816         0.5067        -73.966      -33.00215      0.1110515
      1917.5000         0.8895        2401.53          0.487       -75.4247      -34.46084     0.07053217
      1918.0000         0.8482       2541.243         0.4773       -76.3383      -35.37445     0.04515425
      1918.5000          0.807       2680.957         0.4576       -76.4369      -35.47304     0.04241551
      1919.0000         0.7705        2820.67         0.4577        -77.495      -36.53115     0.01302369
      1919.5000         0.7745       2960.384         0.4578       -78.2161      -37.25225              0
      1920.0000          0.862       3100.097         0.4579       -78.4134      -37.44954              0
      1920.5000         0.9423       3194.313          0.458       -78.5117      -37.54785              0
      1921.0000         0.9443       3063.163         0.4581       -78.3133      -37.34945              0
      1921.5000         0.9443       2932.012          0.468       -76.5249      -35.56105     0.03997093
      1922.0000         0.9443       2800.861          0.478       -74.7366      -33.77275     0.08964591
      1922.5000         0.9463        2669.71         0.4978       -72.9483      -31.98445      0.1393209
      1923.0000         0.9463        2538.56         0.5177       -70.7914      -29.82754       0.199235
      1923.5000         0.9443       2407.409         0.5375       -70.6925      -29.72864      0.2019822
      1924.0000         0.8928       2276.258         0.5573        -66.264      -25.30014       0.324996
      1924.5000         0.8413       2145.107         0.5772       -61.8355      -20.87164      0.4480099
      1925.0000         0.7898       2013.957         0.6068        -57.407      -16.44315      0.5710237
      1925.5000         0.7383        1907.49         0.6563       -52.9785      -12.01464      0.6940377
      1926.0000         0.6867       1777.239         0.6761         -48.55      -7.586143      0.8170516
      1926.5000         0.6543       1670.676         0.6959        -43.678      -2.714146      0.9523848
      1927.0000         0.6385       1635.159         0.7158       -43.4798      -2.515945      0.9578904
      1927.5000         0.6148       1591.748         0.7356       -43.2808      -2.316944      0.9634182
      1928.0000         0.6089       1556.233         0.7455       -43.0825      -2.118645      0.9689265
      1928.5000          0.605       1536.506         0.6964       -42.8839      -1.920044      0.9744432
      1929.0000         0.6011       1520.726         0.7359       -42.5863      -1.622444      0.9827099
      1929.5000         0.6011       1497.053         0.7755       -41.3067     -0.3428459              1
      1930.0000         0.6051       1473.379         0.8052       -40.0272       0.936657              1
      1930.5000         0.6963       1398.401         0.8447       -38.7476       2.216255              1
      1931.0000         0.7875        1283.95         0.8744       -36.6461       4.317757              1
      1931.5000         0.8695       1165.553          0.914       -36.6457       4.318157              1
      1932.0000         0.8676       1126.096         0.9338       -36.6449       4.318954              1
      1932.5000          0.862       1070.851         0.9734        -36.743       4.220856              1
      1933.0000         0.8597       1039.295         0.9932       -36.9401       4.023754              1
      1933.5000         0.8438        1023.52         1.0327       -37.1372       3.826656              1
      1934.0000         0.8278       976.1709         1.0427       -39.4121       1.551754              1
      1934.5000         0.8119       976.1835         1.0428       -39.6092       1.354656              1
      1935.0000         0.7959       980.1365          1.033       -39.8063       1.157555              1
      1935.5000           0.78       1019.323         1.0035       -39.9044       1.059456              1
      1936.0000          0.764       1058.511         0.9839       -39.9036       1.060257              1
      1936.5000         0.7296       1097.698         0.9741       -39.9029       1.060955              1
      1937.0000         0.7276       1136.885         0.9544       -39.9021       1.061756              1
      1937.5000         0.7217       1161.739         0.9348       -40.0002      0.9636574              1
