#------------------------------------------------------------------------------
# Created by    : vladimir.rabinovich
# Created on    : 09/19/2023 17:20:26
#------------------------------------------------------------------------------
~Version Information Section
VERS.           2.0     :   CWLS log ASCII Standard - VERSION 2.0
WRAP.           NO      :   One line per depth step
~Well Information Section
#MNEM       .UNIT                                         VALUE :DESCRIPTION
#------------------------------------------------------------------------------
STRT        .FT                                             494 :START DEPTH
STOP        .FT                                            8560 :STOP DEPTH
STEP        .FT                                             0.5 :STEP      
NULL        .                                           -999.25 :NULL      
COMP        .                           COLORADO OIL & GAS CORP :COMPANY   
WELL        .                                     ST TR 00122-S :WELL      
FLD         .                                           WILDCAT :FIELD     
LOC         .                                                   :LOCATION  
CNTY        .                           HIGH ISLAND SMALL BLOCK :LOCATION  
STAT        .                                             TEXAS :STATE     
CTRY        .                                     UNITED STATES :COUNTRY   
SRVC        .                                                   :SERVICE COMPANY
DATE        .                             9/13/2023 11:19:17 AM :LOG DATE  
API         .                                    42606300100000 :API NUMBER
UWI         .                                    42606300100000 :UNIQUE WELL ID
XCOORD      .                                  1208966.22079576 :SURFACE X 
YCOORD      .                                  10715303.2202208 :SURFACE Y 
LAT         .                                        29.5185768 :LATITUDE  
LON         .                                       -94.3569047 :LONGITUDE 
ELEV        .FT                                              93 :ELEVATION VALUE
ELEV_TYPE   .                                                KB :ELEVATION REFERENCE TYPE
~Curve Information Section
#MNEM       .UNIT                                      API CODE :CURVE DESCRIPTION
#------------------------------------------------------------------------------
DEPT        .FT                                                 :DEPTH     
ASN         .OHMM                                               :          
CILD        .MMHO                                               :          
GR          .GAPI                                               :          
GR_NORM     .GAPI                                               :GammaRay Normalized
ILD         .OHMM                                               :          
SP          .MV                                                 :          
SP_NORM     .MV                                                 :SP Normalized
VSH_GR      .V/V                                                :Volume of Shale from GR
VSH_SP      .V/V                                                :Volume of Shale from SP
~A        DEPTH            ASN           CILD             GR        GR_NORM            ILD             SP        SP_NORM         VSH_GR         VSH_SP
# ...
      4787.0000         0.7212       4320.484        -999.25        -999.25         0.1643      -121.1312      -59.31302        -999.25      0.1548838
      4787.5000         0.7455       4314.102        -999.25        -999.25         0.1616      -122.6415      -60.82332        -999.25      0.1329954
      4788.0000          0.774       4326.164        -999.25        -999.25         0.1588      -124.1731      -62.35492        -999.25      0.1107983
      4788.5000         0.7488       4397.484        -999.25        -999.25         0.1561      -125.7046      -63.88641        -999.25      0.0886027
      4789.0000         0.6877       4578.469        -999.25        -999.25          0.156      -127.3478      -65.52962        -999.25     0.06478816
      4789.5000         0.6485       4635.438        -999.25        -999.25         0.1592      -129.0325      -67.21432        -999.25     0.04037221
      4790.0000         0.6287       4683.617        -999.25        -999.25         0.1624      -130.7014      -68.88322        -999.25     0.01618526
      4790.5000         0.6047        4728.32        -999.25        -999.25         0.1656      -131.8362      -70.01801        -999.25              0
      4791.0000         0.5841       4762.484        -999.25        -999.25         0.1688      -132.9702      -71.15202        -999.25              0
      4791.5000         0.5712       4796.672        -999.25        -999.25         0.1733      -133.5688      -71.75062        -999.25              0
      4792.0000         0.5613        4814.82        -999.25        -999.25         0.1801      -133.7766      -71.95841        -999.25              0
      4792.5000         0.5555       4656.664        -999.25        -999.25         0.1869      -133.9836      -72.16541        -999.25              0
      4793.0000         0.5505       4487.336        -999.25        -999.25         0.1937      -133.8992      -72.08102        -999.25              0
      4793.5000         0.5466       4361.844        -999.25        -999.25         0.2005      -133.8147      -71.99651        -999.25              0
      4794.0000         0.5427       4180.516        -999.25        -999.25         0.2073      -133.7305      -71.91232        -999.25              0
      4794.5000         0.5391       4094.672        -999.25        -999.25         0.2141       -133.646      -71.82781        -999.25              0
      4795.0000         0.5414         3995.5        -999.25        -999.25         0.2209      -132.8557      -71.03751        -999.25              0
      4795.5000         0.5466       3808.949        -999.25        -999.25         0.2283       -131.969      -70.15081        -999.25              0
      4796.0000         0.5543       3598.742        -999.25        -999.25          0.236      -131.0815      -69.26331        -999.25     0.01067662
      4796.5000           0.56       3359.215        -999.25        -999.25         0.2436      -129.3296      -67.51142        -999.25     0.03606636
      4797.0000         0.5666        3318.09        -999.25        -999.25         0.2435      -127.0544      -65.23621        -999.25     0.06904038
      4797.5000         0.5804       4106.719        -999.25        -999.25         0.2376      -124.2921      -62.47392        -999.25      0.1090737
      4798.0000         0.6176       4480.328        -999.25        -999.25         0.2318      -120.8452      -59.02702        -999.25      0.1590288
      4798.5000          0.683       4487.141        -999.25        -999.25         0.2259      -115.8723      -54.05412        -999.25      0.2310998
      4799.0000         0.7462       4419.211        -999.25        -999.25         0.2183      -116.4692      -54.65102        -999.25       0.222449
      4799.5000         0.7471       4351.281        -999.25        -999.25         0.2097      -117.5007      -55.68252        -999.25      0.2074997
      4800.0000         0.7345       4283.352        -999.25        -999.25         0.2011      -116.0654      -54.24722        -999.25      0.2283012
      4800.5000         0.7294       4215.422        -999.25        -999.25         0.1926      -119.6129      -57.79472        -999.25      0.1768882
      4801.0000         0.7238       4154.602        -999.25        -999.25          0.184      -122.1691      -60.35091        -999.25      0.1398418
      4801.5000         0.7165       4244.055        -999.25        -999.25         0.1756      -122.9041      -61.08591        -999.25      0.1291896
      4802.0000         0.6816       4333.609        -999.25        -999.25         0.1671      -123.6006      -61.78242        -999.25      0.1190954
      4802.5000         0.5792       4433.727        -999.25        -999.25         0.1587      -124.1653      -62.34711        -999.25      0.1109114
      4803.0000         0.5077       4544.109        -999.25        -999.25         0.1502      -124.6053      -62.78712        -999.25      0.1045345
      4803.5000         0.4769       4611.398        -999.25        -999.25         0.1418      -124.8743      -63.05611        -999.25       0.100636
      4804.0000          0.467       4676.359        -999.25        -999.25         0.1437      -125.1619      -63.34372        -999.25     0.09646783
      4804.5000         0.4624       4738.758        -999.25        -999.25         0.1474      -125.4838      -63.66562        -999.25     0.09180263
      4805.0000         0.4607       4791.391        -999.25        -999.25          0.157      -125.6938      -63.87562        -999.25     0.08875916
      4805.5000         0.4626        4842.75        -999.25        -999.25         0.1667      -125.8173      -63.99911        -999.25     0.08696935
      4806.0000         0.4645         4770.5        -999.25        -999.25         0.1763      -125.9147      -64.09652        -999.25     0.08555769
      4806.5000         0.4791       3974.129        -999.25        -999.25         0.1859      -125.9728      -64.15462        -999.25     0.08471569
      4807.0000         0.5408       3892.574        -999.25        -999.25          0.196      -126.0314      -64.21322        -999.25      0.0838664
      4807.5000         0.5873       3790.684        -999.25        -999.25         0.2071      -126.1042      -64.28602        -999.25     0.08281133
      4808.0000         0.6307       3692.984        -999.25        -999.25         0.2181       -126.198      -64.37981        -999.25     0.08145197
      4808.5000         0.6442       3615.184        -999.25        -999.25         0.2292      -126.3154      -64.49722        -999.25      0.0797505
      4809.0000         0.6382       3515.609        -999.25        -999.25         0.2403      -126.4916      -64.67342        -999.25     0.07719687
      4809.5000         0.6274       3395.547        -999.25        -999.25         0.2514      -126.7272      -64.90902        -999.25     0.07378232
      4810.0000         0.6165       3168.953        -999.25        -999.25          0.267       -126.782      -64.96381        -999.25      0.0729882
      4810.5000         0.6876        3057.68        -999.25        -999.25         0.2852      -126.6675      -64.84932        -999.25     0.07464755
      4811.0000         0.7271       2896.941        -999.25        -999.25         0.3035      -125.9753      -64.15712        -999.25     0.08467942
      4811.5000         0.7002       2402.777        -999.25        -999.25         0.3218      -124.9408      -63.12262        -999.25     0.09967218
      4812.0000         0.6721       2303.996        -999.25        -999.25         0.3411      -123.8047      -61.98652        -999.25      0.1161374
      4812.5000         0.6476       2219.328        -999.25        -999.25         0.3623      -113.9971      -52.17892        -999.25      0.2582766
      4813.0000         0.6472       2145.082        -999.25        -999.25         0.3836      -108.9427      -47.12452        -999.25      0.3315287
