#------------------------------------------------------------------------------
# Created by    : vladimir.rabinovich
# Created on    : 09/19/2023 17:20:26
#------------------------------------------------------------------------------
~Version Information Section
VERS.           2.0     :   CWLS log ASCII Standard - VERSION 2.0
WRAP.           NO      :   One line per depth step
~Well Information Section
#MNEM       .UNIT                                         VALUE :DESCRIPTION
#------------------------------------------------------------------------------
STRT        .FT                                             494 :START DEPTH
STOP        .FT                                            8560 :STOP DEPTH
STEP        .FT                                             0.5 :STEP      
NULL        .                                           -999.25 :NULL      
COMP        .                           COLORADO OIL & GAS CORP :COMPANY   
WELL        .                                     ST TR 00122-S :WELL      
FLD         .                                           WILDCAT :FIELD     
LOC         .                                                   :LOCATION  
CNTY        .                           HIGH ISLAND SMALL BLOCK :LOCATION  
STAT        .                                             TEXAS :STATE     
CTRY        .                                     UNITED STATES :COUNTRY   
SRVC        .                                                   :SERVICE COMPANY
DATE        .                             9/13/2023 11:19:17 AM :LOG DATE  
API         .                                    42606300100000 :API NUMBER
UWI         .                                    42606300100000 :UNIQUE WELL ID
XCOORD      .                                  1208966.22079576 :SURFACE X 
YCOORD      .                                  10715303.2202208 :SURFACE Y 
LAT         .                                        29.5185768 :LATITUDE  
LON         .                                       -94.3569047 :LONGITUDE 
ELEV        .FT                                              93 :ELEVATION VALUE
ELEV_TYPE   .                                                KB :ELEVATION REFERENCE TYPE
~Curve Information Section
#MNEM       .UNIT                                      API CODE :CURVE DESCRIPTION
#------------------------------------------------------------------------------
DEPT        .FT                                                 :DEPTH     
ASN         .OHMM                                               :          
CILD        .MMHO                                               :          
GR          .GAPI                                               :          
GR_NORM     .GAPI                                               :GammaRay Normalized
ILD         .OHMM                                               :          
SP          .MV                                                 :          
SP_NORM     .MV                                                 :SP Normalized
VSH_GR      .V/V                                                :Volume of Shale from GR
VSH_SP      .V/V                                                :Volume of Shale from SP
~A        DEPTH            ASN           CILD             GR        GR_NORM            ILD             SP        SP_NORM         VSH_GR         VSH_SP
# ...
      1554.0000         0.5953       1988.396        27.5736       47.83411         0.5654       -95.6038      -8.298943      0.3156193      0.1001511
      1554.5000         0.5925       1988.779        27.2663       47.43543         0.5656          -95.6      -8.297844      0.3071368       0.100308
      1555.0000         0.5908       1993.283        26.9657       47.04533         0.5658       -95.5962      -8.296745      0.2988369       0.100465
      1555.5000         0.5891       1999.207         26.665       46.65511          0.566       -95.5924      -8.295647      0.2905342      0.1006219
      1556.0000         0.5873       2005.129        26.3898       46.29753         0.5663       -95.5886      -8.294548      0.2829263      0.1007789
      1556.5000         0.5852       2016.545        26.1533       45.98955         0.5669       -95.5848      -8.293449      0.2763734      0.1009358
      1557.0000         0.5831       2028.137        25.9167       45.68142         0.5705       -95.5748      -8.286148      0.2698174      0.1019788
      1557.5000          0.581       2039.729        25.6801       45.37329          0.574       -95.5618      -8.275848      0.2632616      0.1034502
      1558.0000         0.5788       2051.148        25.1014         44.627         0.5775       -95.5487       -8.26545       0.247383      0.1049358
      1558.5000         0.5765       2062.305        24.3403       43.64709         0.5817       -95.5356      -8.255051      0.2265338      0.1064213
      1559.0000         0.5742       2073.461        23.4238       42.46813         0.5864       -95.5226      -8.244751      0.2014495      0.1078927
      1559.5000         0.5719       2084.617         22.888       41.77679         0.5911       -95.5095      -8.234352      0.1867401      0.1093783
      1560.0000         0.5695        2095.77        22.4761       41.24414         0.5958       -95.4965      -8.224052      0.1754072      0.1108497
      1560.5000         0.5672       2107.203        22.1539       40.82637         0.6009       -95.4834      -8.213654      0.1665184      0.1123352
      1561.0000         0.5649       2118.816        21.8368       40.41513         0.6077       -95.4655      -8.198456      0.1577688      0.1145063
      1561.5000         0.5642        2130.43        21.5723       40.07128         0.6145       -95.4192      -8.154854      0.1504528      0.1207352
      1562.0000         0.5637       2142.039        21.5419       40.02726         0.6213       -95.3729      -8.111259      0.1495162      0.1269629
      1562.5000         0.5632       2157.035        21.7634       40.30587         0.6293       -95.3265      -8.067558       0.155444       0.133206
      1563.0000         0.5627       2174.023         22.174        40.8267         0.6384       -95.2803      -8.024055      0.1665255      0.1394206
      1563.5000         0.5625       2190.555        22.7258       41.52837         0.6474        -95.234      -7.980461      0.1814548      0.1456484
      1564.0000         0.5625       2205.547        23.2777       42.23018         0.6564       -95.1876       -7.93676      0.1963869      0.1518914
      1564.5000         0.5625       2220.203        23.9247       43.05378         0.6595       -95.1414      -7.893265      0.2139103       0.158105
      1565.0000         0.5635       2225.277        24.6248        43.9454         0.6624        -95.095      -7.849564      0.2328809      0.1643481
      1565.5000         0.5653       2223.176        25.2614        44.7557         0.6652       -95.0487      -7.805962      0.2501213      0.1705769
      1566.0000         0.5671       2216.781        25.8904       45.55625         0.6636       -95.0059      -7.765862      0.2671543      0.1763055
      1566.5000         0.5689       2205.797        26.5194        46.3568         0.6619       -94.9636      -7.726265      0.2841873      0.1819621
      1567.0000         0.5713       2194.813        27.3956       47.47397          0.665       -94.9214      -7.686768      0.3079568      0.1876046
      1567.5000         0.5742       2184.254        28.2807       48.60255         0.6682       -94.8792       -7.64727      0.3319692      0.1932471
      1568.0000         0.5771       2176.234        29.3442       49.95962         0.6709       -94.8369      -7.607666       0.360843      0.1989049
      1568.5000           0.58       2183.621        30.6248       51.59475         0.6727       -94.7949      -7.568367       0.395633       0.204519
      1569.0000         0.5854       2196.574        32.2775       53.70649         0.6744       -94.7532      -7.529366      0.4405635      0.2100906
      1569.5000          0.591       2210.977        35.1287       57.35328         0.6815       -94.7113      -7.490173       0.518155      0.2156895
      1570.0000         0.5965       1906.176        34.6335       56.71394         0.6868       -94.6694      -7.450974      0.5045518      0.2212895
      1570.5000         0.6075       1887.658        34.1382       56.07447         0.6862       -94.6089      -7.393173      0.4909461      0.2295467
      1571.0000         0.6236       1869.146         33.643       55.43512         0.6857         -94.53      -7.316971       0.477343      0.2404327
      1571.5000         0.6491       1846.834        33.9869       55.87051         0.6851       -94.4513      -7.240974      0.4866066      0.2512894
      1572.0000           0.67       1822.902        36.7831       59.44686         0.6846       -94.4005      -7.192871      0.5626992      0.2581613
      1572.5000         0.6815       1793.891        39.4435       62.84927          0.684       -94.4052      -7.200272      0.6350909      0.2571041
      1573.0000         0.6839       1783.148        40.8079       64.59174         0.6835       -94.4097      -7.207474      0.6721647      0.2560752
      1573.5000         0.6471       1785.119        41.8802        65.9601         0.6829       -94.4142      -7.214676      0.7012787      0.2550463
      1574.0000         0.6032       1788.316         42.823       67.16257         0.6824       -94.4188      -7.221977      0.7268631      0.2540033
      1574.5000          0.657        1795.42         43.423       67.92598         0.6818        -94.467      -7.272881      0.7431059      0.2467314
      1575.0000         0.6931       1805.207        43.7609       68.35369         0.6813       -94.5477      -7.356277      0.7522062      0.2348175
      1575.5000          0.705       1824.424        39.2953       62.62896         0.6807       -94.6283      -7.439583      0.6304034      0.2229167
      1576.0000         0.7019       1957.063        37.4609       60.27434         0.6802       -94.7089      -7.522881      0.5803052      0.2110171
      1576.5000         0.6959       2050.273        35.9076       58.27976         0.6796       -94.7896      -7.606277      0.5378673      0.1991032
      1577.0000         0.6899       2058.137        34.5329       56.51393         0.6791       -94.9011      -7.720482      0.5002964      0.1827883
      1577.5000         0.6839       2050.922        33.4084       55.06857         0.6785        -95.058      -7.880081      0.4695439      0.1599884
      1578.0000          0.678       2041.787        32.3748       53.73963          0.678       -95.2147      -8.039482      0.4412687      0.1372168
      1578.5000         0.6721       2029.049        31.5392       52.66429         0.6774       -95.3716      -8.199081      0.4183891      0.1144169
      1579.0000         0.6664       2016.309        31.1404       52.14841         0.6769       -95.5284      -8.358582      0.4074129     0.09163121
      1579.5000         0.6607       2003.568        32.6981       54.13847         0.6763       -95.6853      -8.518188      0.4497546     0.06883021
      1580.0000          0.655       1993.916        33.9913       55.78974         0.6758       -95.9044       -8.73999      0.4848881     0.03714425
