#------------------------------------------------------------------------------
# Created by    : vladimir.rabinovich
# Created on    : 09/19/2023 17:20:27
#------------------------------------------------------------------------------
~Version Information Section
VERS.           2.0     :   CWLS log ASCII Standard - VERSION 2.0
WRAP.           NO      :   One line per depth step
~Well Information Section
#MNEM       .UNIT                                         VALUE :DESCRIPTION
#------------------------------------------------------------------------------
STRT        .FT                                             540 :START DEPTH
STOP        .FT                                            9057 :STOP DEPTH
STEP        .FT                                             0.5 :STEP      
NULL        .                                           -999.25 :NULL      
COMP        .                              MITCHELL ENERGY CORP :COMPANY   
WELL        .                                     ST TR 00228-S :WELL      
FLD         .                                     LAFITTES GOLD :FIELD     
LOC         .                                                   :LOCATION  
CNTY        .                             GALVESTON SMALL BLOCK :LOCATION  
STAT        .                                             TEXAS :STATE     
CTRY        .                                     UNITED STATES :COUNTRY   
SRVC        .                                                   :SERVICE COMPANY
DATE        .                             9/13/2023 11:19:17 AM :LOG DATE  
API         .                                    42605300060000 :API NUMBER
UWI         .                                    42605300060000 :UNIQUE WELL ID
XCOORD      .                                  1068847.04405215 :SURFACE X 
YCOORD      .                                  10622520.7629704 :SURFACE Y 
LAT         .                                        29.2582252 :LATITUDE  
LON         .                                       -94.7929393 :LONGITUDE 
ELEV        .FT                                              67 :ELEVATION VALUE
ELEV_TYPE   .                                                KB :ELEVATION REFERENCE TYPE
~Curve Information Section
#MNEM       .UNIT                                      API CODE :CURVE DESCRIPTION
#------------------------------------------------------------------------------
DEPT        .FT                                                 :DEPTH     
ASN         .OHMM                                               :          
CILD        .MMHO                                               :          
GR          .GAPI                                               :          
GR_NORM     .GAPI                                               :GammaRay Normalized
ILD         .OHMM                                               :          
SP          .MV                                                 :          
SP_NORM     .MV                                                 :SP Normalized
VSH_GR      .V/V                                                :Volume of Shale from GR
VSH_SP      .V/V                                                :Volume of Shale from SP
~A        DEPTH            ASN           CILD             GR        GR_NORM            ILD             SP        SP_NORM         VSH_GR         VSH_SP
# ...
      2792.5000          0.629       1801.051       108.4615       87.48142         0.5493        36.1143      -4.778511              1      0.8263431
      2793.0000         0.6236       1883.926       107.0376       86.05901         0.5444        35.3243      -3.981213              1      0.8761742
      2793.5000         0.6182       1955.475       105.6141        84.6413         0.5396        34.5347      -3.184315              1      0.9259803
      2794.0000         0.6128       1973.881       104.1509       83.18388         0.5347        33.7448      -2.387117              1      0.9758052
      2794.5000         0.6074       1992.285       102.6842       81.72297         0.5287        33.1213      -1.756319              1              1
      2795.0000          0.602       2010.678       101.2175       80.26205         0.5197        32.8747       -1.50242              1              1
      2795.5000         0.5958       2031.188        99.7504       78.80074         0.5107        32.6281      -1.248524      0.9744837              1
      2796.0000         0.5883       2078.063        98.4169       77.47302         0.5018        32.3816     -0.9947243      0.9462345              1
      2796.5000         0.5808       2219.348         97.167        76.2289         0.4928        32.2101     -0.8159256      0.9197639              1
      2797.0000         0.5734       2363.621        95.9175       74.98519         0.4839        32.5821      -1.180628       0.893302              1
      2797.5000         0.5679       2417.867        94.6675       73.74097         0.4826         32.954      -1.545229      0.8668292              1
      2798.0000         0.5775       2471.723        93.5681       72.64735         0.4874         33.326      -1.909931      0.8435608              1
      2798.5000         0.5872       2374.422        92.4856       71.57064         0.4922        34.2275      -2.804134      0.8206519      0.9497416
      2799.0000         0.5969       2273.273        91.4036       70.49442         0.4971        36.0062      -4.575535      0.7977537      0.8390291
      2799.5000         0.6065       2172.375        91.3774       70.47401         0.5019        37.1698      -5.731836      0.7973193      0.7667602
      2800.0000         0.6197       2065.664        93.0415       72.14388         0.4853        34.5976      -3.152338      0.8328485      0.9279789
      2800.5000         0.6248       1944.084        94.1971       73.30527         0.4964        34.9299      -3.477343      0.8575589      0.8863583
      2801.0000         0.6252        1881.25        95.8954       75.00936         0.5075        34.0739       -2.61404      0.8938162      0.9527661
      2801.5000         0.6235       1878.195        99.5433       78.66304         0.5186        33.2179      -1.748552       0.971554              1
      2802.0000         0.6219       1875.141       102.6477       81.77322         0.5183        32.3616     -0.8824844              1              1
      2802.5000         0.6202       1872.086       104.6626       83.79391         0.5168        31.5056    -0.01671982              1              1
      2803.0000         0.6186       1872.324       106.2268       85.36389         0.5132        31.4361     0.06254768              1              1
      2803.5000         0.6169       1880.719       107.9535       87.09637         0.5076        32.1895     -0.6810856              1              1
      2804.0000         0.6153       1889.113       110.3496       89.49826          0.502        32.9433      -1.425117              1              1
      2804.5000         0.6136       1897.508        112.193       91.34744         0.4964        32.7715      -1.243551              1              1
      2805.0000         0.6134         1905.9       113.8539       93.01412         0.4908        31.9526     -0.4148865              1              1
      2805.5000         0.6162       1914.584       115.2764       94.44241         0.4853         31.134      0.4134808              1              1
      2806.0000         0.6191       1923.568        116.674       95.84579         0.4803        30.6003      0.9569473              1              1
      2806.5000         0.6219       1932.559       118.5662       97.74377         0.4765        31.1237      0.4433155              1              1
      2807.0000         0.6247       1941.543       121.0171       100.2005         0.4727        31.6471    -0.07032013              1              1
      2807.5000         0.6275       1950.531       124.6471       103.8363         0.4689        31.0589       0.527647              1              1
      2808.0000         0.6303       1962.479       126.8706       106.0655         0.4651        29.5969       1.999413              1              1
      2808.5000         0.6331       1977.531       128.8906       108.0913         0.4627        29.1458       2.460281              1              1
      2809.0000          0.636       1992.586       129.1331       108.3396         0.4629        29.0237       2.592148              1              1
      2809.5000         0.6308       2007.639       127.5449       106.7572          0.463         29.216       2.409615              1              1
      2810.0000         0.6217       2025.678       123.1189        102.337         0.4631         29.869       1.766382              1              1
      2810.5000         0.6126       2052.977       109.8159       89.03975         0.4632        30.5224       1.122747              1              1
      2811.0000         0.6035       2084.496       105.5684       84.79803         0.4646        31.4879      0.1670151              1              1
      2811.5000         0.5944        2134.73        98.3842       77.61961         0.4677        32.5658     -0.9011192      0.9493535              1
      2812.0000         0.5853       2191.516        93.3567       72.59789         0.4708        33.5901      -1.915651      0.8425084              1
      2812.5000         0.5865       2251.559        90.0928       69.33978          0.474        34.3507      -2.666487      0.7731867      0.9487318
      2813.0000         0.5909       2288.102        86.3361       65.58886         0.4771        34.8495      -3.155518        0.69338       0.911114
      2813.5000         0.5952       2323.148        73.2784       52.53695         0.4802        34.9731       -3.26935      0.4156798      0.9023577
      2814.0000         0.5996       2354.137        70.2968       49.56113         0.4833        35.0967      -3.383184      0.3523646      0.8936012
      2814.5000          0.604       2380.164        68.1432       47.41332         0.4864        35.2203      -3.497017      0.3066664      0.8848448
      2815.0000         0.6083       2398.797        68.6708        47.9467         0.4895        35.2013      -3.468254      0.3180149      0.8870574
      2815.5000         0.6127       2083.734        70.2219       49.50359         0.4934        34.9199      -3.177084      0.3511401      0.9094551
      2816.0000         0.6171       2030.949        71.7732       51.06067         0.4988        34.6384       -2.88582      0.3842696        0.93186
      2816.5000         0.6207       1982.037        74.4176       53.71085         0.5043        34.3571      -2.594753      0.4406565      0.9542497
      2817.0000         0.6195       1937.832        77.2975       56.59653         0.5098        34.0758      -2.303688      0.5020539      0.9766394
      2817.5000         0.6183       1882.398        79.8391       59.14392         0.5152        33.7943      -2.012419      0.5562536      0.9990447
      2818.0000         0.6171       1811.543        87.6708        66.9814         0.5207        33.5129      -1.721252      0.7230085              1
      2818.5000         0.6158       1743.113        94.9308       74.24718         0.5262        33.3239      -1.522484      0.8775997              1
