#------------------------------------------------------------------------------
# Created by    : vladimir.rabinovich
# Created on    : 09/19/2023 17:20:27
#------------------------------------------------------------------------------
~Version Information Section
VERS.           2.0     :   CWLS log ASCII Standard - VERSION 2.0
WRAP.           NO      :   One line per depth step
~Well Information Section
#MNEM       .UNIT                                         VALUE :DESCRIPTION
#------------------------------------------------------------------------------
STRT        .FT                                             540 :START DEPTH
STOP        .FT                                            9057 :STOP DEPTH
STEP        .FT                                             0.5 :STEP      
NULL        .                                           -999.25 :NULL      
COMP        .                              MITCHELL ENERGY CORP :COMPANY   
WELL        .                                     ST TR 00228-S :WELL      
FLD         .                                     LAFITTES GOLD :FIELD     
LOC         .                                                   :LOCATION  
CNTY        .                             GALVESTON SMALL BLOCK :LOCATION  
STAT        .                                             TEXAS :STATE     
CTRY        .                                     UNITED STATES :COUNTRY   
SRVC        .                                                   :SERVICE COMPANY
DATE        .                             9/13/2023 11:19:17 AM :LOG DATE  
API         .                                    42605300060000 :API NUMBER
UWI         .                                    42605300060000 :UNIQUE WELL ID
XCOORD      .                                  1068847.04405215 :SURFACE X 
YCOORD      .                                  10622520.7629704 :SURFACE Y 
LAT         .                                        29.2582252 :LATITUDE  
LON         .                                       -94.7929393 :LONGITUDE 
ELEV        .FT                                              67 :ELEVATION VALUE
ELEV_TYPE   .                                                KB :ELEVATION REFERENCE TYPE
~Curve Information Section
#MNEM       .UNIT                                      API CODE :CURVE DESCRIPTION
#------------------------------------------------------------------------------
DEPT        .FT                                                 :DEPTH     
ASN         .OHMM                                               :          
CILD        .MMHO                                               :          
GR          .GAPI                                               :          
GR_NORM     .GAPI                                               :GammaRay Normalized
ILD         .OHMM                                               :          
SP          .MV                                                 :          
SP_NORM     .MV                                                 :SP Normalized
VSH_GR      .V/V                                                :Volume of Shale from GR
VSH_SP      .V/V                                                :Volume of Shale from SP
~A        DEPTH            ASN           CILD             GR        GR_NORM            ILD             SP        SP_NORM         VSH_GR         VSH_SP
# ...
      6767.5000         0.7901       1198.045        -999.25        -999.25         0.6747        54.3671       10.82206        -999.25              1
      6768.0000         0.7889        1210.24        -999.25        -999.25         0.6765        54.3524       10.83894        -999.25              1
      6768.5000         0.7952       1219.508        -999.25        -999.25         0.6784        54.2469       10.94661        -999.25              1
      6769.0000         0.8015       1211.234        -999.25        -999.25         0.6802        54.1413       11.05439        -999.25              1
      6769.5000         0.8111       1186.428        -999.25        -999.25         0.6812        54.0358       11.16207        -999.25              1
      6770.0000         0.8233       1164.736        -999.25        -999.25         0.6813        53.9304       11.26964        -999.25              1
      6770.5000          0.836       1146.357        -999.25        -999.25         0.6813        53.8248       11.37742        -999.25              1
      6771.0000         0.8551       1126.189        -999.25        -999.25         0.6814        53.7193        11.4851        -999.25              1
      6771.5000         0.8715       1107.246        -999.25        -999.25         0.6815        53.7792       11.42737        -999.25              1
      6772.0000         0.8747       1090.168        -999.25        -999.25         0.6812        54.0723       11.13645        -999.25              1
      6772.5000         0.8779       1068.895        -999.25        -999.25         0.6766        54.3653       10.84563        -999.25              1
      6773.0000         0.8717       1041.928        -999.25        -999.25         0.6719        54.7517        10.4614        -999.25              1
      6773.5000         0.8655       1019.085        -999.25        -999.25         0.6673        55.6203       9.594978        -999.25              1
      6774.0000         0.8594       1099.197        -999.25        -999.25         0.6627        56.4902       8.727261        -999.25              1
      6774.5000         0.8543       1160.246        -999.25        -999.25         0.6581        57.3588       7.860836        -999.25              1
      6775.0000         0.8492       1231.697        -999.25        -999.25         0.6534        58.2523       6.969517        -999.25              1
      6775.5000         0.8441       1285.385        -999.25        -999.25         0.6486        59.7344        5.48959        -999.25              1
      6776.0000          0.839       1353.598        -999.25        -999.25         0.6439        61.2178       4.008366        -999.25              1
      6776.5000         0.8438       1464.701        -999.25        -999.25         0.6682        63.6395       1.588848        -999.25              1
      6777.0000         0.8537       1561.867        -999.25        -999.25         0.6986        66.1881     -0.9575806        -999.25      0.9904242
      6777.5000         0.8673       1593.471        -999.25        -999.25         0.7291        76.5518      -11.31911        -999.25      0.8868089
      6778.0000         0.8808       1609.936        -999.25        -999.25         0.7604        86.7561      -21.52122        -999.25      0.7847878
      6778.5000         0.8944       1484.135        -999.25        -999.25         0.7994        85.6361      -20.39905        -999.25      0.7960095
      6779.0000           0.92       1385.986        -999.25        -999.25         0.8384        80.5638      -15.32457        -999.25      0.8467543
      6779.5000         0.9484       1290.783        -999.25        -999.25         0.8773        76.3079      -11.06649        -999.25      0.8893351
      6780.0000           0.98       1213.834        -999.25        -999.25         0.8647        75.2227      -9.979118        -999.25      0.9002088
      6780.5000         1.0123       1205.492        -999.25        -999.25          0.838        76.5443      -11.29854        -999.25      0.8870146
      6781.0000         1.7492       1227.012        -999.25        -999.25         0.8129        77.8658      -12.61786        -999.25      0.8738214
      6781.5000         1.7692       1251.131        -999.25        -999.25         0.7878        81.8231      -16.57298        -999.25      0.8342702
      6782.0000         1.7839       1280.379        -999.25        -999.25         0.7651        87.4032      -22.15091        -999.25      0.7784909
      6782.5000         1.7942       1309.137        -999.25        -999.25         0.7491       102.1224      -36.86793        -999.25      0.6313207
      6783.0000         1.8033       1341.477        -999.25        -999.25         0.7331       105.7213      -40.46465        -999.25      0.5953535
      6783.5000          1.811        1374.65        -999.25        -999.25         0.7279       107.4922      -42.23338        -999.25      0.5776662
      6784.0000          1.818       1395.236        -999.25        -999.25          0.725       108.5385       -43.2775        -999.25       0.567225
      6784.5000         1.8249       1411.395        -999.25        -999.25         0.7212       108.8778      -43.61462        -999.25      0.5638537
      6785.0000         1.8359       1420.191        -999.25        -999.25         0.7142       109.2177      -43.95235        -999.25      0.5604765
      6785.5000         1.8484       1428.963        -999.25        -999.25         0.7071       109.5574      -44.28987        -999.25      0.5571013
      6786.0000         1.8659       1437.588        -999.25        -999.25         0.7001       109.8967      -44.62699        -999.25      0.5537301
      6786.5000         1.8904       1446.213        -999.25        -999.25          0.693       111.5254      -46.25352        -999.25      0.5374649
      6787.0000         1.9123        1457.34        -999.25        -999.25          0.686       115.1293      -49.85524        -999.25      0.5014476
      6787.5000         1.9474       1474.197        -999.25        -999.25          0.672       120.0175      -54.74126        -999.25      0.4525874
      6788.0000         1.9632       1490.906        -999.25        -999.25         0.6218       125.1296      -59.85119        -999.25      0.4014881
      6788.5000         1.9236       1507.346        -999.25        -999.25         0.5862         129.49      -64.20941        -999.25      0.3579059
      6789.0000         1.8841       1524.301        -999.25        -999.25          0.552       133.0093      -67.72652        -999.25      0.3227347
      6789.5000         1.8437       1568.148        -999.25        -999.25         0.5177       136.0457      -70.76076        -999.25      0.2923924
      6790.0000         1.8009       1668.063        -999.25        -999.25         0.4934       138.1216      -72.83447        -999.25      0.2716553
      6790.5000         1.7754           2320        -999.25        -999.25         0.4713       140.1973        -74.908        -999.25        0.25092
      6791.0000         1.7568       2386.398        -999.25        -999.25         0.4491       142.0488      -76.75732        -999.25      0.2324268
      6791.5000         1.8797       2426.883        -999.25        -999.25         0.4269       143.7339      -78.44025        -999.25      0.2155975
      6792.0000         1.9633       2472.965        -999.25        -999.25         0.4137       145.1445      -79.84867        -999.25      0.2015133
      6792.5000         1.9857       2526.113        -999.25        -999.25         0.4009       145.7842      -80.48619        -999.25      0.1951381
      6793.0000         1.9861       2640.992        -999.25        -999.25         0.3881       146.4231      -81.12291        -999.25      0.1887709
      6793.5000         1.9851       2694.926        -999.25        -999.25         0.3733        147.062      -81.75964        -999.25      0.1824036
