#------------------------------------------------------------------------------
# Created by    : vladimir.rabinovich
# Created on    : 09/19/2023 17:20:26
#------------------------------------------------------------------------------
~Version Information Section
VERS.           2.0     :   CWLS log ASCII Standard - VERSION 2.0
WRAP.           NO      :   One line per depth step
~Well Information Section
#MNEM       .UNIT                                         VALUE :DESCRIPTION
#------------------------------------------------------------------------------
STRT        .FT                                             494 :START DEPTH
STOP        .FT                                            8560 :STOP DEPTH
STEP        .FT                                             0.5 :STEP      
NULL        .                                           -999.25 :NULL      
COMP        .                           COLORADO OIL & GAS CORP :COMPANY   
WELL        .                                     ST TR 00122-S :WELL      
FLD         .                                           WILDCAT :FIELD     
LOC         .                                                   :LOCATION  
CNTY        .                           HIGH ISLAND SMALL BLOCK :LOCATION  
STAT        .                                             TEXAS :STATE     
CTRY        .                                     UNITED STATES :COUNTRY   
SRVC        .                                                   :SERVICE COMPANY
DATE        .                             9/13/2023 11:19:17 AM :LOG DATE  
API         .                                    42606300100000 :API NUMBER
UWI         .                                    42606300100000 :UNIQUE WELL ID
XCOORD      .                                  1208966.22079576 :SURFACE X 
YCOORD      .                                  10715303.2202208 :SURFACE Y 
LAT         .                                        29.5185768 :LATITUDE  
LON         .                                       -94.3569047 :LONGITUDE 
ELEV        .FT                                              93 :ELEVATION VALUE
ELEV_TYPE   .                                                KB :ELEVATION REFERENCE TYPE
~Curve Information Section
#MNEM       .UNIT                                      API CODE :CURVE DESCRIPTION
#------------------------------------------------------------------------------
DEPT        .FT                                                 :DEPTH     
ASN         .OHMM                                               :          
CILD        .MMHO                                               :          
GR          .GAPI                                               :          
GR_NORM     .GAPI                                               :GammaRay Normalized
ILD         .OHMM                                               :          
SP          .MV                                                 :          
SP_NORM     .MV                                                 :SP Normalized
VSH_GR      .V/V                                                :Volume of Shale from GR
VSH_SP      .V/V                                                :Volume of Shale from SP
~A        DEPTH            ASN           CILD             GR        GR_NORM            ILD             SP        SP_NORM         VSH_GR         VSH_SP
# ...
      3170.5000         0.7455       1439.035        -999.25        -999.25         0.6796       -80.7412      -7.118027        -999.25      0.8751423
      3171.0000         0.7746       1230.313        -999.25        -999.25         0.7153       -79.3804      -5.773415        -999.25      0.9025834
      3171.5000         0.7903       1126.715        -999.25        -999.25         0.7508       -78.0195      -4.428696        -999.25      0.9300266
      3172.0000         0.8021       1090.355        -999.25        -999.25         0.7749       -76.2158      -2.641182        -999.25      0.9665065
      3172.5000         0.8138       1068.391        -999.25        -999.25         0.7991       -73.8354     -0.2769699        -999.25              1
      3173.0000         0.8255       1060.035        -999.25        -999.25         0.8233       -72.6056      0.9366531        -999.25              1
      3173.5000         0.8315        1051.68        -999.25        -999.25         0.8475       -72.0714       1.454659        -999.25              1
      3174.0000         0.8325       1043.324        -999.25        -999.25         0.8717       -71.5372       1.972679        -999.25              1
      3174.5000         0.8335       1034.969        -999.25        -999.25         0.8733       -71.4702       2.023491        -999.25              1
      3175.0000          0.833       1041.359        -999.25        -999.25         0.8693        -71.417       2.060509        -999.25              1
      3175.5000         0.8304       1052.492        -999.25        -999.25         0.8653       -71.3636       2.097717        -999.25              1
      3176.0000         0.8279       1063.617        -999.25        -999.25         0.8439       -71.3104       2.134735        -999.25              1
      3176.5000         0.8253       1074.744        -999.25        -999.25         0.8203       -71.5559       1.873047        -999.25              1
      3177.0000         0.8227       1101.648        -999.25        -999.25         0.7966       -72.0338       1.378967        -999.25              1
      3177.5000         0.8176       1129.504        -999.25        -999.25          0.773       -72.5117      0.8848801        -999.25              1
      3178.0000         0.8104       1157.371        -999.25        -999.25         0.7493       -72.9896      0.3907928        -999.25              1
      3178.5000         0.8032       1185.227        -999.25        -999.25         0.7257       -73.6537     -0.2894897        -999.25              1
      3179.0000         0.7961       1225.055        -999.25        -999.25         0.7047       -74.5177      -1.169678        -999.25      0.9965372
      3179.5000         0.7884       1286.146        -999.25        -999.25         0.6911       -75.3812      -2.049362        -999.25      0.9785845
      3180.0000         0.7748       1346.053        -999.25        -999.25         0.6775       -76.2452       -2.92955        -999.25      0.9606214
      3180.5000         0.7612       1387.793        -999.25        -999.25          0.664       -77.1094      -3.809929        -999.25      0.9426545
      3181.0000         0.7476       1429.533        -999.25        -999.25         0.6504       -78.3115      -5.028221        -999.25      0.9177914
      3181.5000          0.734       1471.271        -999.25        -999.25         0.6368       -79.5238      -6.256706        -999.25      0.8927203
      3182.0000         0.7264       1505.521        -999.25        -999.25         0.6233       -80.7361      -7.485184        -999.25      0.8676493
      3182.5000         0.7209       1538.016        -999.25        -999.25         0.6103       -81.9484      -8.713676        -999.25      0.8425781
      3183.0000         0.7154       1570.512        -999.25        -999.25         0.6067       -83.1608      -9.942253        -999.25      0.8175051
      3183.5000         0.7101       1602.688        -999.25        -999.25         0.6032        -84.373      -11.17065        -999.25      0.7924358
      3184.0000         0.7092       1634.152        -999.25        -999.25         0.5996       -85.5013      -12.31512        -999.25      0.7690791
      3184.5000         0.7083       1646.063        -999.25        -999.25         0.5961       -86.0341      -12.86412        -999.25      0.7578751
      3185.0000         0.7074       1651.314        -999.25        -999.25         0.5925       -85.8597       -12.7059        -999.25       0.761104
      3185.5000         0.7065       1642.125        -999.25        -999.25         0.5889       -85.6853      -12.54768        -999.25       0.764333
      3186.0000         0.7056       1619.893        -999.25        -999.25         0.5854        -85.511      -12.38957        -999.25      0.7675598
      3186.5000         0.7047        1579.09        -999.25        -999.25         0.5868       -85.3157      -12.21045        -999.25      0.7712153
      3187.0000         0.7043       1538.264        -999.25        -999.25         0.5936       -84.7571      -11.66805        -999.25      0.7822848
      3187.5000         0.7056       1497.461        -999.25        -999.25         0.6005       -84.1984      -11.12553        -999.25      0.7933566
      3188.0000         0.7068        1443.33        -999.25        -999.25         0.6073       -83.6398      -10.58311        -999.25      0.8044263
      3188.5000         0.7179       1386.016        -999.25        -999.25         0.6142       -83.0812       -10.0407        -999.25       0.815496
      3189.0000         0.7328       1328.701        -999.25        -999.25          0.621       -82.3466      -9.322289        -999.25      0.8301574
      3189.5000         0.7477       1274.717        -999.25        -999.25          0.628       -81.4442      -8.436066        -999.25      0.8482435
      3190.0000         0.7622       1220.857        -999.25        -999.25         0.6376       -80.5414      -7.549446        -999.25      0.8663378
      3190.5000         0.7766       1200.697        -999.25        -999.25         0.6472       -79.6392      -6.663437        -999.25      0.8844197
      3191.0000          0.791       1192.002        -999.25        -999.25         0.6568       -78.7534      -5.793823        -999.25      0.9021668
      3191.5000         0.8053       1195.629        -999.25        -999.25         0.6664        -77.941      -4.997612        -999.25      0.9184161
      3192.0000         0.8177        1199.26        -999.25        -999.25          0.676       -77.1287      -4.201492        -999.25      0.9346634
      3192.5000         0.8275       1202.891        -999.25        -999.25         0.6855       -76.3168      -3.405785        -999.25      0.9509023
      3193.0000         0.8373       1224.646        -999.25        -999.25         0.6961       -75.6124       -2.71756        -999.25      0.9649478
      3193.5000         0.8409       1247.764        -999.25        -999.25         0.7067       -74.9084      -2.029755        -999.25      0.9789846
      3194.0000         0.8392       1271.928        -999.25        -999.25         0.7174       -74.2045      -1.342033        -999.25      0.9930197
      3194.5000         0.8368       1311.002        -999.25        -999.25         0.7281       -75.2808      -2.434517        -999.25      0.9707242
      3195.0000          0.832       1350.051        -999.25        -999.25         0.7377       -76.5646      -3.734505        -999.25      0.9441938
      3195.5000         0.8271       1384.313        -999.25        -999.25         0.7459       -77.9641      -5.150192        -999.25      0.9153022
      3196.0000         0.8222        1399.32        -999.25        -999.25         0.7541       -79.3628      -6.565079        -999.25       0.886427
      3196.5000         0.8173       1410.563        -999.25        -999.25           0.76        -79.873      -7.091461        -999.25      0.8756844
