#------------------------------------------------------------------------------
# Created by    : vladimir.rabinovich
# Created on    : 09/19/2023 17:20:26
#------------------------------------------------------------------------------
~Version Information Section
VERS.           2.0     :   CWLS log ASCII Standard - VERSION 2.0
WRAP.           NO      :   One line per depth step
~Well Information Section
#MNEM       .UNIT                                         VALUE :DESCRIPTION
#------------------------------------------------------------------------------
STRT        .FT                                             494 :START DEPTH
STOP        .FT                                            8560 :STOP DEPTH
STEP        .FT                                             0.5 :STEP      
NULL        .                                           -999.25 :NULL      
COMP        .                           COLORADO OIL & GAS CORP :COMPANY   
WELL        .                                     ST TR 00122-S :WELL      
FLD         .                                           WILDCAT :FIELD     
LOC         .                                                   :LOCATION  
CNTY        .                           HIGH ISLAND SMALL BLOCK :LOCATION  
STAT        .                                             TEXAS :STATE     
CTRY        .                                     UNITED STATES :COUNTRY   
SRVC        .                                                   :SERVICE COMPANY
DATE        .                             9/13/2023 11:19:17 AM :LOG DATE  
API         .                                    42606300100000 :API NUMBER
UWI         .                                    42606300100000 :UNIQUE WELL ID
XCOORD      .                                  1208966.22079576 :SURFACE X 
YCOORD      .                                  10715303.2202208 :SURFACE Y 
LAT         .                                        29.5185768 :LATITUDE  
LON         .                                       -94.3569047 :LONGITUDE 
ELEV        .FT                                              93 :ELEVATION VALUE
ELEV_TYPE   .                                                KB :ELEVATION REFERENCE TYPE
~Curve Information Section
#MNEM       .UNIT                                      API CODE :CURVE DESCRIPTION
#------------------------------------------------------------------------------
DEPT        .FT                                                 :DEPTH     
ASN         .OHMM                                               :          
CILD        .MMHO                                               :          
GR          .GAPI                                               :          
GR_NORM     .GAPI                                               :GammaRay Normalized
ILD         .OHMM                                               :          
SP          .MV                                                 :          
SP_NORM     .MV                                                 :SP Normalized
VSH_GR      .V/V                                                :Volume of Shale from GR
VSH_SP      .V/V                                                :Volume of Shale from SP
~A        DEPTH            ASN           CILD             GR        GR_NORM            ILD             SP        SP_NORM         VSH_GR         VSH_SP
# ...
      7993.5000         0.3579       2400.102        -999.25        -999.25         0.3748       -96.2426      -48.96987        -999.25      0.3047845
      7994.0000            0.4       2113.324        -999.25        -999.25         0.4095       -94.0477      -46.77497        -999.25      0.3365946
      7994.5000          0.447       1826.939        -999.25        -999.25         0.4453       -91.7205      -44.44777        -999.25      0.3703222
      7995.0000         0.5002       1597.793        -999.25        -999.25         0.4822       -89.2756      -42.00287        -999.25      0.4057555
      7995.5000         0.5692       1470.977        -999.25        -999.25          0.519       -79.8235      -32.55077        -999.25      0.5427424
      7996.0000          0.657       1391.955        -999.25        -999.25         0.5558       -72.9706      -25.69787        -999.25      0.6420599
      7996.5000         0.7155       1348.289        -999.25        -999.25         0.5923       -57.8052      -10.53247        -999.25      0.8618482
      7997.0000          0.763       1267.645        -999.25        -999.25         0.6229       -55.7832      -8.510471        -999.25      0.8911526
      7997.5000         0.7968       1161.922        -999.25        -999.25         0.6535       -53.6251      -6.352371        -999.25      0.9224294
      7998.0000         0.8264       1079.213        -999.25        -999.25         0.6841       -51.2134      -3.940674        -999.25      0.9573815
      7998.5000         0.8521         1038.4        -999.25        -999.25         0.7146       -49.1398      -1.867073        -999.25      0.9874337
      7999.0000         0.8777       1005.946        -999.25        -999.25         0.7402       -47.4211     -0.1483727        -999.25              1
      7999.5000         0.9237       977.4258        -999.25        -999.25         0.7408       -47.4854     -0.2126732        -999.25              1
      8000.0000         1.0085       954.3145        -999.25        -999.25         0.7415        -48.308      -1.035271        -999.25      0.9994888
      8000.5000         1.0878       930.6748        -999.25        -999.25         0.7421       -49.2106      -1.937874        -999.25      0.9864076
      8001.0000         1.0702       959.2568        -999.25        -999.25         0.7427       -50.1426      -2.869873        -999.25      0.9729004
      8001.5000         1.0525       989.3564        -999.25        -999.25         0.7433       -51.0746      -3.801872        -999.25      0.9593931
      8002.0000         0.9468         1052.1        -999.25        -999.25         0.7449       -51.8944      -4.621674        -999.25       0.947512
      8002.5000         0.9218       1114.746        -999.25        -999.25         0.7469         -52.65      -5.377274        -999.25      0.9365612
      8003.0000         0.8968        1177.49        -999.25        -999.25         0.7489       -52.5566      -5.283871        -999.25      0.9379149
      8003.5000         0.8779       1215.666        -999.25        -999.25         0.7509        -52.087      -4.814274        -999.25      0.9447207
      8004.0000         0.8763       1246.549        -999.25        -999.25         0.7529       -51.6173       -4.34457        -999.25       0.951528
      8004.5000         0.8748       1277.383        -999.25        -999.25         0.7542       -51.1476       -3.87487        -999.25      0.9583352
      8005.0000         0.8744       1294.506        -999.25        -999.25         0.7516       -49.4891      -2.216373        -999.25      0.9823714
      8005.5000         0.8745       1298.758        -999.25        -999.25          0.749       -49.1019       -1.82917        -999.25       0.987983
      8006.0000         0.8747        1303.01        -999.25        -999.25         0.7465       -49.3023      -2.029572        -999.25      0.9850787
      8006.5000         0.8749       1309.893        -999.25        -999.25         0.7439         -49.51       -2.23727        -999.25      0.9820685
      8007.0000         0.8751       1317.014        -999.25        -999.25         0.7413        -49.718      -2.445271        -999.25       0.979054
      8007.5000         0.8753       1324.135        -999.25        -999.25         0.7388       -49.9257      -2.652973        -999.25      0.9760439
      8008.0000         0.8755       1331.256        -999.25        -999.25         0.7362       -50.1334      -2.860672        -999.25      0.9730337
      8008.5000         0.8754       1338.365        -999.25        -999.25         0.7338       -50.3411      -3.068371        -999.25      0.9700236
      8009.0000         0.8679       1345.486        -999.25        -999.25         0.7327       -50.5488      -3.276073        -999.25      0.9670134
      8009.5000         0.8604       1352.607        -999.25        -999.25         0.7316       -50.7566      -3.483871        -999.25      0.9640018
      8010.0000          0.853       1359.729        -999.25        -999.25         0.7305       -50.9606      -3.687874        -999.25      0.9610453
      8010.5000         0.8406       1373.994        -999.25        -999.25         0.7294       -51.1644       -3.89167        -999.25      0.9580917
      8011.0000         0.8257       1388.604        -999.25        -999.25         0.7283       -51.3682       -4.09547        -999.25      0.9551381
      8011.5000         0.8108       1403.213        -999.25        -999.25         0.7272        -51.572      -4.299271        -999.25      0.9521845
      8012.0000         0.8077       1417.797        -999.25        -999.25         0.7261       -51.7761      -4.503372        -999.25      0.9492265
      8012.5000         0.8295       1432.406        -999.25        -999.25          0.725       -51.7952      -4.522472        -999.25      0.9489497
      8013.0000           0.84       1447.678        -999.25        -999.25         0.7239       -51.1049      -3.832172        -999.25       0.958954
      8013.5000          0.826       1464.709        -999.25        -999.25         0.7227       -50.4138      -3.141071        -999.25        0.96897
      8014.0000         0.8119        1481.74        -999.25        -999.25         0.7216       -49.7234      -2.450672        -999.25      0.9789758
      8014.5000         0.7979       1498.137        -999.25        -999.25         0.7225        -49.047      -1.774273        -999.25      0.9887787
      8015.0000         0.7865       1510.092        -999.25        -999.25         0.7284       -48.4036      -1.130871        -999.25      0.9981033
      8015.5000         0.7775        1456.07        -999.25        -999.25         0.7343       -48.3287      -1.055973        -999.25      0.9991888
      8016.0000         0.7735       1400.863        -999.25        -999.25         0.7402       -48.5728      -1.300072        -999.25      0.9956511
      8016.5000         0.7991       1350.551        -999.25        -999.25         0.7461       -48.8168      -1.544071        -999.25      0.9921149
      8017.0000         0.8263       1300.189        -999.25        -999.25         0.7525       -49.1923      -1.919571        -999.25      0.9866729
      8017.5000          0.881       1273.541        -999.25        -999.25          0.765       -49.9321       -2.65937        -999.25      0.9759511
      8018.0000         1.0178       1248.018        -999.25        -999.25         0.7776        -50.672      -3.399273        -999.25      0.9652279
      8018.5000         1.0116       1222.492        -999.25        -999.25         0.7901       -51.4119      -4.139172        -999.25      0.9545048
      8019.0000         0.9878       1198.781        -999.25        -999.25         0.7923       -52.4211      -5.148373        -999.25      0.9398786
      8019.5000         0.9633        1181.92        -999.25        -999.25         0.7889       -53.7593      -6.486572        -999.25      0.9204845
