#------------------------------------------------------------------------------
# Created by    : vladimir.rabinovich
# Created on    : 09/19/2023 17:22:47
#------------------------------------------------------------------------------
~Version Information Section
VERS.           2.0     :   CWLS log ASCII Standard - VERSION 2.0
WRAP.           NO      :   One line per depth step
~Well Information Section
#MNEM       .UNIT                                         VALUE :DESCRIPTION
#------------------------------------------------------------------------------
STRT        .FT                                             494 :START DEPTH
STOP        .FT                                            8323 :STOP DEPTH
STEP        .FT                                             0.5 :STEP      
NULL        .                                           -999.25 :NULL      
COMP        .                                       MONSANTO CO :COMPANY   
WELL        .                                     ST TR 00293-S :WELL      
FLD         .                                           WILDCAT :FIELD     
LOC         .                                                   :LOCATION  
CNTY        .                             GALVESTON SMALL BLOCK :LOCATION  
STAT        .                                             TEXAS :STATE     
CTRY        .                                     UNITED STATES :COUNTRY   
SRVC        .                                                   :SERVICE COMPANY
DATE        .                             9/13/2023 11:19:17 AM :LOG DATE  
API         .                                    42605300230000 :API NUMBER
UWI         .                                    42605300230000 :UNIQUE WELL ID
XCOORD      .                                  996050.411534576 :SURFACE X 
YCOORD      .                                  10568409.9475512 :SURFACE Y 
LAT         .                                        29.1061939 :LATITUDE  
LON         .                                        -95.018267 :LONGITUDE 
ELEV        .FT                                              81 :ELEVATION VALUE
ELEV_TYPE   .                                                KB :ELEVATION REFERENCE TYPE
~Curve Information Section
#MNEM       .UNIT                                      API CODE :CURVE DESCRIPTION
#------------------------------------------------------------------------------
DEPT        .FT                                                 :DEPTH     
DT          .US/F                                               :          
GR          .GAPI                                               :          
GR_NORM     .GAPI                                               :GammaRay Normalized
ILD         .OHMM                                               :          
SFL         .OHMM                                               :          
SP          .MV                                                 :          
SP_NORM     .MV                                                 :SP Normalized
VSH_GR      .V/V                                                :Volume of Shale from GR
VSH_SP      .V/V                                                :Volume of Shale from SP
~A        DEPTH             DT             GR        GR_NORM            ILD            SFL             SP        SP_NORM         VSH_GR         VSH_SP
# ...
      2057.5000       167.9844       108.6199       90.69466         0.6386         0.6651        53.3959      -3.170765              1      0.9829235
      2058.0000       166.4832       107.9552       89.80799          0.641         0.6699        54.5156      -4.299229              1      0.8700771
      2058.5000       164.7129       107.2582       88.87821          0.643         0.6747        55.6805      -5.472893              1      0.7527107
      2059.0000       162.8589       105.5956       86.65903         0.6449         0.6863        56.7563      -6.557457              1      0.6442543
      2059.5000       161.5898       104.0254       84.56322         0.6469         0.6621        57.1616      -6.971516              1      0.6028484
      2060.0000       160.3477       102.9781       83.16567         0.6483         0.6389        55.9293      -5.747982              1      0.7252018
      2060.5000       159.3843       103.2867       83.57867         0.6492         0.6174        54.6971      -4.524548              1      0.8475453
      2061.0000       158.4753       103.8489       84.33032         0.6516         0.5966        53.5926       -3.42881              1       0.957119
      2061.5000       157.5664       104.4674       85.15715          0.664          0.587        52.6108      -2.455772              1              1
      2062.0000       156.3979       105.0417       85.92496         0.6765         0.6165        52.1223      -1.976036              1              1
      2062.5000       155.1855       104.7365       85.51836         0.6891         0.6554        51.7786      -1.641098              1              1
      2063.0000       153.9705       103.6987       84.13347         0.6994         0.7065        51.7772       -1.64846              1              1
      2063.5000       152.7515       101.8318       81.64149         0.7052         0.7503        51.8199      -1.699928              1              1
      2064.0000       151.5405       100.4291       79.76935         0.7111         0.7182        52.4287       -2.31749      0.9950925              1
      2064.5000       150.3398        100.889       80.38439         0.6996         0.6875        53.0818      -2.979351              1              1
      2065.0000       154.3831       102.3804       82.37684         0.6805         0.6581        53.6387      -3.545013              1      0.9454986
      2065.5000       159.4287       104.6465       85.40375         0.6619         0.6369        54.0687       -3.98378              1       0.901622
      2066.0000        162.791       107.1288       88.71934         0.6438         0.6166        54.4988      -4.422642              1      0.8577358
      2066.5000       164.7471       107.0723       88.64484          0.631         0.6006        54.4482      -4.380806              1      0.8619194
      2067.0000        165.959       105.6013       86.68149         0.6229         0.5987        54.2575      -4.198868              1      0.8801132
      2067.5000       166.9453       104.1304       84.71829         0.6148         0.5967         54.173      -4.123135              1      0.8876866
      2068.0000        167.657       106.0316       87.25795         0.6092         0.5948        54.1446      -4.103497              1      0.8896503
      2068.5000       168.2266        108.135        90.0676         0.6073          0.598        54.1161      -4.083759              1      0.8916241
      2069.0000       168.6719       109.6454        92.0854         0.6055          0.603        53.5978      -3.574223              1      0.9425777
      2069.5000       169.0142       110.0846        92.6728         0.6036         0.6079        53.2524      -3.237587              1      0.9762413
      2070.0000       169.3196       110.2839       92.93986         0.6115         0.6212        53.3481      -3.342049              1      0.9657952
      2070.5000       169.5769       110.5244       93.26192         0.6236           0.64        53.4495      -3.452213              1      0.9547787
      2071.0000       169.1174       110.6688       93.45568          0.636         0.6592        53.5543      -3.565773              1      0.9434227
      2071.5000       168.5488       110.2869       92.94666         0.6486         0.6658        53.6529      -3.673141              1      0.9326859
      2072.0000       166.5168        108.587       90.67766         0.6611         0.6707        53.7515      -3.780502              1      0.9219497
      2072.5000       164.2898       106.9489        88.4912         0.6738         0.6668        54.0074      -4.045166              1      0.8954834
      2073.0000        163.833       105.6969        86.8203         0.6868         0.6487        54.3991      -4.445633              1      0.8554367
      2073.5000       167.1833       104.4449        85.1494            0.7         0.6298        54.0099      -4.065193              1      0.8934807
      2074.0000       169.1353       102.9899       83.20744          0.704         0.6179        53.2204      -3.284458              1      0.9715542
      2074.5000       169.6062       101.4612       81.16705         0.7067         0.6877        52.4633      -2.536118              1              1
      2075.0000       166.3589        99.9235       79.11465         0.7094         0.7549        51.7847      -1.866283      0.9811627              1
      2075.5000       163.1853        98.3463       77.00951         0.7116         0.8131        51.1061      -1.196445      0.9363725              1
      2076.0000        163.239        96.9481       75.14339         0.6949         0.7559        50.4911       -0.59021      0.8966678              1
      2076.5000       172.5691        99.6145       78.70483         0.6787         0.6277        50.8234     -0.9312706      0.9724433              1
      2077.0000       176.3435        101.772       81.58673         0.6612         0.5932        51.2806       -1.39724              1              1
      2077.5000       177.9687       103.1725       83.45777         0.6413         0.5993        51.9774      -2.102802              1              1
      2078.0000       176.0186       103.6453       84.09004          0.622         0.6055        52.3661      -2.500263              1              1
      2078.5000       152.0869       103.8711       84.39248         0.6099         0.6114        52.4089      -2.551826              1              1
      2079.0000       126.0187       103.9033        84.4364         0.6011         0.6173        52.4895       -2.64119              1              1
      2079.5000        108.926       104.0359        84.6144         0.6006         0.6232        52.6061      -2.766552              1              1
      2080.0000       182.9492       104.8417       85.69134         0.6047         0.6292        52.7228      -2.892017              1              1
      2080.5000       184.9355       105.6792        86.8106         0.6089         0.6343        52.7595      -2.937477              1              1
      2081.0000       182.6848       106.5847       88.02066         0.6131         0.6331        52.7607      -2.947445              1              1
      2081.5000       180.9187       106.5948       88.03508         0.6169          0.632        52.7402      -2.935707              1              1
      2082.0000       180.3101        104.541       85.29352         0.6208         0.6309        51.9224      -2.126671              1              1
      2082.5000        180.135        102.564       82.65451         0.6246         0.6298        51.1046      -1.317631              1              1
      2083.0000       180.0698        103.016         83.259         0.6285         0.6308        50.3116     -0.5333977              1              1
      2083.5000       180.0134       105.1302       86.08308         0.6324         0.6323        49.5659      0.2035408              1              1
