#------------------------------------------------------------------------------
# Created by    : vladimir.rabinovich
# Created on    : 09/19/2023 17:19:42
#------------------------------------------------------------------------------
~Version Information Section
VERS.           2.0     :   CWLS log ASCII Standard - VERSION 2.0
WRAP.           NO      :   One line per depth step
~Well Information Section
#MNEM       .UNIT                                         VALUE :DESCRIPTION
#------------------------------------------------------------------------------
STRT        .FT                                            2198 :START DEPTH
STOP        .FT                                            8738 :STOP DEPTH
STEP        .FT                                             0.5 :STEP      
NULL        .                                           -999.25 :NULL      
COMP        .                             CHAMPLIN PETROLEUM CO :COMPANY   
WELL        .                                     ST TR 00360-S :WELL      
FLD         .                                           WILDCAT :FIELD     
LOC         .                                                   :LOCATION  
CNTY        .                             GALVESTON SMALL BLOCK :LOCATION  
STAT        .                                             TEXAS :STATE     
CTRY        .                                     UNITED STATES :COUNTRY   
SRVC        .                                                   :SERVICE COMPANY
DATE        .                             9/13/2023 11:19:17 AM :LOG DATE  
API         .                                    42605301270000 :API NUMBER
UWI         .                                    42605301270000 :UNIQUE WELL ID
XCOORD      .                                  933135.371219094 :SURFACE X 
YCOORD      .                                  10510129.7662443 :SURFACE Y 
LAT         .                                         28.942863 :LATITUDE  
LON         .                                       -95.2117932 :LONGITUDE 
ELEV        .FT                                              20 :ELEVATION VALUE
ELEV_TYPE   .                                                GL :ELEVATION REFERENCE TYPE
~Curve Information Section
#MNEM       .UNIT                                      API CODE :CURVE DESCRIPTION
#------------------------------------------------------------------------------
DEPT        .FT                                                 :DEPTH     
ASFL        .OHMM                                               :          
CILD        .MMHO                                               :          
ILD         .OHMM                                               :          
SP          .MV                                                 :          
SP_NORM     .MV                                                 :SP Normalized
VSH_SP      .V/V                                                :Volume of Shale from SP
~A        DEPTH           ASFL           CILD            ILD             SP        SP_NORM         VSH_SP
# ...
      4364.0000         1.2176       1050.678         0.8932        36.5915      -3.871067      0.9347485
      4364.5000         1.1898       1047.746         0.9093         36.069      -3.349602         0.9466
      4365.0000         1.1496       1044.813         0.9255        35.3609      -2.642532      0.9626697
      4365.5000         1.0978       1061.055         0.9298        34.5673      -1.849964      0.9806826
      4366.0000         0.9933       1081.018         0.9295        34.2405        -1.5242      0.9880863
      4366.5000         0.9166       1164.932         0.9293        34.8555      -2.140232      0.9740856
      4367.0000          0.869       1247.359          0.929        35.4926      -2.778366      0.9595826
      4367.5000         0.8863       1322.883         0.9271        36.1298      -3.416595      0.9450774
      4368.0000          0.915       1287.918         0.9193        35.4109       -2.69873      0.9613925
      4368.5000         0.9228        1241.74         0.9114        34.3735      -1.662365      0.9849463
      4369.0000         0.9232       1209.318         0.9036        33.3709     -0.6607971              1
      4369.5000         0.9199       1186.836         0.8957        32.9966     -0.2875328              1
      4370.0000         0.9148       1170.246         0.8878        33.0745     -0.3664627              1
      4370.5000         0.9097       1157.877         0.8881        33.7744      -1.067394      0.9984683
      4371.0000         0.9046       1145.521          0.889        34.4482      -1.742229      0.9831312
      4371.5000         0.8999       1126.666         0.8898        34.8737      -2.168762      0.9734372
      4372.0000          0.897       1084.621         0.8926        34.8091      -2.105194      0.9748819
      4372.5000         0.9131       1033.834         0.9026        34.7445      -2.041626      0.9763267
      4373.0000         0.9313        988.666         0.9126        34.6799      -1.978062      0.9777713
      4373.5000         0.9568       958.9277         0.9226        34.6154      -1.914593      0.9792138
      4374.0000         0.9877       941.0156         0.9326        34.5508      -1.851028      0.9806585
      4374.5000         1.0047       929.6797         0.9407        34.4991      -1.800358        0.98181
      4375.0000         1.0065       926.3164         0.9334        34.4824      -1.784691      0.9821661
      4375.5000         0.9941       951.7607          0.926        34.4658      -1.769127      0.9825199
      4376.0000         0.9661       989.5986         0.9186        34.4492      -1.753559      0.9828737
      4376.5000         0.9349       1042.701         0.9113        34.4326      -1.737991      0.9832275
      4377.0000         0.9055       1077.744         0.9033         34.416      -1.722424      0.9835813
      4377.5000         0.8879       1107.545           0.87        34.3993      -1.706757      0.9839373
      4378.0000          0.866       1151.781         0.8366        34.5694      -1.877892      0.9800479
      4378.5000         0.8394       1211.133         0.8045        34.7805      -2.090023      0.9752268
      4379.0000           0.81       1292.652         0.7828        34.9916      -2.302155      0.9704056
      4379.5000         0.7839       1412.111         0.7611        35.7675       -3.07909      0.9527479
      4380.0000         0.7609       1484.865         0.7393        36.1407      -3.453323      0.9442427
      4380.5000         0.7405       1538.523         0.7176        36.0567      -3.370358      0.9461282
      4381.0000         0.7034         1574.9         0.6994        36.0399      -3.354591      0.9464865
      4381.5000         0.6671       1595.418         0.6858         36.251      -3.566719      0.9416655
      4382.0000         0.7044       1566.461         0.6722        36.4621      -3.778854      0.9368442
      4382.5000         0.8049        1520.99         0.6666        36.6733      -3.991089      0.9320207
      4383.0000          0.882       1477.459         0.7271        37.0925       -4.41132        0.92247
      4383.5000         0.9536       1434.104         0.7877        37.5858      -4.905655      0.9112351
      4384.0000         1.0301         1387.5         0.8528        38.0086      -5.329483      0.9016027
      4384.5000         1.0769       1340.064         0.9183        38.2135      -5.535419      0.8969223
      4385.0000         1.1091       1278.143         0.9612        35.7587      -3.081654      0.9526897
      4385.5000         1.0915       1166.039         0.9844        33.0074     -0.3313866              1
      4386.0000         1.0589       1045.725         1.0077        29.6646        3.01038              1
      4386.5000         1.0361       1007.629         1.0309        28.6462        4.02775              1
      4387.0000         1.0306       1001.167         1.0405        28.9996       3.673317              1
      4387.5000         1.0297       992.1992         1.0409         31.994      0.6778831              1
      4388.0000         1.0289       981.5869         1.0414        32.9111     -0.2402496              1
      4388.5000         1.0286       970.9756         1.0418        33.0696     -0.3997803              1
      4389.0000         1.0288       959.8906         1.0422        33.1213     -0.4525146              1
      4389.5000         1.0289        948.208         1.0427         33.173      -0.505249              1
      4390.0000         1.0288        951.748         1.0375        33.2247     -0.5579834              1
      4390.5000         1.0195        962.958         1.0301        33.5524     -0.8867149              1
      4391.0000         1.0147        974.918         1.0228        33.9574      -1.292747      0.9933466
      4391.5000         1.0208       986.9346         1.0154        35.2938       -2.63018      0.9629505
      4392.0000         1.0286       996.4492          1.008        36.6041      -3.941513      0.9331474
      4392.5000         1.0401       997.0615         1.0078        37.2106      -4.549049      0.9193398
      4393.0000         1.0516       997.6738         1.0117        37.5211       -4.86058      0.9122595
      4393.5000         1.0582       996.6895         1.0156        37.5873      -4.927811      0.9107316
      4394.0000         1.0632       979.9375         1.0194        37.6536      -4.995144      0.9092013
      4394.5000         1.0678       963.1846         1.0233        37.2568       -4.59938      0.9181959
      4395.0000         1.0704       945.8398         1.0271         36.766      -4.109612       0.929327
      4395.5000          1.073       927.9287         1.0401        36.4597      -3.804348      0.9362648
      4396.0000         1.0756       919.0205         1.0559        36.2696      -3.615276      0.9405619
      4396.5000         1.0882       913.6484         1.0717        36.2937      -3.640411      0.9399906
      4397.0000         1.1192       908.2764         1.0876        36.3177      -3.665443      0.9394217
      4397.5000         1.1539       909.3818         1.1034        36.3419      -3.690678      0.9388483
      4398.0000         1.1688       912.4326         1.1147        36.2457      -3.595509      0.9410112
      4398.5000         1.1664       919.7666         1.1126        36.0826      -3.433441      0.9446945
      4399.0000         1.0973       1045.119         1.1044        35.2456      -2.597477      0.9636937
      4399.5000         1.0043       1084.848         1.0402        34.0923       -1.44521      0.9898816
      4400.0000         0.9695       1111.398          0.976        33.0961     -0.4500427              1
      4400.5000         0.9048         1160.9         0.9118        32.1334      0.5116272              1
      4401.0000         0.8663        1186.08         0.8476        31.4532       1.190794              1
      4401.5000         0.8452       1173.521         0.8257         31.906      0.7369595              1
