#------------------------------------------------------------------------------
# Created by    : vladimir.rabinovich
# Created on    : 09/19/2023 17:19:43
#------------------------------------------------------------------------------
~Version Information Section
VERS.           2.0     :   CWLS log ASCII Standard - VERSION 2.0
WRAP.           NO      :   One line per depth step
~Well Information Section
#MNEM       .UNIT                                         VALUE :DESCRIPTION
#------------------------------------------------------------------------------
STRT        .FT                                            1596 :START DEPTH
STOP        .FT                                            6079 :STOP DEPTH
STEP        .FT                                             0.5 :STEP      
NULL        .                                           -999.25 :NULL      
COMP        .                                 EOG RESOURCES INC :COMPANY   
WELL        .                                     ST TR 00721-S :WELL      
FLD         .                                  SHERMAN OFFSHORE :FIELD     
LOC         .                                                   :LOCATION  
CNTY        .                      MATAGORDA ISLAND SMALL BLOCK :LOCATION  
STAT        .                                             TEXAS :STATE     
CTRY        .                                     UNITED STATES :COUNTRY   
SRVC        .                                                   :SERVICE COMPANY
DATE        .                             9/13/2023 11:19:17 AM :LOG DATE  
API         .                                    42603300060000 :API NUMBER
UWI         .                                    42603300060000 :UNIQUE WELL ID
XCOORD      .                                  491308.028993428 :SURFACE X 
YCOORD      .                                  10247941.6299489 :SURFACE Y 
LAT         .                                        28.1931224 :LATITUDE  
LON         .                                       -96.5672747 :LONGITUDE 
ELEV        .FT                                              74 :ELEVATION VALUE
ELEV_TYPE   .                                                KB :ELEVATION REFERENCE TYPE
~Curve Information Section
#MNEM       .UNIT                                      API CODE :CURVE DESCRIPTION
#------------------------------------------------------------------------------
DEPT        .FT                                                 :DEPTH     
ASFL        .OHMM                                               :          
CILD        .MMHO                                               :          
ILD         .OHMM                                               :          
SP          .MV                                                 :          
SP_NORM     .MV                                                 :SP Normalized
VSH_SP      .V/V                                                :Volume of Shale from SP
~A        DEPTH           ASFL           CILD            ILD             SP        SP_NORM         VSH_SP
# ...
      2774.0000         1.0594       752.3102         1.3292       -40.4773      -2.621944      0.9631376
      2774.5000         1.0594       712.5468         1.4034        -39.678      -1.648693       0.985257
      2775.0000           1.09       672.7835         1.4864       -39.1442     -0.9409409              1
      2775.5000         1.1322       653.0549         1.5313       -39.2434     -0.8661919              1
      2776.0000         1.1302       668.8261         1.4952       -40.3599      -1.808743      0.9816195
      2776.5000         1.1302       692.4886         1.4441       -41.2228      -2.506073      0.9657711
      2777.0000         1.1262       728.5763         1.3725       -41.3222      -2.440056      0.9672714
      2777.5000         1.0159       764.6639         1.3078       -41.3227      -2.275139      0.9710196
      2778.0000          1.008       800.7516         1.2488       -41.2243      -2.011318      0.9770155
      2778.5000          1.002       836.8392          1.195       -41.2248      -1.846401      0.9807636
      2779.0000          1.002       872.9269         1.1456       -43.4016       -3.85778      0.9350504
      2779.5000         1.0059       909.0145         1.1001        -46.765      -7.055763       0.862369
      2780.0000          1.264       945.1022         1.0581       -57.0289      -17.15424      0.6328581
      2780.5000         1.2719       1177.332         0.8494       -67.2927      -27.25263      0.4033494
      2781.0000         1.2817        1315.25         0.7603       -76.9347      -36.72921      0.1879726
      2781.5000         0.8798       1642.311         0.6851       -77.4297      -37.05879       0.180482
      2782.0000         0.8778       1658.099          0.626       -80.2989      -39.76257      0.1190325
      2782.5000         0.8699       1669.947         0.5371        -81.585      -40.88325     0.09356248
      2783.0000         0.8718       1964.749         0.5074       -81.8822      -41.01504     0.09056733
      2783.5000         0.8718       2164.555         0.4876       -82.1794      -41.14681     0.08757245
      2784.0000         0.8737       2364.361         0.4776       -82.1799       -40.9819     0.09132047
      2784.5000         0.8776       2564.167         0.4577       -81.8837      -40.52028      0.1018119
      2785.0000         0.8855       2722.149         0.4477       -81.6863      -40.15746      0.1100577
      2785.5000         0.8914       2745.824         0.4476       -81.2912      -39.59694      0.1227968
      2786.0000         0.8992       2793.141         0.4475       -81.0938      -39.23413      0.1310426
      2786.5000         0.8953       2804.996         0.4473       -80.8965      -38.87141      0.1392862
      2787.0000         0.8893        2613.67          0.457       -80.6992      -38.50869      0.1475298
      2787.5000         0.8854       2547.584         0.4766       -80.6996      -38.34367      0.1512802
      2788.0000         0.8814       2481.499         0.4961       -80.7001      -38.17875      0.1550283
      2788.5000         1.0846       2411.098         0.5058       -80.9973      -38.31053      0.1520334
      2789.0000         1.2222       2383.531         0.5057       -83.5225      -40.67031     0.09840202
      2789.5000          1.234       2352.038         0.5055       -86.0477      -43.03009     0.04477059
      2790.0000         1.0076       2332.351         0.4956       -89.7035      -46.52048              0
      2790.5000         0.8773         2468.9         0.4856       -89.8024      -46.45396              0
      2791.0000         0.8773       2605.448         0.4559       -90.3964      -46.88254              0
      2791.5000         0.8773       2741.997          0.436       -91.2258      -47.54652              0
      2792.0000         0.8892       2878.546         0.4162       -92.0552       -48.2105              0
      2792.5000         0.9028       3015.095         0.3963       -92.8846      -48.87448              0
      2793.0000          0.882       3160.099         0.3666       -93.9596      -49.78407              0
      2793.5000         0.8611        3183.76         0.3566       -95.3443      -51.00335              0
      2794.0000         0.8402       3215.321         0.3565       -96.3772      -51.87083              0
      2794.5000         0.8194           3239         0.3563       -97.4101      -52.73832              0
      2795.0000         0.7985       3235.094         0.3562       -98.2145      -53.37729              0
      2795.5000         0.7687       3231.171          0.356        -98.215      -53.21237              0
      2796.0000         0.7628        3188.24         0.3658       -98.1165      -52.94846              0
      2796.5000         0.7529       3145.308         0.3656       -97.8203      -52.48684              0
      2797.0000         0.7489       3102.376         0.3852       -97.4251      -51.92622              0
      2797.5000         0.7489       3061.892          0.385       -97.2278       -51.5635              0
      2798.0000         0.7508       2969.002         0.4046       -97.0305      -51.20078              0
      2798.5000         0.7852       2876.111         0.4143       -96.5364      -50.54126              0
      2799.0000         0.8195       2783.221          0.424       -96.3391      -50.17855              0
      2799.5000         0.8538       2690.331         0.4533       -96.1417      -49.81573              0
      2800.0000         0.8881        2597.44         0.4828       -96.0431      -49.55171              0
      2800.5000         0.9224        2504.55         0.5098       -80.8923      -34.23549      0.2446479
      2801.0000         0.9424       2433.742         0.5409        -75.669      -28.84677      0.3671188
      2801.5000         0.9497       2362.934         0.5317       -75.6694      -28.68176      0.3708692
      2802.0000         0.9497       2340.984         0.5218       -77.8929      -30.73983      0.3240947
      2802.5000         0.8688       2325.246          0.515       -80.1163      -32.79782      0.2773223
      2803.0000          0.788       2487.215         0.5019       -82.3398       -34.8559      0.2305478
      2803.5000         0.6797       2649.184         0.4821       -84.5632      -36.91388      0.1837754
      2804.0000         0.6659       2811.153         0.4721       -86.7867      -38.97196      0.1370009
      2804.5000         0.6659       2973.122         0.4425       -89.0102      -41.03004     0.09022626
      2805.0000         0.7047       3135.091         0.4227       -91.2336      -43.08802     0.04345408
      2805.5000         0.7435        3297.06         0.4029       -93.6758       -45.3648              0
      2806.0000         0.7978       3459.029         0.3831       -94.2695      -45.79309              0
      2806.5000         0.8057       3620.999         0.3633       -94.1711      -45.52927              0
      2807.0000         0.8116       3708.764         0.3533       -93.3565      -44.54925     0.01024428
      2807.5000         0.8234       3477.481         0.3532       -92.5419      -43.56923     0.03251743
      2808.0000         0.8253       3246.197         0.3531       -91.7272      -42.58912     0.05479275
      2808.5000         0.8312       3014.913         0.3826       -91.2065      -41.90299     0.07038654
      2809.0000         0.8273       2783.629         0.4022       -81.9114      -32.44248      0.2853982
      2809.5000         0.6519       2552.345         0.4316       -81.7136      -32.07926      0.2936532
      2810.0000         0.6558       2231.056         0.5202       -59.5626       -9.76284      0.8008446
      2810.5000         0.6656       2008.772         0.5792       -52.4439      -2.478722      0.9663927
      2811.0000         0.6814       1786.488          0.658       -52.1477      -2.017105      0.9768839
      2811.5000         0.6991       1564.204         0.6776       -52.2475      -1.951488      0.9783753
