#------------------------------------------------------------------------------
# Created by    : vladimir.rabinovich
# Created on    : 09/19/2023 17:20:26
#------------------------------------------------------------------------------
~Version Information Section
VERS.           2.0     :   CWLS log ASCII Standard - VERSION 2.0
WRAP.           NO      :   One line per depth step
~Well Information Section
#MNEM       .UNIT                                         VALUE :DESCRIPTION
#------------------------------------------------------------------------------
STRT        .FT                                             494 :START DEPTH
STOP        .FT                                            8560 :STOP DEPTH
STEP        .FT                                             0.5 :STEP      
NULL        .                                           -999.25 :NULL      
COMP        .                           COLORADO OIL & GAS CORP :COMPANY   
WELL        .                                     ST TR 00122-S :WELL      
FLD         .                                           WILDCAT :FIELD     
LOC         .                                                   :LOCATION  
CNTY        .                           HIGH ISLAND SMALL BLOCK :LOCATION  
STAT        .                                             TEXAS :STATE     
CTRY        .                                     UNITED STATES :COUNTRY   
SRVC        .                                                   :SERVICE COMPANY
DATE        .                             9/13/2023 11:19:17 AM :LOG DATE  
API         .                                    42606300100000 :API NUMBER
UWI         .                                    42606300100000 :UNIQUE WELL ID
XCOORD      .                                  1208966.22079576 :SURFACE X 
YCOORD      .                                  10715303.2202208 :SURFACE Y 
LAT         .                                        29.5185768 :LATITUDE  
LON         .                                       -94.3569047 :LONGITUDE 
ELEV        .FT                                              93 :ELEVATION VALUE
ELEV_TYPE   .                                                KB :ELEVATION REFERENCE TYPE
~Curve Information Section
#MNEM       .UNIT                                      API CODE :CURVE DESCRIPTION
#------------------------------------------------------------------------------
DEPT        .FT                                                 :DEPTH     
ASN         .OHMM                                               :          
CILD        .MMHO                                               :          
GR          .GAPI                                               :          
GR_NORM     .GAPI                                               :GammaRay Normalized
ILD         .OHMM                                               :          
SP          .MV                                                 :          
SP_NORM     .MV                                                 :SP Normalized
VSH_GR      .V/V                                                :Volume of Shale from GR
VSH_SP      .V/V                                                :Volume of Shale from SP
~A        DEPTH            ASN           CILD             GR        GR_NORM            ILD             SP        SP_NORM         VSH_GR         VSH_SP
# ...
      6907.0000         0.5831       4973.398        -999.25        -999.25         0.1501      -127.4878      -76.00364        -999.25              0
      6907.5000         0.5396       5524.688        -999.25        -999.25         0.1555      -128.2275      -76.74153        -999.25              0
      6908.0000         0.5226       5560.391        -999.25        -999.25         0.1686      -128.9712      -77.48343        -999.25              0
      6908.5000         0.5069       5552.141        -999.25        -999.25         0.1816      -129.7139      -78.22432        -999.25              0
      6909.0000         0.5078       5457.734        -999.25        -999.25         0.1946      -129.6301      -78.13871        -999.25              0
      6909.5000         0.5152       5255.695        -999.25        -999.25         0.2149      -128.0972        -76.604        -999.25              0
      6910.0000         0.5296       5122.969        -999.25        -999.25          0.236       -126.769        -75.274        -999.25              0
      6910.5000         0.5439        2964.18        -999.25        -999.25         0.2572      -125.8536       -74.3568        -999.25    0.008691942
      6911.0000         0.5896       2873.344        -999.25        -999.25         0.2783      -122.7094      -71.21078        -999.25     0.05120561
      6911.5000         0.5715       2817.355        -999.25        -999.25         0.2995      -114.0292      -62.52878        -999.25        0.16853
      6912.0000         0.5523        2772.23        -999.25        -999.25         0.3284       -66.2354      -14.73317        -999.25      0.8144166
      6912.5000         0.5331       2687.168        -999.25        -999.25         0.3582       -63.0331      -11.52907        -999.25      0.8577152
      6913.0000         0.5139       2584.289        -999.25        -999.25         0.3879       -59.8273      -8.321465        -999.25      0.9010613
      6913.5000         0.4949       2484.055        -999.25        -999.25         0.4177       -56.4891      -4.981461        -999.25      0.9461965
      6914.0000          0.477        2365.32        -999.25        -999.25         0.4475       -53.7446      -2.235149        -999.25      0.9833088
      6914.5000         0.4591       2148.508        -999.25        -999.25         0.5166       -51.6784     -0.1671448        -999.25              1
      6915.0000         0.5026       2100.199        -999.25        -999.25         0.5901       -51.2391      0.2739601        -999.25              1
      6915.5000         0.6762        2052.48        -999.25        -999.25         0.6635         -72.25      -20.73513        -999.25       0.733309
      6916.0000         0.8099       2003.443        -999.25        -999.25          0.737       -64.4117      -12.89502        -999.25      0.8392565
      6916.5000         0.9354       1944.125        -999.25        -999.25         0.8047       -60.8126      -9.294121        -999.25      0.8879173
      6917.0000         1.0912       1875.018        -999.25        -999.25         0.8548       -58.5571      -7.036812        -999.25      0.9184214
      6917.5000         1.1421       1369.639        -999.25        -999.25         0.8331       -57.3622      -5.840111        -999.25      0.9345931
      6918.0000         1.1942       1136.281        -999.25        -999.25          0.784       -56.3264      -4.802502        -999.25      0.9486148
      6918.5000          1.239       1085.186        -999.25        -999.25         0.6978       -57.2676      -5.741898        -999.25      0.9359203
      6919.0000         1.3331        1207.15        -999.25        -999.25         0.6115       -58.2078       -6.68029        -999.25      0.9232394
      6919.5000         1.3717       1329.113        -999.25        -999.25         0.5358       -62.2942      -10.76488        -999.25      0.8680421
      6920.0000         1.0874        1581.07        -999.25        -999.25         0.4608       -72.2354      -20.70427        -999.25       0.733726
      6920.5000          0.855       1869.047        -999.25        -999.25         0.4305       -77.1544      -25.62148        -999.25      0.6672773
      6921.0000         0.8005        1493.17        -999.25        -999.25         0.4004       -80.2316      -28.69686        -999.25      0.6257181
      6921.5000         0.7695        1686.59        -999.25        -999.25         0.3764       -81.9227      -30.38616        -999.25      0.6028898
      6922.0000         0.7269       2648.195        -999.25        -999.25         0.3723       -79.2427      -27.70435        -999.25      0.6391304
      6922.5000         0.6662       2634.078        -999.25        -999.25         0.3785       -74.2352      -22.69505        -999.25      0.7068237
      6923.0000         0.6228       2619.957        -999.25        -999.25          0.415       -66.0736      -14.53164        -999.25        0.81714
      6923.5000         0.6077       2605.836        -999.25        -999.25         0.4515       -57.2648      -5.721035        -999.25      0.9362022
      6924.0000         0.5926       2514.891        -999.25        -999.25         0.4879       -53.7391      -2.193527        -999.25      0.9838713
      6924.5000         0.5817       1784.082        -999.25        -999.25         0.5244         -45.57       5.977379        -999.25              1
      6925.0000         0.6538         1681.5        -999.25        -999.25         0.6239       -43.3425       8.206688        -999.25              1
      6925.5000         0.7063       1549.941        -999.25        -999.25         0.7346       -43.5296       8.021393        -999.25              1
      6926.0000         0.8133       1242.045        -999.25        -999.25         0.8609       -43.7164       7.836399        -999.25              1
      6926.5000          1.013        1199.76        -999.25        -999.25         1.0109       -43.9032       7.651405        -999.25              1
      6927.0000         1.1586       1152.334        -999.25        -999.25         1.1285       -44.0902       7.466213        -999.25              1
      6927.5000         1.2268       998.2148        -999.25        -999.25         1.2352        -44.277       7.281216        -999.25              1
      6928.0000         1.4742        951.084        -999.25        -999.25         1.3221       -44.6229       6.937126        -999.25              1
      6928.5000          1.595        904.001        -999.25        -999.25         1.2202       -45.4928       6.069027        -999.25              1
      6929.0000         1.6514       723.0605        -999.25        -999.25         0.9096       -46.7189       4.844738        -999.25              1
      6929.5000         1.6764       684.4941        -999.25        -999.25         0.5888       -48.7336       2.831841        -999.25              1
      6930.0000         1.6496       1282.521        -999.25        -999.25         0.5009       -50.9027      0.6645508        -999.25              1
      6930.5000         1.3323        1418.58        -999.25        -999.25         0.4325       -59.0847      -7.515648        -999.25      0.9119507
      6931.0000         1.1114       3027.414        -999.25        -999.25         0.3766       -63.3972      -11.82634        -999.25      0.8536981
      6931.5000         0.7772       3377.547        -999.25        -999.25         0.3408        -67.125      -15.55233        -999.25      0.8033468
      6932.0000          0.684       3452.723        -999.25        -999.25         0.3121       -70.2867      -18.71222        -999.25      0.7606456
      6932.5000         0.6616       3522.125        -999.25        -999.25         0.2877       -73.9375      -22.36122        -999.25      0.7113348
      6933.0000         0.6535       3586.926        -999.25        -999.25         0.2634       -79.9706      -28.39251        -999.25       0.629831
