#------------------------------------------------------------------------------
# Created by    : vladimir.rabinovich
# Created on    : 09/19/2023 17:22:47
#------------------------------------------------------------------------------
~Version Information Section
VERS.           2.0     :   CWLS log ASCII Standard - VERSION 2.0
WRAP.           NO      :   One line per depth step
~Well Information Section
#MNEM       .UNIT                                         VALUE :DESCRIPTION
#------------------------------------------------------------------------------
STRT        .FT                                             494 :START DEPTH
STOP        .FT                                            8323 :STOP DEPTH
STEP        .FT                                             0.5 :STEP      
NULL        .                                           -999.25 :NULL      
COMP        .                                       MONSANTO CO :COMPANY   
WELL        .                                     ST TR 00293-S :WELL      
FLD         .                                           WILDCAT :FIELD     
LOC         .                                                   :LOCATION  
CNTY        .                             GALVESTON SMALL BLOCK :LOCATION  
STAT        .                                             TEXAS :STATE     
CTRY        .                                     UNITED STATES :COUNTRY   
SRVC        .                                                   :SERVICE COMPANY
DATE        .                             9/13/2023 11:19:17 AM :LOG DATE  
API         .                                    42605300230000 :API NUMBER
UWI         .                                    42605300230000 :UNIQUE WELL ID
XCOORD      .                                  996050.411534576 :SURFACE X 
YCOORD      .                                  10568409.9475512 :SURFACE Y 
LAT         .                                        29.1061939 :LATITUDE  
LON         .                                        -95.018267 :LONGITUDE 
ELEV        .FT                                              81 :ELEVATION VALUE
ELEV_TYPE   .                                                KB :ELEVATION REFERENCE TYPE
~Curve Information Section
#MNEM       .UNIT                                      API CODE :CURVE DESCRIPTION
#------------------------------------------------------------------------------
DEPT        .FT                                                 :DEPTH     
DT          .US/F                                               :          
GR          .GAPI                                               :          
GR_NORM     .GAPI                                               :GammaRay Normalized
ILD         .OHMM                                               :          
SFL         .OHMM                                               :          
SP          .MV                                                 :          
SP_NORM     .MV                                                 :SP Normalized
VSH_GR      .V/V                                                :Volume of Shale from GR
VSH_SP      .V/V                                                :Volume of Shale from SP
~A        DEPTH             DT             GR        GR_NORM            ILD            SFL             SP        SP_NORM         VSH_GR         VSH_SP
# ...
      4654.5000       115.1902        -999.25        -999.25         1.3113         0.8923        28.3518       4.435614        -999.25              1
      4655.0000       115.5468        -999.25        -999.25         1.3509         0.8952        30.1516         2.6334        -999.25              1
      4655.5000        114.713        -999.25        -999.25         1.3713         0.9451        31.7355       1.047081        -999.25              1
      4656.0000       113.3293        -999.25        -999.25         1.3527         0.9749        33.6665     -0.8863373        -999.25              1
      4656.5000       111.5905        -999.25        -999.25         1.3176         0.9758        36.0771      -3.299355        -999.25      0.9557816
      4657.0000       109.9792        -999.25        -999.25         1.2428         0.9606        39.1188      -6.343472        -999.25      0.8972409
      4657.5000       108.2804        -999.25        -999.25         1.0874           0.92        44.3262      -11.55329        -999.25      0.7970521
      4658.0000       106.0848        -999.25        -999.25         0.7933         0.8607        49.9249      -17.15441        -999.25      0.6893383
      4658.5000       104.7401        -999.25        -999.25         0.6376         0.8094        58.8151      -26.04703        -999.25      0.5183264
      4659.0000       104.2059        -999.25        -999.25         0.5465         0.7929        63.6187      -30.85304        -999.25      0.4259031
      4659.5000       108.6719        -999.25        -999.25         0.4384         0.7736        69.1946      -36.43136        -999.25      0.3186277
      4660.0000        111.354        -999.25        -999.25         0.3928         0.7445        71.0776      -38.31678        -999.25      0.2823697
      4660.5000       115.3047        -999.25        -999.25         0.3612         0.7112        72.3815      -39.62309        -999.25      0.2572482
      4661.0000       117.3563        -999.25        -999.25         0.3315         0.7368        74.1597      -41.40371        -999.25      0.2230056
      4661.5000       117.7041        -999.25        -999.25         0.3049         0.8129        76.8909      -44.13733        -999.25       0.170436
      4662.0000       119.1152        -999.25        -999.25         0.2829         0.8634        79.6625      -46.91135        -999.25      0.1170895
      4662.5000        124.537        -999.25        -999.25         0.2699         0.7401        81.9001      -49.15136        -999.25     0.07401224
      4663.0000       130.7319        -999.25        -999.25         0.2696         0.6593        83.5839      -50.83758        -999.25     0.04158497
      4663.5000       134.6599        -999.25        -999.25         0.2746         0.6157        85.0554       -52.3115        -999.25     0.01324045
      4664.0000       120.6339        -999.25        -999.25         0.2774         0.5938        86.4803      -53.73882        -999.25              0
      4664.5000       100.6781        -999.25        -999.25         0.2773         0.5858        87.6068      -54.86773        -999.25              0
      4665.0000        89.3691        -999.25        -999.25         0.2767         0.6831        88.6228      -55.88615        -999.25              0
      4665.5000        81.9032        -999.25        -999.25         0.2822         1.6706        88.9115      -56.17727        -999.25              0
      4666.0000        80.8896        -999.25        -999.25         0.2825         2.6556        88.9043      -56.17248        -999.25              0
      4666.5000        80.6091        -999.25        -999.25         0.2794          1.258        88.6887       -55.9593        -999.25              0
      4667.0000        97.5557        -999.25        -999.25         0.2713          0.821        88.3925      -55.66552        -999.25              0
      4667.5000        111.897        -999.25        -999.25         0.2629         0.6333        88.0709      -55.34634        -999.25              0
      4668.0000       118.6323        -999.25        -999.25         0.2549         0.6666         87.772      -55.04986        -999.25              0
      4668.5000       120.8503        -999.25        -999.25         0.2499          0.686        87.4924      -54.77267        -999.25              0
      4669.0000       120.3706        -999.25        -999.25         0.2475         0.6928        87.2456      -54.52829        -999.25              0
      4669.5000       120.8528        -999.25        -999.25         0.2462          0.679        87.0164      -54.30151        -999.25              0
      4670.0000       121.4089        -999.25        -999.25         0.2463         0.6615        86.7312      -54.01873        -999.25              0
      4670.5000       120.0259        -999.25        -999.25         0.2475         0.6549        86.1086      -53.39854        -999.25              0
      4671.0000       117.4564        -999.25        -999.25         0.2485         0.6525        85.0964      -52.38876        -999.25     0.01175462
      4671.5000        117.564        -999.25        -999.25         0.2488         0.6423        83.6671      -50.96188        -999.25      0.0391947
      4672.0000       120.3586        -999.25        -999.25         0.2473         0.6229        82.9161      -50.21329        -999.25     0.05359048
      4672.5000       122.1113        -999.25        -999.25         0.2441         0.6106        82.3695      -49.66911        -999.25     0.06405552
      4673.0000       122.9907        -999.25        -999.25         0.2401         0.6028        82.1841      -49.48613        -999.25      0.0675745
      4673.5000       121.2306        -999.25        -999.25         0.2341         0.5977        82.2303      -49.53475        -999.25     0.06663946
      4674.0000        118.738        -999.25        -999.25         0.2272         0.5934        82.4417      -49.74857        -999.25     0.06252751
      4674.5000        118.541        -999.25        -999.25           0.22         0.5896        82.7325      -50.04178        -999.25      0.0568888
      4675.0000       119.3347        -999.25        -999.25         0.2128          0.586         83.049       -50.3607        -999.25     0.05075572
      4675.5000       119.8038        -999.25        -999.25         0.2083          0.584        83.3787      -50.69282        -999.25     0.04436889
      4676.0000       120.5551        -999.25        -999.25         0.2045          0.582        83.4122      -50.72874        -999.25     0.04367814
      4676.5000       120.7324        -999.25        -999.25         0.2016         0.5822        83.3734      -50.69235        -999.25     0.04437784
      4677.0000        120.141        -999.25        -999.25         0.1994         0.5829        83.1993      -50.52067        -999.25     0.04767939
      4677.5000       119.6373        -999.25        -999.25         0.1976         0.5835        82.4827      -49.80648        -999.25     0.06141376
      4678.0000       119.6803        -999.25        -999.25         0.1966         0.5834         82.231      -49.55721        -999.25     0.06620752
      4678.5000       119.9258        -999.25        -999.25         0.1961         0.5814        82.0693      -49.39792        -999.25      0.0692708
      4679.0000       119.4286        -999.25        -999.25         0.1955         0.5811        82.1173      -49.44834        -999.25     0.06830113
      4679.5000       118.6017        -999.25        -999.25         0.1949         0.5756        82.1523      -49.48576        -999.25     0.06758162
      4680.0000       117.9546        -999.25        -999.25         0.1948         0.5823        82.1071      -49.44298        -999.25     0.06840427
      4680.5000       117.6624        -999.25        -999.25         0.1952          0.604        81.9415      -49.27979        -999.25     0.07154252
