#------------------------------------------------------------------------------
# Created by    : vladimir.rabinovich
# Created on    : 09/19/2023 17:19:42
#------------------------------------------------------------------------------
~Version Information Section
VERS.           2.0     :   CWLS log ASCII Standard - VERSION 2.0
WRAP.           NO      :   One line per depth step
~Well Information Section
#MNEM       .UNIT                                         VALUE :DESCRIPTION
#------------------------------------------------------------------------------
STRT        .FT                                            2198 :START DEPTH
STOP        .FT                                            8738 :STOP DEPTH
STEP        .FT                                             0.5 :STEP      
NULL        .                                           -999.25 :NULL      
COMP        .                             CHAMPLIN PETROLEUM CO :COMPANY   
WELL        .                                     ST TR 00360-S :WELL      
FLD         .                                           WILDCAT :FIELD     
LOC         .                                                   :LOCATION  
CNTY        .                             GALVESTON SMALL BLOCK :LOCATION  
STAT        .                                             TEXAS :STATE     
CTRY        .                                     UNITED STATES :COUNTRY   
SRVC        .                                                   :SERVICE COMPANY
DATE        .                             9/13/2023 11:19:17 AM :LOG DATE  
API         .                                    42605301270000 :API NUMBER
UWI         .                                    42605301270000 :UNIQUE WELL ID
XCOORD      .                                  933135.371219094 :SURFACE X 
YCOORD      .                                  10510129.7662443 :SURFACE Y 
LAT         .                                         28.942863 :LATITUDE  
LON         .                                       -95.2117932 :LONGITUDE 
ELEV        .FT                                              20 :ELEVATION VALUE
ELEV_TYPE   .                                                GL :ELEVATION REFERENCE TYPE
~Curve Information Section
#MNEM       .UNIT                                      API CODE :CURVE DESCRIPTION
#------------------------------------------------------------------------------
DEPT        .FT                                                 :DEPTH     
ASFL        .OHMM                                               :          
CILD        .MMHO                                               :          
ILD         .OHMM                                               :          
SP          .MV                                                 :          
SP_NORM     .MV                                                 :SP Normalized
VSH_SP      .V/V                                                :Volume of Shale from SP
~A        DEPTH           ASFL           CILD            ILD             SP        SP_NORM         VSH_SP
# ...
      2616.0000         0.7091        2191.52         0.4354        64.9905      -16.58334       0.270833
      2616.5000         0.7065        2288.82         0.4255        64.6498      -16.23422      0.2882889
      2617.0000         0.6915       2404.184         0.4063        64.3088       -15.8848      0.3057598
      2617.5000         0.6744       3070.797         0.3871        63.7805      -15.34809      0.3325956
      2618.0000         0.6422       3481.344         0.3687        63.2244      -14.78357      0.3608213
      2618.5000         0.6072       3573.859          0.353        62.6303      -14.18105      0.3909473
      2619.0000         0.5771       3609.418         0.3372        62.0117      -13.55404       0.422298
      2619.5000         0.5547       3618.262         0.3215        61.3935      -12.92743      0.4536287
      2620.0000         0.5242       3607.113         0.3335        60.2901      -11.81561      0.5092195
      2620.5000         0.4972        3446.93          0.352        57.6873      -9.204395      0.6397802
      2621.0000         0.5185       3182.898         0.3705        56.0541      -7.562775      0.7218612
      2621.5000         0.5542       3069.531         0.3824        54.6409      -6.141159       0.792942
      2622.0000         0.5909       2213.258         0.3931        54.1046      -5.596443      0.8201779
      2622.5000         0.6279       2019.586          0.407        54.4102      -5.893627      0.8053187
      2623.0000         0.6489       1984.805         0.4223        55.1888      -6.663815      0.7668093
      2623.5000         0.7028       1940.395          0.437        56.0312      -7.497795      0.7251102
      2624.0000         0.7359       1776.393         0.4488        56.8889       -8.34708       0.682646
      2624.5000           0.76       1915.773         0.4607        57.7643      -9.214066      0.6392967
      2625.0000         0.7828       2129.699          0.471        58.9906      -10.43195      0.5784025
      2625.5000         0.7512       2179.781         0.4757        60.3398      -11.77274      0.5113632
      2626.0000         0.7256       2212.918         0.4804        58.8613      -10.28582      0.5857092
      2626.5000         0.7001       2242.953         0.4851        56.0388      -7.454899       0.727255
      2627.0000         0.6762       2268.652         0.4897         54.824      -6.231686      0.7884157
      2627.5000         0.6553         2294.5         0.4962        54.1284      -5.527668      0.8236166
      2628.0000         0.6455       2323.145         0.5042        53.4924      -4.883255      0.8558372
      2628.5000         0.6632       2351.789         0.5122        52.8591      -4.241535      0.8879232
      2629.0000         0.6794       2391.887          0.523        52.2294       -3.60342       0.919829
      2629.5000         0.6956       2363.672         0.5429           51.6      -2.965603      0.9517199
      2630.0000         0.7066       2008.137         0.5626        50.9557      -2.312889      0.9843556
      2630.5000         0.6884       1900.893         0.5805        50.2971      -1.645874              1
      2631.0000         0.6745       1887.039         0.5957        49.5616     -0.9019547              1
      2631.5000         0.6616       1915.811         0.5847        48.7894     -0.1213379              1
      2632.0000         0.6487       1944.582         0.5737        48.7505     -0.0740242              1
      2632.5000          0.641       1965.934         0.5627        49.4852     -0.8003082              1
      2633.0000         0.6358       1980.389         0.5504        50.2818      -1.588493              1
      2633.5000         0.6416       1994.846         0.5344         51.347      -2.645275      0.9804462
      2634.0000         0.6545       2009.301         0.5185        52.5777      -3.867561      0.9434072
      2634.5000         0.6715       2020.416         0.5095        54.2573      -5.538746      0.8927653
      2635.0000          0.697       2031.455         0.5103        55.5046       -6.77763      0.8552234
      2635.5000          0.722         2042.5         0.5111        56.6329      -7.897511      0.8212876
      2636.0000         0.7467       2015.803         0.5127        58.2781      -9.534294       0.771688
      2636.5000         0.7755       1973.645          0.516         59.699      -10.94678      0.7288854
      2637.0000         0.8036       1937.572         0.5192        59.6123      -10.85167      0.7317677
      2637.5000         0.8277       1925.945         0.5224        59.2355      -10.46645      0.7434409
      2638.0000         0.8387       1914.318         0.5257         58.821      -10.04353      0.7562567
      2638.5000         0.8421       1908.689         0.5289        58.3988      -9.663475      0.7677735
      2639.0000         0.8335       1906.871         0.5321        57.8397      -9.174805      0.7825817
      2639.5000         0.7938       1905.049         0.5354        57.5068      -8.912334      0.7905353
      2640.0000         0.7786       1908.982         0.5368        57.5231      -8.999065      0.7879071
      2640.5000         0.7642       1918.496         0.5377        57.6053      -9.151691      0.7832821
      2641.0000         0.7564       1930.322         0.5386        57.6876       -9.30442      0.7786539
      2641.5000         0.7487       1981.086         0.5394        57.8502      -9.537449      0.7715924
      2642.0000         0.7441       2015.355         0.5403        58.0399      -9.797581      0.7637097
      2642.5000         0.7418       2034.176         0.5412        58.2294      -10.05751      0.7558331
      2643.0000         0.7394       2041.652          0.542         58.419      -10.31754      0.7479535
      2643.5000         0.7381       2047.232         0.5429        58.6086      -10.57756      0.7400738
      2644.0000         0.7389       2052.816         0.5438        58.7982      -10.83759      0.7321942
      2644.5000         0.7402       2046.053         0.5435        59.0867      -11.19652      0.7213175
      2645.0000         0.7426       2036.387          0.543        59.3909      -11.57115      0.7099652
      2645.5000         0.7457       2026.217         0.5425        59.6953      -11.94598      0.6986067
      2646.0000         0.7496       2003.441         0.5421        60.0582      -12.37931      0.6854755
      2646.5000         0.7554       1980.668         0.5416        60.4836      -12.87514      0.6704504
      2647.0000         0.7631       1956.109         0.5411        60.4404      -12.90236      0.6696253
      2647.5000         0.7686       1930.273         0.5411        57.5673      -10.09969      0.7545547
      2648.0000         0.7681       1918.354         0.5425        56.9442       -9.54702      0.7713024
      2648.5000         0.7606       1911.941         0.5438        56.3427      -9.015953      0.7873954
      2649.0000          0.753       1905.531         0.5452        55.8622      -8.605881      0.7998218
      2649.5000         0.7454       1899.119         0.5465        55.3816      -8.195709      0.8122512
      2650.0000         0.7387       1894.117         0.5479        54.7737      -7.658237      0.8285382
      2650.5000         0.7335        1890.08         0.5492        54.1428      -7.097767      0.8455222
      2651.0000         0.7298       1886.045         0.5515        53.7108      -6.736195      0.8564789
      2651.5000         0.7278       1882.008         0.5542        53.4805      -6.576324      0.8613235
      2652.0000         0.7273       1877.973         0.5568         53.405      -6.571251      0.8614773
      2652.5000         0.7292        1873.32         0.5595        53.5768      -6.813484      0.8541368
      2653.0000         0.7311       1867.396         0.5621        53.7485      -7.055611      0.8467997
      2653.5000         0.7329       1861.469         0.5648        53.9203       -7.29784      0.8394594
