#------------------------------------------------------------------------------
# Created by    : vladimir.rabinovich
# Created on    : 09/19/2023 17:19:42
#------------------------------------------------------------------------------
~Version Information Section
VERS.           2.0     :   CWLS log ASCII Standard - VERSION 2.0
WRAP.           NO      :   One line per depth step
~Well Information Section
#MNEM       .UNIT                                         VALUE :DESCRIPTION
#------------------------------------------------------------------------------
STRT        .FT                                            2198 :START DEPTH
STOP        .FT                                            8738 :STOP DEPTH
STEP        .FT                                             0.5 :STEP      
NULL        .                                           -999.25 :NULL      
COMP        .                             CHAMPLIN PETROLEUM CO :COMPANY   
WELL        .                                     ST TR 00360-S :WELL      
FLD         .                                           WILDCAT :FIELD     
LOC         .                                                   :LOCATION  
CNTY        .                             GALVESTON SMALL BLOCK :LOCATION  
STAT        .                                             TEXAS :STATE     
CTRY        .                                     UNITED STATES :COUNTRY   
SRVC        .                                                   :SERVICE COMPANY
DATE        .                             9/13/2023 11:19:17 AM :LOG DATE  
API         .                                    42605301270000 :API NUMBER
UWI         .                                    42605301270000 :UNIQUE WELL ID
XCOORD      .                                  933135.371219094 :SURFACE X 
YCOORD      .                                  10510129.7662443 :SURFACE Y 
LAT         .                                         28.942863 :LATITUDE  
LON         .                                       -95.2117932 :LONGITUDE 
ELEV        .FT                                              20 :ELEVATION VALUE
ELEV_TYPE   .                                                GL :ELEVATION REFERENCE TYPE
~Curve Information Section
#MNEM       .UNIT                                      API CODE :CURVE DESCRIPTION
#------------------------------------------------------------------------------
DEPT        .FT                                                 :DEPTH     
ASFL        .OHMM                                               :          
CILD        .MMHO                                               :          
ILD         .OHMM                                               :          
SP          .MV                                                 :          
SP_NORM     .MV                                                 :SP Normalized
VSH_SP      .V/V                                                :Volume of Shale from SP
~A        DEPTH           ASFL           CILD            ILD             SP        SP_NORM         VSH_SP
# ...
      3490.0000         0.8428       1129.861         0.8797        36.2604      -2.114056      0.9965438
      3490.5000         0.8334       1146.689         0.8626        36.4265      -2.280155      0.9915105
      3491.0000         0.8239       1163.529         0.8455        36.7127      -2.566357      0.9828377
      3491.5000         0.8145       1183.039         0.8305        36.9987      -2.852356       0.974171
      3492.0000         0.8072       1209.307         0.8158        37.3341      -3.187756      0.9640074
      3492.5000         0.7999       1235.572         0.8011        37.6868      -3.540455      0.9533195
      3493.0000          0.791       1261.852         0.7882        37.5972      -3.450855      0.9560347
      3493.5000         0.7801       1279.445         0.7826        37.2657      -3.119358      0.9660801
      3494.0000         0.7692       1290.275         0.7751        36.9341      -2.787758      0.9761286
      3494.5000         0.7563         1301.1         0.7666        36.6025      -2.456158       0.986177
      3495.0000         0.7422       1311.932          0.758         36.271      -2.124657      0.9962225
      3495.5000         0.7289       1322.762         0.7495        36.1096      -1.963257              1
      3496.0000         0.7141       1333.889         0.7487        36.0004      -1.854057              1
      3496.5000         0.7422        1345.27         0.7818        35.8911      -1.744759              1
      3497.0000         0.7748        1347.32         0.8149        35.7818      -1.635456              1
      3497.5000         0.7979       1320.561         0.8479        35.4985      -1.352158              1
      3498.0000         0.8166       1293.787          0.881        34.9414     -0.7950554              1
      3498.5000         0.8577       1256.754         0.9107        34.3843      -0.237957              1
      3499.0000         0.8853       1215.633         0.9352        33.7514      0.3949432              1
      3499.5000         0.8929       1174.512         0.9598        33.0357       1.110641              1
      3500.0000          0.888       1135.668         0.9842        32.4446       1.701744              1
      3500.5000         0.8833        1104.67         0.9994         32.566       1.580341              1
      3501.0000          0.882       1073.695         1.0147        32.6873       1.459042              1
      3501.5000         0.8806       1013.394           1.03        32.8087       1.337643              1
      3502.0000         0.8792       992.0244         1.0457        32.9299       1.216442              1
      3502.5000         0.8801       976.5127         1.0636        33.1217       1.024643              1
      3503.0000         0.8841        961.001         1.0814         33.316      0.8303413              1
      3503.5000         0.8882       930.7988         1.0993        33.5103      0.6360435              1
      3504.0000         0.8966       877.0508         1.1267        33.7832      0.3631439              1
      3504.5000         0.9097       851.5186         1.1562        34.1256     0.02074432              1
      3505.0000         0.9236       825.9854         1.1859         34.468     -0.3216553              1
      3505.5000         0.9532       798.8838         1.2162        34.5975     -0.4511566              1
      3506.0000         0.9916       792.5068         1.2465        34.5276     -0.3812561              1
      3506.5000         1.0482       820.1143         1.2633        34.4576     -0.3112564              1
      3507.0000          1.075       895.1699         1.2682         34.149   -0.002655029              1
      3507.5000         1.0911       960.3047         1.2524        33.7762      0.3701439              1
      3508.0000         1.0858       1001.097         1.2367        33.4179      0.7284431              1
      3508.5000         1.0698       1041.889         1.2209        33.0596       1.086742              1
      3509.0000         1.0433        1082.68         1.1958        32.9455       1.200844              1
      3509.5000         1.0167       1122.838          1.167        33.2618      0.8845444              1
      3510.0000         0.9837       1162.896         1.1381        33.6702      0.4761429              1
      3510.5000         0.8996       1202.955         1.1092        34.0787     0.06764221              1
      3511.0000         0.7648       1193.377         1.0804        34.4871     -0.3407555              1
      3511.5000         0.7642       1178.586         1.0491        34.8657     -0.7193565              1
      3512.0000         0.7633       1170.295         1.0098        34.9913     -0.8449554              1
      3512.5000         0.7622       1162.361         0.9705        34.6848      -0.538456              1
      3513.0000         0.7612       1154.422         0.9314        34.2429    -0.09655762              1
      3513.5000         0.7602        1146.49         0.8985         33.801      0.3453445              1
      3514.0000         0.7592       1138.551         0.8655        33.5831      0.5632439              1
      3514.5000         0.7596       1134.617         0.8372        33.3815       0.764843              1
      3515.0000         0.7602       1132.318         0.8255        33.1798      0.9665451              1
      3515.5000         0.7609       1130.021         0.8166        33.0822       1.064144              1
      3516.0000         0.7621       1127.723         0.8284        33.0634       1.082943              1
      3516.5000         0.7634       1125.424         0.8403        33.0446       1.101742              1
      3517.0000         0.7646       1123.127         0.8522        33.0258       1.120544              1
      3517.5000         0.7647       1120.826         0.8732         33.007       1.139343              1
      3518.0000         0.7636       1118.141         0.8963        33.0121       1.134243              1
      3518.5000         0.7626       1115.443         0.9194        33.0693       1.077042              1
      3519.0000         0.7616       1110.781         0.9426        33.1266       1.019745              1
      3519.5000         0.7606       1084.412         0.9657        33.1838      0.9625435              1
      3520.0000         0.7641       1058.033          0.987         33.241      0.9053421              1
      3520.5000          0.782       1031.652         1.0044        33.4273      0.7190437              1
      3521.0000         0.8083       1005.373         1.0217         33.675       0.471344              1
      3521.5000         0.8314       979.7773         1.0391        33.9225      0.2238426              1
      3522.0000         0.8526       954.1934         1.0564        34.4821     -0.3357582              1
      3522.5000          0.877       928.5977         1.0738        34.3441     -0.1977577              1
      3523.0000         0.9075       904.7471         1.0943        34.2061    -0.05975723              1
      3523.5000         0.9379       891.9434         1.1154        34.2143    -0.06795502              1
      3524.0000         0.9601       879.1455         1.1366        34.3461     -0.1997566              1
      3524.5000         0.9714       866.3408         1.1577        34.5398     -0.3934555              1
      3525.0000         0.9716       859.3867         1.1753        34.7711     -0.6247559              1
      3525.5000         0.9706       855.9687          1.186        35.0023      -0.855957              1
      3526.0000         0.9696       852.5527         1.1966        35.1384     -0.9920578              1
      3526.5000         0.9686       849.1348         1.2068        35.1238     -0.9774551              1
      3527.0000         0.9718       845.7168          1.201        35.1093     -0.9629555              1
      3527.5000         0.9772       842.2988         1.1952        35.0947     -0.9483566              1
