#------------------------------------------------------------------------------
# Created by    : vladimir.rabinovich
# Created on    : 09/19/2023 17:20:27
#------------------------------------------------------------------------------
~Version Information Section
VERS.           2.0     :   CWLS log ASCII Standard - VERSION 2.0
WRAP.           NO      :   One line per depth step
~Well Information Section
#MNEM       .UNIT                                         VALUE :DESCRIPTION
#------------------------------------------------------------------------------
STRT        .FT                                             540 :START DEPTH
STOP        .FT                                            9057 :STOP DEPTH
STEP        .FT                                             0.5 :STEP      
NULL        .                                           -999.25 :NULL      
COMP        .                              MITCHELL ENERGY CORP :COMPANY   
WELL        .                                     ST TR 00228-S :WELL      
FLD         .                                     LAFITTES GOLD :FIELD     
LOC         .                                                   :LOCATION  
CNTY        .                             GALVESTON SMALL BLOCK :LOCATION  
STAT        .                                             TEXAS :STATE     
CTRY        .                                     UNITED STATES :COUNTRY   
SRVC        .                                                   :SERVICE COMPANY
DATE        .                             9/13/2023 11:19:17 AM :LOG DATE  
API         .                                    42605300060000 :API NUMBER
UWI         .                                    42605300060000 :UNIQUE WELL ID
XCOORD      .                                  1068847.04405215 :SURFACE X 
YCOORD      .                                  10622520.7629704 :SURFACE Y 
LAT         .                                        29.2582252 :LATITUDE  
LON         .                                       -94.7929393 :LONGITUDE 
ELEV        .FT                                              67 :ELEVATION VALUE
ELEV_TYPE   .                                                KB :ELEVATION REFERENCE TYPE
~Curve Information Section
#MNEM       .UNIT                                      API CODE :CURVE DESCRIPTION
#------------------------------------------------------------------------------
DEPT        .FT                                                 :DEPTH     
ASN         .OHMM                                               :          
CILD        .MMHO                                               :          
GR          .GAPI                                               :          
GR_NORM     .GAPI                                               :GammaRay Normalized
ILD         .OHMM                                               :          
SP          .MV                                                 :          
SP_NORM     .MV                                                 :SP Normalized
VSH_GR      .V/V                                                :Volume of Shale from GR
VSH_SP      .V/V                                                :Volume of Shale from SP
~A        DEPTH            ASN           CILD             GR        GR_NORM            ILD             SP        SP_NORM         VSH_GR         VSH_SP
# ...
      7880.5000         0.7225       2445.301        -999.25        -999.25         0.4517        96.6372      -41.44086        -999.25       0.539546
      7881.0000         0.7507       2368.809        -999.25        -999.25         0.4569         98.347      -43.23729        -999.25      0.5195857
      7881.5000         0.7737       2317.746        -999.25        -999.25         0.4666       101.3918      -46.36871        -999.25      0.4847921
      7882.0000         0.7963       2274.051        -999.25        -999.25         0.4809       105.8135      -50.87704        -999.25      0.4346996
      7882.5000         0.8202        2211.25        -999.25        -999.25          0.496       107.7924      -52.94256        -999.25      0.4117493
      7883.0000         0.7873       2134.125        -999.25        -999.25         0.5112       107.8467      -53.08349        -999.25      0.4101834
      7883.5000         0.7662           2057        -999.25        -999.25         0.5279       103.7754      -49.09882        -999.25      0.4544576
      7884.0000         0.7235       2010.996        -999.25        -999.25         0.5498        98.7123      -44.12235        -999.25      0.5097517
      7884.5000         0.6553        1780.93        -999.25        -999.25          0.575        95.7316      -41.22827        -999.25      0.5419081
      7885.0000          0.631       1691.672        -999.25        -999.25          0.602        92.2526       -37.8359        -999.25      0.5796011
      7885.5000         0.6509       1610.367        -999.25        -999.25         0.6289        87.5151      -33.18502        -999.25      0.6312776
      7886.0000         0.6811       1382.951        -999.25        -999.25         0.6527        82.8121      -28.56865        -999.25      0.6825705
      7886.5000         0.7256       1309.109        -999.25        -999.25          0.676        79.4861      -25.32927        -999.25      0.7185636
      7887.0000         0.7469        1264.26        -999.25        -999.25         0.6974        76.2439       -22.1737        -999.25      0.7536256
      7887.5000         0.7651       1246.486        -999.25        -999.25          0.718         64.272      -10.28843        -999.25      0.8856841
      7888.0000         0.7861       1231.586        -999.25        -999.25         0.7359        54.9624      -1.065453        -999.25      0.9881616
      7888.5000          0.809       1239.811        -999.25        -999.25         0.7537        53.9193     -0.1089783        -999.25      0.9987891
      7889.0000          0.862       1251.201        -999.25        -999.25         0.7655        53.3691      0.3545952        -999.25              1
      7889.5000         0.8588       1262.604        -999.25        -999.25         0.7761        52.8195      0.8175697        -999.25              1
      7890.0000          0.839       1279.455        -999.25        -999.25         0.7845        52.7689      0.7815399        -999.25              1
      7890.5000         0.8181       1301.818        -999.25        -999.25          0.791        52.7448      0.7190132        -999.25              1
      7891.0000         0.7964       1325.434        -999.25        -999.25         0.7795        52.7208      0.6563911        -999.25              1
      7891.5000         0.7812       1349.566        -999.25        -999.25         0.7681        52.6967      0.5938606        -999.25              1
      7892.0000         0.7706       1374.752        -999.25        -999.25         0.7566        52.6726      0.5313377        -999.25              1
      7892.5000         0.7676       1407.059        -999.25        -999.25          0.743        52.6486       0.468708        -999.25              1
      7893.0000         0.7675       1433.301        -999.25        -999.25         0.7232        52.9589     0.07178497        -999.25              1
      7893.5000         0.7675       1456.988        -999.25        -999.25         0.7035         53.358     -0.4139442        -999.25      0.9954006
      7894.0000         0.7675       1484.975        -999.25        -999.25         0.6924        54.2358      -1.378368        -999.25      0.9846848
      7894.5000         0.7675       1513.352        -999.25        -999.25         0.6825        59.5296      -6.758793        -999.25      0.9249023
      7895.0000         0.7681       1551.549        -999.25        -999.25         0.6847        61.1187      -8.434517        -999.25      0.9062831
      7895.5000         0.7689       1577.375        -999.25        -999.25         0.6886        61.3819      -8.784348        -999.25      0.9023961
      7896.0000         0.7696       1515.906        -999.25        -999.25         0.6961        61.4557      -8.944775        -999.25      0.9006136
      7896.5000         0.7703        1470.49        -999.25        -999.25         0.7041        61.1951      -8.770798        -999.25      0.9025467
      7897.0000         0.7728        1442.26        -999.25        -999.25         0.7121        60.4302      -8.092525        -999.25      0.9100831
      7897.5000         0.7759       1414.668        -999.25        -999.25         0.7226        59.6024      -7.351353        -999.25      0.9183183
      7898.0000         0.7837       1366.553        -999.25        -999.25         0.7355         58.761      -6.596581        -999.25      0.9267046
      7898.5000         0.7935       1318.242        -999.25        -999.25         0.7485        57.6815      -5.603703        -999.25      0.9377366
      7899.0000          0.807       1289.422        -999.25        -999.25         0.7608        56.1641      -4.172932        -999.25      0.9536341
      7899.5000         0.8224       1264.873        -999.25        -999.25         0.7726        55.4263      -3.521755        -999.25      0.9608694
      7900.0000         0.8409       1234.777        -999.25        -999.25         0.7843         54.881      -3.063084        -999.25      0.9659657
      7900.5000         0.8586       1206.129        -999.25        -999.25         0.7961         54.427      -2.695705        -999.25      0.9700477
      7901.0000         0.8785       1182.268        -999.25        -999.25         0.8081        53.9785      -2.333836        -999.25      0.9740685
      7901.5000         0.8961       1159.609        -999.25        -999.25         0.8183        53.5375      -1.979458        -999.25       0.978006
      7902.0000         0.9116       1131.773        -999.25        -999.25         0.8277        53.1791      -1.707687        -999.25      0.9810257
      7902.5000         0.9292       1112.256        -999.25        -999.25         0.8419        52.9234      -1.538616        -999.25      0.9829043
      7903.0000         0.9401        1110.85        -999.25        -999.25         0.8561        52.6982       -1.40004        -999.25       0.984444
      7903.5000         0.9444       1111.777        -999.25        -999.25         0.8701        52.5531      -1.341568        -999.25      0.9850937
      7904.0000         0.9434       1113.201        -999.25        -999.25         0.8837        52.4078       -1.28289        -999.25      0.9857457
      7904.5000         0.9424       1115.742        -999.25        -999.25         0.8973        52.2628      -1.224518        -999.25      0.9863942
      7905.0000         0.9359       1116.063        -999.25        -999.25         0.9109        52.1176      -1.165943        -999.25       0.987045
      7905.5000          0.925       1100.203        -999.25        -999.25         0.9243        52.0212       -1.15617        -999.25      0.9871536
      7906.0000         0.9209       1080.369        -999.25        -999.25         0.9319          52.02      -1.241596        -999.25      0.9862045
      7906.5000         0.9271        1048.75        -999.25        -999.25         0.9395        52.0189      -1.327126        -999.25      0.9852542
