#------------------------------------------------------------------------------
# Created by    : vladimir.rabinovich
# Created on    : 09/19/2023 17:20:27
#------------------------------------------------------------------------------
~Version Information Section
VERS.           2.0     :   CWLS log ASCII Standard - VERSION 2.0
WRAP.           NO      :   One line per depth step
~Well Information Section
#MNEM       .UNIT                                         VALUE :DESCRIPTION
#------------------------------------------------------------------------------
STRT        .FT                                             540 :START DEPTH
STOP        .FT                                            9057 :STOP DEPTH
STEP        .FT                                             0.5 :STEP      
NULL        .                                           -999.25 :NULL      
COMP        .                              MITCHELL ENERGY CORP :COMPANY   
WELL        .                                     ST TR 00228-S :WELL      
FLD         .                                     LAFITTES GOLD :FIELD     
LOC         .                                                   :LOCATION  
CNTY        .                             GALVESTON SMALL BLOCK :LOCATION  
STAT        .                                             TEXAS :STATE     
CTRY        .                                     UNITED STATES :COUNTRY   
SRVC        .                                                   :SERVICE COMPANY
DATE        .                             9/13/2023 11:19:17 AM :LOG DATE  
API         .                                    42605300060000 :API NUMBER
UWI         .                                    42605300060000 :UNIQUE WELL ID
XCOORD      .                                  1068847.04405215 :SURFACE X 
YCOORD      .                                  10622520.7629704 :SURFACE Y 
LAT         .                                        29.2582252 :LATITUDE  
LON         .                                       -94.7929393 :LONGITUDE 
ELEV        .FT                                              67 :ELEVATION VALUE
ELEV_TYPE   .                                                KB :ELEVATION REFERENCE TYPE
~Curve Information Section
#MNEM       .UNIT                                      API CODE :CURVE DESCRIPTION
#------------------------------------------------------------------------------
DEPT        .FT                                                 :DEPTH     
ASN         .OHMM                                               :          
CILD        .MMHO                                               :          
GR          .GAPI                                               :          
GR_NORM     .GAPI                                               :GammaRay Normalized
ILD         .OHMM                                               :          
SP          .MV                                                 :          
SP_NORM     .MV                                                 :SP Normalized
VSH_GR      .V/V                                                :Volume of Shale from GR
VSH_SP      .V/V                                                :Volume of Shale from SP
~A        DEPTH            ASN           CILD             GR        GR_NORM            ILD             SP        SP_NORM         VSH_GR         VSH_SP
# ...
      3932.0000         0.6637       1342.629        -999.25        -999.25         0.7749        56.6084        6.31295        -999.25              1
      3932.5000         0.6614       1348.963        -999.25        -999.25         0.7686        55.5258        7.39555        -999.25              1
      3933.0000          0.662       1355.297        -999.25        -999.25         0.7624        54.7529       8.168449        -999.25              1
      3933.5000         0.6626       1358.916        -999.25        -999.25         0.7561        54.2773       8.644047        -999.25              1
      3934.0000          0.664       1356.086        -999.25        -999.25         0.7602        54.1736       8.747749        -999.25              1
      3934.5000         0.6663       1346.066        -999.25        -999.25         0.7659        54.2231        8.69825        -999.25              1
      3935.0000         0.6686       1322.158        -999.25        -999.25         0.7716        54.2993       8.622047        -999.25              1
      3935.5000         0.6763       1298.262        -999.25        -999.25         0.7772        54.3753       8.546047        -999.25              1
      3936.0000         0.6864       1262.492        -999.25        -999.25         0.7829        54.4514       8.469948        -999.25              1
      3936.5000         0.6965       1223.135        -999.25        -999.25         0.7886        54.9614       7.959949        -999.25              1
      3937.0000         0.7069       1198.797        -999.25        -999.25         0.7943        55.5472       7.374149        -999.25              1
      3937.5000         0.7177       1174.445        -999.25        -999.25         0.8033        56.1324       6.788948        -999.25              1
      3938.0000         0.7286        1151.08        -999.25        -999.25         0.8302        56.6965        6.22485        -999.25              1
      3938.5000         0.7394       1130.686        -999.25        -999.25         0.8571        57.2605       5.660847        -999.25              1
      3939.0000         0.7489       1110.291        -999.25        -999.25          0.884        57.8248        5.09655        -999.25              1
      3939.5000         0.7534       1095.236        -999.25        -999.25          0.911        58.2582       4.663147        -999.25              1
      3940.0000          0.758       1086.887        -999.25        -999.25         0.9379        58.4647        4.45665        -999.25              1
      3940.5000         0.7626       1082.131        -999.25        -999.25         0.9515        58.6711       4.250248        -999.25              1
      3941.0000         0.7672       1078.076        -999.25        -999.25         0.9636        58.8776       4.043747        -999.25              1
      3941.5000         0.7646       1074.023        -999.25        -999.25         0.9518         58.934        3.98735        -999.25              1
      3942.0000         0.7615        1081.02        -999.25        -999.25          0.938        58.9828       3.938549        -999.25              1
      3942.5000         0.7583        1096.26        -999.25        -999.25         0.9242        59.0317       3.889648        -999.25              1
      3943.0000         0.7521       1113.498        -999.25        -999.25         0.9105        59.0805       3.840847        -999.25              1
      3943.5000         0.7445       1131.623        -999.25        -999.25         0.8957        59.1293       3.792049        -999.25              1
      3944.0000          0.737       1159.119        -999.25        -999.25         0.8734        59.1782       3.743149        -999.25              1
      3944.5000         0.7295       1214.283        -999.25        -999.25         0.8511        59.2271       3.694248        -999.25              1
      3945.0000         0.7219       1261.975        -999.25        -999.25         0.8289        59.3664       3.554947        -999.25              1
      3945.5000         0.7139       1281.197        -999.25        -999.25         0.8084        59.6686        3.25275        -999.25              1
      3946.0000          0.705       1298.021        -999.25        -999.25         0.8071         59.971       2.950348        -999.25              1
      3946.5000         0.6961        1307.43        -999.25        -999.25         0.8057        60.2733       2.648048        -999.25              1
      3947.0000         0.6873       1316.838        -999.25        -999.25         0.8043        60.5755       2.345848        -999.25              1
      3947.5000         0.6784       1326.246        -999.25        -999.25          0.803        61.3005        1.62085        -999.25              1
      3948.0000          0.671       1335.037        -999.25        -999.25         0.8016        62.0572      0.8641472        -999.25              1
      3948.5000         0.6651        1316.77        -999.25        -999.25         0.8088        62.8138      0.1075478        -999.25              1
      3949.0000          0.675        1271.74        -999.25        -999.25         0.8193        63.5835     -0.6621513        -999.25        0.99221
      3949.5000         0.6863       1189.426        -999.25        -999.25         0.8297        64.3905      -1.469154        -999.25      0.9827158
      3950.0000         0.7057       1139.637        -999.25        -999.25         0.8401        65.1981      -2.276749        -999.25      0.9732147
      3950.5000         0.7252       1109.822        -999.25        -999.25         0.8506        65.5221      -2.600754        -999.25      0.9694029
      3951.0000         0.7461       1080.256        -999.25        -999.25         0.8802        65.5385      -2.617149        -999.25        0.96921
      3951.5000         0.7698       1051.084        -999.25        -999.25         0.9146        65.5548      -2.633453        -999.25      0.9690182
      3952.0000         0.7934       1024.326        -999.25        -999.25          0.949        65.5712      -2.649849        -999.25      0.9688253
      3952.5000          0.817       999.2109        -999.25        -999.25         0.9834         65.722      -2.800652        -999.25      0.9670511
      3953.0000          0.845       976.9551        -999.25        -999.25         1.0183        65.9563       -3.03495        -999.25      0.9642947
      3953.5000         0.8735       959.0898        -999.25        -999.25         1.0544        66.1907      -3.269348        -999.25      0.9615371
      3954.0000         0.9015       941.2236        -999.25        -999.25         1.0905        66.8246      -3.903252        -999.25      0.9540794
      3954.5000         0.9286       924.7197        -999.25        -999.25         1.1266        67.7218      -4.800453        -999.25      0.9435241
      3955.0000         0.9548       913.2715        -999.25        -999.25         1.1257        68.6184      -5.697052        -999.25      0.9329759
      3955.5000         0.9775       901.8232        -999.25        -999.25         1.1187        69.5767       -6.65535        -999.25      0.9217018
      3956.0000         1.0003       890.3809        -999.25        -999.25         1.1116        70.6581      -7.736748        -999.25      0.9089794
      3956.5000         1.0263       892.3535        -999.25        -999.25         1.1046        71.7395      -8.818153        -999.25       0.896257
      3957.0000         1.0569       894.7314        -999.25        -999.25         1.0811        72.6741      -9.752754        -999.25      0.8852617
      3957.5000         1.0822       918.5977        -999.25        -999.25         1.0394        73.1628      -10.24146        -999.25      0.8795123
      3958.0000         1.1009       942.8135        -999.25        -999.25         0.9976        73.6512      -10.72985        -999.25      0.8737665
