#------------------------------------------------------------------------------
# Created by    : vladimir.rabinovich
# Created on    : 09/19/2023 17:20:26
#------------------------------------------------------------------------------
~Version Information Section
VERS.           2.0     :   CWLS log ASCII Standard - VERSION 2.0
WRAP.           NO      :   One line per depth step
~Well Information Section
#MNEM       .UNIT                                         VALUE :DESCRIPTION
#------------------------------------------------------------------------------
STRT        .FT                                             494 :START DEPTH
STOP        .FT                                            8560 :STOP DEPTH
STEP        .FT                                             0.5 :STEP      
NULL        .                                           -999.25 :NULL      
COMP        .                           COLORADO OIL & GAS CORP :COMPANY   
WELL        .                                     ST TR 00122-S :WELL      
FLD         .                                           WILDCAT :FIELD     
LOC         .                                                   :LOCATION  
CNTY        .                           HIGH ISLAND SMALL BLOCK :LOCATION  
STAT        .                                             TEXAS :STATE     
CTRY        .                                     UNITED STATES :COUNTRY   
SRVC        .                                                   :SERVICE COMPANY
DATE        .                             9/13/2023 11:19:17 AM :LOG DATE  
API         .                                    42606300100000 :API NUMBER
UWI         .                                    42606300100000 :UNIQUE WELL ID
XCOORD      .                                  1208966.22079576 :SURFACE X 
YCOORD      .                                  10715303.2202208 :SURFACE Y 
LAT         .                                        29.5185768 :LATITUDE  
LON         .                                       -94.3569047 :LONGITUDE 
ELEV        .FT                                              93 :ELEVATION VALUE
ELEV_TYPE   .                                                KB :ELEVATION REFERENCE TYPE
~Curve Information Section
#MNEM       .UNIT                                      API CODE :CURVE DESCRIPTION
#------------------------------------------------------------------------------
DEPT        .FT                                                 :DEPTH     
ASN         .OHMM                                               :          
CILD        .MMHO                                               :          
GR          .GAPI                                               :          
GR_NORM     .GAPI                                               :GammaRay Normalized
ILD         .OHMM                                               :          
SP          .MV                                                 :          
SP_NORM     .MV                                                 :SP Normalized
VSH_GR      .V/V                                                :Volume of Shale from GR
VSH_SP      .V/V                                                :Volume of Shale from SP
~A        DEPTH            ASN           CILD             GR        GR_NORM            ILD             SP        SP_NORM         VSH_GR         VSH_SP
# ...
      7463.5000          0.617       1829.396        -999.25        -999.25         0.5415       -48.9365      -1.155472        -999.25       0.998104
      7464.0000         0.6174       1833.924        -999.25        -999.25         0.5389       -48.9462      -1.170879        -999.25      0.9979161
      7464.5000         0.6179        1842.08        -999.25        -999.25         0.5363       -48.8768      -1.107189        -999.25      0.9986928
      7465.0000         0.6177       1861.045        -999.25        -999.25         0.5337       -48.7712      -1.007294        -999.25      0.9999111
      7465.5000         0.6158        1880.01        -999.25        -999.25         0.5311       -48.6656     -0.9074059        -999.25              1
      7466.0000          0.614       1898.975        -999.25        -999.25         0.5285         -48.56     -0.8075142        -999.25              1
      7466.5000         0.6122       1911.725        -999.25        -999.25         0.5259       -48.4545     -0.7077217        -999.25              1
      7467.0000         0.6104       1924.082        -999.25        -999.25         0.5233       -48.3489       -0.60783        -999.25              1
      7467.5000         0.6086       1936.441        -999.25        -999.25         0.5207       -48.2433     -0.5079422        -999.25              1
      7468.0000         0.6068       1948.799        -999.25        -999.25         0.5181       -48.1378     -0.4081459        -999.25              1
      7468.5000          0.605       1961.156        -999.25        -999.25         0.5155       -48.0322     -0.3082542        -999.25              1
      7469.0000         0.6031       1961.129        -999.25        -999.25         0.5129       -47.9605     -0.2422638        -999.25              1
      7469.5000         0.6024       1958.729        -999.25        -999.25         0.5103       -47.8888     -0.1762733        -999.25              1
      7470.0000         0.6025       1956.324        -999.25        -999.25         0.5077       -47.8171     -0.1102829        -999.25              1
      7470.5000         0.6026        1953.92        -999.25        -999.25         0.5051       -47.7454    -0.04428864        -999.25              1
      7471.0000         0.6027       1951.516        -999.25        -999.25         0.5025       -47.6738     0.02159882        -999.25              1
      7471.5000         0.6028       1949.111        -999.25        -999.25          0.502       -47.6022      0.0874939        -999.25              1
      7472.0000         0.6029       1944.467        -999.25        -999.25         0.5064       -47.5305      0.1534882        -999.25              1
      7472.5000          0.603       1937.506        -999.25        -999.25         0.5109         -47.47      0.2082748        -999.25              1
      7473.0000         0.6043       1930.543        -999.25        -999.25         0.5153       -47.5059      0.1666679        -999.25              1
      7473.5000         0.6073       1923.568        -999.25        -999.25         0.5198       -47.5417      0.1251602        -999.25              1
      7474.0000         0.6103       1916.607        -999.25        -999.25         0.5243       -47.5776     0.08355331        -999.25              1
      7474.5000         0.6134       1909.645        -999.25        -999.25         0.5287       -47.6134     0.04204178        -999.25              1
      7475.0000         0.6164       1902.682        -999.25        -999.25          0.532       -47.6494   0.0003356934        -999.25              1
      7475.5000         0.6194       1895.721        -999.25        -999.25         0.5328       -47.6852    -0.04117203        -999.25              1
      7476.0000         0.6225       1888.758        -999.25        -999.25         0.5335       -47.7211    -0.08278275        -999.25              1
      7476.5000         0.6255       1880.156        -999.25        -999.25         0.5343       -47.7569     -0.1242905        -999.25              1
      7477.0000         0.6281       1860.213        -999.25        -999.25          0.535       -47.8402     -0.2132988        -999.25              1
      7477.5000         0.6298       1840.293        -999.25        -999.25         0.5357       -48.1008     -0.4796066        -999.25              1
      7478.0000         0.6316        1820.35        -999.25        -999.25         0.5365       -48.3609     -0.7454185        -999.25              1
      7478.5000         0.6334       1800.404        -999.25        -999.25         0.5372       -48.6109      -1.001125        -999.25      0.9999863
      7479.0000         0.6352       1778.332        -999.25        -999.25          0.538       -48.8278      -1.223732        -999.25      0.9972715
      7479.5000          0.637       1756.014        -999.25        -999.25         0.5387       -49.0445       -1.44614        -999.25      0.9945593
      7480.0000         0.6387       1733.721        -999.25        -999.25         0.5382       -49.2614      -1.668747        -999.25      0.9918445
      7480.5000         0.6405       1720.406        -999.25        -999.25         0.5356       -49.4781      -1.891159        -999.25      0.9891322
      7481.0000         0.6423       1717.313        -999.25        -999.25          0.533       -49.7069      -2.125668        -999.25      0.9862723
      7481.5000         0.6431       1714.221        -999.25        -999.25         0.5303       -49.9652      -2.389675        -999.25      0.9830527
      7482.0000         0.6433       1716.127        -999.25        -999.25         0.5277       -50.2234      -2.653584        -999.25      0.9798343
      7482.5000         0.6435       1723.234        -999.25        -999.25         0.5251       -50.4818      -2.917694        -999.25      0.9766135
      7483.0000         0.6436       1730.344        -999.25        -999.25         0.5224       -50.7396      -3.181202        -999.25         0.9734
      7483.5000         0.6438       1737.453        -999.25        -999.25         0.5198       -50.9978      -3.445107        -999.25      0.9701816
      7484.0000          0.644       1744.563        -999.25        -999.25         0.5172       -51.2561      -3.709118        -999.25       0.966962
      7484.5000         0.6442       1751.684        -999.25        -999.25         0.5158       -51.5143      -3.973026        -999.25      0.9637436
      7485.0000         0.6443       1758.791        -999.25        -999.25         0.5189       -51.7726      -4.237034        -999.25       0.960524
      7485.5000         0.6445       1768.006        -999.25        -999.25         0.5219       -52.0305      -4.500641        -999.25      0.9573092
      7486.0000         0.6436       1778.639        -999.25        -999.25          0.525       -52.2887      -4.764553        -999.25      0.9540908
      7486.5000         0.6425       1789.271        -999.25        -999.25         0.5281        -52.547      -5.028561        -999.25      0.9508712
      7487.0000         0.6414       1799.891        -999.25        -999.25         0.5312       -52.8052      -5.292465        -999.25      0.9476529
      7487.5000         0.6403       1810.523        -999.25        -999.25         0.5343       -53.3016      -5.794579        -999.25      0.9415295
      7488.0000         0.6392       1821.156        -999.25        -999.25         0.5373       -53.6771      -6.175785        -999.25      0.9368806
      7488.5000          0.638       1831.789        -999.25        -999.25         0.5404       -53.2161      -5.720493        -999.25       0.942433
      7489.0000         0.6369       1841.223        -999.25        -999.25         0.5435       -52.7552      -5.265301        -999.25      0.9479842
      7489.5000         0.6358       1848.283        -999.25        -999.25         0.5466       -52.2943      -4.810112        -999.25      0.9535352
