#------------------------------------------------------------------------------
# Created by    : vladimir.rabinovich
# Created on    : 09/19/2023 17:19:43
#------------------------------------------------------------------------------
~Version Information Section
VERS.           2.0     :   CWLS log ASCII Standard - VERSION 2.0
WRAP.           NO      :   One line per depth step
~Well Information Section
#MNEM       .UNIT                                         VALUE :DESCRIPTION
#------------------------------------------------------------------------------
STRT        .FT                                            1596 :START DEPTH
STOP        .FT                                            6079 :STOP DEPTH
STEP        .FT                                             0.5 :STEP      
NULL        .                                           -999.25 :NULL      
COMP        .                                 EOG RESOURCES INC :COMPANY   
WELL        .                                     ST TR 00721-S :WELL      
FLD         .                                  SHERMAN OFFSHORE :FIELD     
LOC         .                                                   :LOCATION  
CNTY        .                      MATAGORDA ISLAND SMALL BLOCK :LOCATION  
STAT        .                                             TEXAS :STATE     
CTRY        .                                     UNITED STATES :COUNTRY   
SRVC        .                                                   :SERVICE COMPANY
DATE        .                             9/13/2023 11:19:17 AM :LOG DATE  
API         .                                    42603300060000 :API NUMBER
UWI         .                                    42603300060000 :UNIQUE WELL ID
XCOORD      .                                  491308.028993428 :SURFACE X 
YCOORD      .                                  10247941.6299489 :SURFACE Y 
LAT         .                                        28.1931224 :LATITUDE  
LON         .                                       -96.5672747 :LONGITUDE 
ELEV        .FT                                              74 :ELEVATION VALUE
ELEV_TYPE   .                                                KB :ELEVATION REFERENCE TYPE
~Curve Information Section
#MNEM       .UNIT                                      API CODE :CURVE DESCRIPTION
#------------------------------------------------------------------------------
DEPT        .FT                                                 :DEPTH     
ASFL        .OHMM                                               :          
CILD        .MMHO                                               :          
ILD         .OHMM                                               :          
SP          .MV                                                 :          
SP_NORM     .MV                                                 :SP Normalized
VSH_SP      .V/V                                                :Volume of Shale from SP
~A        DEPTH           ASFL           CILD            ILD             SP        SP_NORM         VSH_SP
# ...
      3382.0000         1.1999       1281.654         0.7755       -56.8367      -6.234291       0.886211
      3382.5000         1.0866       1273.858         0.7899        -53.568      -2.965591      0.9572697
      3383.0000         0.9516       1246.361         0.7899       -50.2994       0.303009              1
      3383.5000          0.928       1238.565         0.7998       -45.4655       5.136909              1
      3384.0000         0.9021       1234.709         0.8099       -47.5438       3.058609              1
      3384.5000         0.8763       1242.673         0.8151       -49.6221      0.9803085              1
      3385.0000         0.8489       1290.039         0.7674       -52.0047       -1.40229      0.9912546
      3385.5000         0.8469       1361.046         0.7474       -52.3029      -1.700489       0.984772
      3386.0000         0.8587       1372.951         0.7373       -52.0084      -1.405991      0.9911741
      3386.5000          0.934       1373.035          0.737        -51.615      -1.012592      0.9997262
      3387.0000         1.0221        1369.18         0.7268       -51.5172     -0.9147911              1
      3387.5000          1.028       1357.444         0.7475       -51.2228     -0.6203918              1
      3388.0000         1.0279       1352.883         0.7616       -49.9843      0.6181107              1
      3388.5000         0.9769       1345.792         0.7763       -48.7458       1.856609              1
      3389.0000         0.9259       1318.294         0.7796       -47.5074       3.095009              1
      3389.5000         0.8749       1294.736         0.7843       -46.6808       3.921608              1
      3390.0000         0.8031       1271.178         0.7668       -52.0293      -1.426891      0.9907197
      3390.5000         0.7991       1267.322         0.7501       -52.0305      -1.428089      0.9906937
      3391.0000          0.801       1365.916         0.7341        -50.583     0.01940918              1
      3391.5000         0.8108       1385.702         0.7187       -49.1355       1.466908              1
      3392.0000         0.8445       1421.251          0.704       -48.1775       2.424908              1
      3392.5000         0.8777       1468.621         0.6899       -48.2789       2.323509              1
      3393.0000         0.8796       1492.391         0.6763       -51.8472      -1.244789      0.9946785
      3393.5000         0.8796           1524         0.6633       -51.9475      -1.345089       0.992498
      3394.0000          0.828       1535.907         0.6511       -51.8497      -1.247292      0.9946241
      3394.5000         0.7763       1555.695          0.649       -50.7582     -0.1557922              1
      3395.0000         0.7355       1563.661         0.6469       -49.1843        1.41811              1
      3395.5000         0.7315       1575.569         0.6449       -50.7845     -0.1820908              1
      3396.0000         0.7354       1583.535         0.6429       -52.3846      -1.782192      0.9829958
      3396.5000         0.7373       1587.562         0.6425       -53.9848      -3.382389      0.9482089
      3397.0000          0.805       1595.528         0.6422       -55.7276      -5.125191       0.910322
      3397.5000         0.8268       1603.495         0.6321       -56.3228       -5.72039      0.8973828
      3398.0000         0.8487       1611.462          0.622       -56.7213      -6.118889      0.8887198
      3398.5000          0.877        1623.37         0.6072        -57.121      -6.518589      0.8800307
      3399.0000         0.8789         1647.1         0.6007       -57.0233      -6.420891      0.8821545
      3399.5000          0.875       1662.949         0.5957       -54.7122      -4.109791      0.9323959
      3400.0000         0.8218       1678.798         0.5957       -49.4065       1.195908              1
      3400.5000         0.7687       1688.394         0.5956       -49.5065       1.095909              1
      3401.0000         0.7586       1690.752         0.5956       -49.5085        1.09391              1
      3401.5000         0.7585        1663.23         0.5956       -49.6095      0.9929085              1
      3402.0000         0.7624       1596.299          0.607       -49.7105      0.8919106              1
      3402.5000         0.7742       1533.309         0.6271       -49.8115      0.7909088              1
      3403.0000         0.8569       1490.023         0.6485       -46.0517       4.550709              1
      3403.5000         0.8589       1454.618         0.6715       -46.0537        4.54871              1
      3404.0000         0.8588       1419.213         0.6931       -46.1537       4.448708              1
      3404.5000         0.8548        1395.63          0.701       -47.6404       2.962009              1
      3405.0000         0.8418       1375.997          0.709       -48.6336       1.968811              1
      3405.5000         0.8288       1348.465         0.7416       -48.5356       2.066811              1
      3406.0000         0.8158       1336.705         0.7481       -47.6975       2.904911              1
      3406.5000         0.7995       1321.004          0.757       -46.8593       3.743111              1
      3407.0000         0.7995       1305.302         0.7661       -46.0211        4.58131              1
      3407.5000         0.8014       1289.601         0.7754       -45.0802       5.522209              1
      3408.0000         0.9098       1281.781         0.7802       -45.1792       5.417267              1
      3408.5000         0.9097       1270.021         0.7874       -46.6627       3.904465              1
      3409.0000          0.867        1262.17         0.7923       -48.1462       2.391666              1
      3409.5000         0.8243       1258.323         0.7922       -49.6297      0.8788681              1
      3410.0000         0.7914       1254.444         0.7665       -51.1133     -0.6340332              1
      3410.5000         0.7894       1274.211         0.7424       -52.5968      -2.146835      0.9750688
      3411.0000         0.7933       1321.565         0.7198       -54.0803      -3.659634      0.9421819
      3411.5000          1.077       1392.566         0.6985       -55.8862      -5.494835      0.9022862
      3412.0000         1.0829       1408.424         0.6784       -57.2729      -6.910835      0.8715036
      3412.5000         1.0809       1538.509         0.6595       -60.3157      -9.982937      0.8047188
      3413.0000         0.9338       1664.653         0.6416       -63.3585      -13.05504      0.7379339
      3413.5000         0.7477       1704.127         0.5868       -66.4013      -16.12713      0.6711493
      3414.0000         0.7398       1861.832         0.5371       -69.4441      -19.19923      0.6043645
      3414.5000         0.7398       2015.661         0.4961       -73.9128      -23.69724      0.5065818
      3415.0000         0.7417       2062.986         0.4847       -74.1107      -23.92444      0.5016426
      3415.5000         0.8402       2285.264         0.4472       -77.5089      -27.35194      0.4271317
      3416.0000         0.8422       2532.169         0.4174       -81.4398      -31.31213      0.3410406
      3416.5000           0.85       2547.966         0.3975       -81.6386      -31.54024      0.3360817
      3417.0000          0.846         2717.5         0.3776       -82.2341      -32.16504      0.3224992
      3417.5000           0.74       2950.091          0.339        -89.858      -39.81824      0.1561253
      3418.0000          0.645       2965.922         0.3381       -89.9577      -39.94724      0.1533209
      3418.5000          0.637       2973.871         0.3373       -89.8596      -39.87843      0.1548167
      3419.0000         0.6328       2985.761         0.3365       -83.2911      -33.33924      0.2969731
      3419.5000         0.6285       2981.887         0.3354       -76.7226      -26.80004      0.4391295
