#------------------------------------------------------------------------------
# Created by    : vladimir.rabinovich
# Created on    : 09/19/2023 17:22:47
#------------------------------------------------------------------------------
~Version Information Section
VERS.           2.0     :   CWLS log ASCII Standard - VERSION 2.0
WRAP.           NO      :   One line per depth step
~Well Information Section
#MNEM       .UNIT                                         VALUE :DESCRIPTION
#------------------------------------------------------------------------------
STRT        .FT                                             494 :START DEPTH
STOP        .FT                                            8323 :STOP DEPTH
STEP        .FT                                             0.5 :STEP      
NULL        .                                           -999.25 :NULL      
COMP        .                                       MONSANTO CO :COMPANY   
WELL        .                                     ST TR 00293-S :WELL      
FLD         .                                           WILDCAT :FIELD     
LOC         .                                                   :LOCATION  
CNTY        .                             GALVESTON SMALL BLOCK :LOCATION  
STAT        .                                             TEXAS :STATE     
CTRY        .                                     UNITED STATES :COUNTRY   
SRVC        .                                                   :SERVICE COMPANY
DATE        .                             9/13/2023 11:19:17 AM :LOG DATE  
API         .                                    42605300230000 :API NUMBER
UWI         .                                    42605300230000 :UNIQUE WELL ID
XCOORD      .                                  996050.411534576 :SURFACE X 
YCOORD      .                                  10568409.9475512 :SURFACE Y 
LAT         .                                        29.1061939 :LATITUDE  
LON         .                                        -95.018267 :LONGITUDE 
ELEV        .FT                                              81 :ELEVATION VALUE
ELEV_TYPE   .                                                KB :ELEVATION REFERENCE TYPE
~Curve Information Section
#MNEM       .UNIT                                      API CODE :CURVE DESCRIPTION
#------------------------------------------------------------------------------
DEPT        .FT                                                 :DEPTH     
DT          .US/F                                               :          
GR          .GAPI                                               :          
GR_NORM     .GAPI                                               :GammaRay Normalized
ILD         .OHMM                                               :          
SFL         .OHMM                                               :          
SP          .MV                                                 :          
SP_NORM     .MV                                                 :SP Normalized
VSH_GR      .V/V                                                :Volume of Shale from GR
VSH_SP      .V/V                                                :Volume of Shale from SP
~A        DEPTH             DT             GR        GR_NORM            ILD            SFL             SP        SP_NORM         VSH_GR         VSH_SP
# ...
      4124.5000       127.2003        -999.25        -999.25         0.2043         0.6591        98.6473      -62.96158        -999.25     0.06118821
      4125.0000       126.2415        -999.25        -999.25          0.204          0.654        99.2465      -63.56369        -999.25     0.05206536
      4125.5000       126.1758        -999.25        -999.25         0.2039         0.6407       100.3325       -64.6526        -999.25     0.03556674
      4126.0000       130.0112        -999.25        -999.25         0.2039          0.638       100.8834      -65.20641        -999.25     0.02717556
      4126.5000        134.187        -999.25        -999.25         0.2039         0.6429        101.151      -65.47693        -999.25     0.02307684
      4127.0000       138.2678        -999.25        -999.25         0.2043         0.6385       101.2812      -65.61003        -999.25     0.02106014
      4127.5000       142.5513        -999.25        -999.25         0.2046         0.6258       101.3898      -65.72155        -999.25     0.01937046
      4128.0000       145.0581        -999.25        -999.25         0.2044         0.6133       101.5104      -65.84506        -999.25     0.01749906
      4128.5000        145.646        -999.25        -999.25         0.2042         0.6325       101.5577      -65.89527        -999.25     0.01673831
      4129.0000        141.105        -999.25        -999.25          0.204           0.68       101.5558      -65.89629        -999.25     0.01672294
      4129.5000       129.9812        -999.25        -999.25         0.2038         0.6835       101.4957       -65.8391        -999.25     0.01758945
      4130.0000       123.7739        -999.25        -999.25         0.2038         0.6707       101.3644      -65.71071        -999.25     0.01953472
      4130.5000       121.3132        -999.25        -999.25         0.2038           0.67       101.1709      -65.52012        -999.25     0.02242244
      4131.0000       124.1967        -999.25        -999.25         0.2037           0.67       100.7389      -65.09103        -999.25     0.02892373
      4131.5000       130.1763        -999.25        -999.25         0.2034         0.6753        99.7349      -64.08994        -999.25     0.04409177
      4132.0000       134.2646        -999.25        -999.25         0.2032         0.6807        98.1333      -62.49126        -999.25     0.06831429
      4132.5000       137.1343        -999.25        -999.25         0.2029          0.685        96.3311      -60.69197        -999.25     0.09557626
      4133.0000       138.5081        -999.25        -999.25         0.2023         0.6887        95.5056      -59.86938        -999.25      0.1080397
      4133.5000       136.6428        -999.25        -999.25         0.2017         0.6936        95.4229      -59.78959        -999.25      0.1092487
      4134.0000       135.2192        -999.25        -999.25         0.2016         0.6992        96.2363       -60.6059        -999.25     0.09688031
      4134.5000       133.4041        -999.25        -999.25         0.2019         0.7046         97.094      -61.46651        -999.25     0.08384069
      4135.0000       131.1196        -999.25        -999.25         0.2021         0.7097        98.0159      -62.39132        -999.25     0.06982844
      4135.5000       130.6113        -999.25        -999.25         0.2025          0.714        99.0931      -63.47144        -999.25     0.05346304
      4136.0000       130.9731        -999.25        -999.25         0.2029         0.7163        99.8164      -64.19765        -999.25     0.04245989
      4136.5000       131.3191        -999.25        -999.25         0.2034         0.7187       100.0737      -64.45786        -999.25     0.03851734
      4137.0000       131.5576        -999.25        -999.25         0.2037         0.7208       100.2208      -64.60788        -999.25     0.03624425
      4137.5000       130.8469        -999.25        -999.25         0.2039          0.723       100.3495      -64.73949        -999.25      0.0342502
      4138.0000        129.843        -999.25        -999.25         0.2041         0.7228         100.79      -65.18289        -999.25     0.02753194
      4138.5000       128.8184        -999.25        -999.25         0.2044         0.7213       101.2336      -65.62941        -999.25     0.02076652
      4139.0000       128.1047        -999.25        -999.25         0.2039         0.7198       101.6556      -66.05432        -999.25     0.01432846
      4139.5000       127.3967        -999.25        -999.25         0.2036         0.7183       101.7977      -66.19933        -999.25     0.01213143
      4140.0000       126.7206        -999.25        -999.25         0.2036         0.7307       101.9398      -66.34435        -999.25    0.009934166
      4140.5000       125.7148        -999.25        -999.25         0.2037         0.7424       101.6962      -66.10365        -999.25     0.01358102
      4141.0000       124.7922        -999.25        -999.25         0.2041         0.7483       101.3444      -65.75476        -999.25     0.01886726
      4141.5000       124.3462        -999.25        -999.25         0.2044         0.7323       100.9958      -65.40907        -999.25     0.02410496
      4142.0000       124.6021        -999.25        -999.25         0.2047         0.7141       100.7594      -65.17559        -999.25     0.02764257
      4142.5000       125.8536        -999.25        -999.25          0.205         0.6995       100.5229        -64.942        -999.25      0.0311818
      4143.0000       126.7719        -999.25        -999.25         0.2044         0.6917         100.46      -64.88202        -999.25     0.03209062
      4143.5000       127.6757        -999.25        -999.25         0.2046         0.6857          100.4      -64.82493        -999.25     0.03295563
      4144.0000       128.3057        -999.25        -999.25         0.2049         0.6805       100.2695      -64.69734        -999.25     0.03488876
      4144.5000       128.0667        -999.25        -999.25         0.2053          0.679        99.9813      -64.41205        -999.25     0.03921139
      4145.0000        127.691        -999.25        -999.25         0.2058         0.6786         99.693      -64.12666        -999.25     0.04353541
      4145.5000       127.4072        -999.25        -999.25         0.2062         0.6759        99.3828      -63.81937        -999.25     0.04819136
      4146.0000       126.9576        -999.25        -999.25          0.206          0.675        99.0673      -63.50679        -999.25     0.05292748
      4146.5000       125.5928        -999.25        -999.25         0.2048         0.6804        98.7516        -63.194        -999.25     0.05766666
      4147.0000        124.168        -999.25        -999.25         0.2049         0.6917         98.115      -62.56031        -999.25     0.06726808
      4147.5000       121.9424        -999.25        -999.25         0.2155         0.7047        97.3552      -61.80342        -999.25     0.07873604
      4148.0000       121.6741        -999.25        -999.25         0.2285         0.7155        96.5001      -60.95123        -999.25     0.09164798
      4148.5000         122.71        -999.25        -999.25         0.2324         0.7175        95.5258      -59.97985        -999.25       0.106366
      4149.0000        123.767        -999.25        -999.25         0.2373         0.7139        94.0681      -58.52505        -999.25      0.1284083
      4149.5000       125.4702        -999.25        -999.25         0.2426         0.6774        92.8085      -57.26837        -999.25      0.1474489
      4150.0000       127.9697        -999.25        -999.25         0.2491         0.6519        91.6947      -56.15748        -999.25      0.1642806
      4150.5000       130.6042        -999.25        -999.25         0.2597         0.6289        90.7374      -55.20309        -999.25      0.1787411
