#------------------------------------------------------------------------------
# Created by    : vladimir.rabinovich
# Created on    : 09/19/2023 17:19:43
#------------------------------------------------------------------------------
~Version Information Section
VERS.           2.0     :   CWLS log ASCII Standard - VERSION 2.0
WRAP.           NO      :   One line per depth step
~Well Information Section
#MNEM       .UNIT                                         VALUE :DESCRIPTION
#------------------------------------------------------------------------------
STRT        .FT                                            1596 :START DEPTH
STOP        .FT                                            6079 :STOP DEPTH
STEP        .FT                                             0.5 :STEP      
NULL        .                                           -999.25 :NULL      
COMP        .                                 EOG RESOURCES INC :COMPANY   
WELL        .                                     ST TR 00721-S :WELL      
FLD         .                                  SHERMAN OFFSHORE :FIELD     
LOC         .                                                   :LOCATION  
CNTY        .                      MATAGORDA ISLAND SMALL BLOCK :LOCATION  
STAT        .                                             TEXAS :STATE     
CTRY        .                                     UNITED STATES :COUNTRY   
SRVC        .                                                   :SERVICE COMPANY
DATE        .                             9/13/2023 11:19:17 AM :LOG DATE  
API         .                                    42603300060000 :API NUMBER
UWI         .                                    42603300060000 :UNIQUE WELL ID
XCOORD      .                                  491308.028993428 :SURFACE X 
YCOORD      .                                  10247941.6299489 :SURFACE Y 
LAT         .                                        28.1931224 :LATITUDE  
LON         .                                       -96.5672747 :LONGITUDE 
ELEV        .FT                                              74 :ELEVATION VALUE
ELEV_TYPE   .                                                KB :ELEVATION REFERENCE TYPE
~Curve Information Section
#MNEM       .UNIT                                      API CODE :CURVE DESCRIPTION
#------------------------------------------------------------------------------
DEPT        .FT                                                 :DEPTH     
ASFL        .OHMM                                               :          
CILD        .MMHO                                               :          
ILD         .OHMM                                               :          
SP          .MV                                                 :          
SP_NORM     .MV                                                 :SP Normalized
VSH_SP      .V/V                                                :Volume of Shale from SP
~A        DEPTH           ASFL           CILD            ILD             SP        SP_NORM         VSH_SP
# ...
      5434.0000         0.6028       3907.745         0.3565       -78.0327      -53.93631     0.07129274
      5434.5000         0.6142       3708.695         0.3659       -77.7973      -53.70092     0.07542252
      5435.0000         0.6253       3509.646         0.3753       -75.8915      -51.79512      0.1088576
      5435.5000         0.6252       3310.596         0.3848       -73.9856      -49.88922      0.1422944
      5436.0000         0.6212       3173.481         0.3942       -72.0797      -47.98331      0.1757314
      5436.5000         0.6172       3150.052         0.4037       -70.1739      -46.07751      0.2091665
      5437.0000         0.6132       3154.125         0.4131        -68.268      -44.17161      0.2426033
      5437.5000         0.6111       3158.125         0.4323       -66.3621      -42.26571      0.2760401
      5438.0000         0.6091       3165.183         0.4516       -64.4562      -40.35981      0.3094769
      5438.5000         0.6189       3166.272         0.4807       -62.5504      -38.45401       0.342912
      5439.0000         0.7119       3197.919         0.4873       -60.6445      -36.54811      0.3763489
      5439.5000         0.8049       2231.322         0.4996       -52.1098      -28.01341      0.5260805
      5440.0000         0.8979       1937.055         0.5092       -43.1457      -19.04931      0.6833454
      5440.5000         1.0233       1642.787         0.5675       -34.1817      -10.08532      0.8406085
      5441.0000         1.0193        1348.52         0.7416       -29.0706      -4.974215      0.9302769
      5441.5000         1.0173        993.964         1.0061       -29.2718      -5.175413      0.9267471
      5442.0000         0.9596       990.1045         0.9103       -29.1774      -5.081015      0.9284033
      5442.5000         0.8854        1005.96         0.8903       -28.9847      -4.888313       0.931784
      5443.0000         0.8834       1096.714         0.8605       -38.5313      -14.43491      0.7642998
      5443.5000         0.8814       1187.469         0.8208       -41.6178      -17.52142      0.7101506
      5444.0000         0.8735       1278.224         0.7613       -44.7043      -20.60791      0.6560015
      5444.5000         0.8518       1368.978         0.7118       -47.7908      -23.69441      0.6018524
      5445.0000         0.8222       1459.733         0.6819       -50.8773      -26.78091      0.5477033
      5445.5000         0.8123       1550.487         0.6521       -54.5228      -30.42641      0.4837471
      5446.0000         0.8122       1641.242         0.6419       -55.7061      -31.60971      0.4629875
      5446.5000         0.8239       1731.996         0.6316       -57.3595      -33.26311      0.4339804
      5447.0000         0.8297       1805.036         0.6313       -59.0129      -34.91652      0.4049734
      5447.5000         0.8432       1816.965         0.6407       -60.6663      -36.56992      0.3759664
      5448.0000         0.8434       1805.318         0.6403         -62.32      -38.22361      0.3469541
      5448.5000         0.8529       1785.813         0.6399       -62.9141      -38.81771      0.3365313
      5449.0000         0.8623       1770.238         0.6297       -69.3207      -45.22432      0.2241348
      5449.5000         0.8726       1770.308         0.5606       -75.7272      -51.63082        0.11174
      5450.0000         0.8784       2391.364         0.4816       -80.5507      -56.45431     0.02711734
      5450.5000         0.7092        3012.42         0.4321       -80.5536      -56.45721     0.02706648
      5451.0000         0.5619           3508         0.3728       -80.0643      -55.96791     0.03565062
      5451.5000         0.5598       3932.642         0.3427       -79.8704      -55.77401     0.03905239
      5452.0000         0.5617       3948.577         0.3325       -79.4795      -55.38311     0.04591028
      5452.5000         0.5656       3964.367         0.3321       -79.1872      -55.09082     0.05103831
      5453.0000         0.5734       3992.017         0.3416       -78.8948      -54.79841     0.05616821
      5453.5000         0.5851       3999.949         0.3412       -78.8978      -54.80141      0.0561156
      5454.0000         0.5929       3911.906         0.3604       -79.0976      -55.00122     0.05261023
      5454.5000         0.5948       3823.863         0.3699       -79.2974      -55.20102     0.04910499
      5455.0000         0.6025       3735.821         0.3793          -78.1      -54.00361     0.07011206
      5455.5000         0.6084       3647.778         0.3789       -76.9027      -52.80632     0.09111726
      5456.0000         0.6123       3559.735         0.3884       -75.7053      -51.60891      0.1121243
      5456.5000          0.616        3442.87          0.388       -74.2899      -50.19352      0.1369559
      5457.0000         0.6347       3123.765         0.3876       -74.1931      -50.09671      0.1386541
      5457.5000         0.6533       3005.332         0.3872       -73.8025      -49.70611      0.1455068
      5458.0000          0.672       2830.188         0.3868       -73.4119      -49.31552      0.1523593
      5458.5000         0.6885       2822.401         0.3866       -71.7168      -47.62041      0.1820981
      5459.0000         0.6865       2822.544         0.3785       -70.0217      -45.92531      0.2118366
      5459.5000         0.6252       3133.842         0.3758        -68.106      -44.00962      0.2454453
      5460.0000         0.5639       3445.139         0.3756        -68.306      -44.20961      0.2419366
      5460.5000          0.527        3884.26         0.3594       -68.7028      -44.60641      0.2349752
      5461.0000          0.523       3911.838          0.355       -70.0835      -45.98712      0.2107523
      5461.5000         0.5249       3943.419         0.3448       -76.2884      -52.19201      0.1018945
      5462.0000         0.5307        3971.07         0.3348       -76.2914      -52.19501      0.1018419
      5462.5000         0.5503       3975.146         0.3341       -76.2944      -52.19802      0.1017892
      5463.0000         0.5749       4199.268         0.3338        -76.199      -52.10261       0.103463
      5463.5000         0.5994       4203.266         0.3334       -76.0053      -51.90892      0.1068611
      5464.0000         0.6188       4203.335         0.3332       -75.8115      -51.71511      0.1102611
      5464.5000         0.6247       3509.844         0.3326       -75.5179      -51.42151      0.1154121
      5465.0000         0.6482       3356.029         0.3323       -73.2459      -49.14952      0.1552716
      5465.5000         0.7608       3202.213         0.3417       -70.9738      -46.87741      0.1951331
      5466.0000          0.821       3048.398          0.361       -68.7018      -44.60541      0.2349928
      5466.5000         0.8229       2894.583         0.3704       -65.8901      -41.79371      0.2843208
      5467.0000         0.7717       2740.768         0.3897       -65.7934      -41.69702      0.2860172
      5467.5000         0.7677       2620.577         0.4089          -65.6      -41.50361      0.2894103
      5468.0000         0.7676       2023.364         0.4577       -65.6032      -41.50682      0.2893541
      5468.5000         0.7754       2011.576         0.4769       -65.7049      -41.60852      0.2875699
      5469.0000         0.9925       1964.492         0.5158       -65.8065      -41.71012      0.2857874
      5469.5000         1.1801       1630.694         0.5449       -65.8097      -41.71331      0.2857313
      5470.0000          1.461       1475.287         0.8785       -48.8922      -24.79581      0.5825295
      5470.5000         1.4609       1230.684          0.888       -33.0571      -8.960712      0.8603384
      5471.0000          1.455       1045.399         0.8876       -33.0612      -8.964813      0.8602664
      5471.5000          1.394       1041.539         0.8774       -40.0139      -15.91751      0.7382892
