#------------------------------------------------------------------------------
# Created by    : vladimir.rabinovich
# Created on    : 09/19/2023 17:20:27
#------------------------------------------------------------------------------
~Version Information Section
VERS.           2.0     :   CWLS log ASCII Standard - VERSION 2.0
WRAP.           NO      :   One line per depth step
~Well Information Section
#MNEM       .UNIT                                         VALUE :DESCRIPTION
#------------------------------------------------------------------------------
STRT        .FT                                             540 :START DEPTH
STOP        .FT                                            9057 :STOP DEPTH
STEP        .FT                                             0.5 :STEP      
NULL        .                                           -999.25 :NULL      
COMP        .                              MITCHELL ENERGY CORP :COMPANY   
WELL        .                                     ST TR 00228-S :WELL      
FLD         .                                     LAFITTES GOLD :FIELD     
LOC         .                                                   :LOCATION  
CNTY        .                             GALVESTON SMALL BLOCK :LOCATION  
STAT        .                                             TEXAS :STATE     
CTRY        .                                     UNITED STATES :COUNTRY   
SRVC        .                                                   :SERVICE COMPANY
DATE        .                             9/13/2023 11:19:17 AM :LOG DATE  
API         .                                    42605300060000 :API NUMBER
UWI         .                                    42605300060000 :UNIQUE WELL ID
XCOORD      .                                  1068847.04405215 :SURFACE X 
YCOORD      .                                  10622520.7629704 :SURFACE Y 
LAT         .                                        29.2582252 :LATITUDE  
LON         .                                       -94.7929393 :LONGITUDE 
ELEV        .FT                                              67 :ELEVATION VALUE
ELEV_TYPE   .                                                KB :ELEVATION REFERENCE TYPE
~Curve Information Section
#MNEM       .UNIT                                      API CODE :CURVE DESCRIPTION
#------------------------------------------------------------------------------
DEPT        .FT                                                 :DEPTH     
ASN         .OHMM                                               :          
CILD        .MMHO                                               :          
GR          .GAPI                                               :          
GR_NORM     .GAPI                                               :GammaRay Normalized
ILD         .OHMM                                               :          
SP          .MV                                                 :          
SP_NORM     .MV                                                 :SP Normalized
VSH_GR      .V/V                                                :Volume of Shale from GR
VSH_SP      .V/V                                                :Volume of Shale from SP
~A        DEPTH            ASN           CILD             GR        GR_NORM            ILD             SP        SP_NORM         VSH_GR         VSH_SP
# ...
      4488.5000         1.0264       929.6826        -999.25        -999.25         0.9949        63.1299      -5.445442        -999.25      0.9426796
      4489.0000         0.9417       955.0703        -999.25        -999.25         0.9533        61.8885      -4.217686        -999.25      0.9556033
      4489.5000         0.9145       968.6826        -999.25        -999.25         0.9374        60.3156      -2.658436        -999.25      0.9720165
      4490.0000         0.9054        987.041        -999.25        -999.25         0.9248        58.7426      -1.099079        -999.25      0.9884307
      4490.5000          0.902       1017.102        -999.25        -999.25         0.9134        57.8659     -0.2360229        -999.25      0.9975156
      4491.0000         0.8986       1038.975        -999.25        -999.25         0.9097         57.725     -0.1087723        -999.25      0.9988551
      4491.5000         0.8976       1043.344        -999.25        -999.25          0.906        57.9456     -0.3430176        -999.25      0.9963893
      4492.0000         0.8965       1047.711        -999.25        -999.25         0.9024        58.3033     -0.7143631        -999.25      0.9924804
      4492.5000         0.8952       1049.955        -999.25        -999.25         0.8987        58.6614      -1.086113        -999.25      0.9885672
      4493.0000         0.8887       1039.543        -999.25        -999.25         0.8947        59.0192      -1.457558        -999.25      0.9846573
      4493.5000         0.8822       1038.275        -999.25        -999.25         0.8852         58.943      -1.395008        -999.25      0.9853157
      4494.0000         0.8618       1042.619        -999.25        -999.25         0.8757        58.7415      -1.207153        -999.25      0.9872931
      4494.5000         0.8353       1128.467        -999.25        -999.25         0.8662        58.5401      -1.019398        -999.25      0.9892695
      4495.0000          0.811       1161.436        -999.25        -999.25         0.8567        58.3386     -0.8315468        -999.25      0.9912469
      4495.5000            0.8       1186.238        -999.25        -999.25         0.8472         58.137     -0.6435928        -999.25      0.9932253
      4496.0000         0.7951       1195.701        -999.25        -999.25         0.8377        58.1356      -0.655838        -999.25      0.9930965
      4496.5000         0.7906       1202.002        -999.25        -999.25         0.8314        58.3327     -0.8665848        -999.25       0.990878
      4497.0000         0.8019       1195.195        -999.25        -999.25         0.8276        58.5298      -1.077332        -999.25      0.9886597
      4497.5000         0.8076       1188.391        -999.25        -999.25         0.8238        59.5602       -2.12138        -999.25      0.9776697
      4498.0000         0.8132       1181.584        -999.25        -999.25         0.8199        60.1743      -2.749126        -999.25      0.9710618
      4498.5000           0.82       1160.734        -999.25        -999.25         0.8161        60.1884      -2.776871        -999.25      0.9707698
      4499.0000         0.8376       1134.951        -999.25        -999.25         0.8175        60.2026      -2.804718        -999.25      0.9704766
      4499.5000         0.8607       1104.545        -999.25        -999.25         0.8213        60.2167      -2.832466        -999.25      0.9701846
      4500.0000         0.8873       1080.811        -999.25        -999.25         0.8251        61.0585      -3.687908        -999.25      0.9611799
      4500.5000         0.9044       1064.547        -999.25        -999.25         0.8289        63.0397      -5.682758        -999.25      0.9401815
      4501.0000         0.9189        1049.48        -999.25        -999.25         0.8327        64.9249        -7.5816        -999.25      0.9201937
      4501.5000         0.8982       1063.857        -999.25        -999.25         0.8366        65.6704      -8.340755        -999.25      0.9122026
      4502.0000         0.8618       1101.734        -999.25        -999.25         0.8404        62.2756      -4.959599        -999.25      0.9477937
      4502.5000         0.8294       1137.467        -999.25        -999.25          0.838        57.3899    -0.08754349        -999.25      0.9990785
      4503.0000         0.7999       1169.895        -999.25        -999.25         0.8355        54.4555       2.833206        -999.25              1
      4503.5000         0.7869       1191.693        -999.25        -999.25          0.833        53.0257       4.249363        -999.25              1
      4504.0000         0.7754       1184.809        -999.25        -999.25         0.8305        51.5958       5.665619        -999.25              1
      4504.5000         0.7808       1177.922        -999.25        -999.25         0.8279        50.6089        6.63887        -999.25              1
      4505.0000         0.7844       1171.035        -999.25        -999.25         0.8264        49.7733       7.460823        -999.25              1
      4505.5000         0.7856       1163.607        -999.25        -999.25         0.8255        49.3229       7.897575        -999.25              1
      4506.0000         0.7868       1154.434        -999.25        -999.25         0.8247        49.2166       7.990231        -999.25              1
      4506.5000         0.7857       1145.266        -999.25        -999.25         0.8238        49.1101       8.083084        -999.25              1
      4507.0000         0.7829       1136.844        -999.25        -999.25         0.8229        49.0419       8.137634        -999.25              1
      4507.5000           0.78       1142.121        -999.25        -999.25          0.822        49.0966        8.06929        -999.25              1
      4508.0000         0.7772       1147.398        -999.25        -999.25         0.8211        49.1514       8.000843        -999.25              1
      4508.5000         0.7743       1152.676        -999.25        -999.25         0.8202        49.2061       7.932495        -999.25              1
      4509.0000         0.7715       1157.953        -999.25        -999.25         0.8193        49.5369       7.588051        -999.25              1
      4509.5000         0.7714       1156.094        -999.25        -999.25         0.8253        50.1243       6.987003        -999.25              1
      4510.0000         0.7715       1149.637        -999.25        -999.25         0.8364        50.7123       6.385357        -999.25              1
      4510.5000         0.7716       1132.201        -999.25        -999.25         0.8739        51.2996       5.784412        -999.25              1
      4511.0000         0.7716       1114.768        -999.25        -999.25         0.9162        51.9219        5.14846        -999.25              1
      4511.5000         0.7805       1096.938        -999.25        -999.25         0.9289        52.8104       4.246319        -999.25              1
      4512.0000         0.7911       1078.764        -999.25        -999.25         0.9417        53.6989       3.344173        -999.25              1
      4512.5000         0.8016       1062.957        -999.25        -999.25         0.9545        54.4117       2.617722        -999.25              1
      4513.0000         0.8175       1050.738        -999.25        -999.25         0.9672         54.822       2.193779        -999.25              1
      4513.5000         0.8342        1038.52        -999.25        -999.25           0.98        55.0046       1.997528        -999.25              1
      4514.0000         0.8453       1026.299        -999.25        -999.25         0.9875        54.6049       2.383583        -999.25              1
      4514.5000         0.8507       1016.017        -999.25        -999.25         0.9879        54.2048       2.770039        -999.25              1
