#------------------------------------------------------------------------------
# Created by    : vladimir.rabinovich
# Created on    : 09/19/2023 17:20:26
#------------------------------------------------------------------------------
~Version Information Section
VERS.           2.0     :   CWLS log ASCII Standard - VERSION 2.0
WRAP.           NO      :   One line per depth step
~Well Information Section
#MNEM       .UNIT                                         VALUE :DESCRIPTION
#------------------------------------------------------------------------------
STRT        .FT                                             494 :START DEPTH
STOP        .FT                                            8560 :STOP DEPTH
STEP        .FT                                             0.5 :STEP      
NULL        .                                           -999.25 :NULL      
COMP        .                           COLORADO OIL & GAS CORP :COMPANY   
WELL        .                                     ST TR 00122-S :WELL      
FLD         .                                           WILDCAT :FIELD     
LOC         .                                                   :LOCATION  
CNTY        .                           HIGH ISLAND SMALL BLOCK :LOCATION  
STAT        .                                             TEXAS :STATE     
CTRY        .                                     UNITED STATES :COUNTRY   
SRVC        .                                                   :SERVICE COMPANY
DATE        .                             9/13/2023 11:19:17 AM :LOG DATE  
API         .                                    42606300100000 :API NUMBER
UWI         .                                    42606300100000 :UNIQUE WELL ID
XCOORD      .                                  1208966.22079576 :SURFACE X 
YCOORD      .                                  10715303.2202208 :SURFACE Y 
LAT         .                                        29.5185768 :LATITUDE  
LON         .                                       -94.3569047 :LONGITUDE 
ELEV        .FT                                              93 :ELEVATION VALUE
ELEV_TYPE   .                                                KB :ELEVATION REFERENCE TYPE
~Curve Information Section
#MNEM       .UNIT                                      API CODE :CURVE DESCRIPTION
#------------------------------------------------------------------------------
DEPT        .FT                                                 :DEPTH     
ASN         .OHMM                                               :          
CILD        .MMHO                                               :          
GR          .GAPI                                               :          
GR_NORM     .GAPI                                               :GammaRay Normalized
ILD         .OHMM                                               :          
SP          .MV                                                 :          
SP_NORM     .MV                                                 :SP Normalized
VSH_GR      .V/V                                                :Volume of Shale from GR
VSH_SP      .V/V                                                :Volume of Shale from SP
~A        DEPTH            ASN           CILD             GR        GR_NORM            ILD             SP        SP_NORM         VSH_GR         VSH_SP
# ...
      5317.0000         0.4548       5328.602        -999.25        -999.25         0.2209      -112.8636      -56.98377        -999.25       0.188641
      5317.5000         0.4559        5107.68        -999.25        -999.25          0.221      -112.1689      -56.29536        -999.25      0.1986179
      5318.0000         0.4593       4897.578        -999.25        -999.25         0.2211      -111.4742      -55.60696        -999.25      0.2085948
      5318.5000         0.4628       4044.539        -999.25        -999.25         0.2211      -110.8768      -55.01586        -999.25      0.2171614
      5319.0000         0.4662       4193.602        -999.25        -999.25         0.2204      -111.8433      -55.98866        -999.25      0.2030629
      5319.5000         0.4903       4392.844        -999.25        -999.25         0.2196      -113.7006      -57.85225        -999.25      0.1760543
      5320.0000         0.5232       4938.844        -999.25        -999.25         0.2189      -115.9609      -60.11885        -999.25      0.1432051
      5320.5000         0.5836       5140.977        -999.25        -999.25         0.2182      -118.5276      -62.69185        -999.25      0.1059152
      5321.0000         0.6238       5169.609        -999.25        -999.25         0.2151      -121.2622      -65.43275        -999.25     0.06619208
      5321.5000         0.6532       5197.234        -999.25        -999.25         0.2109      -123.2072      -67.38405        -999.25     0.03791234
      5322.0000         0.6787       5211.867        -999.25        -999.25         0.2067      -124.9915      -69.17464        -999.25     0.01196167
      5322.5000         0.6683       5219.195        -999.25        -999.25         0.2026      -126.2758      -70.46524        -999.25              0
      5323.0000         0.6579       5225.672        -999.25        -999.25         0.1984      -127.3219      -71.51764        -999.25              0
      5323.5000         0.6478       5233.953        -999.25        -999.25         0.1942      -128.0747      -72.27674        -999.25              0
      5324.0000         0.6382       5242.891        -999.25        -999.25           0.19      -128.6006      -72.80893        -999.25              0
      5324.5000         0.6286       5251.836        -999.25        -999.25         0.1859      -128.4692      -72.68382        -999.25              0
      5325.0000         0.6191       5261.969        -999.25        -999.25         0.1817      -128.3193      -72.54024        -999.25              0
      5325.5000         0.6095       5272.914        -999.25        -999.25         0.1781       -128.166      -72.39323        -999.25              0
      5326.0000         0.5999       5283.859        -999.25        -999.25         0.1749      -127.7274      -71.96092        -999.25              0
      5326.5000         0.5881       5295.508        -999.25        -999.25         0.1717      -127.0078      -71.24762        -999.25              0
      5327.0000         0.5754       5308.039        -999.25        -999.25         0.1686      -126.2729      -70.51902        -999.25              0
      5327.5000         0.5628       5320.563        -999.25        -999.25         0.1654      -125.5293      -69.78171        -999.25    0.003163656
      5328.0000         0.5501       5341.117        -999.25        -999.25         0.1654      -124.7848      -69.04351        -999.25     0.01386217
      5328.5000         0.5374       5365.078        -999.25        -999.25         0.1661      -124.0896      -68.35461        -999.25     0.02384617
      5329.0000         0.5242       5391.492        -999.25        -999.25         0.1669      -123.4263      -67.69761        -999.25     0.03336799
      5329.5000          0.511       5432.414        -999.25        -999.25         0.1676      -122.7628      -67.04041        -999.25     0.04289268
      5330.0000         0.4978       5474.625        -999.25        -999.25         0.1683      -122.2471      -66.53101        -999.25     0.05027528
      5330.5000         0.4872       5566.336        -999.25        -999.25          0.169      -121.8485       -66.1387        -999.25     0.05596083
      5331.0000         0.4775       5553.672        -999.25        -999.25         0.1715        -121.45      -65.74649        -999.25     0.06164506
      5331.5000         0.4677       5497.781        -999.25        -999.25         0.1897      -121.0519       -65.3547        -999.25     0.06732322
      5332.0000         0.4571       5356.094        -999.25        -999.25          0.208      -120.6533      -64.96239        -999.25     0.07300888
      5332.5000         0.4448       5148.555        -999.25        -999.25         0.2262      -120.4993      -64.81469        -999.25     0.07514942
      5333.0000         0.4326       4865.289        -999.25        -999.25         0.2445      -120.3599      -64.68159        -999.25     0.07707833
      5333.5000         0.4203       4697.938        -999.25        -999.25         0.2766      -120.1115      -64.43948        -999.25     0.08058719
      5334.0000          0.407        3607.43        -999.25        -999.25         0.3132      -119.8368      -64.17108        -999.25     0.08447708
      5334.5000         0.3934        3213.68        -999.25        -999.25         0.3498      -119.5619      -63.90248        -999.25     0.08836989
      5335.0000         0.3881        3057.68        -999.25        -999.25         0.3863       -111.394      -55.74088        -999.25       0.206654
      5335.5000         0.3885       2960.426        -999.25        -999.25         0.4195       -80.4534      -24.80658        -999.25      0.6549771
      5336.0000         0.3968       2073.895        -999.25        -999.25         0.4411       -76.9658      -21.32527        -999.25      0.7054309
      5336.5000         0.4334       1827.258        -999.25        -999.25         0.4627       -74.1722      -18.53798        -999.25      0.7458264
      5337.0000          0.474        1912.07        -999.25        -999.25         0.4693       -72.4008      -16.77287        -999.25      0.7714077
      5337.5000         0.5222       2048.027        -999.25        -999.25         0.4683       -67.6106      -11.98897        -999.25      0.8407396
      5338.0000         0.5504       2206.199        -999.25        -999.25         0.4673        -59.558      -3.942661        -999.25      0.9573528
      5338.5000         0.5382       2404.652        -999.25        -999.25         0.4672       -62.2189      -6.609859        -999.25      0.9186977
      5339.0000         0.5261       2557.691        -999.25        -999.25         0.4694       -67.0017      -11.39896        -999.25      0.8492904
      5339.5000         0.5081       2653.758        -999.25        -999.25         0.4715       -70.7179      -15.12146        -999.25      0.7953411
      5340.0000          0.498        2750.32        -999.25        -999.25         0.4737       -72.1475      -16.55735        -999.25      0.7745311
      5340.5000         0.5014       2790.332        -999.25        -999.25         0.4759       -71.7891      -16.20525        -999.25      0.7796341
      5341.0000         0.5037       2779.102        -999.25        -999.25         0.4781       -70.4679      -14.89035        -999.25      0.7986906
      5341.5000         0.5002       2725.145        -999.25        -999.25         0.4802       -68.0626      -12.49134        -999.25      0.8334588
      5342.0000         0.4764       2608.738        -999.25        -999.25         0.4824       -64.6914      -9.126442        -999.25      0.8822255
      5342.5000         0.4708       2495.984        -999.25        -999.25         0.4861       -64.4188      -8.860142        -999.25      0.8860849
      5343.0000         0.4934       2391.816        -999.25        -999.25         0.4908       -65.6741      -10.12174        -999.25      0.8678008
