#------------------------------------------------------------------------------
# Created by    : vladimir.rabinovich
# Created on    : 09/19/2023 17:22:47
#------------------------------------------------------------------------------
~Version Information Section
VERS.           2.0     :   CWLS log ASCII Standard - VERSION 2.0
WRAP.           NO      :   One line per depth step
~Well Information Section
#MNEM       .UNIT                                         VALUE :DESCRIPTION
#------------------------------------------------------------------------------
STRT        .FT                                             494 :START DEPTH
STOP        .FT                                            8323 :STOP DEPTH
STEP        .FT                                             0.5 :STEP      
NULL        .                                           -999.25 :NULL      
COMP        .                                       MONSANTO CO :COMPANY   
WELL        .                                     ST TR 00293-S :WELL      
FLD         .                                           WILDCAT :FIELD     
LOC         .                                                   :LOCATION  
CNTY        .                             GALVESTON SMALL BLOCK :LOCATION  
STAT        .                                             TEXAS :STATE     
CTRY        .                                     UNITED STATES :COUNTRY   
SRVC        .                                                   :SERVICE COMPANY
DATE        .                             9/13/2023 11:19:17 AM :LOG DATE  
API         .                                    42605300230000 :API NUMBER
UWI         .                                    42605300230000 :UNIQUE WELL ID
XCOORD      .                                  996050.411534576 :SURFACE X 
YCOORD      .                                  10568409.9475512 :SURFACE Y 
LAT         .                                        29.1061939 :LATITUDE  
LON         .                                        -95.018267 :LONGITUDE 
ELEV        .FT                                              81 :ELEVATION VALUE
ELEV_TYPE   .                                                KB :ELEVATION REFERENCE TYPE
~Curve Information Section
#MNEM       .UNIT                                      API CODE :CURVE DESCRIPTION
#------------------------------------------------------------------------------
DEPT        .FT                                                 :DEPTH     
DT          .US/F                                               :          
GR          .GAPI                                               :          
GR_NORM     .GAPI                                               :GammaRay Normalized
ILD         .OHMM                                               :          
SFL         .OHMM                                               :          
SP          .MV                                                 :          
SP_NORM     .MV                                                 :SP Normalized
VSH_GR      .V/V                                                :Volume of Shale from GR
VSH_SP      .V/V                                                :Volume of Shale from SP
~A        DEPTH             DT             GR        GR_NORM            ILD            SFL             SP        SP_NORM         VSH_GR         VSH_SP
# ...
      6218.0000       104.5345        -999.25        -999.25         0.6204         0.8952         17.007       1.262787        -999.25              1
      6218.5000        110.287        -999.25        -999.25         0.6099         0.8273        17.2065       1.065266        -999.25              1
      6219.0000       112.8567        -999.25        -999.25         0.5961         0.6519        17.4175      0.8562431        -999.25              1
      6219.5000       114.0234        -999.25        -999.25          0.569         0.6693        17.3889      0.8868198        -999.25              1
      6220.0000       115.2029        -999.25        -999.25         0.5435         0.7944          16.35       1.927698        -999.25              1
      6220.5000       117.0215        -999.25        -999.25          0.521         0.9539        14.2457       4.033978        -999.25              1
      6221.0000       120.0309        -999.25        -999.25         0.5042          0.616         12.838       5.443656        -999.25              1
      6221.5000       122.3444        -999.25        -999.25         0.5023         0.5804        13.6381       4.645535        -999.25              1
      6222.0000        124.158        -999.25        -999.25         0.4993         0.5597        15.2536       3.032012        -999.25              1
      6222.5000       122.1736        -999.25        -999.25         0.4901         0.5198        16.8729        1.41469        -999.25              1
      6223.0000       117.1998        -999.25        -999.25         0.4811         0.4936        18.4657     -0.1761322        -999.25              1
      6223.5000       113.3314        -999.25        -999.25         0.4695         0.6197        19.5204      -1.228851        -999.25      0.9969074
      6224.0000        111.092        -999.25        -999.25         0.4556         0.8434        18.1865      0.1070251        -999.25              1
      6224.5000       110.8296        -999.25        -999.25         0.4531         0.8919        16.4435       1.852003        -999.25              1
      6225.0000       116.9336        -999.25        -999.25          0.457         0.8068        14.6082       3.689281        -999.25              1
      6225.5000       125.4039        -999.25        -999.25          0.461         0.6036        13.6634        4.63606        -999.25              1
      6226.0000       131.2617        -999.25        -999.25         0.4657         0.5738        14.3177       3.983737        -999.25              1
      6226.5000       130.9529        -999.25        -999.25         0.4704         0.5831        15.9698       2.333617        -999.25              1
      6227.0000       129.9556        -999.25        -999.25          0.456         0.5863        18.8156     -0.5102043        -999.25              1
      6227.5000        129.084        -999.25        -999.25         0.4118         0.5837         23.052      -4.744627        -999.25      0.9493969
      6228.0000       127.4362        -999.25        -999.25         0.3529         0.5629        29.1603      -10.85095        -999.25      0.8668791
      6228.5000       125.6074        -999.25        -999.25         0.3027         0.5364        35.5364      -17.22507        -999.25      0.7807423
      6229.0000       123.3743        -999.25        -999.25           0.29         0.4977        42.4128      -24.09949        -999.25      0.6878447
      6229.5000       120.8623        -999.25        -999.25         0.2957         0.4967        48.4352      -30.11991        -999.25      0.6064876
      6230.0000       117.4259        -999.25        -999.25          0.312         0.5453        50.8465      -32.52924        -999.25      0.5739293
      6230.5000       113.2561        -999.25        -999.25         0.3491         0.5914        48.8243      -30.50506        -999.25       0.601283
      6231.0000       104.7456        -999.25        -999.25         0.3927         0.5245        46.9334      -28.61218        -999.25      0.6268625
      6231.5000        93.7733        -999.25        -999.25         0.4462           0.61        54.2859       -35.9627        -999.25      0.5275311
      6232.0000        82.8966        -999.25        -999.25         0.5091          1.732        65.7649      -47.43972        -999.25      0.3724362
      6232.5000        81.7159        -999.25        -999.25         0.5715         2.5655        73.0858      -54.75864        -999.25      0.2735318
      6233.0000         91.382        -999.25        -999.25         0.6183         2.3909        78.6283      -60.29917        -999.25      0.1986599
      6233.5000        98.4958        -999.25        -999.25         0.5814          1.583        76.8335      -58.50239        -999.25      0.2229407
      6234.0000       104.0975        -999.25        -999.25         0.4338         0.9583        77.2781      -58.94501        -999.25      0.2169594
      6234.5000       109.3073        -999.25        -999.25         0.2696         0.7784        77.6595      -59.32443        -999.25       0.211832
      6235.0000       113.8137        -999.25        -999.25          0.219         0.7906        79.2876      -60.95055        -999.25      0.1898574
      6235.5000       117.9987        -999.25        -999.25         0.2022         0.6565         82.304      -63.96497        -999.25       0.149122
      6236.0000       120.7518        -999.25        -999.25         0.2022         0.5753        83.6573       -65.3163        -999.25      0.1308608
      6236.5000       122.3707        -999.25        -999.25         0.2022         0.5464        84.4739      -66.13092        -999.25      0.1198524
      6237.0000       121.9022        -999.25        -999.25         0.2021         0.5356        85.3544      -67.00945        -999.25      0.1079805
      6237.5000       119.6089        -999.25        -999.25         0.2021          0.556        86.2991      -67.95216        -999.25     0.09524103
      6238.0000        116.926        -999.25        -999.25         0.2021         0.5925        87.7808      -69.43188        -999.25      0.0752448
      6238.5000        113.864        -999.25        -999.25          0.202         0.6504        89.3975       -71.0466        -999.25     0.05342432
      6239.0000       111.9901        -999.25        -999.25          0.202         0.7108        91.1305      -72.77763        -999.25     0.03003208
      6239.5000       113.5852        -999.25        -999.25         0.2019         0.7015        92.5464      -74.19155        -999.25     0.01092498
      6240.0000       115.1576        -999.25        -999.25         0.2019         0.6351        93.4962      -75.13937        -999.25              0
      6240.5000       116.6484        -999.25        -999.25         0.2019         0.6255        93.7495      -75.39069        -999.25              0
      6241.0000       118.1055        -999.25        -999.25         0.2018         0.6263        93.3422      -74.98141        -999.25   0.0002511514
      6241.5000       119.4268        -999.25        -999.25         0.2018          0.627        92.7611      -74.39834        -999.25    0.008130563
      6242.0000       118.6807        -999.25        -999.25         0.2018         0.6186         91.714      -73.34926        -999.25     0.02230732
      6242.5000       117.3217        -999.25        -999.25         0.2017         0.6103        90.6656      -72.29888        -999.25      0.0365016
      6243.0000       116.0732        -999.25        -999.25         0.2017         0.5846         89.006       -70.6373        -999.25     0.05895542
      6243.5000       115.4785        -999.25        -999.25         0.2017         0.5538         87.028      -68.65733        -999.25     0.08571181
      6244.0000        116.793        -999.25        -999.25         0.2016         0.5099        85.0853      -66.71265        -999.25      0.1119913
