#------------------------------------------------------------------------------
# Created by    : vladimir.rabinovich
# Created on    : 09/19/2023 17:20:26
#------------------------------------------------------------------------------
~Version Information Section
VERS.           2.0     :   CWLS log ASCII Standard - VERSION 2.0
WRAP.           NO      :   One line per depth step
~Well Information Section
#MNEM       .UNIT                                         VALUE :DESCRIPTION
#------------------------------------------------------------------------------
STRT        .FT                                             494 :START DEPTH
STOP        .FT                                            8560 :STOP DEPTH
STEP        .FT                                             0.5 :STEP      
NULL        .                                           -999.25 :NULL      
COMP        .                           COLORADO OIL & GAS CORP :COMPANY   
WELL        .                                     ST TR 00122-S :WELL      
FLD         .                                           WILDCAT :FIELD     
LOC         .                                                   :LOCATION  
CNTY        .                           HIGH ISLAND SMALL BLOCK :LOCATION  
STAT        .                                             TEXAS :STATE     
CTRY        .                                     UNITED STATES :COUNTRY   
SRVC        .                                                   :SERVICE COMPANY
DATE        .                             9/13/2023 11:19:17 AM :LOG DATE  
API         .                                    42606300100000 :API NUMBER
UWI         .                                    42606300100000 :UNIQUE WELL ID
XCOORD      .                                  1208966.22079576 :SURFACE X 
YCOORD      .                                  10715303.2202208 :SURFACE Y 
LAT         .                                        29.5185768 :LATITUDE  
LON         .                                       -94.3569047 :LONGITUDE 
ELEV        .FT                                              93 :ELEVATION VALUE
ELEV_TYPE   .                                                KB :ELEVATION REFERENCE TYPE
~Curve Information Section
#MNEM       .UNIT                                      API CODE :CURVE DESCRIPTION
#------------------------------------------------------------------------------
DEPT        .FT                                                 :DEPTH     
ASN         .OHMM                                               :          
CILD        .MMHO                                               :          
GR          .GAPI                                               :          
GR_NORM     .GAPI                                               :GammaRay Normalized
ILD         .OHMM                                               :          
SP          .MV                                                 :          
SP_NORM     .MV                                                 :SP Normalized
VSH_GR      .V/V                                                :Volume of Shale from GR
VSH_SP      .V/V                                                :Volume of Shale from SP
~A        DEPTH            ASN           CILD             GR        GR_NORM            ILD             SP        SP_NORM         VSH_GR         VSH_SP
       494.0000         0.3136       655.4277        18.9439       32.68843         0.6156       -85.0419       10.71568              0      0.1757173
       494.5000         0.3594       682.0732        19.6181       33.55196         0.7197       -85.5258       10.23177     0.01174391      0.2129405
       495.0000         0.9101       716.7441        20.4266       34.58751         0.8198       -86.0217       9.735878     0.03377671      0.2510863
       495.5000         0.9785       756.9463        22.4466       37.17477         0.9262       -86.5178       9.239777     0.08882482       0.289248
       496.0000          1.081       799.9648        25.4633       41.03863         1.0544       -87.1189        8.63868      0.1710346      0.3354862
       496.5000         1.1208        824.127        26.2518       42.04855         1.2841        -87.754       8.003578      0.1925223      0.3843401
       497.0000         1.1453       841.8408        26.7139       42.64042         1.8971       -88.2789       7.478676      0.2051152      0.4247172
       497.5000         1.1727       859.5547        26.7167         42.644         2.1506       -88.7905       6.967079      0.2051916      0.4640708
       498.0000         1.2238       832.8789        26.0895       41.84067         2.2724       -89.3022       6.455376      0.1880994      0.5034326
       498.5000         1.2583       718.7725        26.0116        41.7409         2.3321       -89.7885       5.969078      0.1859765      0.5408401
       499.0000         1.3071       538.6299        26.3577       42.18419         2.4009       -90.2689       5.488678      0.1954083       0.577794
       499.5000         1.3617       448.0747        26.7314       42.66283          2.237       -90.7516       5.005974      0.2055922      0.6149251
       500.0000         1.3943       519.4932         27.014       43.02479         1.9375       -91.2383       4.559639      0.2132934      0.6492586
       500.5000         1.4143       632.5342        26.7118       42.63773         1.8468        -91.725       4.300766      0.2050581      0.6691719
       501.0000         1.4354       654.5859        26.2212       42.00936         1.7639       -92.3673       3.886299      0.1916885      0.7010539
       501.5000         1.4587       668.8965        25.7306       41.38099         1.6985       -93.4122       3.069229      0.1783188      0.7639055
       502.0000          1.452       679.7422         25.191       40.68986         1.6544       -94.1346       2.574661       0.163614      0.8019491
       502.5000         1.4413       684.5352        24.6169       39.95453         1.6245       -94.6206        2.31649      0.1479688      0.8218085
       503.0000         1.4485       682.3564        24.0427       39.21909         1.6641       -95.1066       2.058319      0.1323211      0.8416678
       503.5000         1.4714       672.2256        23.4655        38.4798         1.7038       -95.5786       1.814148      0.1165914      0.8604501
       504.0000         1.5145       647.1523        22.7561       37.57118         1.7538       -95.9146       1.705986     0.09725919      0.8687703
       504.5000         1.5602       578.7861        22.0451       36.66051         2.1857       -96.2505       1.597908      0.0778833       0.877084
       505.0000         1.5807       621.7773        21.3222       35.73462         2.3359       -96.5864       1.489838      0.0581833      0.8853971
       505.5000         1.6012       658.5937        20.5933       34.80103         2.4342       -96.9183       1.385773     0.03831969      0.8934021
       506.0000         1.6313       617.5332        20.2239       34.32788         2.5353       -97.2371         1.2948     0.02825287         0.9004
       506.5000         1.6817       473.2373        31.6582       48.97318         2.6374       -97.5558       1.203926       0.339855      0.9073903
       507.0000         1.7276       429.8628        38.8354       58.16589          2.754       -97.8745       1.113068      0.5354444      0.9143794
       507.5000         1.7618       401.1616        44.6539       65.61835         3.0653       -98.2118       1.003593      0.6940074      0.9228005
       508.0000         1.8236       379.4731        46.3647       67.80959         3.4228       -98.5538      0.8894196      0.7406295      0.9315831
       508.5000         1.8456       338.2959        47.6082       69.40228          3.354       -98.8954        0.77565      0.7745166      0.9403346
       509.0000         1.8617       312.7227        49.7441       72.13799         3.1801       -99.2338      0.6650772      0.8327231      0.9488402
       509.5000          1.864       358.1167        50.8521       73.55713         3.0232       -99.3221      0.8046112      0.8629177      0.9381068
       510.0000          1.858       449.6899        50.3266       72.88407         2.9007       -99.1846       1.169945      0.8485973      0.9100043
       510.5000         1.8319       477.0933        48.1704       70.12235         2.7781       -98.8228       1.759575      0.7898373      0.8646481
       511.0000         1.8005       503.4966        44.2437       65.09296         2.6729       -98.3876         2.4226      0.6828288      0.8136462
       511.5000          1.766       514.3828         42.135       62.39208         2.5736       -97.9523       3.085732      0.6253633      0.7626361
       512.0000         1.7289       511.1328        40.0035       59.66203         2.4737        -97.533       3.732864      0.5672771      0.7128566
       512.5000         1.7066       507.8823        38.6212       57.89154         2.3679       -97.2944       4.199287      0.5296074      0.6769779
       513.0000          1.684       507.1211         32.738       50.35622          2.254        -97.056       4.665527      0.3692812      0.6411133
       513.5000         1.6622       506.8481         28.513       44.94475         2.0799       -96.8176        5.13176      0.2541436      0.6052493
       514.0000         1.6508       506.5757         26.888       42.86341         2.0751       -96.5792       5.597984      0.2098597      0.5693858
       514.5000         1.6394       507.7993        25.6135         41.231         2.0772       -96.3677       6.037315      0.1751277      0.5355911
       515.0000          1.628       511.1172        24.5931       39.92405         2.0795       -96.2716       6.361244      0.1473203      0.5106735
       515.5000         1.6185       514.4355        23.6618       38.73122         2.0817       -96.1755       6.685173      0.1219409      0.4857559
       516.0000         1.6095        519.335        22.9095       37.76766         2.0858       -96.0795        7.00901      0.1014396      0.4608454
       516.5000         1.6004       526.7939         22.292       36.97675         2.0932       -95.9834       7.332939     0.08461177      0.4359277
       517.0000         1.5934       534.2529        21.7631       36.29933         2.1005       -95.8925       7.651665     0.07019846      0.4114104
       517.5000         1.5869       541.7129        21.3358       35.75203         2.1079       -95.8892       7.882797     0.05855382       0.393631
       518.0000         1.5804       550.2461        20.8245       35.09715         2.1152       -95.8857       8.114128     0.04462019      0.3758363
       518.5000         1.5742       553.6406        20.1874       34.28114         2.1226       -95.8824       8.345253      0.0272582      0.3580575
       519.0000         1.5695       541.6738        22.0038       36.60762         2.1372        -95.879       8.576492     0.07675788      0.3402698
       519.5000         1.5648        529.707        22.0719       36.69484         2.1525       -95.8756       8.807716     0.07861368      0.3224834
       520.0000         1.5603       517.4941        21.8539       36.41563         2.1677       -95.8723       9.038849      0.0726729      0.3047039
