#------------------------------------------------------------------------------
# Created by    : vladimir.rabinovich
# Created on    : 09/19/2023 17:19:42
#------------------------------------------------------------------------------
~Version Information Section
VERS.           2.0     :   CWLS log ASCII Standard - VERSION 2.0
WRAP.           NO      :   One line per depth step
~Well Information Section
#MNEM       .UNIT                                         VALUE :DESCRIPTION
#------------------------------------------------------------------------------
STRT        .FT                                            2198 :START DEPTH
STOP        .FT                                            8738 :STOP DEPTH
STEP        .FT                                             0.5 :STEP      
NULL        .                                           -999.25 :NULL      
COMP        .                             CHAMPLIN PETROLEUM CO :COMPANY   
WELL        .                                     ST TR 00360-S :WELL      
FLD         .                                           WILDCAT :FIELD     
LOC         .                                                   :LOCATION  
CNTY        .                             GALVESTON SMALL BLOCK :LOCATION  
STAT        .                                             TEXAS :STATE     
CTRY        .                                     UNITED STATES :COUNTRY   
SRVC        .                                                   :SERVICE COMPANY
DATE        .                             9/13/2023 11:19:17 AM :LOG DATE  
API         .                                    42605301270000 :API NUMBER
UWI         .                                    42605301270000 :UNIQUE WELL ID
XCOORD      .                                  933135.371219094 :SURFACE X 
YCOORD      .                                  10510129.7662443 :SURFACE Y 
LAT         .                                         28.942863 :LATITUDE  
LON         .                                       -95.2117932 :LONGITUDE 
ELEV        .FT                                              20 :ELEVATION VALUE
ELEV_TYPE   .                                                GL :ELEVATION REFERENCE TYPE
~Curve Information Section
#MNEM       .UNIT                                      API CODE :CURVE DESCRIPTION
#------------------------------------------------------------------------------
DEPT        .FT                                                 :DEPTH     
ASFL        .OHMM                                               :          
CILD        .MMHO                                               :          
ILD         .OHMM                                               :          
SP          .MV                                                 :          
SP_NORM     .MV                                                 :SP Normalized
VSH_SP      .V/V                                                :Volume of Shale from SP
~A        DEPTH           ASFL           CILD            ILD             SP        SP_NORM         VSH_SP
# ...
      8696.0000         1.0132       1035.508         0.9152        20.7007      -1.188505      0.9830214
      8696.5000         1.0049       1046.537         0.9086        20.7377      -1.225504      0.9824928
      8697.0000         0.9967       1056.064          0.902        20.7748      -1.262604      0.9819628
      8697.5000         0.9884       1074.994         0.8954        20.6265      -1.114304      0.9840814
      8698.0000           0.98       1096.379         0.8881        20.4407     -0.9285049      0.9867356
      8698.5000         0.9716       1124.271         0.8797        20.2553     -0.7431049      0.9893842
      8699.0000         0.9631       1164.635         0.8714        19.9252     -0.4130039      0.9940999
      8699.5000         0.9508        1198.99         0.8631         19.598    -0.08580399      0.9987742
      8700.0000         0.9371       1222.727         0.8559        19.3922      0.1199951              1
      8700.5000         0.9228       1243.234         0.8506        19.5053    0.006895065              1
      8701.0000         0.9063       1260.412         0.8454         20.117      -0.604805      0.9913599
      8701.5000         0.8899       1277.588         0.8401        20.6612      -1.149004      0.9835857
      8702.0000         0.8758       1291.861          0.835         21.192      -1.679804      0.9760028
      8702.5000         0.8626       1304.506           0.83        21.3481      -1.835905      0.9737728
      8703.0000          0.856       1317.752          0.825        21.4585      -1.946304      0.9721956
      8703.5000         0.8512       1330.998           0.82         21.511      -1.998804      0.9714457
      8704.0000         0.8423       1314.297          0.815        21.5088      -1.996605      0.9714771
      8704.5000         0.8305        1294.49         0.8089        21.5065      -1.994305      0.9715099
      8705.0000         0.8384       1274.158         0.8009        21.5042      -1.992004      0.9715428
      8705.5000         0.8508       1253.801         0.7928        21.4682      -1.956005       0.972057
      8706.0000         0.8634        1234.02         0.7848        21.3667      -1.854504      0.9735071
      8706.5000         0.8761       1218.395         0.7768        21.2653      -1.753105      0.9749556
      8707.0000         0.8885       1202.746         0.7689        21.1082      -1.596004      0.9771999
      8707.5000            0.9       1188.461         0.7691         20.845      -1.332804        0.98096
      8708.0000         0.9026       1197.787         0.7694        20.5822      -1.070004      0.9847142
      8708.5000         0.9034       1207.127         0.7697        20.4332     -0.9210052      0.9868428
      8709.0000         0.8981       1216.467         0.7702        20.2924     -0.7802048      0.9888542
      8709.5000         0.8853       1225.807         0.7709        20.2645     -0.7523041      0.9892528
      8710.0000         0.8353       1235.146         0.7716        20.2775     -0.7653046      0.9890671
      8710.5000         0.8147       1265.744         0.7723        20.2905     -0.7783051      0.9888813
      8711.0000         0.8126       1304.807          0.773        20.3035     -0.7913036      0.9886957
      8711.5000         0.8164       1336.193         0.7738        20.3165     -0.8043041        0.98851
      8712.0000         0.8202       1342.566         0.7745        20.3296     -0.8174038      0.9883228
      8712.5000          0.824       1333.176         0.7752        20.3426     -0.8304043      0.9881371
      8713.0000         0.8278       1323.799         0.7759        20.4219     -0.9097042      0.9870042
      8713.5000         0.8339       1314.121         0.7764        20.6083      -1.096104      0.9843414
      8714.0000         0.8415       1299.297         0.7767        20.7947      -1.282505      0.9816785
      8714.5000          0.847       1284.475         0.7769        21.0824      -1.570204      0.9775685
      8715.0000         0.8524        1269.65         0.7772        21.3471      -1.834904      0.9737871
      8715.5000         0.8544       1259.021         0.7775         21.133      -1.620804      0.9768457
      8716.0000         0.8541       1251.209         0.7777        20.9186      -1.406404      0.9799085
      8716.5000          0.853       1243.396          0.778        20.7045      -1.192305      0.9829671
      8717.0000         0.8493       1243.109         0.7785        20.4901     -0.9779053      0.9860299
      8717.5000         0.8459       1249.443         0.7793        20.3795     -0.8673038      0.9876099
      8718.0000         0.8451       1257.883         0.7802        20.2894     -0.7772045      0.9888971
      8718.5000         0.8449       1260.523          0.781         20.199     -0.6868038      0.9901885
      8719.0000         0.8505       1249.057         0.7818        20.1087     -0.5965042      0.9914785
      8719.5000         0.8561       1239.354         0.7827         20.041     -0.5288048      0.9924456
      8720.0000          0.862       1230.215         0.7835        20.0409     -0.5287037      0.9924471
      8720.5000         0.8679       1221.088         0.7849        20.0407     -0.5285053      0.9924499
      8721.0000          0.868       1211.947         0.7876        20.0406     -0.5284042      0.9924514
      8721.5000         0.8657       1213.068         0.7903        20.0405     -0.5283051      0.9924528
      8722.0000          0.863       1217.889         0.7931        20.0404      -0.528204      0.9924542
      8722.5000         0.8598        1222.99         0.7958        20.1074     -0.5952053       0.991497
      8723.0000         0.8565       1232.268         0.7985        20.1834     -0.6712036      0.9904114
      8723.5000         0.8533        1240.33         0.8013        20.2594     -0.7472038      0.9893256
      8724.0000         0.8507       1241.838         0.8046        20.3355     -0.8233051      0.9882385
      8724.5000         0.8513       1243.344         0.8082        20.4116     -0.8994045      0.9871514
      8725.0000         0.8518       1244.854         0.8117        20.5027     -0.9905052      0.9858499
      8725.5000         0.8524       1238.414         0.8153         20.607      -1.094805      0.9843599
      8726.0000         0.8529       1231.203         0.8189        20.7114      -1.199203      0.9828685
      8726.5000         0.8561       1223.979         0.8224        20.8073      -1.295105      0.9814985
      8727.0000          0.868       1216.768          0.826        20.8604      -1.348204        0.98074
      8727.5000         0.8799       1209.543         0.8294        20.7587      -1.246504      0.9821928
      8728.0000         0.8918       1202.332         0.8327        20.4018     -0.8896046      0.9872913
      8728.5000         0.9037       1195.109         0.8359        20.0457     -0.5335045      0.9923785
      8729.0000         0.9155       1187.896         0.8392        19.8135     -0.3013039      0.9956957
      8729.5000         0.9274       1180.674         0.8425        19.8085     -0.2963047      0.9957671
      8730.0000         0.9393       1173.463         0.8457        19.8036     -0.2914047      0.9958371
      8730.5000         0.9512       1166.238          0.849        19.7986     -0.2864037      0.9959085
      8731.0000         0.9631       1159.027         0.8523        19.7937     -0.2815037      0.9959785
      8731.5000         0.9785       1152.225         0.8556        19.7887     -0.2765045      0.9960499
      8732.0000         0.9945       1150.223          0.859        19.7838     -0.2716045      0.9961199
      8732.5000         1.0075       1148.217         0.8623        19.6734     -0.1612053      0.9976971
      8733.0000         1.0192       1146.209         0.8657        19.7009     -0.1887035      0.9973043
      8733.5000         1.0261       1144.203          0.869        19.9848     -0.4726048      0.9932485
