#------------------------------------------------------------------------------
# Created by    : vladimir.rabinovich
# Created on    : 09/19/2023 17:20:26
#------------------------------------------------------------------------------
~Version Information Section
VERS.           2.0     :   CWLS log ASCII Standard - VERSION 2.0
WRAP.           NO      :   One line per depth step
~Well Information Section
#MNEM       .UNIT                                         VALUE :DESCRIPTION
#------------------------------------------------------------------------------
STRT        .FT                                             494 :START DEPTH
STOP        .FT                                            8560 :STOP DEPTH
STEP        .FT                                             0.5 :STEP      
NULL        .                                           -999.25 :NULL      
COMP        .                           COLORADO OIL & GAS CORP :COMPANY   
WELL        .                                     ST TR 00122-S :WELL      
FLD         .                                           WILDCAT :FIELD     
LOC         .                                                   :LOCATION  
CNTY        .                           HIGH ISLAND SMALL BLOCK :LOCATION  
STAT        .                                             TEXAS :STATE     
CTRY        .                                     UNITED STATES :COUNTRY   
SRVC        .                                                   :SERVICE COMPANY
DATE        .                             9/13/2023 11:19:17 AM :LOG DATE  
API         .                                    42606300100000 :API NUMBER
UWI         .                                    42606300100000 :UNIQUE WELL ID
XCOORD      .                                  1208966.22079576 :SURFACE X 
YCOORD      .                                  10715303.2202208 :SURFACE Y 
LAT         .                                        29.5185768 :LATITUDE  
LON         .                                       -94.3569047 :LONGITUDE 
ELEV        .FT                                              93 :ELEVATION VALUE
ELEV_TYPE   .                                                KB :ELEVATION REFERENCE TYPE
~Curve Information Section
#MNEM       .UNIT                                      API CODE :CURVE DESCRIPTION
#------------------------------------------------------------------------------
DEPT        .FT                                                 :DEPTH     
ASN         .OHMM                                               :          
CILD        .MMHO                                               :          
GR          .GAPI                                               :          
GR_NORM     .GAPI                                               :GammaRay Normalized
ILD         .OHMM                                               :          
SP          .MV                                                 :          
SP_NORM     .MV                                                 :SP Normalized
VSH_GR      .V/V                                                :Volume of Shale from GR
VSH_SP      .V/V                                                :Volume of Shale from SP
~A        DEPTH            ASN           CILD             GR        GR_NORM            ILD             SP        SP_NORM         VSH_GR         VSH_SP
# ...
      2110.5000         0.4327       3762.363        24.6192       38.39317         0.3503       -98.0991      -13.80027      0.1147482              0
      2111.0000         0.4384       3778.711        22.5668       35.75933         0.3453       -98.5569      -14.26077     0.05870908              0
      2111.5000         0.4434       3792.063        22.2048       35.29059         0.3408       -99.0247      -14.73127     0.04873592              0
      2112.0000         0.4454       3804.824        21.6851       34.61987         0.3365       -99.3445      -15.05377     0.03446522              0
      2112.5000         0.4473       3819.414          21.72       34.65947         0.3323       -98.0565      -13.76848     0.03530794              0
      2113.0000         0.4493       3834.445        22.3672       35.48335          0.328       -96.6992      -12.41388     0.05283713     0.05328369
      2113.5000         0.4453       3855.332        23.2866       36.65586         0.3237       -95.0947      -10.81208      0.0777842      0.1989018
      2114.0000         0.4401       3860.176        24.0823       37.66992         0.3195       -94.6372      -10.35728     0.09936004      0.2402475
      2114.5000         0.4349       3851.594        26.2462        40.4364         0.3152       -94.5905      -10.31328      0.1582213      0.2442474
      2115.0000         0.4244       3841.531        27.6825       42.27097         0.3109       -94.5437      -10.26918      0.1972547      0.2482563
      2115.5000          0.413       3807.656        28.5689       43.40121         0.3081       -94.5051      -10.23328      0.2213023      0.2515203
      2116.0000         0.4067        3717.18        29.5585       44.66362         0.3104       -94.4805      -10.21138      0.2481622      0.2535109
      2116.5000         0.4181       3702.148        33.0216       49.09415         0.3126       -94.4559      -10.18948      0.3424287      0.2555015
      2117.0000         0.4295       3707.117        27.0442       41.43309         0.3149       -94.5565      -10.29279      0.1794274      0.2461104
      2117.5000         0.4409       3737.898        24.0704        37.6191         0.3172       -95.1346      -10.87358     0.09827878      0.1933108
      2118.0000         0.4521       3771.211        23.6814       37.11578         0.3194       -95.5363      -11.27798     0.08756979      0.1565468
      2118.5000         0.4615        3806.32        23.3385        36.6715         0.3217        -95.244      -10.98839     0.07811697      0.1828738
      2119.0000         0.4536       3819.285        24.9635       38.74775          0.324       -94.9518      -10.69888      0.1222925      0.2091925
      2119.5000         0.4458       3801.633        37.8386       55.23338         0.3262       -94.6597      -10.40948      0.4730505      0.2355014
      2120.0000         0.4391       3783.977        40.6921       58.88312         0.3285       -94.2115      -9.963989      0.5507047       0.276001
      2120.5000         0.4329       3743.281        42.3751       61.03365         0.3308       -93.6801      -9.435287      0.5964607      0.3240648
      2121.0000         0.4293       3690.957        43.5784       62.56978         0.3367       -93.1483      -8.906189      0.6291443      0.3721646
      2121.5000         0.4317       3637.016        45.2168       64.66319         0.3431       -92.6167      -8.377289       0.673685      0.4202465
      2122.0000         0.4341       3576.453        45.4045       64.89853         0.3495       -91.7791      -7.542389      0.6786921      0.4961465
      2122.5000         0.4365       3331.508        44.1756       63.31944         0.3559       -90.8527       -6.61869      0.6450945      0.5801191
      2123.0000         0.4449       3134.543        43.1122       61.95233         0.3623       -90.2389      -6.007591       0.616007      0.6356735
      2123.5000         0.4537        3090.25        42.2979       60.90427         0.3687       -89.7727       -5.54409       0.593708        0.67781
      2124.0000         0.4625       3055.395        45.5073       65.00987         0.3751       -89.3066      -5.080696      0.6810611      0.7199367
      2124.5000         0.4871       3017.563        49.1647       69.68927         0.3815       -89.0105      -4.787292      0.7806228      0.7466097
      2125.0000         0.4711       2974.262        50.8668       71.86425         0.3879       -88.7216      -4.501099      0.8268989      0.7726274
      2125.5000         0.4551       2934.441        52.1877       73.55102         0.3943       -88.4327      -4.214897      0.8627876      0.7986457
      2126.0000         0.4427       2901.426        53.4778       75.19833         0.4007       -88.1438      -3.928696      0.8978369      0.8246641
      2126.5000         0.4388       2865.188        54.7268       76.79298         0.4072       -87.9464      -3.734001      0.9317656      0.8423635
      2127.0000         0.4478       2825.074        55.3722       77.61455         0.4137       -87.7654      -3.555702      0.9492457      0.8585725
      2127.5000         0.4568       2776.023        56.0325       78.45518         0.4202       -88.1864      -3.979401      0.9671316      0.8200545
      2128.0000         0.4628       2711.563        57.3439       80.12978         0.4268       -88.6882      -4.483902              1      0.7741907
      2128.5000         0.4653       2609.367        58.4757       81.57433         0.4333       -89.1901      -4.988503              1       0.728318
      2129.0000         0.4622       2561.555         60.686       84.40025         0.4398       -89.7043      -5.505402              1      0.6813271
      2129.5000         0.4591        2530.23        62.4775       86.68976         0.4388       -89.5643      -5.368103              1      0.6938088
      2130.0000          0.456       2521.699        61.1722       85.01282         0.4378       -88.5189      -4.325401              1      0.7885999
      2130.5000         0.4529       2584.773        58.6262       81.74677         0.4367       -87.5652      -3.374405              1      0.8750541
      2131.0000         0.4487       2666.766        55.5672       77.82364         0.4356       -86.6938      -2.505707      0.9536945      0.9540266
      2131.5000         0.4409       2698.434        52.5819       73.99493         0.4346       -85.8223      -1.636909      0.8722325              1
      2132.0000          0.433       2745.777        50.2749         71.035         0.4335        -85.745      -1.562309      0.8092552              1
      2132.5000         0.4252        2851.32        48.9987       69.39532         0.4325        -86.074      -1.894005      0.7743686              1
      2133.0000         0.4172       3094.602        47.6149       67.61784         0.4314       -86.9708       -2.79351      0.7365497      0.9278627
      2133.5000         0.4097       3229.211         45.941       65.46879         0.4268       -87.9663       -3.79171      0.6908253      0.8371173
      2134.0000         0.4282       3292.789        35.6513       52.28444         0.4203       -88.9619      -4.790009      0.4103072      0.7463629
      2134.5000         0.4462       3355.484        32.8343       48.67128         0.4138       -90.7848      -6.615608      0.3334316      0.5803993
      2135.0000         0.4642       3470.039        31.2861       46.68323         0.4073       -92.5887      -8.422211      0.2911326      0.4161627
      2135.5000         0.4849         3557.5        30.3525       45.48238         0.4008       -93.9167      -9.752914      0.2655825      0.2951896
      2136.0000         0.4776        3638.66        29.6385       44.56279         0.3943       -94.7168      -10.55571      0.2460168      0.2222082
      2136.5000         0.4695       3673.707        29.1266       43.90205         0.3878       -95.1694      -11.01102      0.2319586      0.1808167
