#------------------------------------------------------------------------------
# Created by    : vladimir.rabinovich
# Created on    : 09/19/2023 17:19:42
#------------------------------------------------------------------------------
~Version Information Section
VERS.           2.0     :   CWLS log ASCII Standard - VERSION 2.0
WRAP.           NO      :   One line per depth step
~Well Information Section
#MNEM       .UNIT                                         VALUE :DESCRIPTION
#------------------------------------------------------------------------------
STRT        .FT                                            2198 :START DEPTH
STOP        .FT                                            8738 :STOP DEPTH
STEP        .FT                                             0.5 :STEP      
NULL        .                                           -999.25 :NULL      
COMP        .                             CHAMPLIN PETROLEUM CO :COMPANY   
WELL        .                                     ST TR 00360-S :WELL      
FLD         .                                           WILDCAT :FIELD     
LOC         .                                                   :LOCATION  
CNTY        .                             GALVESTON SMALL BLOCK :LOCATION  
STAT        .                                             TEXAS :STATE     
CTRY        .                                     UNITED STATES :COUNTRY   
SRVC        .                                                   :SERVICE COMPANY
DATE        .                             9/13/2023 11:19:17 AM :LOG DATE  
API         .                                    42605301270000 :API NUMBER
UWI         .                                    42605301270000 :UNIQUE WELL ID
XCOORD      .                                  933135.371219094 :SURFACE X 
YCOORD      .                                  10510129.7662443 :SURFACE Y 
LAT         .                                         28.942863 :LATITUDE  
LON         .                                       -95.2117932 :LONGITUDE 
ELEV        .FT                                              20 :ELEVATION VALUE
ELEV_TYPE   .                                                GL :ELEVATION REFERENCE TYPE
~Curve Information Section
#MNEM       .UNIT                                      API CODE :CURVE DESCRIPTION
#------------------------------------------------------------------------------
DEPT        .FT                                                 :DEPTH     
ASFL        .OHMM                                               :          
CILD        .MMHO                                               :          
ILD         .OHMM                                               :          
SP          .MV                                                 :          
SP_NORM     .MV                                                 :SP Normalized
VSH_SP      .V/V                                                :Volume of Shale from SP
~A        DEPTH           ASFL           CILD            ILD             SP        SP_NORM         VSH_SP
# ...
      7404.0000         0.7059         1535.5         0.6406        22.5081     -0.9597969              1
      7404.5000         0.6988       1556.072         0.6277        22.5817      -1.035381      0.9994003
      7405.0000         0.6917       1578.393         0.6141        22.7342      -1.189867      0.9967819
      7405.5000          0.684       1599.838         0.6006        22.9649      -1.422554      0.9928381
      7406.0000         0.6736       1634.531          0.587        23.3049       -1.76454      0.9870417
      7406.5000         0.6494       1699.566         0.5711        24.1216      -2.583227      0.9731656
      7407.0000         0.6728       1777.652          0.555        29.9756      -8.439213      0.8739116
      7407.5000         0.6962       1919.023         0.5388         36.192       -14.6576      0.7685152
      7408.0000         0.7196       2237.156         0.5321        42.1373      -20.60489      0.6677138
      7408.5000         0.7376       2291.047         0.5277        43.0373      -21.50687      0.6524259
      7409.0000         0.7403       2307.492         0.5232        43.8613      -22.33286      0.6384261
      7409.5000         0.7392           2272         0.5377         44.445      -22.91855      0.6284992
      7410.0000         0.7309       2190.766         0.5601        45.0522      -23.52773       0.618174
      7410.5000         0.7227       2052.996         0.5825        41.9319      -20.40942      0.6710268
      7411.0000         0.7312       1786.449         0.6049        37.0439      -15.52341      0.7538406
      7411.5000         0.7513       1558.695         0.6297        31.0353       -9.51679      0.8556476
      7412.0000         0.7665       1478.012         0.6703        29.1453      -7.628778      0.8876478
      7412.5000         0.7763       1430.871         0.7069        28.2516      -6.737064      0.9027616
      7413.0000         0.7861       1374.033         0.7391        27.8117      -6.299152      0.9101838
      7413.5000         0.7945       1302.648         0.7713        27.5255      -6.014936      0.9150011
      7414.0000         0.8019       1210.967         0.7914        27.2641      -5.755524      0.9193979
      7414.5000         0.8093       1145.881         0.8077        27.0026       -5.49601      0.9237964
      7415.0000          0.823       1146.143          0.824        26.6689      -5.164297      0.9294187
      7415.5000         0.8451       1171.225         0.8348        26.1276      -4.624983      0.9385596
      7416.0000         0.8673       1223.764         0.8398         25.471      -3.970371      0.9496547
      7416.5000         0.8909       1280.453         0.8339        24.1622      -2.663557      0.9718041
      7417.0000         0.9052       1353.637         0.8279        22.5168      -1.020144      0.9996586
      7417.5000         0.9061       1425.023          0.822        21.6548     -0.1601295              1
      7418.0000         0.9069        1490.41         0.8066        23.3781      -1.885416      0.9849929
      7418.5000         0.7061       1531.852         0.7812        23.9137      -2.423002      0.9758813
      7419.0000         0.6724       1578.492         0.7558        24.2306      -2.741888      0.9704764
      7419.5000         0.6706       1637.631         0.7304         24.318      -2.831276      0.9689614
      7420.0000         0.6737       1671.697          0.705        24.3164      -2.831661      0.9689549
      7420.5000         0.6768       1694.344         0.6804        24.3148      -2.832048      0.9689483
      7421.0000         0.6799       1713.264         0.6603        24.2246      -2.743834      0.9704435
      7421.5000          0.683       1728.586         0.6459        24.0988      -2.620022       0.972542
      7422.0000         0.6861       1741.721         0.6374        23.9479      -2.471107      0.9750659
      7422.5000         0.6891       1755.119         0.6288        23.5955      -2.120695      0.9810052
      7423.0000         0.6885        1768.84         0.6203        23.4195       -1.94668      0.9839545
      7423.5000         0.6858       1780.775         0.6152        23.4639      -1.993067      0.9831684
      7424.0000         0.6804       1774.852         0.6102        23.5083      -2.039454      0.9823821
      7424.5000         0.6743       1747.158         0.6052        23.6038       -2.13694      0.9807298
      7425.0000         0.6682       1717.314         0.6001        23.7562      -2.291327      0.9781131
      7425.5000         0.6622       1677.672         0.5951         23.895      -2.432112      0.9757269
      7426.0000         0.6626        1641.18         0.5965        24.0283      -2.567398      0.9734339
      7426.5000         0.6731       1604.486         0.6019        24.1653      -2.706385      0.9710782
      7427.0000         0.6936       1558.746         0.6073        24.1064      -2.649471      0.9720429
      7427.5000         0.7141       1505.406         0.6127        23.5879      -2.132957      0.9807974
      7428.0000         0.7345       1440.307         0.6181         22.705      -1.252045      0.9957281
      7428.5000         0.7539       1448.619         0.6257        22.0915     -0.6405296              1
      7429.0000         0.7733       1456.916         0.6336        21.9805      -0.531517              1
      7429.5000          0.791        1466.99         0.6415        21.9387      -0.491703              1
      7430.0000         0.8014       1485.512         0.6494        22.0393     -0.5942917              1
      7430.5000         0.7923       1500.457         0.6573        22.1653     -0.7222767              1
      7431.0000         0.7831        1511.93         0.6652        22.2911     -0.8500633              1
      7431.5000         0.7709       1494.959           0.67        22.6001      -1.161049      0.9972703
      7432.0000         0.7569       1477.963         0.6732        22.9116      -1.474535       0.991957
      7432.5000         0.7429       1456.166         0.6764        23.4624      -2.027323      0.9825878
      7433.0000         0.7289       1426.822         0.6796        24.1622      -2.729109      0.9706931
      7433.5000         0.7149       1392.779         0.6805        25.3867      -3.955595      0.9499052
      7434.0000         0.7053       1361.586          0.676        26.9104      -5.481281      0.9240461
      7434.5000         0.6962       1346.314         0.6702        28.0753      -6.648169      0.9042683
      7435.0000         0.6915       1368.885         0.6599        30.0186      -8.593454      0.8712974
      7435.5000         0.6988       1421.324         0.6496        37.5864      -16.16324      0.7429959
      7436.0000          0.721       1506.707         0.6393        39.0316      -17.61043      0.7184673
      7436.5000         0.7432       1583.891         0.6244        44.1274      -22.70821      0.6320642
      7437.0000         0.7682       2122.879         0.6055        47.8949       -26.4777      0.5681745
      7437.5000         0.8016       2214.461         0.5866        57.7071      -36.29189      0.4018325
      7438.0000         0.8395       2330.539         0.5675         58.396      -36.98277      0.3901225
      7438.5000         0.8683       2676.066         0.5413        59.1909      -37.77966       0.376616
      7439.0000         0.8393       2744.105          0.515        60.1124      -38.70315      0.3609636
      7439.5000         0.8001       2729.457         0.4888        61.2584      -39.85113      0.3415062
      7440.0000         0.7543       2714.809         0.4671        62.2268      -40.82152       0.325059
      7440.5000         0.7026       2698.387          0.447        66.9044      -45.50111       0.245744
      7441.0000          0.674       2679.418         0.4271        67.7759       -46.3746      0.2309391
      7441.5000         0.6701       2663.145         0.4089        68.4598      -47.06048      0.2193139
