#------------------------------------------------------------------------------
# Created by    : vladimir.rabinovich
# Created on    : 09/19/2023 17:19:43
#------------------------------------------------------------------------------
~Version Information Section
VERS.           2.0     :   CWLS log ASCII Standard - VERSION 2.0
WRAP.           NO      :   One line per depth step
~Well Information Section
#MNEM       .UNIT                                         VALUE :DESCRIPTION
#------------------------------------------------------------------------------
STRT        .FT                                            1596 :START DEPTH
STOP        .FT                                            6079 :STOP DEPTH
STEP        .FT                                             0.5 :STEP      
NULL        .                                           -999.25 :NULL      
COMP        .                                 EOG RESOURCES INC :COMPANY   
WELL        .                                     ST TR 00721-S :WELL      
FLD         .                                  SHERMAN OFFSHORE :FIELD     
LOC         .                                                   :LOCATION  
CNTY        .                      MATAGORDA ISLAND SMALL BLOCK :LOCATION  
STAT        .                                             TEXAS :STATE     
CTRY        .                                     UNITED STATES :COUNTRY   
SRVC        .                                                   :SERVICE COMPANY
DATE        .                             9/13/2023 11:19:17 AM :LOG DATE  
API         .                                    42603300060000 :API NUMBER
UWI         .                                    42603300060000 :UNIQUE WELL ID
XCOORD      .                                  491308.028993428 :SURFACE X 
YCOORD      .                                  10247941.6299489 :SURFACE Y 
LAT         .                                        28.1931224 :LATITUDE  
LON         .                                       -96.5672747 :LONGITUDE 
ELEV        .FT                                              74 :ELEVATION VALUE
ELEV_TYPE   .                                                KB :ELEVATION REFERENCE TYPE
~Curve Information Section
#MNEM       .UNIT                                      API CODE :CURVE DESCRIPTION
#------------------------------------------------------------------------------
DEPT        .FT                                                 :DEPTH     
ASFL        .OHMM                                               :          
CILD        .MMHO                                               :          
ILD         .OHMM                                               :          
SP          .MV                                                 :          
SP_NORM     .MV                                                 :SP Normalized
VSH_SP      .V/V                                                :Volume of Shale from SP
~A        DEPTH           ASFL           CILD            ILD             SP        SP_NORM         VSH_SP
# ...
      4560.0000          0.802       2274.379         0.5256        -78.227       -46.9017      0.2219661
      4560.5000          0.796       1967.027         0.5253       -78.1297       -46.8044       0.223912
      4561.0000          0.792       1951.397          0.525       -77.9606       -46.6353       0.227294
      4561.5000          0.792       2038.505         0.5247        -77.839      -46.51369      0.2297261
      4562.0000         0.7958       2125.612         0.5146       -77.6444       -46.3191       0.233618
      4562.5000         0.7977        2212.72         0.5143       -77.4498       -46.1245      0.2375101
      4563.0000         0.8036       2299.827         0.5043       -77.3537       -46.0284      0.2394321
      4563.5000         0.8075       2386.935         0.5039       -77.0606       -45.7353       0.245294
      4564.0000         0.8094       2487.577         0.5036       -76.7675       -45.4422       0.251156
      4564.5000         0.8034       2495.567         0.4936       -76.5717       -45.2464       0.255072
      4565.0000         0.7837       2515.308         0.4932       -75.9843        -44.659      0.2668201
      4565.5000         0.7698       2523.297         0.4929       -75.6912       -44.3659       0.272682
      4566.0000         0.7619       2523.356         0.4926       -75.2996       -43.9743      0.2805141
      4566.5000         0.7559       2395.177          0.512       -75.0065       -43.6812       0.286376
      4567.0000         0.7519       2266.998         0.5215       -74.3194      -42.99409      0.3001181
      4567.5000         0.7558       2138.819         0.5508       -73.9265       -42.6012      0.3079761
      4568.0000         0.8818       2010.641           0.58       -72.8466       -41.5213       0.329574
      4568.5000         1.0077        1925.59         0.6191       -71.6287       -40.3034       0.353932
      4569.0000         1.1336        1650.71         0.6058       -70.4108      -39.08549      0.3782901
      4569.5000         1.2595       1375.831         0.7268       -68.7177       -37.3924      0.4121521
      4570.0000         1.3933       1100.951         0.9083       -68.8162       -37.4909       0.410182
      4570.5000         1.5231       894.5769         1.1178       -74.9979       -43.6726       0.286548
      4571.0000         1.6529        890.757         1.1226       -79.6594       -48.3341       0.193318
      4571.5000         2.3791       894.8101         1.1176       -79.8588       -48.5335        0.18933
      4572.0000         2.3985       930.2969         1.0749       -78.2029       -46.8776       0.222448
      4572.5000         2.3982       1099.741         0.9093       -76.5469       -45.2216      0.2555681
      4573.0000         2.3782       1254.572         0.7971       -75.0392       -43.7139       0.285722
      4573.5000         1.2376       1409.403         0.7095       -74.8446      -43.51929      0.2896141
      4574.0000         1.1096       1564.234         0.6393       -74.9443        -43.619      0.2876201
      4574.5000         0.9817       1719.065         0.5859       -78.4237       -47.0984      0.2180321
      4575.0000         0.8868       2422.393         0.5167        -81.903       -50.5777       0.148446
      4575.5000         0.8868       2641.189         0.4869       -85.3824       -54.0571     0.07885803
      4576.0000         0.8887       3147.886          0.467       -89.0443      -57.71899    0.005620117
      4576.5000         0.9086       3179.378         0.4371        -89.538       -58.2127              0
      4577.0000         0.9338       3408.378          0.427       -90.7238       -59.3985              0
      4577.5000         0.9338       3637.377         0.3972       -92.0068       -60.6815              0
      4578.0000         0.9357        3912.15         0.3871       -92.8958       -61.5705              0
      4578.5000         0.9056       3920.081         0.3671       -93.4893        -62.164              0
      4579.0000         0.8754       3935.943          0.357       -93.6887       -62.3634              0
      4579.5000         0.8453       3963.615         0.3468       -94.0852       -62.7599              0
      4580.0000         0.7957       3995.224         0.3367       -94.1861      -62.86079              0
      4580.5000         0.7917        4007.15         0.3364         -94.09      -62.76469              0
      4581.0000         0.9747       3624.289         0.3459       -93.9927       -62.6674              0
      4581.5000         0.9707       3531.008         0.3457       -92.4886       -61.1633              0
      4582.0000         0.9706       3538.998         0.3454       -90.9844       -59.6591              0
      4582.5000         0.9686       3550.982         0.3549       -89.4803        -58.155              0
      4583.0000         0.9036       3547.104         0.3645       -88.3886       -57.0633     0.01873398
      4583.5000         0.8976       3443.391         0.3642       -89.0291       -57.7038    0.005924072
      4584.0000         0.8996       3339.678         0.3737       -89.7738       -58.4485              0
      4584.5000          0.995       3235.965         0.3931       -89.9708       -58.6455              0
      4585.0000         1.0904       3142.111         0.4125       -87.5883        -56.263     0.03473999
      4585.5000         1.1858        2803.99         0.4221       -85.2057       -53.8804     0.08239197
      4586.0000         1.3146       2414.034         0.4316       -82.8231       -51.4978      0.1300441
      4586.5000         1.3205       2410.097          0.451       -80.4406       -49.1153      0.1776941
      4587.0000         1.3224       2229.252         0.4704        -78.058       -46.7327      0.2253461
      4587.5000         1.3322         2217.5         0.4898       -76.6868       -45.3615      0.2527701
      4588.0000         1.3302       2205.808         0.4993       -80.1754       -48.8501       0.182998
      4588.5000         1.3262       2201.988          0.499        -83.664       -52.3387       0.113226
      4589.0000         1.3241       2269.083         0.4889        -86.349       -55.0237     0.05952606
      4589.5000         1.3182       2300.575         0.4788       -86.9425       -55.6172      0.0476561
      4590.0000         1.3083       2567.743         0.4588       -87.6345       -56.3092     0.03381607
      4590.5000          0.694       3340.275         0.4387       -87.6369       -56.3116     0.03376801
      4591.0000          0.694       3340.334         0.4187       -87.5408       -56.2155        0.03569
      4591.5000         0.6979        3315.77         0.3987       -87.3462       -56.0209     0.03958206
      4592.0000         0.7017       3291.206         0.3886       -87.1516       -55.8263     0.04347397
      4592.5000         0.7056       3265.948         0.3785       -87.0543        -55.729     0.04542007
      4593.0000         0.7095       3269.943         0.3782       -86.3684       -55.0431     0.05913803
      4593.5000         0.7134       3396.085         0.3779       -86.1738       -54.8485     0.06303009
      4594.0000          0.735       3408.011         0.3874       -85.8807       -54.5554     0.06889206
      4594.5000         0.7487       3419.938          0.397       -85.4879       -54.1626     0.07674804
      4595.0000         0.7624       3423.932         0.4075       -82.7344       -51.4091      0.1318181
      4595.5000         1.0566       3082.121         0.4161       -79.9809       -48.6556       0.186888
      4596.0000         1.1638       2740.309         0.4355       -77.2217       -45.8964       0.242072
      4596.5000          1.271       2398.498         0.4746       -76.8276       -45.5023      0.2499541
      4597.0000         1.4039       2184.287         0.5825       -72.1579       -40.8326      0.3433481
      4597.5000         1.4078       2180.408         0.6413       -67.4882       -36.1629      0.4367421
