#------------------------------------------------------------------------------
# Created by    : vladimir.rabinovich
# Created on    : 09/19/2023 17:19:43
#------------------------------------------------------------------------------
~Version Information Section
VERS.           2.0     :   CWLS log ASCII Standard - VERSION 2.0
WRAP.           NO      :   One line per depth step
~Well Information Section
#MNEM       .UNIT                                         VALUE :DESCRIPTION
#------------------------------------------------------------------------------
STRT        .FT                                            1596 :START DEPTH
STOP        .FT                                            6079 :STOP DEPTH
STEP        .FT                                             0.5 :STEP      
NULL        .                                           -999.25 :NULL      
COMP        .                                 EOG RESOURCES INC :COMPANY   
WELL        .                                     ST TR 00721-S :WELL      
FLD         .                                  SHERMAN OFFSHORE :FIELD     
LOC         .                                                   :LOCATION  
CNTY        .                      MATAGORDA ISLAND SMALL BLOCK :LOCATION  
STAT        .                                             TEXAS :STATE     
CTRY        .                                     UNITED STATES :COUNTRY   
SRVC        .                                                   :SERVICE COMPANY
DATE        .                             9/13/2023 11:19:17 AM :LOG DATE  
API         .                                    42603300060000 :API NUMBER
UWI         .                                    42603300060000 :UNIQUE WELL ID
XCOORD      .                                  491308.028993428 :SURFACE X 
YCOORD      .                                  10247941.6299489 :SURFACE Y 
LAT         .                                        28.1931224 :LATITUDE  
LON         .                                       -96.5672747 :LONGITUDE 
ELEV        .FT                                              74 :ELEVATION VALUE
ELEV_TYPE   .                                                KB :ELEVATION REFERENCE TYPE
~Curve Information Section
#MNEM       .UNIT                                      API CODE :CURVE DESCRIPTION
#------------------------------------------------------------------------------
DEPT        .FT                                                 :DEPTH     
ASFL        .OHMM                                               :          
CILD        .MMHO                                               :          
ILD         .OHMM                                               :          
SP          .MV                                                 :          
SP_NORM     .MV                                                 :SP Normalized
VSH_SP      .V/V                                                :Volume of Shale from SP
~A        DEPTH           ASFL           CILD            ILD             SP        SP_NORM         VSH_SP
# ...
      4864.0000         0.9082       1983.246         0.5833       -79.1813      -52.67527     0.09341631
      4864.5000         0.9003       2143.283         0.5632       -82.0492      -55.54317      0.0431022
      4865.0000         0.8982       2159.033         0.5233        -84.325      -57.81897     0.00317597
      4865.5000         0.8981       2292.943         0.4538       -83.7183      -57.21227     0.01381978
      4866.0000         0.9195       2426.853         0.4437       -83.1116      -56.60558     0.02446359
      4866.5000         0.9408       2596.645         0.4236       -82.2642      -55.75817     0.03933033
      4867.0000         0.9622        2624.27         0.4232       -82.2661      -55.76007       0.039297
      4867.5000         0.9835       2632.268         0.4424       -82.5661      -56.06007     0.03403379
      4868.0000         1.0048       2455.756         0.5208       -83.0688      -56.56277     0.02521448
      4868.5000         1.0262       2279.244         0.5794       -83.6595      -57.15347     0.01485135
      4869.0000         1.0475       2102.732         0.6085       -83.8608      -57.35477     0.01131975
      4869.5000         1.0688       1884.511         0.6081       -73.9953      -47.48927      0.1843987
      4870.0000         1.0727       1872.755         0.5781        -74.096      -47.58997       0.182632
      4870.5000         1.0236       1880.747         0.5383       -75.8489      -49.34287      0.1518794
      4871.0000         0.9745       1892.676         0.5083       -77.6018      -51.09577      0.1211268
      4871.5000         0.9254       1928.234         0.4587       -79.3548      -52.84877     0.09037245
      4872.0000         0.8763       2589.737         0.4484       -81.1077      -54.60167     0.05961984
      4872.5000         0.8272       2767.014         0.4283       -84.1842      -57.67817    0.005646153
      4873.0000         0.7926       2901.472         0.4278       -84.3855      -57.87947    0.002114547
      4873.5000         0.7905       2925.226         0.4274       -84.5867      -58.08067              0
      4874.0000         0.7925       2937.167         0.4467       -84.6893      -58.18327              0
      4874.5000         0.8487       2722.252         0.4856       -84.0991      -57.59307    0.007139105
      4875.0000           0.93       2507.339          0.495       -74.6029      -48.09687      0.1737391
      4875.5000           0.93       2292.425         0.5537       -65.1066      -38.60057      0.3403409
      4876.0000         0.9768       2077.511         0.5926       -55.6103      -29.10427      0.5069426
      4876.5000         1.0236       1819.182         0.6316       -49.8622      -23.35618      0.6077864
      4877.0000         1.0705       1638.061         0.7197       -49.2739      -22.76787      0.6181075
      4877.5000         1.1404        1456.94         0.7882        -48.587      -22.08098      0.6301583
      4878.0000         1.1443       1275.819         0.8272       -45.6529      -19.14688      0.6816338
      4878.5000         1.1482       1157.795         0.8366       -42.7188      -16.21277      0.7331092
      4879.0000          1.152       1146.088          0.846       -39.7846      -13.27857      0.7845864
      4879.5000         1.0611       1146.197         0.8357       -37.4482      -10.94217      0.8255759
      4880.0000         0.9703       1594.633         0.5988       -49.4264      -22.92037       0.615432
      4880.5000         0.8957        2043.07         0.4901       -61.4045      -34.89848      0.4052899
      4881.0000         0.8839       2491.507         0.4601       -73.3826      -46.87657      0.1951479
      4881.5000         0.8877       2797.265           0.44       -80.8988      -54.39278     0.06328462
      4882.0000         0.8995       2809.206         0.4297       -81.1001      -54.59407     0.05975315
      4882.5000         0.9191       2809.268         0.4293          -81.4      -54.89397     0.05449168
      4883.0000         0.9702       2561.369         0.4287       -81.5026      -54.99657     0.05269168
      4883.5000          1.041        2520.66         0.4382       -81.6052      -55.09917     0.05089168
      4884.0000         1.0528       2522.042         0.4969       -81.6091      -55.10307     0.05082328
      4884.5000         1.0822       1907.684         0.5949       -81.5124      -55.00637     0.05251981
      4885.0000         1.0763       1673.006          0.693       -69.2617      -42.75568      0.2674443
      4885.5000         1.0722       1438.328         0.8304       -57.0111      -30.50508      0.4823671
      4886.0000         1.0643        1203.65         0.8693       -44.7604      -18.25437      0.6972917
      4886.5000         1.0583       872.0294         1.1468       -37.4041      -10.89807      0.8263496
      4887.0000         1.1265       852.3862         1.1732       -33.6596      -7.153574      0.8920426
      4887.5000         1.1555        753.957         1.3263       -33.4642      -6.958174      0.8954706
      4888.0000         1.1846       738.3047         1.3545       -32.9746      -6.468576      0.9040601
      4888.5000         1.1033       722.6521         1.3838       -32.7811      -6.275076      0.9074548
      4889.0000         1.0973       710.9385         1.4066       -31.8968      -5.390774      0.9229689
      4889.5000         1.0894       699.2248         1.4302       -31.3085      -4.802475      0.9332899
      4890.0000         1.0834       695.3376         1.4382       -30.7203      -4.214275      0.9436092
      4890.5000         1.2448       687.6152         1.4543       -30.4281      -3.922075      0.9487355
      4891.0000         1.2408       715.2441         1.3981       -31.8676      -5.361574      0.9234812
      4891.5000          1.024       715.4406         1.3977       -33.3072      -6.801176       0.898225
      4892.0000          1.018        723.385         1.3824       -34.7467      -8.240675      0.8729706
      4892.5000         1.0179       727.4294         1.3747       -36.8627      -10.35668      0.8358478
      4893.0000         1.1368       747.2851         1.3382        -37.062      -10.55597      0.8323513
      4893.5000         1.1537       763.1491         1.3104       -36.4922      -9.986174      0.8423479
      4894.0000         1.1537       779.0134         1.2837       -35.9225      -9.416475      0.8523425
      4894.5000         1.1517       790.9382         1.2643       -35.3527      -8.846674      0.8623391
      4895.0000         1.0656       802.8632         1.2455       -34.7829      -8.276876      0.8723355
      4895.5000         1.0057       818.7283         1.2214       -34.2131      -7.707075       0.882332
      4896.0000         0.9642       834.5937         1.1982       -33.6434      -7.137373      0.8923268
      4896.5000         0.9483       866.2194         1.1544       -33.0736      -6.567575      0.9023232
      4897.0000         0.9561       886.0255         1.1286       -32.5038      -5.997774      0.9123198
      4897.5000         0.9541       913.7122         1.0944        -31.934      -5.427975      0.9223163
      4898.0000         0.9422       945.3394         1.0578       -31.3643      -4.858274       0.932311
      4898.5000         0.9317       980.9073         0.7645       -30.7945      -4.288475      0.9423075
      4899.0000         0.9283       1008.596         0.7378       -30.1015      -3.595474      0.9544654
      4899.5000         0.7213        1371.31         0.7469       -29.9061      -3.400074      0.9578934
      4900.0000         0.6739       1379.301         0.7562         -29.91      -3.403975       0.957825
      4900.5000         0.6719       1359.865         0.7658       -32.5216      -6.015574      0.9120075
      4901.0000         0.6718       1359.953         0.7762        -34.731      -8.224974      0.8732461
      4901.5000          1.344       1293.933         0.7869       -36.9404      -10.43437      0.8344847
