#------------------------------------------------------------------------------
# Created by    : vladimir.rabinovich
# Created on    : 09/19/2023 17:20:27
#------------------------------------------------------------------------------
~Version Information Section
VERS.           2.0     :   CWLS log ASCII Standard - VERSION 2.0
WRAP.           NO      :   One line per depth step
~Well Information Section
#MNEM       .UNIT                                         VALUE :DESCRIPTION
#------------------------------------------------------------------------------
STRT        .FT                                             540 :START DEPTH
STOP        .FT                                            9057 :STOP DEPTH
STEP        .FT                                             0.5 :STEP      
NULL        .                                           -999.25 :NULL      
COMP        .                              MITCHELL ENERGY CORP :COMPANY   
WELL        .                                     ST TR 00228-S :WELL      
FLD         .                                     LAFITTES GOLD :FIELD     
LOC         .                                                   :LOCATION  
CNTY        .                             GALVESTON SMALL BLOCK :LOCATION  
STAT        .                                             TEXAS :STATE     
CTRY        .                                     UNITED STATES :COUNTRY   
SRVC        .                                                   :SERVICE COMPANY
DATE        .                             9/13/2023 11:19:17 AM :LOG DATE  
API         .                                    42605300060000 :API NUMBER
UWI         .                                    42605300060000 :UNIQUE WELL ID
XCOORD      .                                  1068847.04405215 :SURFACE X 
YCOORD      .                                  10622520.7629704 :SURFACE Y 
LAT         .                                        29.2582252 :LATITUDE  
LON         .                                       -94.7929393 :LONGITUDE 
ELEV        .FT                                              67 :ELEVATION VALUE
ELEV_TYPE   .                                                KB :ELEVATION REFERENCE TYPE
~Curve Information Section
#MNEM       .UNIT                                      API CODE :CURVE DESCRIPTION
#------------------------------------------------------------------------------
DEPT        .FT                                                 :DEPTH     
ASN         .OHMM                                               :          
CILD        .MMHO                                               :          
GR          .GAPI                                               :          
GR_NORM     .GAPI                                               :GammaRay Normalized
ILD         .OHMM                                               :          
SP          .MV                                                 :          
SP_NORM     .MV                                                 :SP Normalized
VSH_GR      .V/V                                                :Volume of Shale from GR
VSH_SP      .V/V                                                :Volume of Shale from SP
~A        DEPTH            ASN           CILD             GR        GR_NORM            ILD             SP        SP_NORM         VSH_GR         VSH_SP
# ...
      1096.5000         2.2829       354.4771       106.6639       86.73809         2.4627        50.1565      0.7182999              1              1
      1097.0000         2.3106       346.8501       106.1573       86.23249         2.4388         50.196      0.7577972              1              1
      1097.5000         2.3298       339.9775       105.6505       85.72669         2.4149        49.9648      0.5265999              1              1
      1098.0000         2.3432       334.4619       105.1438       85.22099          2.391        49.6895       0.251297              1              1
      1098.5000         2.3566       328.9473       104.6371       84.71529         2.3671        49.4142    -0.02400208              1              1
      1099.0000         2.3733       323.4321         96.799        76.8782         2.3443        49.1389     -0.2993011      0.9335788              1
      1099.5000         2.3944       317.9165        88.9373        69.0175         2.3423        48.4173      -1.020901      0.7663298              1
      1100.0000         2.4156       312.4014        81.0756        61.1568         2.3403        47.0689      -2.369301      0.5990809      0.9794833
      1100.5000         2.4395       306.8857        77.4105        57.4927         2.4925        45.7202      -3.718002      0.5211213      0.9045554
      1101.0000         2.4635       301.3706        74.3309       54.41411         2.6574         43.655      -5.783203      0.4556193       0.789822
      1101.5000         2.4874        295.855        71.2515       51.33571         2.8471        41.4467      -7.991501      0.3901215      0.6671388
      1102.0000         2.5113       290.3398        69.2689        49.3541         3.0824        40.0123      -9.425903      0.3479596      0.5874498
      1102.5000         2.5353       284.8242        67.8873       47.97351         3.3018         38.783       -10.6552      0.3185853      0.5191555
      1103.0000         2.5592       279.3101        66.5057       46.59291           3.42        37.7028       -11.7354      0.2892109      0.4591444
      1103.5000         2.5733       273.7944        64.9805       45.06871         3.5382        36.8118       -12.6264      0.2567811      0.4096442
      1104.0000         2.5828       268.3916        63.4195       43.50871         3.6565        35.9211       -13.5171      0.2235896       0.360161
      1104.5000         2.5923        263.355        62.3276       42.41782         3.7601        35.3221       -14.1161      0.2003791      0.3268833
      1105.0000         2.6019       258.3193        63.7105       43.80172         3.8597         35.004       -14.4342      0.2298237      0.3092111
      1105.5000         2.6114       253.2825        65.0934       45.18562         3.9148        34.6859       -14.7523      0.2592684      0.2915389
      1106.0000         2.6209       248.2458        66.4764       46.56963         3.9265        34.3677       -15.0705      0.2887155      0.2738609
      1106.5000         2.6304         243.21        67.8594       47.95362         3.9382          34.39       -15.0482      0.3181621      0.2750999
      1107.0000           2.64       238.1733        69.2422       49.33743         3.9315        34.5862        -14.852      0.3476048      0.2859999
      1107.5000         2.6495       233.1375        70.6254       50.72162          3.908        34.7824       -14.6558      0.3770557      0.2968998
      1108.0000          2.659       228.1008        72.0082       52.10543         3.8844        34.9786       -14.4596      0.4064985      0.3077999
      1108.5000         2.6685       223.0642        73.4133       53.51153         3.8608        35.1749       -14.2633      0.4364155      0.3187054
      1109.0000         2.6755       218.0281         74.548       54.64722         3.8373        35.3712        -14.067      0.4605792       0.329611
      1109.5000         2.6778       212.9915        75.4713       55.57153         3.7974        35.5674       -13.8708      0.4802454      0.3405111
      1110.0000           2.68       208.5278        76.3945       56.49574         3.8609        35.5958       -13.8424      0.4999093      0.3420887
      1110.5000         2.6822       206.5073        77.4578       57.56004         3.9878        35.6194       -13.8188       0.522554      0.3433999
      1111.0000         2.6845       204.4868        78.3008       58.40403         4.0711        35.6431       -13.7951      0.5405113      0.3447166
      1111.5000         2.6867       202.4658        77.5221       57.62634         3.9979        35.6668       -13.7714      0.5239648      0.3460333
      1112.0000         2.6889       200.4453        76.2031       56.30834         3.8502        35.6905       -13.7477      0.4959222      0.3473498
      1112.5000         2.6912        198.425        74.6571       54.76334         3.7018        35.7142        -13.724      0.4630497      0.3486665
      1113.0000         2.6934       196.4045        73.1112       53.21844         3.6201        35.7267       -13.7115      0.4301797       0.349361
      1113.5000         2.6956        194.384        71.4673       51.57555         3.5457         35.187       -14.2512      0.3952244      0.3193777
      1114.0000         2.6978        192.363        69.8087       49.91795         3.5712        34.6474       -14.7908      0.3599563      0.2893999
      1114.5000         2.7001       190.3425        68.1321       48.24235         3.5966        34.1077       -15.3305      0.3243053      0.2594166
      1115.0000         2.7023        188.322        66.4441       46.55535         3.6458        33.3588       -16.0794      0.2884117      0.2178109
      1115.5000         2.7045       186.3015        65.0079       45.12015         3.7261        32.5974       -16.8408      0.2578755       0.175511
      1116.0000         2.7068        184.281        64.7494       44.86265         3.8063        32.4133       -17.0249      0.2523968      0.1652832
      1116.5000         2.7061       182.2603         64.911       45.02526         3.8866        32.3188       -17.1194      0.2558566      0.1600333
      1117.0000          2.704       182.0281        66.6079       46.72316         3.9567        32.2244       -17.2138      0.2919821      0.1547888
      1117.5000         2.7019        182.989        67.7532       47.86945         4.0178        32.1299       -17.3083      0.3163714      0.1495389
      1118.0000         2.6998         183.95        67.9481       48.06535         4.0788        32.0355       -17.4027      0.3205394      0.1442943
      1118.5000         2.6978       184.9106        67.1394       47.25766          4.138        31.7695       -17.6687      0.3033545      0.1295166
      1119.0000         2.6957       185.8716        66.3309       46.45016         4.1696        31.3072        -18.131      0.2861737      0.1038332
      1119.5000         2.6936       186.8328        65.5223       45.64256         4.1763        30.8448       -18.5934      0.2689907     0.07814439
      1120.0000         2.6915       187.7937        64.7137       44.83497         4.1536        30.3825       -19.0557      0.2518078     0.05246099
      1120.5000         2.6894       188.7544        63.0142       43.13647         4.1309        29.4807       -19.9575      0.2156695     0.00236098
      1121.0000         2.6873       189.7153        53.1855       33.30877         4.1011        28.4625       -20.9757    0.006569558              0
      1121.5000         2.6845       190.6765        52.4609       32.58517         4.0564        27.4443       -21.9939              0              0
      1122.0000         2.6806       191.6375        53.9965       34.12177         4.0448        27.2022        -22.236     0.02386751              0
      1122.5000         2.6767       192.5981        55.1216       35.24788         4.0869        27.1107       -22.3275     0.04782713              0
