#------------------------------------------------------------------------------
# Created by    : vladimir.rabinovich
# Created on    : 09/19/2023 17:22:47
#------------------------------------------------------------------------------
~Version Information Section
VERS.           2.0     :   CWLS log ASCII Standard - VERSION 2.0
WRAP.           NO      :   One line per depth step
~Well Information Section
#MNEM       .UNIT                                         VALUE :DESCRIPTION
#------------------------------------------------------------------------------
STRT        .FT                                             494 :START DEPTH
STOP        .FT                                            8323 :STOP DEPTH
STEP        .FT                                             0.5 :STEP      
NULL        .                                           -999.25 :NULL      
COMP        .                                       MONSANTO CO :COMPANY   
WELL        .                                     ST TR 00293-S :WELL      
FLD         .                                           WILDCAT :FIELD     
LOC         .                                                   :LOCATION  
CNTY        .                             GALVESTON SMALL BLOCK :LOCATION  
STAT        .                                             TEXAS :STATE     
CTRY        .                                     UNITED STATES :COUNTRY   
SRVC        .                                                   :SERVICE COMPANY
DATE        .                             9/13/2023 11:19:17 AM :LOG DATE  
API         .                                    42605300230000 :API NUMBER
UWI         .                                    42605300230000 :UNIQUE WELL ID
XCOORD      .                                  996050.411534576 :SURFACE X 
YCOORD      .                                  10568409.9475512 :SURFACE Y 
LAT         .                                        29.1061939 :LATITUDE  
LON         .                                        -95.018267 :LONGITUDE 
ELEV        .FT                                              81 :ELEVATION VALUE
ELEV_TYPE   .                                                KB :ELEVATION REFERENCE TYPE
~Curve Information Section
#MNEM       .UNIT                                      API CODE :CURVE DESCRIPTION
#------------------------------------------------------------------------------
DEPT        .FT                                                 :DEPTH     
DT          .US/F                                               :          
GR          .GAPI                                               :          
GR_NORM     .GAPI                                               :GammaRay Normalized
ILD         .OHMM                                               :          
SFL         .OHMM                                               :          
SP          .MV                                                 :          
SP_NORM     .MV                                                 :SP Normalized
VSH_GR      .V/V                                                :Volume of Shale from GR
VSH_SP      .V/V                                                :Volume of Shale from SP
~A        DEPTH             DT             GR        GR_NORM            ILD            SFL             SP        SP_NORM         VSH_GR         VSH_SP
# ...
      5688.0000       116.7019        -999.25        -999.25         0.6525         0.6771        24.4168      -4.762936        -999.25      0.9491495
      5688.5000       116.4379        -999.25        -999.25         0.6633         0.6934        24.6037      -4.951675        -999.25       0.946599
      5689.0000       116.5247        -999.25        -999.25         0.6727         0.6869        24.9293      -5.279112        -999.25      0.9421741
      5689.5000       115.9414        -999.25        -999.25         0.6767         0.6849        25.7538       -6.10545        -999.25      0.9310074
      5690.0000       114.0046        -999.25        -999.25         0.6807         0.6921        27.1482      -7.501686        -999.25      0.9121394
      5690.5000       111.4072        -999.25        -999.25         0.6805         0.7046        28.4625      -8.817823        -999.25      0.8943537
      5691.0000       108.2448        -999.25        -999.25         0.6792         0.7194        29.1172      -9.474363        -999.25      0.8854816
      5691.5000       110.7542        -999.25        -999.25         0.6668         0.7242        28.9292      -9.288198        -999.25      0.8879973
      5692.0000       116.5116        -999.25        -999.25          0.645         0.6827        27.5688      -7.929638        -999.25      0.9063562
      5692.5000       120.8221        -999.25        -999.25         0.6207         0.6343        26.0809      -6.443575        -999.25      0.9264382
      5693.0000       124.0876        -999.25        -999.25         0.5944         0.6025        23.9816      -4.346113        -999.25      0.9547822
      5693.5000       125.9679        -999.25        -999.25         0.5709         0.5942        21.9771      -2.343451        -999.25      0.9818453
      5694.0000       126.0243        -999.25        -999.25         0.5495         0.6042        20.7936      -1.161787        -999.25      0.9978137
      5694.5000       125.7603        -999.25        -999.25         0.5392         0.6144        20.2643      -0.634325        -999.25              1
      5695.0000       125.4331        -999.25        -999.25          0.529         0.6229        19.8202     -0.1920624        -999.25              1
      5695.5000       125.1276        -999.25        -999.25         0.5229         0.6265         19.635   -0.008701324        -999.25              1
      5696.0000       125.0293        -999.25        -999.25         0.5204         0.6302        19.4496      0.1748619        -999.25              1
      5696.5000       124.9309        -999.25        -999.25         0.5179         0.6338        19.2644      0.3582249        -999.25              1
      5697.0000       125.3079        -999.25        -999.25         0.5154         0.6322         19.228       0.392786        -999.25              1
      5697.5000       125.8473        -999.25        -999.25         0.5126          0.627          19.23      0.3889503        -999.25              1
      5698.0000       126.4338        -999.25        -999.25         0.5097         0.6219         19.232      0.3851109        -999.25              1
      5698.5000       127.0713        -999.25        -999.25         0.5067         0.6161        19.2855      0.3297749        -999.25              1
      5699.0000        127.708        -999.25        -999.25         0.5103         0.6101        19.3503      0.2631378        -999.25              1
      5699.5000       127.6317        -999.25        -999.25         0.5154         0.6087        19.4635      0.1480999        -999.25              1
      5700.0000       126.7554        -999.25        -999.25         0.5207         0.6128          19.73     -0.1202374        -999.25              1
      5700.5000        125.645        -999.25        -999.25          0.526         0.6169        19.9969     -0.3889771        -999.25              1
      5701.0000       124.7219        -999.25        -999.25         0.5337         0.6302        20.3654     -0.7593136        -999.25              1
      5701.5000       124.0349        -999.25        -999.25         0.5436         0.6459        20.7614       -1.15715        -999.25      0.9978763
      5702.0000       123.5841        -999.25        -999.25         0.5537         0.6566        21.1343      -1.531889        -999.25      0.9928123
      5702.5000       123.5557        -999.25        -999.25          0.564         0.6655        21.4832      -1.882626        -999.25      0.9880726
      5703.0000       123.5363        -999.25        -999.25          0.569         0.6647         21.746      -2.147264        -999.25      0.9844964
      5703.5000       123.5776        -999.25        -999.25         0.5725         0.6572        21.8514      -2.254501        -999.25      0.9830473
      5704.0000       123.6189        -999.25        -999.25          0.576         0.6498        21.7169       -2.12184        -999.25        0.98484
      5704.5000       124.0393        -999.25        -999.25         0.5661          0.643        21.4725      -1.879276        -999.25      0.9881179
      5705.0000       124.5895        -999.25        -999.25          0.555         0.6364        21.2214      -1.630013        -999.25      0.9914863
      5705.5000       125.1333        -999.25        -999.25         0.5447         0.6298        20.9262      -1.336653        -999.25      0.9954506
      5706.0000       125.6658        -999.25        -999.25         0.5363         0.6249         20.631      -1.043289        -999.25       0.999415
      5706.5000       126.1984        -999.25        -999.25          0.528         0.6215         20.336     -0.7501278        -999.25              1
      5707.0000       126.4071        -999.25        -999.25         0.5212          0.618        20.1546     -0.5705643        -999.25              1
      5707.5000       126.5896        -999.25        -999.25         0.5178         0.6146        19.9811      -0.398901        -999.25              1
      5708.0000        126.663        -999.25        -999.25         0.5145         0.6125        19.8076     -0.2272396        -999.25              1
      5708.5000       126.6705        -999.25        -999.25         0.5118         0.6104        19.7362     -0.1576767        -999.25              1
      5709.0000       126.6782        -999.25        -999.25         0.5111         0.6083        19.6867     -0.1100159        -999.25              1
      5709.5000       126.7731        -999.25        -999.25         0.5104         0.6082        19.6236    -0.04875183        -999.25              1
      5710.0000       126.9777        -999.25        -999.25         0.5097         0.6121         19.216      0.3570118        -999.25              1
      5710.5000       127.1823        -999.25        -999.25          0.511         0.6161        18.8086      0.7625732        -999.25              1
      5711.0000       127.4434        -999.25        -999.25         0.5133           0.62        18.3268       1.242537        -999.25              1
      5711.5000       127.7444        -999.25        -999.25         0.5156         0.6213        17.6857       1.881798        -999.25              1
      5712.0000       128.0454        -999.25        -999.25         0.5196         0.6199        17.0447        2.52096        -999.25              1
      5712.5000       128.0278        -999.25        -999.25         0.5248         0.6185        16.3967       3.167122        -999.25              1
      5713.0000       127.7723        -999.25        -999.25         0.5302         0.6171        15.7469       3.815085        -999.25              1
      5713.5000       127.1064        -999.25        -999.25         0.5355         0.6168        15.4556       4.104548        -999.25              1
      5714.0000       126.2944        -999.25        -999.25         0.5409         0.6174        15.2903       4.268009        -999.25              1
