#------------------------------------------------------------------------------
# Created by    : vladimir.rabinovich
# Created on    : 09/19/2023 17:20:26
#------------------------------------------------------------------------------
~Version Information Section
VERS.           2.0     :   CWLS log ASCII Standard - VERSION 2.0
WRAP.           NO      :   One line per depth step
~Well Information Section
#MNEM       .UNIT                                         VALUE :DESCRIPTION
#------------------------------------------------------------------------------
STRT        .FT                                             494 :START DEPTH
STOP        .FT                                            8560 :STOP DEPTH
STEP        .FT                                             0.5 :STEP      
NULL        .                                           -999.25 :NULL      
COMP        .                           COLORADO OIL & GAS CORP :COMPANY   
WELL        .                                     ST TR 00122-S :WELL      
FLD         .                                           WILDCAT :FIELD     
LOC         .                                                   :LOCATION  
CNTY        .                           HIGH ISLAND SMALL BLOCK :LOCATION  
STAT        .                                             TEXAS :STATE     
CTRY        .                                     UNITED STATES :COUNTRY   
SRVC        .                                                   :SERVICE COMPANY
DATE        .                             9/13/2023 11:19:17 AM :LOG DATE  
API         .                                    42606300100000 :API NUMBER
UWI         .                                    42606300100000 :UNIQUE WELL ID
XCOORD      .                                  1208966.22079576 :SURFACE X 
YCOORD      .                                  10715303.2202208 :SURFACE Y 
LAT         .                                        29.5185768 :LATITUDE  
LON         .                                       -94.3569047 :LONGITUDE 
ELEV        .FT                                              93 :ELEVATION VALUE
ELEV_TYPE   .                                                KB :ELEVATION REFERENCE TYPE
~Curve Information Section
#MNEM       .UNIT                                      API CODE :CURVE DESCRIPTION
#------------------------------------------------------------------------------
DEPT        .FT                                                 :DEPTH     
ASN         .OHMM                                               :          
CILD        .MMHO                                               :          
GR          .GAPI                                               :          
GR_NORM     .GAPI                                               :GammaRay Normalized
ILD         .OHMM                                               :          
SP          .MV                                                 :          
SP_NORM     .MV                                                 :SP Normalized
VSH_GR      .V/V                                                :Volume of Shale from GR
VSH_SP      .V/V                                                :Volume of Shale from SP
~A        DEPTH            ASN           CILD             GR        GR_NORM            ILD             SP        SP_NORM         VSH_GR         VSH_SP
# ...
      8523.5000         0.7814       1391.516        -999.25        -999.25         0.7714       -42.8763      0.3573914        -999.25              1
      8524.0000         0.7779       1401.023        -999.25        -999.25         0.7736       -42.9587      0.2959175        -999.25              1
      8524.5000         0.7843       1392.336        -999.25        -999.25         0.7758        -43.041       0.234539        -999.25              1
      8525.0000         0.7904       1380.332        -999.25        -999.25          0.778       -43.1232      0.1732635        -999.25              1
      8525.5000         0.7962       1368.195        -999.25        -999.25         0.7803       -43.2054      0.1119881        -999.25              1
      8526.0000         0.8025        1355.91        -999.25        -999.25         0.7825       -43.2877     0.05060959        -999.25              1
      8526.5000         0.8097       1348.551        -999.25        -999.25         0.7847       -43.3734    -0.01416779        -999.25              1
      8527.0000         0.8238       1343.025        -999.25        -999.25         0.7869       -43.4766    -0.09644699        -999.25              1
      8527.5000           0.82       1343.748        -999.25        -999.25         0.7892       -43.5799     -0.1788216        -999.25              1
      8528.0000         0.8065       1351.188        -999.25        -999.25         0.7908       -43.6832        -0.2612        -999.25              1
      8528.5000         0.7929       1358.613        -999.25        -999.25         0.7897       -43.7866     -0.3436737        -999.25              1
      8529.0000         0.7806       1366.041        -999.25        -999.25         0.7885       -43.8899     -0.4260521        -999.25              1
      8529.5000         0.7694       1388.727        -999.25        -999.25         0.7873       -43.9932     -0.5084267        -999.25              1
      8530.0000         0.7714       1419.266        -999.25        -999.25         0.7862       -44.0964     -0.5907059        -999.25              1
      8530.5000         0.7735       1449.807        -999.25        -999.25          0.785       -44.1982     -0.6715813        -999.25              1
      8531.0000         0.7761       1471.977        -999.25        -999.25         0.7838       -44.2704     -0.7228584        -999.25              1
      8531.5000          0.779       1444.227        -999.25        -999.25         0.7827       -44.3427     -0.7742386        -999.25              1
      8532.0000          0.782       1416.893        -999.25        -999.25         0.7815       -44.4148     -0.8254128        -999.25              1
      8532.5000         0.7829       1401.793        -999.25        -999.25         0.7803       -44.4871     -0.8767891        -999.25              1
      8533.0000         0.7836       1386.695        -999.25        -999.25         0.7791       -44.5592     -0.9279671        -999.25              1
      8533.5000         0.7843       1371.572        -999.25        -999.25         0.7757       -44.6315     -0.9793434        -999.25              1
      8534.0000         0.7861       1356.473        -999.25        -999.25         0.7722       -44.7036      -1.030521        -999.25      0.9995577
      8534.5000         0.7885        1340.91        -999.25        -999.25         0.7688       -44.7635      -1.069496        -999.25      0.9989928
      8535.0000         0.7969        1324.93        -999.25        -999.25         0.7654       -44.8135      -1.098572        -999.25      0.9985714
      8535.5000         0.8137       1308.926        -999.25        -999.25          0.762       -44.8635      -1.127651        -999.25        0.99815
      8536.0000          0.841       1292.945        -999.25        -999.25         0.7585       -44.9134      -1.156628        -999.25        0.99773
      8536.5000         0.8536       1319.031        -999.25        -999.25         0.7551       -44.9634      -1.185707        -999.25      0.9973086
      8537.0000         0.8197       1364.598        -999.25        -999.25         0.7517       -45.0315      -1.232883        -999.25      0.9966249
      8537.5000         0.7948       1410.311        -999.25        -999.25         0.7482       -45.1084      -1.288857        -999.25      0.9958137
      8538.0000         0.7828       1449.365        -999.25        -999.25         0.7448       -45.1852      -1.344734        -999.25      0.9950039
      8538.5000         0.7713       1481.473        -999.25        -999.25         0.7435       -45.2622       -1.40081        -999.25      0.9941912
      8539.0000         0.7556       1513.529        -999.25        -999.25          0.743       -45.3391      -1.456787        -999.25      0.9933799
      8539.5000         0.7401       1530.121        -999.25        -999.25         0.7426       -45.4294      -1.526165        -999.25      0.9923744
      8540.0000         0.7228       1541.537        -999.25        -999.25         0.7421       -45.5725      -1.648342        -999.25      0.9906037
      8540.5000         0.7011       1544.105        -999.25        -999.25         0.7417       -45.7155       -1.77042        -999.25      0.9888345
      8541.0000         0.7082       1539.273        -999.25        -999.25         0.7412       -45.8584      -1.892395        -999.25      0.9870667
      8541.5000         0.7166       1535.164        -999.25        -999.25         0.7408       -46.0013      -2.014374        -999.25      0.9852989
      8542.0000         0.7274       1532.736        -999.25        -999.25         0.7403       -46.1442      -2.136349        -999.25      0.9835312
      8542.5000          0.737       1530.307        -999.25        -999.25         0.7399       -46.2872      -2.258427        -999.25      0.9817619
      8543.0000         0.7401       1527.879        -999.25        -999.25         0.7389       -46.4324      -2.382702        -999.25      0.9799609
      8543.5000         0.7396       1525.449        -999.25        -999.25          0.738       -46.5944      -2.523777        -999.25      0.9779163
      8544.0000         0.7392       1523.021        -999.25        -999.25          0.737       -46.7561      -2.664555        -999.25       0.975876
      8544.5000         0.7385       1520.592        -999.25        -999.25         0.7361       -46.9179      -2.805435        -999.25      0.9738343
      8545.0000         0.7376       1522.791        -999.25        -999.25         0.7351       -47.0743       -2.94091        -999.25      0.9718708
      8545.5000         0.7366       1525.021        -999.25        -999.25         0.7342       -47.1729      -3.018589        -999.25      0.9707451
      8546.0000         0.7356       1527.248        -999.25        -999.25         0.7332       -47.2713      -3.096066        -999.25      0.9696223
      8546.5000         0.7347       1529.479        -999.25        -999.25         0.7323       -47.3698      -3.173641        -999.25      0.9684979
      8547.0000         0.7343       1531.709        -999.25        -999.25         0.7316       -47.4205      -3.203419        -999.25      0.9680664
      8547.5000         0.7343       1533.938        -999.25        -999.25         0.7311       -47.4106      -3.172592        -999.25      0.9685131
      8548.0000         0.7343       1535.365        -999.25        -999.25         0.7306       -47.4007      -3.141769        -999.25      0.9689599
      8548.5000         0.7346       1536.037        -999.25        -999.25         0.7301       -47.3908       -3.11095        -999.25      0.9694065
      8549.0000         0.7357       1536.709        -999.25        -999.25         0.7295       -47.3809      -3.080128        -999.25      0.9698532
      8549.5000         0.7368       1537.381        -999.25        -999.25          0.729       -47.3588      -3.037102        -999.25      0.9704768
