#------------------------------------------------------------------------------
# Created by    : vladimir.rabinovich
# Created on    : 09/19/2023 17:20:27
#------------------------------------------------------------------------------
~Version Information Section
VERS.           2.0     :   CWLS log ASCII Standard - VERSION 2.0
WRAP.           NO      :   One line per depth step
~Well Information Section
#MNEM       .UNIT                                         VALUE :DESCRIPTION
#------------------------------------------------------------------------------
STRT        .FT                                             540 :START DEPTH
STOP        .FT                                            9057 :STOP DEPTH
STEP        .FT                                             0.5 :STEP      
NULL        .                                           -999.25 :NULL      
COMP        .                              MITCHELL ENERGY CORP :COMPANY   
WELL        .                                     ST TR 00228-S :WELL      
FLD         .                                     LAFITTES GOLD :FIELD     
LOC         .                                                   :LOCATION  
CNTY        .                             GALVESTON SMALL BLOCK :LOCATION  
STAT        .                                             TEXAS :STATE     
CTRY        .                                     UNITED STATES :COUNTRY   
SRVC        .                                                   :SERVICE COMPANY
DATE        .                             9/13/2023 11:19:17 AM :LOG DATE  
API         .                                    42605300060000 :API NUMBER
UWI         .                                    42605300060000 :UNIQUE WELL ID
XCOORD      .                                  1068847.04405215 :SURFACE X 
YCOORD      .                                  10622520.7629704 :SURFACE Y 
LAT         .                                        29.2582252 :LATITUDE  
LON         .                                       -94.7929393 :LONGITUDE 
ELEV        .FT                                              67 :ELEVATION VALUE
ELEV_TYPE   .                                                KB :ELEVATION REFERENCE TYPE
~Curve Information Section
#MNEM       .UNIT                                      API CODE :CURVE DESCRIPTION
#------------------------------------------------------------------------------
DEPT        .FT                                                 :DEPTH     
ASN         .OHMM                                               :          
CILD        .MMHO                                               :          
GR          .GAPI                                               :          
GR_NORM     .GAPI                                               :GammaRay Normalized
ILD         .OHMM                                               :          
SP          .MV                                                 :          
SP_NORM     .MV                                                 :SP Normalized
VSH_GR      .V/V                                                :Volume of Shale from GR
VSH_SP      .V/V                                                :Volume of Shale from SP
~A        DEPTH            ASN           CILD             GR        GR_NORM            ILD             SP        SP_NORM         VSH_GR         VSH_SP
# ...
      1679.5000         1.0031       920.7012       118.8706        86.1874         1.1558         22.834     -0.3620892              1      0.9818956
      1680.0000         1.0091       908.4492       119.9147       87.17921          1.163        22.8564     -0.3844891              1      0.9807755
      1680.5000         1.0155       896.1973       120.8816       88.29503         1.1703        22.8788      -0.406889              1      0.9796556
      1681.0000          1.023       887.1396       113.9972       81.60487         1.1775        22.9012     -0.4292889              1      0.9785355
      1681.5000         1.0304       880.3105       109.3784       77.18031         1.1837        22.9082     -0.4362888      0.9400065      0.9781855
      1682.0000         1.0379       873.4834       106.0286       74.02473          1.182        22.8838       -0.41189      0.8728667      0.9794055
      1682.5000         1.0567       866.6563       103.9701       72.16047         1.1803        22.8595     -0.3875904      0.8332015      0.9806205
      1683.0000         1.0864       859.8291        102.498       70.88261         1.1785        22.8351     -0.3631897      0.8060129      0.9818405
      1683.5000         1.1058            853       102.8469       71.42574         1.1768        22.8108     -0.3388901       0.817569      0.9830555
      1684.0000         1.1193       848.9404       103.4381       72.21118         1.1751        22.7864     -0.3144894      0.8342804      0.9842755
      1684.5000         1.1328        847.748       104.6785       73.64581         1.1734        22.7621     -0.2901897      0.8648045      0.9854905
      1685.0000         1.1443       846.5566       105.9182       75.07974         1.1717        22.7377      -0.265789      0.8953137      0.9867105
      1685.5000          1.149       845.3643       107.1581       76.51388         1.1699        22.7134     -0.2414894      0.9258272      0.9879255
      1686.0000         1.1536       844.1719       107.8986       77.44862         1.1682        22.6891     -0.2171898      0.9457152      0.9891405
      1686.5000         1.1582       842.9805       108.0404       77.78465         1.1665        22.6647     -0.1927891      0.9528649      0.9903606
      1687.0000         1.1629       841.7881       108.1824        78.1209         1.1648        22.6404     -0.1684895      0.9600191      0.9915755
      1687.5000         1.1675       840.5957       108.3243       78.45702         1.1583         22.616     -0.1440887      0.9671707      0.9927956
      1688.0000         1.1638       839.4043        108.821       79.14796         1.1463        22.5916     -0.1196899      0.9818714      0.9940155
      1688.5000         1.1571       838.2119       111.5621        82.0833         1.1344        22.5673    -0.09539032              1      0.9952305
      1689.0000         1.1504       844.4414       116.1383       86.85373         1.1225         22.532    -0.06008911              1      0.9969956
      1689.5000         1.1437       851.4219       119.7494       90.65907         1.1106        22.4946    -0.02268982              1      0.9988655
      1690.0000          1.137       858.4014       122.5171         93.621         1.0986        22.4571     0.01481056              1              1
      1690.5000         1.1241       865.3818        125.566       96.86414         1.0867        22.4197     0.05220985              1              1
      1691.0000         1.1093       872.3623       129.2739       100.7663         1.0748        22.3822     0.08971024              1              1
      1691.5000         1.0945       879.3428       132.8079       104.4945         1.0629        22.3448      0.1271095              1              1
      1692.0000         1.0795       895.9707       135.8904       107.7712         1.0513        22.3073      0.1646099              1              1
      1692.5000         1.0635       921.9443       131.7102       103.7853         1.0398        22.2699      0.2020111              1              1
      1693.0000         1.0475       947.9248       126.7113       98.98061         1.0282        22.2325      0.2394104              1              1
      1693.5000         1.0298       973.8984       121.5817       94.04525         1.0167         22.195      0.2769108              1              1
      1694.0000         1.0091       1002.078       118.2042       90.86198         1.0051        22.1576      0.3143101              1              1
      1694.5000         0.9884       1034.908       114.9969       87.84892         0.9936        22.1201      0.3518105              1              1
      1695.0000         0.9791       1067.738       114.0767       87.12296          0.982        22.0827      0.3892097              1              1
      1695.5000         0.9775       1097.549       113.4282       86.66869         0.9757        22.0502       0.421711              1              1
      1696.0000         0.9814        1102.75       112.7802       86.21492         0.9856        22.0546      0.4173107              1              1
      1696.5000         0.9916       1107.949       112.1317       85.76066         0.9956         22.059      0.4129105              1              1
      1697.0000         1.0017       1113.152       111.4836       85.30679         1.0055        22.0634      0.4085102              1              1
      1697.5000         1.0118       1118.354       110.9132       84.93063         1.0155        22.0678        0.40411              1              1
      1698.0000          1.022       1123.553       110.3541       84.56577         1.0254        22.0722      0.3997097              1              1
      1698.5000          1.032       1111.836       109.7953        84.2012         1.0354        22.0766      0.3953114              1              1
      1699.0000         1.0419       1078.143       109.2363       83.83643         1.0453         22.081      0.3909111              1              1
      1699.5000         1.0519       1035.129       108.6772       83.47157         1.0602        22.0854      0.3865108              1              1
      1700.0000         1.0619       992.1025       105.9078       80.89641         1.0779        22.0898      0.3821106              1      0.5636851
      1700.5000         1.0718       953.7021       103.1392       78.32204         1.0957        22.0941      0.3778095      0.9642988      0.5629683
      1701.0000         1.0818       923.4209       100.8788       76.25587         1.1135        22.0985      0.3734112      0.9203377      0.5622352
      1701.5000         1.0919       893.1396        98.2075       73.77881         1.1312        22.1029      0.3690109      0.8676342      0.5615018
      1702.0000          1.102       862.8467        93.6254       69.39095          1.149        22.1073      0.3646107      0.7742754      0.5607684
      1702.5000          1.112       832.5654        91.3783       67.33809         1.1667        22.1117      0.3602104      0.7305976       0.560035
      1703.0000         1.1221       802.2842        89.3782       65.53222         1.1845        22.1161      0.3558102      0.6921749      0.5593017
      1703.5000         1.1322       775.4951        87.5282       63.87646         1.2022        22.1205      0.3514099      0.6569459      0.5585683
      1704.0000         1.1422       757.8848        85.7681       62.31059         1.2109        22.1528      0.3191109      0.6236295      0.5531852
      1704.5000         1.1572       740.2695        83.7384       60.47513         1.2087        22.1939      0.2780113      0.5845772      0.5463352
      1705.0000         1.1726       722.6533        82.7974       59.72836         1.2064        22.2351      0.2368107      0.5686886      0.5394685
      1705.5000          1.188        705.043        84.5164        61.6416         1.2041        22.2763        0.19561      0.6093958      0.5326017
