#------------------------------------------------------------------------------
# Created by    : vladimir.rabinovich
# Created on    : 09/19/2023 17:19:42
#------------------------------------------------------------------------------
~Version Information Section
VERS.           2.0     :   CWLS log ASCII Standard - VERSION 2.0
WRAP.           NO      :   One line per depth step
~Well Information Section
#MNEM       .UNIT                                         VALUE :DESCRIPTION
#------------------------------------------------------------------------------
STRT        .FT                                            2198 :START DEPTH
STOP        .FT                                            8738 :STOP DEPTH
STEP        .FT                                             0.5 :STEP      
NULL        .                                           -999.25 :NULL      
COMP        .                             CHAMPLIN PETROLEUM CO :COMPANY   
WELL        .                                     ST TR 00360-S :WELL      
FLD         .                                           WILDCAT :FIELD     
LOC         .                                                   :LOCATION  
CNTY        .                             GALVESTON SMALL BLOCK :LOCATION  
STAT        .                                             TEXAS :STATE     
CTRY        .                                     UNITED STATES :COUNTRY   
SRVC        .                                                   :SERVICE COMPANY
DATE        .                             9/13/2023 11:19:17 AM :LOG DATE  
API         .                                    42605301270000 :API NUMBER
UWI         .                                    42605301270000 :UNIQUE WELL ID
XCOORD      .                                  933135.371219094 :SURFACE X 
YCOORD      .                                  10510129.7662443 :SURFACE Y 
LAT         .                                         28.942863 :LATITUDE  
LON         .                                       -95.2117932 :LONGITUDE 
ELEV        .FT                                              20 :ELEVATION VALUE
ELEV_TYPE   .                                                GL :ELEVATION REFERENCE TYPE
~Curve Information Section
#MNEM       .UNIT                                      API CODE :CURVE DESCRIPTION
#------------------------------------------------------------------------------
DEPT        .FT                                                 :DEPTH     
ASFL        .OHMM                                               :          
CILD        .MMHO                                               :          
ILD         .OHMM                                               :          
SP          .MV                                                 :          
SP_NORM     .MV                                                 :SP Normalized
VSH_SP      .V/V                                                :Volume of Shale from SP
~A        DEPTH           ASFL           CILD            ILD             SP        SP_NORM         VSH_SP
# ...
      6948.0000         0.7715       1543.373         0.5384        38.6293      -15.26937      0.7581463
      6948.5000         0.7965       1309.055         0.5577        38.4784      -15.12046      0.7606702
      6949.0000         0.9158       1320.801         0.5771        38.2977      -14.94174      0.7636993
      6949.5000          0.997       1398.305         0.5965        37.3691      -14.01513      0.7794046
      6950.0000         1.0647        1429.15         0.6158        37.5979      -14.24592       0.775493
      6950.5000         0.9692       1407.088         0.6352        33.9063       -10.5563      0.8380288
      6951.0000         0.8642       1384.701          0.654        31.4973      -8.149288      0.8788256
      6951.5000         0.8506       1362.313         0.6725        30.2744      -6.928375      0.8995191
      6952.0000         0.8425       1340.879          0.691        29.5186      -6.174562      0.9122956
      6952.5000         0.8408       1325.066         0.7095        29.0813      -5.739248      0.9196737
      6953.0000         0.8392        1309.23          0.728        28.7457      -5.405636      0.9253282
      6953.5000         0.8376       1293.418         0.7443        28.5001       -5.16202      0.9294573
      6954.0000         0.8351       1280.869         0.7542        28.1724      -4.836308      0.9349778
      6954.5000          0.824       1275.172         0.7641        27.5737      -4.239594      0.9450917
      6955.0000          0.813       1272.461         0.7739        26.8395      -3.507381       0.957502
      6955.5000         0.7785       1290.131         0.7838        26.4105      -3.080366      0.9647396
      6956.0000         0.7633       1307.799         0.7851        26.2278      -2.899652      0.9678025
      6956.5000         0.7582       1330.387         0.7855        26.1958       -2.86964      0.9683112
      6957.0000         0.7683       1361.059         0.7858        26.3711      -3.046925      0.9653063
      6957.5000         0.7799       1369.416         0.7862        26.5384      -3.216213      0.9624371
      6958.0000         0.7915       1348.357         0.7865        26.6091      -3.288898      0.9612051
      6958.5000         0.8031       1321.201         0.7869        26.6798      -3.361586      0.9599731
      6959.0000          0.814        1290.18          0.776        26.4512      -3.134972       0.963814
      6959.5000         0.8243       1259.158         0.7651        26.0787      -2.764458       0.970094
      6960.0000         0.8346       1228.137         0.7541        25.4882      -2.175943      0.9800687
      6960.5000         0.8449       1219.354         0.7431        25.0652      -1.754932      0.9872046
      6961.0000         0.8352       1267.541         0.7302        24.9169      -1.608618      0.9896845
      6961.5000          0.799       1356.439         0.6979        25.0363      -1.730005       0.987627
      6962.0000         0.7629       1455.227         0.6656        25.5982       -2.29389      0.9780697
      6962.5000         0.7378       1580.316         0.6332        26.6806      -3.378275      0.9596903
      6963.0000         0.7066       1748.576         0.5986        28.2188      -4.918463      0.9335854
      6963.5000         0.6634       1844.252         0.5544        32.3452      -9.046848      0.8636127
      6964.0000          0.674        2022.65         0.5102        43.9591      -20.66273      0.6667333
      6964.5000         0.6846       2218.418          0.466        56.3383      -33.04392      0.4568827
      6965.0000         0.6951       2414.184         0.4436        54.7251      -31.43271      0.4841914
      6965.5000         0.7046        2413.48         0.4238        52.5983       -29.3079      0.5202051
      6966.0000         0.7113       2326.941          0.404        51.4212      -28.13278      0.5401223
      6966.5000         0.7179       2248.234         0.3885        49.6593      -26.37287      0.5699514
      6967.0000         0.7189       2154.969         0.3937         47.305      -24.02056      0.6098211
      6967.5000         0.6692       2041.826         0.3988        45.3956      -22.11314      0.6421502
      6968.0000         0.6049       1952.877         0.4075        43.7074      -20.42693        0.67073
      6968.5000         0.5647       2031.084         0.4293          45.06      -21.78152      0.6477709
      6969.0000         0.5262       2473.316         0.4506        46.1685        -22.892      0.6289492
      6969.5000         0.4806           2791         0.4579        46.6446      -23.37009       0.620846
      6970.0000         0.4253           3441          0.449        47.7512      -24.47867      0.6020564
      6970.5000          0.378           4092         0.4209        48.3309      -25.06036      0.5921973
      6971.0000         0.3519       4438.242         0.3927        51.7288      -28.46025      0.5345721
      6971.5000         0.3259       4491.797         0.3645        60.8105      -37.54393      0.3806113
      6972.0000         0.2986       4545.359         0.3404        63.1683      -39.90372       0.340615
      6972.5000         0.2722       4665.125         0.3195        63.3575       -40.0949      0.3373745
      6973.0000         0.2609       5271.703         0.3048        64.2504      -40.98979       0.322207
      6973.5000         0.2775       5368.688         0.3132        68.0209      -44.76228      0.2582665
      6974.0000         0.3234       5262.469         0.3216        83.4307      -60.17406              0
      6974.5000         0.3692       5155.453           0.33        84.7667      -61.51205              0
      6975.0000         0.4192        5046.82         0.3384         77.016      -53.76334      0.1057062
      6975.5000         0.4734           4671         0.3469        74.9135      -51.66282      0.1413082
      6976.0000         0.5289           4225         0.3504         74.145      -50.89631      0.1542999
      6976.5000         0.5869       3865.473         0.3516        73.7249       -50.4782      0.1613865
      6977.0000         0.6473       2278.953         0.3529        73.3921      -50.14738      0.1669935
      6977.5000         0.6903       2195.023         0.3541        63.3428      -40.10007       0.337287
      6978.0000         0.7251       2182.852         0.3554        57.2332      -33.99245      0.4408059
      6978.5000         0.7452       2184.621         0.3516        56.5601      -33.32134      0.4521806
      6979.0000         0.5253       2210.086          0.344        56.3589      -33.12213      0.4555572
      6979.5000         0.3871       2239.902         0.3363        56.8906      -33.65582      0.4465116
      6980.0000         0.3548       2704.922         0.3287        71.5306      -48.29781      0.1983423
      6980.5000         0.3304       3613.281         0.3211          72.61      -49.37919      0.1800138
      6981.0000          0.312       3830.133         0.3136        73.8329      -50.60408      0.1592529
      6981.5000         0.2986       3907.813         0.3083        75.4956      -52.26876       0.131038
      6982.0000         0.3008       3957.313         0.3031        78.9788      -55.75394     0.07196704
      6982.5000          0.303        4006.75         0.2979        87.5748      -64.35193              0
      6983.0000         0.3052       4240.063         0.2926        88.8257      -65.60482              0
      6983.5000         0.3079       4605.492         0.2879        87.5723      -64.35341              0
      6984.0000          0.311       4976.852         0.2859        84.7756      -61.55869              0
      6984.5000         0.3041           4913         0.2839        82.3933      -59.17838     0.01392571
      6985.0000         0.2939        4843.93         0.2818        81.0814      -57.86846     0.03612777
      6985.5000         0.2868       4789.063         0.2798         81.984      -58.77306     0.02079566
