#------------------------------------------------------------------------------
# Created by    : vladimir.rabinovich
# Created on    : 09/19/2023 17:22:47
#------------------------------------------------------------------------------
~Version Information Section
VERS.           2.0     :   CWLS log ASCII Standard - VERSION 2.0
WRAP.           NO      :   One line per depth step
~Well Information Section
#MNEM       .UNIT                                         VALUE :DESCRIPTION
#------------------------------------------------------------------------------
STRT        .FT                                             494 :START DEPTH
STOP        .FT                                            8323 :STOP DEPTH
STEP        .FT                                             0.5 :STEP      
NULL        .                                           -999.25 :NULL      
COMP        .                                       MONSANTO CO :COMPANY   
WELL        .                                     ST TR 00293-S :WELL      
FLD         .                                           WILDCAT :FIELD     
LOC         .                                                   :LOCATION  
CNTY        .                             GALVESTON SMALL BLOCK :LOCATION  
STAT        .                                             TEXAS :STATE     
CTRY        .                                     UNITED STATES :COUNTRY   
SRVC        .                                                   :SERVICE COMPANY
DATE        .                             9/13/2023 11:19:17 AM :LOG DATE  
API         .                                    42605300230000 :API NUMBER
UWI         .                                    42605300230000 :UNIQUE WELL ID
XCOORD      .                                  996050.411534576 :SURFACE X 
YCOORD      .                                  10568409.9475512 :SURFACE Y 
LAT         .                                        29.1061939 :LATITUDE  
LON         .                                        -95.018267 :LONGITUDE 
ELEV        .FT                                              81 :ELEVATION VALUE
ELEV_TYPE   .                                                KB :ELEVATION REFERENCE TYPE
~Curve Information Section
#MNEM       .UNIT                                      API CODE :CURVE DESCRIPTION
#------------------------------------------------------------------------------
DEPT        .FT                                                 :DEPTH     
DT          .US/F                                               :          
GR          .GAPI                                               :          
GR_NORM     .GAPI                                               :GammaRay Normalized
ILD         .OHMM                                               :          
SFL         .OHMM                                               :          
SP          .MV                                                 :          
SP_NORM     .MV                                                 :SP Normalized
VSH_GR      .V/V                                                :Volume of Shale from GR
VSH_SP      .V/V                                                :Volume of Shale from SP
~A        DEPTH             DT             GR        GR_NORM            ILD            SFL             SP        SP_NORM         VSH_GR         VSH_SP
# ...
      7251.5000       113.0432        -999.25        -999.25         0.5824          0.684        21.9632      0.4336395        -999.25              1
      7252.0000       113.3955        -999.25        -999.25         0.5753         0.6778        21.5843      0.8145542        -999.25              1
      7252.5000       113.9042        -999.25        -999.25         0.5682         0.6642        21.2537       1.147167        -999.25              1
      7253.0000       114.2877        -999.25        -999.25         0.5592         0.6689        21.0399        1.36298        -999.25              1
      7253.5000       114.3419        -999.25        -999.25         0.5503         0.6785        20.8261       1.578794        -999.25              1
      7254.0000       114.6313        -999.25        -999.25         0.5415         0.6859        20.8165       1.590406        -999.25              1
      7254.5000       115.4302        -999.25        -999.25         0.5329         0.6908        20.8621        1.54682        -999.25              1
      7255.0000       116.2026        -999.25        -999.25         0.5273         0.6699        20.9522       1.458735        -999.25              1
      7255.5000       116.6027        -999.25        -999.25         0.5219         0.6496        21.1198       1.293146        -999.25              1
      7256.0000       115.8923        -999.25        -999.25         0.5166         0.6531        22.1855      0.2294617        -999.25              1
      7256.5000       114.9315        -999.25        -999.25         0.5114         0.6734        23.2364     -0.8194256        -999.25              1
      7257.0000        114.394        -999.25        -999.25         0.5064         0.7039        22.7678     -0.3488121        -999.25              1
      7257.5000       116.5016        -999.25        -999.25         0.5016         0.7083        22.0276      0.3934021        -999.25              1
      7258.0000       118.3052        -999.25        -999.25         0.4967         0.6996        21.6678      0.7552147        -999.25              1
      7258.5000        119.326        -999.25        -999.25          0.492         0.6809        21.9341      0.4909286        -999.25              1
      7259.0000       118.8754        -999.25        -999.25          0.488         0.6602        23.2693     -0.8422585        -999.25              1
      7259.5000       118.1802        -999.25        -999.25         0.4846         0.6445        24.4957      -2.066645        -999.25      0.9864982
      7260.0000       117.5099        -999.25        -999.25         0.4812         0.6442        25.5125      -3.081432        -999.25      0.9736528
      7260.5000       117.4133        -999.25        -999.25         0.4779         0.6446        26.3512      -3.918118        -999.25      0.9630618
      7261.0000       119.3601        -999.25        -999.25         0.4745          0.647        26.8211      -4.386003        -999.25      0.9571392
      7261.5000        120.939        -999.25        -999.25         0.4711         0.6376         27.608      -5.170891        -999.25      0.9472039
      7262.0000       119.0839        -999.25        -999.25         0.4678         0.6183        28.9065      -6.467377        -999.25      0.9307927
      7262.5000        114.723        -999.25        -999.25         0.4649         0.6149        30.7721      -8.330963        -999.25       0.907203
      7263.0000       112.3732        -999.25        -999.25         0.4635         0.6795        32.4924      -10.04925        -999.25      0.8854525
      7263.5000       112.5955        -999.25        -999.25          0.462         0.7602        31.4188      -8.973637        -999.25      0.8990679
      7264.0000        114.605        -999.25        -999.25         0.4636         0.8472        26.6291      -4.181923        -999.25      0.9597225
      7264.5000        117.652        -999.25        -999.25         0.4691         0.7702        24.8166      -2.367411        -999.25       0.982691
      7265.0000       118.5752        -999.25        -999.25         0.4788         0.6381        24.2688      -1.817596        -999.25      0.9896507
      7265.5000        117.215        -999.25        -999.25         0.4888         0.6243        24.1911      -1.737881        -999.25      0.9906597
      7266.0000       116.1649        -999.25        -999.25         0.4931          0.643        23.6267      -1.171469        -999.25      0.9978295
      7266.5000       116.6108        -999.25        -999.25         0.4976         0.6655        22.4546    0.002645493        -999.25              1
      7267.0000       117.9597        -999.25        -999.25         0.5014         0.6736        21.7213       0.737957        -999.25              1
      7267.5000       119.3087        -999.25        -999.25         0.5036         0.6694        21.2556       1.205671        -999.25              1
      7268.0000       119.8805        -999.25        -999.25         0.5062         0.6599         21.203       1.260286        -999.25              1
      7268.5000       119.9916        -999.25        -999.25         0.5113          0.653        21.1505       1.314798        -999.25              1
      7269.0000       119.3413        -999.25        -999.25         0.5164         0.6469        21.1042       1.363111        -999.25              1
      7269.5000       118.6763        -999.25        -999.25         0.5259         0.6408        21.6285       0.840826        -999.25              1
      7270.0000       117.8027        -999.25        -999.25         0.5353         0.6412        22.8082     -0.3368626        -999.25              1
      7270.5000       116.8921        -999.25        -999.25         0.5364         0.6436        23.9879      -1.513182        -999.25       0.993504
      7271.0000       115.9288        -999.25        -999.25         0.5566         0.6497        24.6511      -2.172464        -999.25      0.9851587
      7271.5000       114.6716        -999.25        -999.25          0.569         0.6625         24.754      -2.271444        -999.25      0.9839058
      7272.0000       113.4156        -999.25        -999.25         0.5805         0.6775        24.0423      -1.555824        -999.25      0.9929643
      7272.5000       112.5521        -999.25        -999.25          0.591         0.6928         23.369     -0.8786049        -999.25              1
      7273.0000       111.8727        -999.25        -999.25         0.5993         0.7048        22.6964     -0.2020855        -999.25              1
      7273.5000       112.4548        -999.25        -999.25         0.6064         0.6972        22.0232      0.4750347        -999.25              1
      7274.0000       113.2058        -999.25        -999.25         0.6043         0.6835        21.6017      0.9004536        -999.25              1
      7274.5000       115.0547        -999.25        -999.25         0.6006         0.6738         22.015      0.4910717        -999.25              1
      7275.0000       116.9034        -999.25        -999.25         0.5874         0.6643        22.6516     -0.1416092        -999.25              1
      7275.5000       117.7764        -999.25        -999.25         0.5733         0.6553        23.6065       -1.09259        -999.25       0.998828
      7276.0000       118.5764        -999.25        -999.25         0.5624         0.6522        24.6233      -2.105471        -999.25      0.9860067
      7276.5000       117.7312        -999.25        -999.25         0.5517         0.6474        25.8055      -3.283751        -999.25      0.9710917
      7277.0000       116.3307        -999.25        -999.25         0.5403         0.6373        27.0207      -4.495031        -999.25      0.9557591
      7277.5000       113.2711        -999.25        -999.25         0.5289         0.6288        27.9554      -5.425814        -999.25      0.9439771
