#------------------------------------------------------------------------------
# Created by    : vladimir.rabinovich
# Created on    : 09/19/2023 17:19:42
#------------------------------------------------------------------------------
~Version Information Section
VERS.           2.0     :   CWLS log ASCII Standard - VERSION 2.0
WRAP.           NO      :   One line per depth step
~Well Information Section
#MNEM       .UNIT                                         VALUE :DESCRIPTION
#------------------------------------------------------------------------------
STRT        .FT                                            2198 :START DEPTH
STOP        .FT                                            8738 :STOP DEPTH
STEP        .FT                                             0.5 :STEP      
NULL        .                                           -999.25 :NULL      
COMP        .                             CHAMPLIN PETROLEUM CO :COMPANY   
WELL        .                                     ST TR 00360-S :WELL      
FLD         .                                           WILDCAT :FIELD     
LOC         .                                                   :LOCATION  
CNTY        .                             GALVESTON SMALL BLOCK :LOCATION  
STAT        .                                             TEXAS :STATE     
CTRY        .                                     UNITED STATES :COUNTRY   
SRVC        .                                                   :SERVICE COMPANY
DATE        .                             9/13/2023 11:19:17 AM :LOG DATE  
API         .                                    42605301270000 :API NUMBER
UWI         .                                    42605301270000 :UNIQUE WELL ID
XCOORD      .                                  933135.371219094 :SURFACE X 
YCOORD      .                                  10510129.7662443 :SURFACE Y 
LAT         .                                         28.942863 :LATITUDE  
LON         .                                       -95.2117932 :LONGITUDE 
ELEV        .FT                                              20 :ELEVATION VALUE
ELEV_TYPE   .                                                GL :ELEVATION REFERENCE TYPE
~Curve Information Section
#MNEM       .UNIT                                      API CODE :CURVE DESCRIPTION
#------------------------------------------------------------------------------
DEPT        .FT                                                 :DEPTH     
ASFL        .OHMM                                               :          
CILD        .MMHO                                               :          
ILD         .OHMM                                               :          
SP          .MV                                                 :          
SP_NORM     .MV                                                 :SP Normalized
VSH_SP      .V/V                                                :Volume of Shale from SP
~A        DEPTH           ASFL           CILD            ILD             SP        SP_NORM         VSH_SP
# ...
      6112.0000          0.758       1594.285         0.8098        28.8878      -2.206556      0.9725783
      6112.5000         0.7359        1584.42         0.7717        28.5967      -1.917444       0.979149
      6113.0000         0.7165       1574.557         0.7669        28.3056      -1.628328      0.9857198
      6113.5000         0.7138       1564.693         0.7621        28.0145      -1.339216      0.9922906
      6114.0000         0.7111        1554.83         0.7572        27.8208      -1.147503      0.9966477
      6114.5000         0.7085       1546.365         0.7524        27.6422       -0.97089              1
      6115.0000         0.7023       1539.545          0.747        28.0002      -1.330875      0.9924801
      6115.5000           0.69        1532.73         0.7413        29.0006      -2.333261      0.9696986
      6116.0000         0.6653       1525.916         0.7356        30.2553      -3.589949      0.9411376
      6116.5000         0.6599       1519.102         0.7299        31.5087      -4.845333      0.9126061
      6117.0000         0.6808       1512.682         0.7242        33.0774      -6.416021      0.8769086
      6117.5000         0.7019       1513.324         0.7065        35.8589      -9.199505      0.8136476
      6118.0000         0.7229       1513.969         0.6563        38.3886      -11.73119      0.7561092
      6118.5000         0.7442       1527.133         0.6059        40.5065      -13.85108        0.70793
      6119.0000         0.7726       1554.918         0.5524        45.3625      -18.70907      0.5975212
      6119.5000          0.798       1623.688         0.4935        52.9314      -26.27995      0.4254556
      6120.0000         0.7918       1839.934         0.4345        55.6366      -28.98714      0.3639286
      6120.5000         0.7531       2143.121          0.393        58.9291      -32.28162       0.289054
      6121.0000         0.6567       2446.309         0.3707        62.7986      -36.15311      0.2010656
      6121.5000         0.6027       2749.496         0.3484        65.3361       -38.6926      0.1433501
      6122.0000         0.5774        3219.34         0.3417        67.6929      -41.05138     0.08974127
      6122.5000          0.531       3406.875         0.3412        67.7819      -41.14237     0.08767336
      6123.0000         0.5094       3454.359         0.3407         62.997      -36.35946      0.1963759
      6123.5000         0.5484       3367.117         0.3716        61.1671      -34.53154      0.2379195
      6124.0000         0.5939       2813.348         0.4149        60.4825      -33.84893      0.2534334
      6124.5000         0.6353       2471.207         0.4584        59.9747      -33.34312      0.2649292
      6125.0000         0.6744       2246.125         0.5018        59.7106      -33.08101      0.2708862
      6125.5000         0.7201       2086.301         0.5451        59.4465      -32.81889      0.2768434
      6126.0000         0.8197       1982.895         0.5659        58.3773      -31.75168      0.3010983
      6126.5000         0.9213       1913.021         0.5795        55.9493      -29.32566      0.3562349
      6127.0000         0.9935       1806.002          0.593        53.1323      -26.51065      0.4202125
      6127.5000         1.0461       1737.131         0.5977        49.6771      -23.05744      0.4986946
      6128.0000         1.0825       1665.752         0.5837        46.2219      -19.60422      0.5771767
      6128.5000         1.0242       1722.174         0.5698        42.6879      -16.07221      0.6574498
      6129.0000         0.9533       1856.299         0.5558        38.9454       -12.3317      0.7424614
      6129.5000         0.8831       1986.207         0.5418        37.1885      -10.57678      0.7823459
      6130.0000         0.8446       2092.926         0.5278        40.1022      -13.49247      0.7160802
      6130.5000         0.8041       2179.867         0.5116        43.0209      -16.41315      0.6497011
      6131.0000         0.7005        2201.75         0.4954        43.4532      -16.84744      0.6398308
      6131.5000         0.6971       2207.422         0.4791        41.5895      -14.98573      0.6821426
      6132.0000         0.7004       2156.422         0.4628        39.8696      -13.26781      0.7211861
      6132.5000         0.7057       2105.426         0.4466        38.1649       -11.5651      0.7598841
      6133.0000         0.7109       2054.426         0.4626        36.8619      -10.26409      0.7894526
      6133.5000         0.7161       2003.426         0.4984        36.4856      -9.889772      0.7979597
      6134.0000         0.7213       1952.426         0.5342        35.5195      -8.925661      0.8198714
      6134.5000         0.7295       1902.129         0.5701        34.9903      -8.398445      0.8318535
      6135.0000         0.7409        1818.65         0.6059        34.6814      -8.091532      0.8388288
      6135.5000         0.7524       1520.281         0.6425        34.3725       -7.78462      0.8458041
      6136.0000         0.8205        1382.24         0.6874         34.149      -7.563103      0.8508386
      6136.5000         0.8541       1303.533         0.7324        34.0555      -7.471592      0.8529184
      6137.0000         0.8841       1233.307         0.7774        33.9621      -7.380178       0.854996
      6137.5000         0.9175       1173.623         0.8224        33.8687      -7.288763      0.8570735
      6138.0000         0.9513       1112.082         0.8636        33.9041      -7.326149      0.8562239
      6138.5000         0.9852       1042.107         0.8773        34.0331      -7.457138      0.8532469
      6139.0000           1.02        1035.08         0.9193          34.13      -7.556025      0.8509994
      6139.5000         1.0554       1031.756         0.9731        30.1892       -3.61721       0.940518
      6140.0000         1.0891       1072.527         0.9774        28.9943      -2.424297      0.9676296
      6140.5000         1.0813        1149.93         0.9524         28.126      -1.557983      0.9873186
      6141.0000         1.0305       1227.234         0.9274        27.4008     -0.8347702              1
      6141.5000         0.9738       1304.537         0.8926        26.8711     -0.3070545              1
      6142.0000          0.934        1363.92         0.8529        26.8059     -0.2438431              1
      6142.5000         0.8942       1406.486         0.8133        26.7408     -0.1807289              1
      6143.0000         0.8475       1448.199         0.7736        27.0455     -0.4874153              1
      6143.5000         0.7955       1486.299         0.7339        28.2811         -1.725      0.9835227
      6144.0000         0.7476       1523.996         0.6943        28.9043      -2.350189      0.9693139
      6144.5000         0.7084        1543.85         0.6776        29.1751      -2.622974      0.9631142
      6145.0000         0.6839       1563.701         0.6659        29.4459      -2.895761      0.9569145
      6145.5000         0.6718       1583.555         0.6542        29.7166      -3.168447      0.9507171
      6146.0000         0.6631       1599.141         0.6425        29.9874      -3.441235      0.9445174
      6146.5000         0.6558       1614.037         0.6308        33.5961       -7.05192      0.8624564
      6147.0000           0.65       1631.115         0.6184        38.3428      -11.80061      0.7545316
      6147.5000         0.6443       1650.467         0.6051        40.5166      -13.97639      0.7050819
      6148.0000         0.6384           2064         0.5919        42.4006      -15.86238      0.6622186
      6148.5000         0.6466           3108         0.5786        44.1523      -17.61607      0.6223621
      6149.0000         0.6685       4049.418         0.5457        51.2814      -24.74715       0.460292
      6149.5000         0.6934       4113.164         0.5039        61.7054      -35.17314      0.2233378
