#------------------------------------------------------------------------------
# Created by    : vladimir.rabinovich
# Created on    : 09/19/2023 17:19:42
#------------------------------------------------------------------------------
~Version Information Section
VERS.           2.0     :   CWLS log ASCII Standard - VERSION 2.0
WRAP.           NO      :   One line per depth step
~Well Information Section
#MNEM       .UNIT                                         VALUE :DESCRIPTION
#------------------------------------------------------------------------------
STRT        .FT                                            2198 :START DEPTH
STOP        .FT                                            8738 :STOP DEPTH
STEP        .FT                                             0.5 :STEP      
NULL        .                                           -999.25 :NULL      
COMP        .                             CHAMPLIN PETROLEUM CO :COMPANY   
WELL        .                                     ST TR 00360-S :WELL      
FLD         .                                           WILDCAT :FIELD     
LOC         .                                                   :LOCATION  
CNTY        .                             GALVESTON SMALL BLOCK :LOCATION  
STAT        .                                             TEXAS :STATE     
CTRY        .                                     UNITED STATES :COUNTRY   
SRVC        .                                                   :SERVICE COMPANY
DATE        .                             9/13/2023 11:19:17 AM :LOG DATE  
API         .                                    42605301270000 :API NUMBER
UWI         .                                    42605301270000 :UNIQUE WELL ID
XCOORD      .                                  933135.371219094 :SURFACE X 
YCOORD      .                                  10510129.7662443 :SURFACE Y 
LAT         .                                         28.942863 :LATITUDE  
LON         .                                       -95.2117932 :LONGITUDE 
ELEV        .FT                                              20 :ELEVATION VALUE
ELEV_TYPE   .                                                GL :ELEVATION REFERENCE TYPE
~Curve Information Section
#MNEM       .UNIT                                      API CODE :CURVE DESCRIPTION
#------------------------------------------------------------------------------
DEPT        .FT                                                 :DEPTH     
ASFL        .OHMM                                               :          
CILD        .MMHO                                               :          
ILD         .OHMM                                               :          
SP          .MV                                                 :          
SP_NORM     .MV                                                 :SP Normalized
VSH_SP      .V/V                                                :Volume of Shale from SP
~A        DEPTH           ASFL           CILD            ILD             SP        SP_NORM         VSH_SP
# ...
      5656.0000         0.7377       1575.109         0.6818        29.9365     -0.3742924              1
      5656.5000         0.7326       1588.875         0.6706        31.1706      -1.614639      0.9860309
      5657.0000          0.731       1601.877         0.6559        33.7321      -4.182388       0.927673
      5657.5000         0.7293       1614.438         0.6316        36.7538      -7.210333      0.8588561
      5658.0000         0.7277           1627         0.6072        37.3986      -7.861382      0.8440595
      5658.5000         0.7266       1692.256         0.5829        37.9863       -8.45533      0.8305607
      5659.0000         0.7261       1788.031         0.5618        38.7039      -9.179174      0.8141097
      5659.5000         0.7257       1869.752         0.5433        40.0971      -10.57862       0.782304
      5660.0000         0.7252       1948.158         0.5248        42.6396      -13.12737       0.724378
      5660.5000         0.7235       2021.346         0.5062        46.1507      -16.64472      0.6444383
      5661.0000         0.7188       2092.625         0.4877         48.505      -19.00527      0.5907894
      5661.5000         0.7141       2171.031         0.4708        50.1894      -20.69591      0.5523657
      5662.0000         0.7095       2258.773         0.4547        48.6525      -19.16526      0.5871532
      5662.5000         0.7024       2415.789         0.4386        47.1092      -17.62821      0.6220862
      5663.0000         0.6948       2436.172          0.428        50.0152      -20.54046      0.5558987
      5663.5000         0.6871       2378.797         0.4276        52.2501       -22.7816      0.5049636
      5664.0000         0.6847       2348.402         0.4272        54.2776      -24.81535      0.4587421
      5664.5000         0.6844       2365.844         0.4268        56.8589      -27.40289      0.3999342
      5665.0000         0.6842       2424.773         0.4264        54.7391      -25.28934      0.4479694
      5665.5000         0.6839       2477.582         0.4216        51.8127      -22.36919      0.5143366
      5666.0000         0.6859       2527.227         0.4138         48.866      -19.42874       0.581165
      5666.5000          0.692       2585.355         0.4246        45.6956      -16.26458      0.6530777
      5667.0000         0.6981       2555.438         0.4601        41.8552      -12.43044      0.7402174
      5667.5000         0.7042       2454.641         0.4957        40.5611      -11.14258      0.7694868
      5668.0000         0.7249        2273.23         0.5312        39.7399      -10.32763      0.7880085
      5668.5000         0.7519       2123.043         0.5643        39.0109      -9.604874      0.8044347
      5669.0000         0.7723       1972.855         0.5973        38.2208       -8.82102      0.8222495
      5669.5000         0.7854       1827.486         0.6253        36.4665      -7.072969       0.861978
      5670.0000         0.7984       1697.979          0.642        34.7122      -5.324917      0.9017065
      5670.5000         0.8044       1628.908         0.6588        33.0507      -3.669666      0.9393257
      5671.0000         0.8101       1559.988         0.6755        31.5202      -2.145412      0.9739679
      5671.5000         0.8069       1500.254         0.6914         30.207      -0.838459              1
      5672.0000         0.7851       1446.342         0.6986        29.0305      0.3317928              1
      5672.5000         0.7631       1429.023         0.7057        28.4273      0.9287472              1
      5673.0000          0.743       1454.574         0.7129        27.8241       1.525698              1
      5673.5000         0.7288         1480.1         0.7201        27.3264       2.017151              1
      5674.0000         0.7146       1509.063         0.7243        27.1589       2.178406              1
      5674.5000         0.7004       1538.227          0.722        26.9914       2.339657              1
      5675.0000         0.6897       1567.391         0.7197        26.9303        2.39451              1
      5675.5000         0.6874       1596.557         0.7173        26.9335       2.385061              1
      5676.0000         0.6852       1590.457          0.715        27.2857       2.026615              1
      5676.5000         0.6872       1576.063         0.7126        28.0771       1.228966              1
      5677.0000         0.6974        1561.67         0.7103         28.869      0.4308205              1
      5677.5000         0.7076       1547.275          0.708        29.5479     -0.2543259              1
      5678.0000         0.7179       1532.881         0.7056        29.6926     -0.4052753              1
      5678.5000         0.7289       1518.475         0.7016        29.5088     -0.2277222              1
      5679.0000          0.743       1507.746         0.6976        29.3249    -0.05006981              1
      5679.5000         0.7571       1517.031         0.6935        29.4153     -0.1467171              1
      5680.0000         0.7666       1526.318         0.6895        29.6044     -0.3420639              1
      5680.5000         0.7627       1535.592         0.6854        30.6329      -1.376812      0.9914361
      5681.0000         0.7601       1546.121         0.6812         31.674      -2.424158      0.9676328
      5681.5000          0.767       1557.264         0.6767        32.7164      -3.472807      0.9437999
      5682.0000         0.7738        1568.42         0.6723        33.5916      -4.354252       0.923767
      5682.5000         0.7806       1579.564         0.6678        34.4542      -5.223101      0.9040204
      5683.0000         0.7872       1590.721         0.6633        35.1203      -5.895449      0.8887398
      5683.5000         0.7868       1601.801         0.6588        35.4533      -6.234695      0.8810297
      5684.0000         0.7865       1612.832         0.6569        34.7618      -5.549442      0.8966036
      5684.5000         0.7856        1623.85         0.6571        33.5554      -4.349291      0.9238797
      5685.0000         0.7773       1634.869         0.6574        33.0968      -3.896938      0.9341605
      5685.5000          0.769       1641.746         0.6576        32.6382      -3.444584      0.9444413
      5686.0000         0.7607       1628.543         0.6579        32.1749      -2.987532      0.9548288
      5686.5000         0.7523        1615.33         0.6581        31.6848      -2.503679      0.9658255
      5687.0000         0.7445       1601.023         0.6588        31.1947      -2.019827      0.9768221
      5687.5000         0.7418       1580.693         0.6602        30.7047      -1.536076      0.9878165
      5688.0000         0.7391       1560.363         0.6615        30.1943      -1.031921      0.9992745
      5688.5000         0.7339        1540.01         0.6628        29.5987     -0.4425678              1
      5689.0000          0.724        1539.82         0.6642        29.0311       0.118784              1
      5689.5000          0.725       1548.631         0.6655        28.7508      0.3928375              1
      5690.0000         0.7326       1557.445         0.6668        28.4705      0.6668873              1
      5690.5000         0.7403       1560.264          0.667        28.1902      0.9409409              1
      5691.0000         0.7479       1537.801         0.6656        27.9468       1.178095              1
      5691.5000         0.7555       1515.363         0.6642        27.8408       1.277847              1
      5692.0000         0.7632       1492.875         0.6629        27.7347       1.377701              1
      5692.5000         0.7695       1470.035         0.6615        28.0529       1.053251              1
      5693.0000         0.7753       1447.195         0.6601         28.644      0.4559059              1
      5693.5000          0.781       1433.623         0.6588        29.2351     -0.1414413              1
