#------------------------------------------------------------------------------
# Created by    : vladimir.rabinovich
# Created on    : 09/19/2023 17:20:27
#------------------------------------------------------------------------------
~Version Information Section
VERS.           2.0     :   CWLS log ASCII Standard - VERSION 2.0
WRAP.           NO      :   One line per depth step
~Well Information Section
#MNEM       .UNIT                                         VALUE :DESCRIPTION
#------------------------------------------------------------------------------
STRT        .FT                                             540 :START DEPTH
STOP        .FT                                            9057 :STOP DEPTH
STEP        .FT                                             0.5 :STEP      
NULL        .                                           -999.25 :NULL      
COMP        .                              MITCHELL ENERGY CORP :COMPANY   
WELL        .                                     ST TR 00228-S :WELL      
FLD         .                                     LAFITTES GOLD :FIELD     
LOC         .                                                   :LOCATION  
CNTY        .                             GALVESTON SMALL BLOCK :LOCATION  
STAT        .                                             TEXAS :STATE     
CTRY        .                                     UNITED STATES :COUNTRY   
SRVC        .                                                   :SERVICE COMPANY
DATE        .                             9/13/2023 11:19:17 AM :LOG DATE  
API         .                                    42605300060000 :API NUMBER
UWI         .                                    42605300060000 :UNIQUE WELL ID
XCOORD      .                                  1068847.04405215 :SURFACE X 
YCOORD      .                                  10622520.7629704 :SURFACE Y 
LAT         .                                        29.2582252 :LATITUDE  
LON         .                                       -94.7929393 :LONGITUDE 
ELEV        .FT                                              67 :ELEVATION VALUE
ELEV_TYPE   .                                                KB :ELEVATION REFERENCE TYPE
~Curve Information Section
#MNEM       .UNIT                                      API CODE :CURVE DESCRIPTION
#------------------------------------------------------------------------------
DEPT        .FT                                                 :DEPTH     
ASN         .OHMM                                               :          
CILD        .MMHO                                               :          
GR          .GAPI                                               :          
GR_NORM     .GAPI                                               :GammaRay Normalized
ILD         .OHMM                                               :          
SP          .MV                                                 :          
SP_NORM     .MV                                                 :SP Normalized
VSH_GR      .V/V                                                :Volume of Shale from GR
VSH_SP      .V/V                                                :Volume of Shale from SP
~A        DEPTH            ASN           CILD             GR        GR_NORM            ILD             SP        SP_NORM         VSH_GR         VSH_SP
# ...
      6184.5000         1.2958       1798.988        -999.25        -999.25         0.2979       160.8149      -75.47414        -999.25      0.0565732
      6185.0000         1.1277       1803.635        -999.25        -999.25          0.287       163.7656      -78.54034        -999.25      0.0182457
      6185.5000          1.072       1815.859        -999.25        -999.25         0.2762       165.1494      -80.03965        -999.25              0
      6186.0000         1.0369       1836.344        -999.25        -999.25         0.2653       166.2781      -81.28386        -999.25              0
      6186.5000         0.9767       1868.869        -999.25        -999.25         0.2544       166.5547      -81.67596        -999.25              0
      6187.0000         0.9523        1966.75        -999.25        -999.25          0.242       166.7695      -82.00626        -999.25              0
      6187.5000         0.9301       1984.359        -999.25        -999.25          0.229       166.7612      -82.11346        -999.25              0
      6188.0000         0.9104        2014.26        -999.25        -999.25         0.2169       166.7527      -82.22046        -999.25              0
      6188.5000         0.8824       2101.434        -999.25        -999.25         0.2072       166.4795      -82.06277        -999.25              0
      6189.0000         0.8429       2725.121        -999.25        -999.25         0.1974       166.1694      -81.86816        -999.25              0
      6189.5000         0.7837        2797.66        -999.25        -999.25         0.1876       165.8599      -81.67416        -999.25              0
      6190.0000         0.7514       2908.281        -999.25        -999.25         0.1875       164.4873      -80.41707        -999.25              0
      6190.5000          0.728       3150.668        -999.25        -999.25         0.2082       163.0051      -79.05036        -999.25     0.01187048
      6191.0000         0.7099       2955.953        -999.25        -999.25         0.2469       161.4473      -77.60806        -999.25     0.02989922
      6191.5000         0.7001        2896.68        -999.25        -999.25         0.2856        159.446      -75.72227        -999.25     0.05347166
      6192.0000         0.6885       2854.145        -999.25        -999.25         0.3246       157.6965      -74.08827        -999.25      0.0738966
      6192.5000         0.7052       2798.785        -999.25        -999.25         0.3754        156.009      -72.51627        -999.25     0.09354658
      6193.0000         0.7345       2712.492        -999.25        -999.25         0.4263       153.5276      -70.15038        -999.25      0.1231203
      6193.5000          0.763       2559.777        -999.25        -999.25          0.496       150.3369      -67.07517        -999.25      0.1615603
      6194.0000         0.8175       2313.965        -999.25        -999.25         0.5687       145.7275      -62.58127        -999.25      0.2177341
      6194.5000         0.9607       2075.445        -999.25        -999.25         0.6303       139.6895      -56.65878        -999.25      0.2917653
      6195.0000         1.1224        2044.51        -999.25        -999.25         0.6874       128.5244      -45.60918        -999.25      0.4298853
      6195.5000         1.2839       1871.463        -999.25        -999.25         0.7445       124.2784      -41.47868        -999.25      0.4815165
      6196.0000         1.4456       1706.707        -999.25        -999.25         0.8083       121.5182      -38.83398        -999.25      0.5145752
      6196.5000         1.6072       1641.363        -999.25        -999.25         0.8725       119.3678      -36.79908        -999.25      0.5400115
      6197.0000         1.7713       1594.717        -999.25        -999.25         0.9362       117.4912      -35.03799        -999.25      0.5620252
      6197.5000         1.8579       1473.131        -999.25        -999.25         0.9975       115.7285      -33.39079        -999.25      0.5826152
      6198.0000         2.0167       1231.332        -999.25        -999.25         1.0589       116.2157      -33.99348        -999.25      0.5750815
      6198.5000         2.1636       1082.533        -999.25        -999.25         1.0757       116.3433      -34.23659        -999.25      0.5720426
      6199.0000          2.451       919.4492        -999.25        -999.25         1.0363       115.5443      -33.55309        -999.25      0.5805864
      6199.5000         2.6226       918.1318        -999.25        -999.25         0.8846       114.8906      -33.01489        -999.25      0.5873138
      6200.0000         2.6473       916.8135        -999.25        -999.25         0.6914       114.9751      -33.21489        -999.25      0.5848139
      6200.5000         1.6958       946.5576        -999.25        -999.25         0.6195       115.0594       -33.4147        -999.25      0.5823163
      6201.0000         1.1696       1552.818        -999.25        -999.25          0.552       114.6017      -33.07249        -999.25      0.5865938
      6201.5000         1.0632       1640.236        -999.25        -999.25         0.5369       113.8003       -32.3866        -999.25      0.5951675
      6202.0000         1.0406       1920.117        -999.25        -999.25          0.522       112.6665       -31.3683        -999.25      0.6078962
      6202.5000         1.0225       1964.094        -999.25        -999.25         0.5119       111.3239       -30.1412        -999.25      0.6232349
      6203.0000         1.0367       1979.516        -999.25        -999.25         0.5018       109.9799       -28.9127        -999.25      0.6385912
      6203.5000         1.0509       1994.953        -999.25        -999.25         0.5159       108.5437      -27.59201        -999.25      0.6550999
      6204.0000         1.0629       2082.637        -999.25        -999.25          0.566       104.9995      -24.16331        -999.25      0.6979586
      6204.5000         1.0717        2750.77        -999.25        -999.25         0.6284       100.4399      -19.71922        -999.25      0.7535098
      6205.0000         1.0805       3095.648        -999.25        -999.25         0.6906        95.9326      -15.32742        -999.25      0.8084073
      6205.5000         1.0831       3149.297        -999.25        -999.25         0.7164         92.936      -12.44631        -999.25      0.8444211
      6206.0000         1.0772       3194.328        -999.25        -999.25         0.7422        90.4894      -10.11522        -999.25      0.8735598
      6206.5000         1.0713       3237.305        -999.25        -999.25         0.7681         88.135       -7.87632        -999.25       0.901546
      6207.0000         1.0654       3274.676        -999.25        -999.25         0.7915         85.656      -5.512817        -999.25      0.9310898
      6207.5000         1.0439       3306.074        -999.25        -999.25         0.7897        83.0552      -3.027519        -999.25       0.962156
      6208.0000         1.0165       3331.895        -999.25        -999.25         0.7887        80.0162     -0.1040192        -999.25      0.9986998
      6208.5000         0.9805       3361.973        -999.25        -999.25         0.7902        73.4108        6.38588        -999.25              1
      6209.0000         0.9353       3394.766        -999.25        -999.25         0.7917        69.9998       9.681374        -999.25              1
      6209.5000         0.9042       3432.016        -999.25        -999.25         0.7936        68.5314       11.03427        -999.25              1
      6210.0000         0.8725        3469.41        -999.25        -999.25         0.8069        67.2611       12.18907        -999.25              1
      6210.5000         0.8397       3514.051        -999.25        -999.25         0.8202        67.0374       12.29727        -999.25              1
