#------------------------------------------------------------------------------
# Created by    : vladimir.rabinovich
# Created on    : 09/19/2023 17:20:27
#------------------------------------------------------------------------------
~Version Information Section
VERS.           2.0     :   CWLS log ASCII Standard - VERSION 2.0
WRAP.           NO      :   One line per depth step
~Well Information Section
#MNEM       .UNIT                                         VALUE :DESCRIPTION
#------------------------------------------------------------------------------
STRT        .FT                                             540 :START DEPTH
STOP        .FT                                            9057 :STOP DEPTH
STEP        .FT                                             0.5 :STEP      
NULL        .                                           -999.25 :NULL      
COMP        .                              MITCHELL ENERGY CORP :COMPANY   
WELL        .                                     ST TR 00228-S :WELL      
FLD         .                                     LAFITTES GOLD :FIELD     
LOC         .                                                   :LOCATION  
CNTY        .                             GALVESTON SMALL BLOCK :LOCATION  
STAT        .                                             TEXAS :STATE     
CTRY        .                                     UNITED STATES :COUNTRY   
SRVC        .                                                   :SERVICE COMPANY
DATE        .                             9/13/2023 11:19:17 AM :LOG DATE  
API         .                                    42605300060000 :API NUMBER
UWI         .                                    42605300060000 :UNIQUE WELL ID
XCOORD      .                                  1068847.04405215 :SURFACE X 
YCOORD      .                                  10622520.7629704 :SURFACE Y 
LAT         .                                        29.2582252 :LATITUDE  
LON         .                                       -94.7929393 :LONGITUDE 
ELEV        .FT                                              67 :ELEVATION VALUE
ELEV_TYPE   .                                                KB :ELEVATION REFERENCE TYPE
~Curve Information Section
#MNEM       .UNIT                                      API CODE :CURVE DESCRIPTION
#------------------------------------------------------------------------------
DEPT        .FT                                                 :DEPTH     
ASN         .OHMM                                               :          
CILD        .MMHO                                               :          
GR          .GAPI                                               :          
GR_NORM     .GAPI                                               :GammaRay Normalized
ILD         .OHMM                                               :          
SP          .MV                                                 :          
SP_NORM     .MV                                                 :SP Normalized
VSH_GR      .V/V                                                :Volume of Shale from GR
VSH_SP      .V/V                                                :Volume of Shale from SP
~A        DEPTH            ASN           CILD             GR        GR_NORM            ILD             SP        SP_NORM         VSH_GR         VSH_SP
# ...
      5071.5000         0.8308       1158.994        -999.25        -999.25         0.8407         51.005       1.394978        -999.25              1
      5072.0000         0.8269         1140.6        -999.25        -999.25         0.8397        50.5104       1.885998        -999.25              1
      5072.5000         0.8236       1117.023        -999.25        -999.25         0.8387        50.2286       2.164219        -999.25              1
      5073.0000          0.824       1095.076        -999.25        -999.25         0.8377        50.4209       1.968338        -999.25              1
      5073.5000         0.8244       1076.631        -999.25        -999.25         0.8351         50.613       1.772659        -999.25              1
      5074.0000          0.833       1058.764        -999.25        -999.25          0.831        50.8053       1.576775        -999.25              1
      5074.5000         0.8441       1046.939        -999.25        -999.25         0.8269        50.9976       1.380898        -999.25              1
      5075.0000         0.8553       1035.115        -999.25        -999.25         0.8227        51.2259       1.149017        -999.25              1
      5075.5000         0.8664       1029.523        -999.25        -999.25         0.8186        51.4667      0.9046364        -999.25              1
      5076.0000         0.8696       1028.963        -999.25        -999.25         0.8155        51.5579      0.8098564        -999.25              1
      5076.5000         0.8657       1032.854        -999.25        -999.25         0.8123        51.6006      0.7635727        -999.25              1
      5077.0000         0.8606       1036.744        -999.25        -999.25         0.8092        51.6434      0.7171974        -999.25              1
      5077.5000         0.8549       1040.633        -999.25        -999.25         0.8061        51.6862      0.6708145        -999.25              1
      5078.0000          0.845       1044.523        -999.25        -999.25          0.803        51.8607      0.4927368        -999.25              1
      5078.5000         0.8345       1048.414        -999.25        -999.25         0.7999        52.0356      0.3142548        -999.25              1
      5079.0000         0.8292       1059.627        -999.25        -999.25         0.8053        52.2104      0.1358757        -999.25              1
      5079.5000         0.8224       1072.205        -999.25        -999.25         0.8107        52.3854    -0.04270554        -999.25      0.9995505
      5080.0000          0.814       1151.795        -999.25        -999.25          0.816        52.5905     -0.2513847        -999.25      0.9973539
      5080.5000         0.8059        1176.43        -999.25        -999.25         0.8214        52.8347     -0.4991684        -999.25      0.9947456
      5081.0000         0.8028       1179.611        -999.25        -999.25         0.8268         53.079     -0.7470436        -999.25      0.9921364
      5081.5000         0.8025       1179.904        -999.25        -999.25         0.8322        53.3234     -0.9950256        -999.25       0.989526
      5082.0000         0.8024       1176.873        -999.25        -999.25         0.8377        53.5676      -1.242805        -999.25      0.9869179
      5082.5000         0.8029       1173.844        -999.25        -999.25         0.8464        53.7877      -1.466488        -999.25      0.9845633
      5083.0000         0.8034       1170.813        -999.25        -999.25         0.8583         54.004      -1.686371        -999.25      0.9822487
      5083.5000         0.8039       1163.256        -999.25        -999.25         0.8702        54.2202      -1.906147        -999.25      0.9799353
      5084.0000         0.8084       1154.193        -999.25        -999.25         0.8837        54.4365       -2.12603        -999.25      0.9776207
      5084.5000         0.8132       1145.131        -999.25        -999.25         0.9051        54.6528      -2.345909        -999.25      0.9753062
      5085.0000          0.832       1019.815        -999.25        -999.25         0.9266        54.9103      -2.606991        -999.25       0.972558
      5085.5000         0.8559       938.9297        -999.25        -999.25         0.9508         55.186      -2.886269        -999.25      0.9696182
      5086.0000         0.8927       861.6455        -999.25        -999.25         1.0631        55.4617       -3.16555        -999.25      0.9666784
      5086.5000         0.9962       769.3682        -999.25        -999.25          1.197        55.9022      -3.609627        -999.25      0.9620039
      5087.0000         1.1036       702.2432        -999.25        -999.25         1.5105        56.4989      -4.209911        -999.25      0.9556851
      5087.5000         1.2109       664.1436        -999.25        -999.25         1.5991        56.5159      -4.230488        -999.25      0.9554685
      5088.0000         1.3183       621.2109        -999.25        -999.25         1.6723        56.4759      -4.194069        -999.25      0.9558519
      5088.5000         1.4225       590.5518        -999.25        -999.25         1.7257         56.436      -4.157749        -999.25      0.9562342
      5089.0000         1.4393       597.7471        -999.25        -999.25         1.7791        56.3961      -4.121429        -999.25      0.9566165
      5089.5000         1.4428       604.9355        -999.25        -999.25         1.8325        55.6047      -3.333611        -999.25      0.9649094
      5090.0000         1.4318        617.166        -999.25        -999.25         1.7559        54.7834      -2.515892        -999.25      0.9735169
      5090.5000         1.3818       647.6211        -999.25        -999.25         1.6486        54.3987      -2.134773        -999.25      0.9775287
      5091.0000         1.3247       667.2383        -999.25        -999.25         1.5399        54.2643      -2.003952        -999.25      0.9789058
      5091.5000         1.3074       685.6348        -999.25        -999.25         1.4805         54.319      -2.062233        -999.25      0.9782923
      5092.0000         1.2896       699.6787        -999.25        -999.25         1.4474        54.4041      -2.150909        -999.25      0.9773589
      5092.5000         1.2711        706.417        -999.25        -999.25         1.4142        54.4892      -2.239594        -999.25      0.9764253
      5093.0000         1.2544       713.1553        -999.25        -999.25         1.4068        54.5518      -2.305771        -999.25      0.9757288
      5093.5000         1.2471       719.9004        -999.25        -999.25         1.4047        54.4117      -2.169254        -999.25      0.9771658
      5094.0000         1.2412       726.6387        -999.25        -999.25         1.4026        54.2714      -2.032532        -999.25      0.9786049
      5094.5000         1.2364       727.1611        -999.25        -999.25         1.4006        54.1312      -1.895912        -999.25      0.9800431
      5095.0000         1.2316       725.3525        -999.25        -999.25         1.3985         53.991      -1.759293        -999.25      0.9814811
      5095.5000         1.2268       723.5449        -999.25        -999.25         1.3964        54.3361      -2.107975        -999.25      0.9778108
      5096.0000         1.2222       721.7373        -999.25        -999.25         1.3943        55.0497      -2.825157        -999.25      0.9702615
      5096.5000          1.218       719.9287        -999.25        -999.25         1.3953        56.9742      -4.753235        -999.25       0.949966
      5097.0000         1.2172       718.1211        -999.25        -999.25         1.3967        57.9866      -5.769215        -999.25      0.9392715
      5097.5000         1.2164       716.3115        -999.25        -999.25         1.3982        58.8428      -6.628994        -999.25      0.9302211
