#------------------------------------------------------------------------------
# Created by    : vladimir.rabinovich
# Created on    : 09/19/2023 17:22:47
#------------------------------------------------------------------------------
~Version Information Section
VERS.           2.0     :   CWLS log ASCII Standard - VERSION 2.0
WRAP.           NO      :   One line per depth step
~Well Information Section
#MNEM       .UNIT                                         VALUE :DESCRIPTION
#------------------------------------------------------------------------------
STRT        .FT                                             494 :START DEPTH
STOP        .FT                                            8323 :STOP DEPTH
STEP        .FT                                             0.5 :STEP      
NULL        .                                           -999.25 :NULL      
COMP        .                                       MONSANTO CO :COMPANY   
WELL        .                                     ST TR 00293-S :WELL      
FLD         .                                           WILDCAT :FIELD     
LOC         .                                                   :LOCATION  
CNTY        .                             GALVESTON SMALL BLOCK :LOCATION  
STAT        .                                             TEXAS :STATE     
CTRY        .                                     UNITED STATES :COUNTRY   
SRVC        .                                                   :SERVICE COMPANY
DATE        .                             9/13/2023 11:19:17 AM :LOG DATE  
API         .                                    42605300230000 :API NUMBER
UWI         .                                    42605300230000 :UNIQUE WELL ID
XCOORD      .                                  996050.411534576 :SURFACE X 
YCOORD      .                                  10568409.9475512 :SURFACE Y 
LAT         .                                        29.1061939 :LATITUDE  
LON         .                                        -95.018267 :LONGITUDE 
ELEV        .FT                                              81 :ELEVATION VALUE
ELEV_TYPE   .                                                KB :ELEVATION REFERENCE TYPE
~Curve Information Section
#MNEM       .UNIT                                      API CODE :CURVE DESCRIPTION
#------------------------------------------------------------------------------
DEPT        .FT                                                 :DEPTH     
DT          .US/F                                               :          
GR          .GAPI                                               :          
GR_NORM     .GAPI                                               :GammaRay Normalized
ILD         .OHMM                                               :          
SFL         .OHMM                                               :          
SP          .MV                                                 :          
SP_NORM     .MV                                                 :SP Normalized
VSH_GR      .V/V                                                :Volume of Shale from GR
VSH_SP      .V/V                                                :Volume of Shale from SP
~A        DEPTH             DT             GR        GR_NORM            ILD            SFL             SP        SP_NORM         VSH_GR         VSH_SP
# ...
      3621.0000       135.4856        -999.25        -999.25          0.568         0.7101        35.9599      -7.562387        -999.25      0.8848704
      3621.5000       140.3894        -999.25        -999.25         0.5935         0.6212        36.1053      -7.698082        -999.25      0.8824898
      3622.0000       145.1807        -999.25        -999.25         0.6183         0.6348         36.486      -8.069075        -999.25      0.8759812
      3622.5000       146.1089        -999.25        -999.25          0.638          0.677        36.6329      -8.206266        -999.25      0.8735743
      3623.0000        142.989        -999.25        -999.25         0.6451         0.6642        36.7612       -8.32486        -999.25      0.8714937
      3623.5000        137.915        -999.25        -999.25         0.6433         0.6667        36.9133      -8.467251        -999.25      0.8689956
      3624.0000       130.7769        -999.25        -999.25         0.6408         0.8025        37.6061      -9.150343        -999.25      0.8570116
      3624.5000       123.4186        -999.25        -999.25         0.6395          0.922          37.22      -8.754539        -999.25      0.8639554
      3625.0000       123.7745        -999.25        -999.25         0.6402          0.982        34.8239      -6.348728        -999.25      0.9061627
      3625.5000       130.2715        -999.25        -999.25         0.6426         0.7361        33.6915      -5.206625        -999.25      0.9261996
      3626.0000       137.4421        -999.25        -999.25         0.6531         0.6783        33.3187      -4.824114        -999.25      0.9329103
      3626.5000       142.0757        -999.25        -999.25         0.6698         0.6719        33.0967      -4.592407        -999.25      0.9369753
      3627.0000       140.1292        -999.25        -999.25         0.6965          0.704        32.9736        -4.4596        -999.25      0.9393052
      3627.5000        134.605        -999.25        -999.25         0.7331         0.7546        31.9677      -3.443993        -999.25      0.9571229
      3628.0000       130.4565        -999.25        -999.25          0.781         0.7904        31.2985      -2.765087        -999.25      0.9690335
      3628.5000       125.9781        -999.25        -999.25         0.8351         0.8315        31.0472      -2.504078        -999.25      0.9736127
      3629.0000       121.2018        -999.25        -999.25         0.8976         0.8569        30.8606      -2.307772        -999.25      0.9770566
      3629.5000       120.5372        -999.25        -999.25         0.9722         0.8481        30.6473      -2.084766        -999.25       0.980969
      3630.0000       122.0725        -999.25        -999.25         1.0236         0.8332        30.4174      -1.845158        -999.25      0.9851727
      3630.5000       123.7019        -999.25        -999.25         1.0249          0.813        30.1985       -1.61655        -999.25      0.9891833
      3631.0000       124.9436        -999.25        -999.25         1.0108         0.7857         30.067      -1.475342        -999.25      0.9916607
      3631.5000       126.1445        -999.25        -999.25         0.9897         0.7646         30.078      -1.476635        -999.25       0.991638
      3632.0000       127.2722        -999.25        -999.25         0.9544         0.7489        30.0764       -1.46533        -999.25      0.9918363
      3632.5000       129.0642        -999.25        -999.25         0.9203         0.7365        30.0283       -1.40752        -999.25      0.9928505
      3633.0000       131.8828        -999.25        -999.25         0.8872          0.724        30.1485      -1.518015        -999.25       0.990912
      3633.5000       135.3506        -999.25        -999.25         0.8611         0.7112        30.3209      -1.680706        -999.25      0.9880578
      3634.0000       139.3735        -999.25        -999.25         0.8452         0.7032        30.5129      -1.862999        -999.25      0.9848596
      3634.5000       140.7876        -999.25        -999.25         0.8377          0.699        30.6408      -1.981194        -999.25      0.9827861
      3635.0000       141.1018        -999.25        -999.25         0.8347         0.6909        30.3879      -1.718584        -999.25      0.9873933
      3635.5000       141.4287        -999.25        -999.25         0.8326          0.681        30.0068      -1.327778        -999.25      0.9942495
      3636.0000       142.0757        -999.25        -999.25         0.8312         0.6709         29.602      -0.913271        -999.25              1
      3636.5000       144.0137        -999.25        -999.25         0.8302         0.6617        29.2022     -0.5037632        -999.25              1
      3637.0000       145.6375        -999.25        -999.25         0.8302         0.6585        29.1722      -0.464056        -999.25              1
      3637.5000       146.9866        -999.25        -999.25         0.8288         0.6552        29.7206      -1.002748        -999.25      0.9999518
      3638.0000       148.1882        -999.25        -999.25         0.8279         0.6524        30.6457      -1.918142        -999.25      0.9838923
      3638.5000       149.2234        -999.25        -999.25         0.8325         0.6502        31.9274      -3.190136        -999.25      0.9615766
      3639.0000       149.9434        -999.25        -999.25         0.8331          0.655        33.5226      -4.775625        -999.25      0.9337609
      3639.5000       149.5479        -999.25        -999.25         0.8331         0.6639        34.8491      -6.092419        -999.25      0.9106593
      3640.0000       146.4993        -999.25        -999.25         0.8317         0.6763        36.1131       -7.34671        -999.25      0.8886542
      3640.5000       138.9734        -999.25        -999.25         0.8267         0.6895        36.7827      -8.006605        -999.25      0.8770771
      3641.0000       133.0461        -999.25        -999.25         0.8169         0.7097        37.7595      -8.973698        -999.25      0.8601106
      3641.5000       125.9932        -999.25        -999.25         0.8058          0.728        38.8651      -10.06959        -999.25      0.8408844
      3642.0000       118.2269        -999.25        -999.25         0.7746         0.7418        40.2358      -11.43059        -999.25      0.8170072
      3642.5000       112.2998        -999.25        -999.25         0.7489         0.7494        41.9358      -13.12087        -999.25      0.7873531
      3643.0000       109.3582        -999.25        -999.25          0.708         0.7615        43.6624      -14.83777        -999.25      0.7572321
      3643.5000       108.5413        -999.25        -999.25         0.6639         0.7789        45.6212      -16.78686        -999.25      0.7230375
      3644.0000       109.3362        -999.25        -999.25          0.624          0.795        48.0305      -19.18645        -999.25      0.6809394
      3644.5000       114.2089        -999.25        -999.25         0.5968         0.8081        49.8255      -20.97175        -999.25      0.6496184
      3645.0000       117.8667        -999.25        -999.25         0.5677         0.8294        50.1703      -21.30684        -999.25      0.6437396
      3645.5000       120.5214        -999.25        -999.25         0.5489         0.8581         49.285      -20.41183        -999.25      0.6594415
      3646.0000       123.3986        -999.25        -999.25         0.5378         0.8759        47.1016      -18.21873        -999.25       0.697917
      3646.5000       124.2821        -999.25        -999.25         0.5318         0.8645        44.7642      -15.87162        -999.25      0.7390944
      3647.0000       124.9429        -999.25        -999.25         0.5334         0.8269        42.7827      -13.88041        -999.25      0.7740279
