#------------------------------------------------------------------------------
# Created by    : vladimir.rabinovich
# Created on    : 09/19/2023 17:19:42
#------------------------------------------------------------------------------
~Version Information Section
VERS.           2.0     :   CWLS log ASCII Standard - VERSION 2.0
WRAP.           NO      :   One line per depth step
~Well Information Section
#MNEM       .UNIT                                         VALUE :DESCRIPTION
#------------------------------------------------------------------------------
STRT        .FT                                            2198 :START DEPTH
STOP        .FT                                            8738 :STOP DEPTH
STEP        .FT                                             0.5 :STEP      
NULL        .                                           -999.25 :NULL      
COMP        .                             CHAMPLIN PETROLEUM CO :COMPANY   
WELL        .                                     ST TR 00360-S :WELL      
FLD         .                                           WILDCAT :FIELD     
LOC         .                                                   :LOCATION  
CNTY        .                             GALVESTON SMALL BLOCK :LOCATION  
STAT        .                                             TEXAS :STATE     
CTRY        .                                     UNITED STATES :COUNTRY   
SRVC        .                                                   :SERVICE COMPANY
DATE        .                             9/13/2023 11:19:17 AM :LOG DATE  
API         .                                    42605301270000 :API NUMBER
UWI         .                                    42605301270000 :UNIQUE WELL ID
XCOORD      .                                  933135.371219094 :SURFACE X 
YCOORD      .                                  10510129.7662443 :SURFACE Y 
LAT         .                                         28.942863 :LATITUDE  
LON         .                                       -95.2117932 :LONGITUDE 
ELEV        .FT                                              20 :ELEVATION VALUE
ELEV_TYPE   .                                                GL :ELEVATION REFERENCE TYPE
~Curve Information Section
#MNEM       .UNIT                                      API CODE :CURVE DESCRIPTION
#------------------------------------------------------------------------------
DEPT        .FT                                                 :DEPTH     
ASFL        .OHMM                                               :          
CILD        .MMHO                                               :          
ILD         .OHMM                                               :          
SP          .MV                                                 :          
SP_NORM     .MV                                                 :SP Normalized
VSH_SP      .V/V                                                :Volume of Shale from SP
~A        DEPTH           ASFL           CILD            ILD             SP        SP_NORM         VSH_SP
# ...
      3946.0000         0.5442       3416.969         0.3969        72.1412       -38.5572     0.03699493
      3946.5000         0.5675       2676.039         0.4183         71.356      -37.77303     0.05710172
      3947.0000         0.5907       1993.004         0.4389        68.1929      -34.61097      0.1381804
      3947.5000         0.6282       1726.693         0.4591        63.0241       -29.4432      0.2706872
      3948.0000         0.6696       1592.779         0.4793        60.8046      -27.22473       0.327571
      3948.5000         0.7034        1477.59         0.4946        58.5627      -24.98386      0.3850291
      3949.0000         0.7312       1399.094         0.5006        57.7484       -24.1706      0.4058821
      3949.5000         0.7393       1443.682         0.4959        57.0563      -23.47953      0.4236018
      3950.0000         0.7476       1520.104         0.4749        57.1817      -23.60596      0.4203599
      3950.5000         0.7292       1653.713         0.4538        57.8999       -24.3252      0.4019181
      3951.0000         0.7054       1834.695         0.4328        58.6181      -25.04443      0.3834762
      3951.5000         0.6816           2095         0.4118        59.3484      -25.77576      0.3647241
      3952.0000         0.6525         2896.5         0.3937        60.0953      -26.52369      0.3455463
      3952.5000         0.6169           3698         0.3801        60.8415      -27.27093      0.3263865
      3953.0000         0.5767       4357.484         0.3665        62.0067      -28.43716      0.2964831
      3953.5000         0.5393       4491.602         0.3529        63.3399       -29.7714      0.2622719
      3954.0000         0.5105       4598.391         0.3394        64.9443      -31.37682      0.2211071
      3954.5000         0.4748       4717.523         0.3258         68.189      -34.62256       0.137883
      3955.0000         0.4674       4742.656         0.3103          69.74      -36.17459     0.09808741
      3955.5000         0.4674       4689.992         0.2919         70.265      -36.70063     0.08459932
      3956.0000         0.4674       4636.141         0.2857        70.4957      -36.93235     0.07865759
      3956.5000         0.4673       4592.445         0.2817        70.5918      -37.02949     0.07616699
      3957.0000         0.4638       4568.102         0.2777         70.673      -37.11172     0.07405844
      3957.5000         0.4596       4543.758         0.2737        70.7404      -37.18016     0.07230358
      3958.0000         0.4554       4519.414         0.2697        70.8077      -37.24849     0.07055146
      3958.5000         0.4512        4495.07         0.2664         70.875      -37.31682     0.06879944
      3959.0000          0.447       4447.719         0.2637        70.9424      -37.38525     0.06704477
      3959.5000         0.4406       4396.305         0.2609         70.884      -37.32789     0.06851558
      3960.0000         0.4314       4341.289         0.2599        70.7703      -37.21523     0.07140448
      3960.5000         0.4274       4282.734         0.2608        70.3802      -36.82616      0.0813805
      3961.0000         0.4334       4189.664         0.2617        69.7562      -36.20319     0.09735411
      3961.5000         0.4395       4076.602         0.2626        69.1921      -35.64012      0.1117918
      3962.0000         0.4461       3977.121         0.2679        68.6404      -35.08946      0.1259113
      3962.5000         0.4553        3868.41         0.2743        68.1908      -34.64089       0.137413
      3963.0000         0.4644       3759.602         0.2807        68.1906      -34.64172      0.1373919
      3963.5000         0.4736       3714.027         0.2872        68.1904      -34.64255      0.1373705
      3964.0000         0.4828       3682.191         0.2936        68.1902      -34.64339      0.1373491
      3964.5000         0.4872       3719.063         0.2991        68.4407      -34.89492      0.1308996
      3965.0000         0.4915       3756.992         0.3027        68.6992      -35.15446      0.1242447
      3965.5000         0.4946       3796.367         0.3062        68.9576      -35.41389      0.1175926
      3966.0000          0.494        3835.77         0.3098        69.2162      -35.67352      0.1109354
      3966.5000         0.4933       3869.867         0.3134        69.4746      -35.93295      0.1042833
      3967.0000         0.4915       3877.871         0.3169        69.2141      -35.67349      0.1109362
      3967.5000         0.4892       3880.797         0.3205        68.5649      -35.02532      0.1275558
      3968.0000         0.4869       3851.535         0.3226        68.8094      -35.27085      0.1212602
      3968.5000         0.4846       3807.074         0.3246        68.9484      -35.41088      0.1176696
      3969.0000         0.4949       3638.035         0.3265        69.0719      -35.53542      0.1144765
      3969.5000         0.5209       3534.031         0.3285        69.1954      -35.65995      0.1112834
      3970.0000          0.541       3299.148         0.3304         69.319      -35.78458      0.1080876
      3970.5000         0.5594       3032.535         0.3332        69.0975      -35.56412      0.1137406
      3971.0000         0.5759       2945.004         0.3388        67.7675      -34.23515      0.1478167
      3971.5000         0.5875       2898.621         0.3443        67.5203      -33.98898      0.1541286
      3972.0000         0.5848       2860.941         0.3499        67.7197      -34.18942      0.1489893
      3972.5000         0.5811       2827.742         0.3555        67.9192      -34.38994      0.1438476
      3973.0000         0.5773       2794.109          0.362        68.1187      -34.59048      0.1387057
      3973.5000         0.5735       2759.773         0.3705        68.3181      -34.79091      0.1335663
      3974.0000         0.5698       2725.406          0.379        68.5173      -34.99115      0.1284321
      3974.5000          0.566       2677.301         0.3874        68.7286      -35.20348      0.1229877
      3975.0000         0.5622       2613.988         0.3918        67.4338      -33.90971      0.1561613
      3975.5000         0.5595       2549.207         0.3936         66.708      -33.18494       0.174745
      3976.0000         0.5582       2517.375         0.3954        65.9816      -32.45958      0.1933442
      3976.5000          0.557       2551.637         0.3972         65.595      -32.07401      0.2032304
      3977.0000         0.5558       2677.555          0.399        65.3375      -31.81755      0.2098065
      3977.5000         0.5543       2780.395         0.4008        65.1815      -31.66258        0.21378
      3978.0000         0.5522       2864.813         0.3929        65.2164      -31.69851      0.2128587
      3978.5000         0.5501        2936.07          0.378        65.2513      -31.73444      0.2119374
      3979.0000          0.548           3009         0.3631        65.2863      -31.77048      0.2110134
      3979.5000         0.5459       3086.133         0.3481        66.1077      -32.59291      0.1899255
      3980.0000         0.5438       3179.609         0.3332        67.0519      -33.53814      0.1656886
      3980.5000         0.5415       3303.703         0.3183        68.5023      -34.98957      0.1284726
      3981.0000          0.538       3557.918         0.3024        70.0215      -36.50981     0.08949211
      3981.5000         0.5345       3631.961         0.2859         70.442      -36.93134     0.07868351
      3982.0000          0.531       3693.352         0.2694        70.8354      -37.32578     0.06856987
      3982.5000         0.5275       3750.492         0.2637        70.6442      -37.13561     0.07344593
      3983.0000         0.5236        3818.66         0.2594        70.3923      -36.88474     0.07987839
      3983.5000         0.5194       3919.172         0.2677        70.1405      -36.63398     0.08630831
