#------------------------------------------------------------------------------
# Created by    : vladimir.rabinovich
# Created on    : 09/19/2023 17:22:47
#------------------------------------------------------------------------------
~Version Information Section
VERS.           2.0     :   CWLS log ASCII Standard - VERSION 2.0
WRAP.           NO      :   One line per depth step
~Well Information Section
#MNEM       .UNIT                                         VALUE :DESCRIPTION
#------------------------------------------------------------------------------
STRT        .FT                                             494 :START DEPTH
STOP        .FT                                            8323 :STOP DEPTH
STEP        .FT                                             0.5 :STEP      
NULL        .                                           -999.25 :NULL      
COMP        .                                       MONSANTO CO :COMPANY   
WELL        .                                     ST TR 00293-S :WELL      
FLD         .                                           WILDCAT :FIELD     
LOC         .                                                   :LOCATION  
CNTY        .                             GALVESTON SMALL BLOCK :LOCATION  
STAT        .                                             TEXAS :STATE     
CTRY        .                                     UNITED STATES :COUNTRY   
SRVC        .                                                   :SERVICE COMPANY
DATE        .                             9/13/2023 11:19:17 AM :LOG DATE  
API         .                                    42605300230000 :API NUMBER
UWI         .                                    42605300230000 :UNIQUE WELL ID
XCOORD      .                                  996050.411534576 :SURFACE X 
YCOORD      .                                  10568409.9475512 :SURFACE Y 
LAT         .                                        29.1061939 :LATITUDE  
LON         .                                        -95.018267 :LONGITUDE 
ELEV        .FT                                              81 :ELEVATION VALUE
ELEV_TYPE   .                                                KB :ELEVATION REFERENCE TYPE
~Curve Information Section
#MNEM       .UNIT                                      API CODE :CURVE DESCRIPTION
#------------------------------------------------------------------------------
DEPT        .FT                                                 :DEPTH     
DT          .US/F                                               :          
GR          .GAPI                                               :          
GR_NORM     .GAPI                                               :GammaRay Normalized
ILD         .OHMM                                               :          
SFL         .OHMM                                               :          
SP          .MV                                                 :          
SP_NORM     .MV                                                 :SP Normalized
VSH_GR      .V/V                                                :Volume of Shale from GR
VSH_SP      .V/V                                                :Volume of Shale from SP
~A        DEPTH             DT             GR        GR_NORM            ILD            SFL             SP        SP_NORM         VSH_GR         VSH_SP
# ...
      3091.0000       160.2427        107.266       96.05524         0.5524         0.5742        29.1784       7.590322              1              1
      3091.5000       158.9834       107.8718       97.05632         0.5375         0.5601        28.3622       8.389608              1              1
      3092.0000       157.8962        108.911        98.7702          0.523         0.5468        28.1903        8.54459              1              1
      3092.5000       156.6978       110.0723       100.6849         0.5092         0.5345        29.1253       7.592676              1              1
      3093.0000       155.3901        112.641       104.9143         0.4961         0.5239        30.1978       6.503258              1              1
      3093.5000       154.0247       115.5601         109.72         0.4835         0.5134        32.4141       4.270042              1              1
      3094.0000       152.6348       115.2751        109.256         0.4722         0.5016        34.8204       1.846825              1              1
      3094.5000       151.1575       114.6466        108.227         0.4611         0.4903        37.6092      -0.958889              1              1
      3095.0000        149.738       112.6298       104.9148         0.4533         0.4807        39.7173      -3.083908              1      0.9052769
      3095.5000       148.4309       109.9335        100.485         0.4467         0.4747        40.1277      -3.511223              1      0.8858535
      3096.0000       147.1841       105.4034       93.03923         0.4443         0.4987        40.1141      -3.514538              1      0.8857028
      3096.5000       146.0681       100.1858       84.46276         0.4452         0.5659        40.1005      -3.517853              1      0.8855522
      3097.0000       145.0251        96.5508       78.48913         0.4489         0.6106        40.0486      -3.482868      0.9678538      0.8871424
      3097.5000       144.1436        95.9734       77.54424         0.4572         0.6362        40.1376      -3.588787      0.9477499      0.8823279
      3098.0000       143.4866        95.9519       77.51361         0.4689         0.6455        40.7817      -4.249802      0.9470981      0.8522817
      3098.5000        142.832        96.0005       77.59829         0.4854         0.6266        41.9667      -5.451721      0.9488998       0.797649
      3099.0000       142.2085        96.0264       77.64561         0.5045         0.6072        43.4623      -6.964233      0.9499065      0.7288985
      3099.5000       141.8191        95.7227       77.15087         0.5284         0.5803        44.5417      -8.060551      0.9393802      0.6790659
      3100.0000       142.3164        95.4189       76.65596         0.5545         0.5461        44.0317      -7.567467      0.9288502      0.7014788
      3100.5000       144.0957        96.4833       78.41128         0.5784         0.5593        43.2111      -6.763786      0.9661974      0.7380097
      3101.0000       144.9746       100.4259       84.90028         0.6029         0.5796        41.7305      -5.300098              1       0.804541
      3101.5000        145.238       105.2847       92.89612         0.6278         0.5912        40.3154      -3.901913              1      0.8680949
      3102.0000        145.949       108.0559       97.45856          0.649         0.5958        38.5917      -2.195133              1      0.9456758
      3102.5000         147.54       109.9922       100.6479         0.6709         0.5973        37.0154      -0.635746              1              1
      3103.0000       149.2485       108.3347       97.92656          0.696         0.5952        34.6367       1.726036              1              1
      3103.5000       150.1082       106.8241       95.44687         0.7213         0.5961         32.641       3.704823              1              1
      3104.0000        150.447       105.3127       92.96585         0.7451         0.6045        32.2336       4.095303              1              1
      3104.5000       149.8435       103.9427       90.71739         0.7697         0.6333        32.4929       3.819088              1              1
      3105.0000       146.8342       102.6509       88.59755         0.7916         0.6671        32.9832       3.311871              1              1
      3105.5000       143.0098       101.3621       86.48261          0.814          0.697        33.1614       3.116756              1              1
      3106.0000       139.3096        99.8683       84.03056         0.8357          0.709        32.8707       3.390541              1              1
      3106.5000       134.1111        97.9396       80.86322         0.8558         0.7104        32.4694       3.774925              1              1
      3107.0000       130.8743         96.042       77.74705         0.8658          0.712        32.2239        4.00351      0.9520648              1
      3107.5000        128.834        95.0758        76.1627         0.8759         0.7138        32.2756       3.934891      0.9183554              1
      3108.0000       128.4734        94.5214       75.25567         0.8698         0.7129        32.5981       3.595478      0.8990568              1
      3108.5000       129.0801        94.9144       75.90673          0.863         0.7119        32.8177       3.358959      0.9129092              1
      3109.0000        129.948        95.3073       76.55766         0.8503         0.7127        33.2963       2.863445      0.9267586              1
      3109.5000       131.5999           95.7       77.20823         0.8348         0.7154         34.231       1.911827      0.9406006              1
      3110.0000       133.4836        96.4192       78.39584         0.8189         0.7131        35.3029      0.8230133      0.9658688              1
      3110.5000       136.0916        97.4127       80.03454         0.8041         0.7052        36.3598     -0.2508049              1              1
      3111.0000       140.3162        98.9534       82.57321         0.7933          0.696        35.3504      0.7416801              1              1
      3111.5000       143.4038       100.0621       84.40139         0.7822         0.6706        33.6348       2.440365              1              1
      3112.0000       144.8704       100.9756       85.90854         0.7712         0.6683        32.7781       3.280148              1              1
      3112.5000       145.5217       101.6815       87.07424         0.7676         0.6663         32.693       3.348331              1              1
      3113.0000       146.0688       102.4189       88.29175         0.7662         0.6664        32.8016       3.222813              1              1
      3113.5000       146.5417       102.9705       89.20367         0.7643         0.6625        33.3013         2.7062              1              1
      3114.0000       147.0796       103.1459       89.49689         0.7622         0.6583         34.401       1.589581              1              1
      3114.5000       147.8643       102.6459       88.67928         0.7603         0.6546        35.5048      0.4688683              1              1
      3115.0000       148.6204       102.0706       87.73785          0.759         0.6499        36.4417      -0.484951              1              1
      3115.5000       149.4375       101.3068        86.4864         0.7581         0.6517        36.8085     -0.8686638              1              1
      3116.0000       149.7839       100.5447       85.23773         0.7603         0.6566        35.7991      0.1238213              1              1
      3116.5000       149.2981       100.3389         84.904         0.7687          0.663        34.5135       1.392502              1              1
      3117.0000       146.6006       100.2023       84.68408         0.7783         0.6687        33.1725       2.716587              1              1
