#------------------------------------------------------------------------------
# Created by    : vladimir.rabinovich
# Created on    : 09/19/2023 17:19:43
#------------------------------------------------------------------------------
~Version Information Section
VERS.           2.0     :   CWLS log ASCII Standard - VERSION 2.0
WRAP.           NO      :   One line per depth step
~Well Information Section
#MNEM       .UNIT                                         VALUE :DESCRIPTION
#------------------------------------------------------------------------------
STRT        .FT                                            1596 :START DEPTH
STOP        .FT                                            6079 :STOP DEPTH
STEP        .FT                                             0.5 :STEP      
NULL        .                                           -999.25 :NULL      
COMP        .                                 EOG RESOURCES INC :COMPANY   
WELL        .                                     ST TR 00721-S :WELL      
FLD         .                                  SHERMAN OFFSHORE :FIELD     
LOC         .                                                   :LOCATION  
CNTY        .                      MATAGORDA ISLAND SMALL BLOCK :LOCATION  
STAT        .                                             TEXAS :STATE     
CTRY        .                                     UNITED STATES :COUNTRY   
SRVC        .                                                   :SERVICE COMPANY
DATE        .                             9/13/2023 11:19:17 AM :LOG DATE  
API         .                                    42603300060000 :API NUMBER
UWI         .                                    42603300060000 :UNIQUE WELL ID
XCOORD      .                                  491308.028993428 :SURFACE X 
YCOORD      .                                  10247941.6299489 :SURFACE Y 
LAT         .                                        28.1931224 :LATITUDE  
LON         .                                       -96.5672747 :LONGITUDE 
ELEV        .FT                                              74 :ELEVATION VALUE
ELEV_TYPE   .                                                KB :ELEVATION REFERENCE TYPE
~Curve Information Section
#MNEM       .UNIT                                      API CODE :CURVE DESCRIPTION
#------------------------------------------------------------------------------
DEPT        .FT                                                 :DEPTH     
ASFL        .OHMM                                               :          
CILD        .MMHO                                               :          
ILD         .OHMM                                               :          
SP          .MV                                                 :          
SP_NORM     .MV                                                 :SP Normalized
VSH_SP      .V/V                                                :Volume of Shale from SP
~A        DEPTH           ASFL           CILD            ILD             SP        SP_NORM         VSH_SP
# ...
      3686.0000         0.9217       1398.055         0.7268       -64.8859      -23.92205      0.5322031
      3686.5000         0.9032       1429.691         0.7068       -65.7767      -24.81285      0.5140235
      3687.0000         0.8846       1575.755         0.6967       -68.7229      -27.75904      0.4538971
      3687.5000          0.871       1583.725         0.6965       -71.6691      -30.70524      0.3937706
      3688.0000         0.9735        1568.03         0.6962       -74.6152      -33.65134      0.3336461
      3688.5000          1.007       1500.859         0.7059       -78.1273      -37.16344      0.2619706
      3689.0000          1.005       1433.689         0.7352       -78.3247      -37.36084       0.257942
      3689.5000         1.9381       1366.518         0.7744       -80.5095      -39.54564      0.2133542
      3690.0000         1.9576       1299.348         0.8136       -85.7351      -44.77124      0.1067093
      3690.5000         1.9574       1232.177         0.8627        -87.613      -46.64914     0.06838483
      3691.0000         1.9571         1158.3         0.8723       -88.1077      -47.14384     0.05828896
      3691.5000         1.7053       1182.007          0.872       -89.0984      -48.13454      0.0380706
      3692.0000         1.6306       1230.167         0.8718       -89.9892      -49.02534       0.019891
      3692.5000         1.5559       1278.327         0.8321       -91.0774      -50.11354              0
      3693.0000         1.4813       1326.487         0.8023       -91.4747      -50.51085              0
      3693.5000         1.4306       1374.647         0.7823       -91.7733      -50.80944              0
      3694.0000         1.4187       1422.807         0.7624        -92.073      -51.10914              0
      3694.5000         1.4068       1470.967         0.7424       -92.1742      -51.21035              0
      3695.0000         1.2056       1519.127         0.6764       -92.0779      -51.11405              0
      3695.5000           1.22       1567.287         0.6692        -91.783      -50.81914              0
      3696.0000          1.239       1604.842         0.6588       -90.7028      -49.73894    0.005327731
      3696.5000         1.3001       1628.591         0.6486       -89.6227      -48.65885     0.02737045
      3697.0000         1.1009       1668.119         0.6486       -88.5425      -47.57865     0.04941535
      3697.5000         1.0949       1683.979         0.6485       -87.4623      -46.49845     0.07146025
      3698.0000         1.0929        1691.95         0.6552       -86.2688      -45.30494     0.09581749
      3698.5000         1.0909       1692.032         0.6586         -86.27      -45.30614     0.09579305
      3699.0000         1.2332       1688.129         0.6725       -86.2444      -45.28054     0.09631542
      3699.5000         1.2994       1608.494         0.6797       -86.2188      -45.25495      0.0968378
      3700.0000         1.3657       1528.859         0.6984       -95.5581      -54.59424              0
      3700.5000         1.4319       1449.224         0.7166       -95.7565      -54.79264              0
      3701.0000         1.4654       1367.705         0.7263       -95.8572      -54.89334              0
      3701.5000         1.4673        1337.51         0.7304       -95.8592      -54.89534              0
      3702.0000         1.4673       1337.551         0.7346       -85.9893      -45.02545      0.1015215
      3702.5000         1.4613       1419.103         0.7188       -86.1886      -45.22474     0.09745423
      3703.0000         1.3418       1500.655         0.6988       -87.9559      -46.99205     0.06138681
      3703.5000         1.2224       1582.207         0.6591       -94.0913      -53.12745              0
      3704.0000         1.1029       1663.759         0.6293       -94.1688      -53.20494              0
      3704.5000         0.9834       1745.311         0.5995       -94.2464      -53.28254              0
      3705.0000         0.8832       1826.862         0.5795       -94.3239      -53.36004              0
      3705.5000         0.8772       1908.414         0.5595       -94.4015      -53.43764              0
      3706.0000         0.8574       1989.966         0.5396        -94.479      -53.51514              0
      3706.5000         0.8949       2071.518         0.5295        -86.007      -45.04315      0.1011602
      3707.0000         0.9412        2182.67         0.5194       -86.1067      -45.14284     0.09912568
      3707.5000         0.9876       2202.436         0.5191       -87.0072      -46.04335     0.08074803
      3708.0000         1.0564       2218.299          0.509       -87.8894      -46.92554     0.06274407
      3708.5000         1.3246       2222.328         0.5088       -87.8914      -46.92755     0.06270311
      3709.0000         1.3088       2226.357         0.5085       -87.6959      -46.73204     0.06669298
      3709.5000          1.003       2230.385          0.528       -87.4018      -46.43795     0.07269497
      3710.0000         0.9991       2206.801         0.5376       -87.3041      -46.34024     0.07468889
      3710.5000          0.997       2043.507         0.5571       -86.5164      -45.55255     0.09076434
      3711.0000          0.997       1880.214          0.616       -84.0506      -43.08674      0.1410869
      3711.5000         1.8214        1716.92         0.6454       -83.1632      -42.19934       0.159197
      3712.0000         1.8214       1553.627         0.6846       -79.2173      -38.25344      0.2397256
      3712.5000         1.8214       1390.333         0.7193       -75.2714      -34.30754      0.3202542
      3713.0000         1.8194       1256.553         0.7958       -71.3255      -30.36164      0.4007828
      3713.5000         1.1518       1107.948         0.9026       -67.3796      -26.41574      0.4813113
      3714.0000         1.0953       959.3439         1.0424       -63.7274      -22.76355       0.555846
      3714.5000         1.0835       810.7394         1.2334       -56.3321      -15.36824      0.7067705
      3715.0000         1.0578        732.168         1.3931       -48.9369      -7.973045       0.857693
      3715.5000         1.0222       736.1934         1.3929       -43.5947      -2.630844      0.9667175
      3716.0000         1.0005       741.4248          1.373       -41.0247    -0.06084442              1
      3716.5000         0.9906       748.1892         1.3629       -37.2822       3.681656              1
      3717.0000         0.9846       756.1596         1.3429       -37.0858       3.878056              1
      3717.5000         0.9786       775.9649         1.3229       -36.6929       4.270954              1
      3718.0000         0.9747       787.8803         1.3128       -36.3001       4.663757              1
      3718.5000         0.9746       803.7811         1.3126       -36.1036       4.860256              1
      3719.0000         0.9726       811.7517         1.3222       -35.8095       5.154354              1
      3719.5000         0.9765       819.7224         1.3417       -35.5153       5.448555              1
      3720.0000         0.9804       815.8177          1.371       -39.9612       1.002655              1
      3720.5000         1.1092       800.1184         1.4004       -39.9622       1.001656              1
      3721.0000         1.2379       769.5534         1.4495       -39.5532       1.410656              1
      3721.5000         1.3945       738.9885         1.5281       -39.1441       1.819756              1
      3722.0000         1.3944       708.4235         1.5673       -38.6849       2.278957              1
      3722.5000         1.3964       677.8585         1.6164       -38.7855       2.178356              1
      3723.0000         1.3963       647.2935         1.6457       -38.7865       2.177357              1
      3723.5000         1.3712       616.7286         1.6751       -40.9621    0.001754761              1
