#------------------------------------------------------------------------------
# Created by    : vladimir.rabinovich
# Created on    : 09/19/2023 17:22:47
#------------------------------------------------------------------------------
~Version Information Section
VERS.           2.0     :   CWLS log ASCII Standard - VERSION 2.0
WRAP.           NO      :   One line per depth step
~Well Information Section
#MNEM       .UNIT                                         VALUE :DESCRIPTION
#------------------------------------------------------------------------------
STRT        .FT                                             494 :START DEPTH
STOP        .FT                                            8323 :STOP DEPTH
STEP        .FT                                             0.5 :STEP      
NULL        .                                           -999.25 :NULL      
COMP        .                                       MONSANTO CO :COMPANY   
WELL        .                                     ST TR 00293-S :WELL      
FLD         .                                           WILDCAT :FIELD     
LOC         .                                                   :LOCATION  
CNTY        .                             GALVESTON SMALL BLOCK :LOCATION  
STAT        .                                             TEXAS :STATE     
CTRY        .                                     UNITED STATES :COUNTRY   
SRVC        .                                                   :SERVICE COMPANY
DATE        .                             9/13/2023 11:19:17 AM :LOG DATE  
API         .                                    42605300230000 :API NUMBER
UWI         .                                    42605300230000 :UNIQUE WELL ID
XCOORD      .                                  996050.411534576 :SURFACE X 
YCOORD      .                                  10568409.9475512 :SURFACE Y 
LAT         .                                        29.1061939 :LATITUDE  
LON         .                                        -95.018267 :LONGITUDE 
ELEV        .FT                                              81 :ELEVATION VALUE
ELEV_TYPE   .                                                KB :ELEVATION REFERENCE TYPE
~Curve Information Section
#MNEM       .UNIT                                      API CODE :CURVE DESCRIPTION
#------------------------------------------------------------------------------
DEPT        .FT                                                 :DEPTH     
DT          .US/F                                               :          
GR          .GAPI                                               :          
GR_NORM     .GAPI                                               :GammaRay Normalized
ILD         .OHMM                                               :          
SFL         .OHMM                                               :          
SP          .MV                                                 :          
SP_NORM     .MV                                                 :SP Normalized
VSH_GR      .V/V                                                :Volume of Shale from GR
VSH_SP      .V/V                                                :Volume of Shale from SP
~A        DEPTH             DT             GR        GR_NORM            ILD            SFL             SP        SP_NORM         VSH_GR         VSH_SP
# ...
      1527.5000       165.8853       105.3485       85.34165         1.4053         1.1235        56.8671      -2.194344              1              1
      1528.0000        165.999       107.2848       87.92817         1.3691         1.0899        57.5806      -2.895435              1              1
      1528.5000        165.967       108.4663       89.50679         1.3338         1.0905        58.5595      -3.861927              1      0.9138073
      1529.0000       165.9053       108.7919        89.9425         1.2991         1.1021        59.4938      -4.783817              1      0.8216183
      1529.5000       165.8435       109.0884       90.33934         1.2652         1.1162        60.5468      -5.824409              1       0.717559
      1530.0000       165.8228       109.2787       90.59439         1.2322         1.1306        60.2862      -5.551403              1      0.7448597
      1530.5000       164.7749       108.5712       89.65057         1.2102         1.1452        58.9103      -4.163094              1      0.8836907
      1531.0000       163.4104       107.5483       88.28561         1.1893         1.1522        57.8943      -3.134682              1      0.9865319
      1531.5000       162.0935       106.5864       87.00208         1.1687         1.1402        57.2976      -2.525574              1              1
      1532.0000       161.1633       106.9318       87.46425         1.1486         1.1283        56.8182      -2.033768              1              1
      1532.5000       160.9919        108.423       89.45638         1.1258         1.1126        56.6724      -1.875561              1              1
      1533.0000       161.2473       109.6884       91.14703         1.1027         1.0844        56.5266       -1.71735              1              1
      1533.5000       161.5798       110.9803       92.87308           1.08          1.057        56.2917      -1.470039              1              1
      1534.0000       161.9084       111.6792       93.80727         1.0808         1.0316        56.0477      -1.213631              1              1
      1534.5000       162.1189       111.4187       93.46033         1.0869          1.017        55.8833      -1.036827              1              1
      1535.0000       162.3296       110.8906       92.75609         1.0987         1.0026        56.1424      -1.283516              1              1
      1535.5000       162.8018       110.3625       92.05183         1.1142         1.0186        56.4014      -1.530109              1              1
      1536.0000       163.3228       109.5098       90.91412         1.1298         1.0407        56.7491      -1.865398              1              1
      1536.5000       164.3247       108.5587       89.64503         1.1455         1.0769        57.1294      -2.233292              1              1
      1537.0000       166.0271       107.4622       88.18176         1.1561         1.1161        57.4728      -2.564285              1              1
      1537.5000       169.4414       106.3148       86.65054         1.1668         1.1536        57.8098      -2.888874              1              1
      1538.0000       172.7053       105.0826        85.0061         1.1777         1.2301         57.475      -2.541664              1              1
      1538.5000       174.9104       103.8018       83.29675         1.1851         1.1314        57.0114      -2.065655              1              1
      1539.0000       176.9805       101.9623       80.84134         1.1796         1.0461        56.3168       -1.35865              1              1
      1539.5000       178.3523       100.8556       79.36446         1.1741         1.0074        55.8318     -0.8612404       0.986478              1
      1540.0000       179.6155        99.7548       77.89547         1.1686          0.972        55.7936     -0.8106308      0.9552228              1
      1540.5000       180.4849        98.8544       76.69408         1.1662         0.9459        56.2593      -1.263924      0.9296612              1
      1541.0000       181.3481        98.0602       75.63449         1.1655         0.9397        56.7249      -1.717113      0.9071168              1
      1541.5000       181.9951        97.6377       75.07124         1.1649         0.9373        57.1008      -2.080608      0.8951328              1
      1542.0000       182.4929        97.2737       74.58611         1.1649         0.9516        57.3947      -2.362099      0.8848107              1
      1542.5000       181.0459        97.1184       74.37966         1.1707         0.9661        57.2643      -2.219292      0.8804184              1
      1543.0000       179.5688        97.2363       74.53802         1.1766         0.9776        56.8992      -1.841782      0.8837878              1
      1543.5000       177.8704        97.5024       74.89428         1.1826         0.9692        56.5355      -1.465675      0.8913677              1
      1544.0000       176.1721         96.618       73.71425         1.1859         0.9627        56.1728      -1.090565      0.8662606              1
      1544.5000       174.4768        91.8651       67.36851         1.1887         0.9717        55.8049     -0.7102585      0.7312449              1
      1545.0000        172.783        89.7604         64.559         1.1792         0.9808        55.3844     -0.2773476       0.671468              1
      1545.5000       170.6499        87.7754       61.90929         1.1614         1.0162        54.6113      0.5081596      0.6150914              1
      1546.0000       168.3147        85.8365       59.32117         1.1152         1.0166        53.4619       1.669968      0.5600249              1
      1546.5000       165.8279        84.4136       57.42206         1.0528         0.9534        55.0214      0.1228752      0.5196183              1
      1547.0000       163.8669        83.0082       55.54633         0.9992         0.8839        56.0268     -0.8701134      0.4797091              1
      1547.5000       164.4233        82.1824       54.44455         0.9513         0.8523        56.7798      -1.610706      0.4562671              1
      1548.0000       165.5723        81.5122       53.55054          0.926         0.8243        57.5613      -2.379799      0.4372456              1
      1548.5000       166.4541        80.8844       52.71315         0.9032         0.8094        58.4186      -3.224689      0.4194287      0.9775311
      1549.0000       166.8352         80.324       51.96576         0.8996         0.7991        58.8555      -3.649181      0.4035268      0.9350818
      1549.5000       166.8857        80.8478       52.66613         0.9214         0.7911         58.712      -3.493275      0.4184284      0.9506725
      1550.0000       167.1331        83.6008       56.34321         0.9546         0.7901        59.2222      -3.991062      0.4966641      0.9008938
      1550.5000       167.4014        86.3824       60.05848         0.9856         0.7902        59.5726       -4.32906      0.5757124       0.867094
      1551.0000       168.1243        89.2899       63.94187         1.0091         0.8116        59.8406      -4.584648      0.6583377      0.8415352
      1551.5000       168.7175         91.639       67.07961         1.0332         0.8438        60.1516       -4.88324       0.725098       0.811676
      1552.0000       167.2463        93.6038       69.70419         1.0548         0.8887        60.5579       -5.27713      0.7809401       0.772287
      1552.5000       164.5164        94.8876        71.4194         1.0743         0.9201        60.4632      -5.170021      0.8174341      0.7829979
      1553.0000       161.4861         95.968       72.86301         1.0921         0.9338        58.6494      -3.343815      0.8481492      0.9656185
      1553.5000       157.1116        96.6796       73.81417         1.0787         0.9235        57.1966      -1.878609      0.8683866              1
