#------------------------------------------------------------------------------
# Created by    : vladimir.rabinovich
# Created on    : 09/19/2023 17:20:26
#------------------------------------------------------------------------------
~Version Information Section
VERS.           2.0     :   CWLS log ASCII Standard - VERSION 2.0
WRAP.           NO      :   One line per depth step
~Well Information Section
#MNEM       .UNIT                                         VALUE :DESCRIPTION
#------------------------------------------------------------------------------
STRT        .FT                                             494 :START DEPTH
STOP        .FT                                            8560 :STOP DEPTH
STEP        .FT                                             0.5 :STEP      
NULL        .                                           -999.25 :NULL      
COMP        .                           COLORADO OIL & GAS CORP :COMPANY   
WELL        .                                     ST TR 00122-S :WELL      
FLD         .                                           WILDCAT :FIELD     
LOC         .                                                   :LOCATION  
CNTY        .                           HIGH ISLAND SMALL BLOCK :LOCATION  
STAT        .                                             TEXAS :STATE     
CTRY        .                                     UNITED STATES :COUNTRY   
SRVC        .                                                   :SERVICE COMPANY
DATE        .                             9/13/2023 11:19:17 AM :LOG DATE  
API         .                                    42606300100000 :API NUMBER
UWI         .                                    42606300100000 :UNIQUE WELL ID
XCOORD      .                                  1208966.22079576 :SURFACE X 
YCOORD      .                                  10715303.2202208 :SURFACE Y 
LAT         .                                        29.5185768 :LATITUDE  
LON         .                                       -94.3569047 :LONGITUDE 
ELEV        .FT                                              93 :ELEVATION VALUE
ELEV_TYPE   .                                                KB :ELEVATION REFERENCE TYPE
~Curve Information Section
#MNEM       .UNIT                                      API CODE :CURVE DESCRIPTION
#------------------------------------------------------------------------------
DEPT        .FT                                                 :DEPTH     
ASN         .OHMM                                               :          
CILD        .MMHO                                               :          
GR          .GAPI                                               :          
GR_NORM     .GAPI                                               :GammaRay Normalized
ILD         .OHMM                                               :          
SP          .MV                                                 :          
SP_NORM     .MV                                                 :SP Normalized
VSH_GR      .V/V                                                :Volume of Shale from GR
VSH_SP      .V/V                                                :Volume of Shale from SP
~A        DEPTH            ASN           CILD             GR        GR_NORM            ILD             SP        SP_NORM         VSH_GR         VSH_SP
# ...
      1024.0000          1.881       457.4072         45.026       70.27147         2.3802      -107.1956      -2.238289        0.79301              1
      1024.5000         1.8703         465.71        45.2689        70.5953         2.3408      -108.4286      -3.479942         0.7999              1
      1025.0000         1.8574        476.146        46.1215       71.70003         2.2978      -107.9342      -2.994202      0.8234048              1
      1025.5000         1.8414       486.5835        46.9739        72.8045         2.2547      -106.7256      -1.794258      0.8469043              1
      1026.0000         1.8265       496.5796        49.3599       75.87325         2.2117      -105.7507     -0.8280182      0.9121969              1
      1026.5000         1.8127        505.373        52.6379       80.08449         2.1687      -105.2302     -0.3161774              1              1
      1027.0000         1.8262       505.7837         51.732        78.9369         2.1245      -104.7097      0.1956635      0.9773808       0.984949
      1027.5000          1.853        486.377        50.2753       77.08383          2.076      -104.1893      0.7074051      0.9379539      0.9455842
      1028.0000         1.8803       448.0073        48.8187        75.2309         2.0275      -103.7332       1.154846      0.8985297      0.9111657
      1028.5000         1.9203       391.0767        46.3921       72.13557         2.3504      -103.7959       1.083488      0.8326716      0.9166547
      1029.0000         1.9292       406.4839        45.6791       71.23504         2.5449      -104.1641      0.7066269      0.8135115      0.9456441
      1029.5000         1.8839       421.8882        46.6292       72.46466         2.6404      -104.5538      0.3082657      0.8396736      0.9762872
      1030.0000         1.8719       440.7466        47.5795       73.69453         2.5414      -104.9435    -0.09008789      0.8658412              1
      1030.5000         1.8604       464.7324        54.3738       82.40952         2.4424      -105.3333     -0.4885483              1              1
      1031.0000         1.8491        486.686        56.0004       84.50562         2.3059      -105.5022     -0.6661072              1              1
      1031.5000         1.8127       505.2935        57.0978        85.9239         2.1673      -105.6553     -0.8278656              1              1
      1032.0000         1.7232       523.9033        57.9742       87.05911         2.0708      -105.8082     -0.9894257              1              1
      1032.5000         1.7069       544.6367        58.5001        87.7454         2.0129      -105.9613      -1.151192              1              1
      1033.0000         1.6908       566.0029        58.0917       87.23503          1.955      -106.1144       -1.31295              1              1
      1033.5000         1.6752       579.9326        56.4839       85.18842          1.897      -106.2675      -1.474709              1              1
      1034.0000         1.6617       591.4609        55.1485       83.49072         1.8568       -106.369      -1.584869              1              1
      1034.5000         1.6523       602.3398        54.1105       82.17393         1.8378      -106.4219      -1.646423              1              1
      1035.0000         1.6428       610.2598        53.0728       80.85752         1.8773      -106.4747      -1.707886              1              1
      1035.5000         1.6346       600.6211        52.1943       79.74503         1.9298      -106.5277      -1.769547      0.9945752              1
      1036.0000         1.6277       582.6455        51.6904       79.11234         2.0126      -106.5806        -1.8311      0.9811135              1
      1036.5000         1.6392       564.6729         51.933       79.43577         2.0953      -106.6335      -1.892662      0.9879951              1
      1037.0000         1.7076       545.1641        53.0212       80.84226          2.178      -106.6864      -1.954224              1              1
      1037.5000         1.7297       519.8789        54.1429       82.29166         2.2786      -106.6472      -1.923683              1              1
      1038.0000         1.7523       492.1724        55.2576       83.73209         2.3812      -106.6024      -1.887543              1              1
      1038.5000         1.7773       451.4951        52.3547       80.02673         2.4801      -106.5576      -1.851402              1              1
      1039.0000         1.8089       424.4165        49.7297       76.67727         2.5364      -106.4719      -1.774353      0.9293036              1
      1039.5000         1.8472       404.1621        49.1838       75.99077         2.5926       -106.287      -1.598114      0.9146972              1
      1040.0000         1.8741       391.7554        49.3493       76.21545         2.6489      -106.1019      -1.421669      0.9194776              1
      1040.5000         1.8875       396.9492        49.5146       76.43988         2.7143      -105.9021       -1.23053      0.9242527              1
      1041.0000         1.8702       410.5601        49.7277       76.72553         2.8043      -105.4319     -0.7689896      0.9303305              1
      1041.5000         1.8436       424.2817         50.069       77.17538         2.7227      -104.9617     -0.3074493      0.9399016              1
      1042.0000         1.8176       439.1099        50.4103       77.62524         2.6317      -104.0737      0.5718918      0.9494731      0.9560083
      1042.5000         1.7917       453.9346        50.7805       78.11209          2.524      -102.7014       1.935532      0.9598317       0.851113
      1043.0000         1.7569       468.7627        51.4419       78.97194         2.4031      -101.6213       3.006973      0.9781263      0.7686943
      1043.5000         1.7216       482.2144        49.4102        76.3824         2.2822      -100.5287       4.090912      0.9230298      0.6853145
      1044.0000         1.6872       494.3164        47.5945       74.06952         2.2282       -99.0531       5.557854      0.8738195      0.5724728
      1044.5000         1.6653       506.4194        45.9165       71.93301         2.1963        -98.496       6.106293       0.828362      0.5302852
      1045.0000         1.6458       515.2617         37.379        61.0107         2.1643       -98.3347       6.258934      0.5959724      0.5185435
      1045.5000         1.6271       522.8799        34.0949       56.81706         2.1599       -98.1735       6.411476       0.506746      0.5068095
      1046.0000         1.6095       527.7568        35.3089       58.38468         2.1919       -98.1161        6.46022      0.5400995        0.50306
      1046.5000         1.5919       519.0664        36.5229       59.95231          2.224        -98.144        6.42366      0.5734534      0.5058723
      1047.0000         1.5734       503.2979        39.6287       63.94299         2.2561       -98.1721       6.386902      0.6583615      0.5086998
      1047.5000         1.5544       475.9409        40.9117       65.59899         2.2736        -98.973       5.577339      0.6935956      0.5709739
      1048.0000         1.5363         440.48        42.1945       67.25473         2.2363      -100.8883       3.653381       0.728824      0.7189707
      1048.5000         1.5186       462.7832        41.0737       65.83189         2.1989       -101.532       3.001022      0.6985508      0.7691521
      1049.0000         1.4946       485.0249        36.4874       59.97038         2.1616       -100.208        4.31636      0.5738379      0.6679723
      1049.5000         1.4706       507.1968        34.8757       57.91878         2.1241       -98.8386       5.677101      0.5301868      0.5632999
      1050.0000         1.4586       529.3682        33.8896       56.66846         2.0846       -97.6405       6.866539      0.5035843      0.4718047
