#------------------------------------------------------------------------------
# Created by    : vladimir.rabinovich
# Created on    : 09/19/2023 17:19:43
#------------------------------------------------------------------------------
~Version Information Section
VERS.           2.0     :   CWLS log ASCII Standard - VERSION 2.0
WRAP.           NO      :   One line per depth step
~Well Information Section
#MNEM       .UNIT                                         VALUE :DESCRIPTION
#------------------------------------------------------------------------------
STRT        .FT                                            1596 :START DEPTH
STOP        .FT                                            6079 :STOP DEPTH
STEP        .FT                                             0.5 :STEP      
NULL        .                                           -999.25 :NULL      
COMP        .                                 EOG RESOURCES INC :COMPANY   
WELL        .                                     ST TR 00721-S :WELL      
FLD         .                                  SHERMAN OFFSHORE :FIELD     
LOC         .                                                   :LOCATION  
CNTY        .                      MATAGORDA ISLAND SMALL BLOCK :LOCATION  
STAT        .                                             TEXAS :STATE     
CTRY        .                                     UNITED STATES :COUNTRY   
SRVC        .                                                   :SERVICE COMPANY
DATE        .                             9/13/2023 11:19:17 AM :LOG DATE  
API         .                                    42603300060000 :API NUMBER
UWI         .                                    42603300060000 :UNIQUE WELL ID
XCOORD      .                                  491308.028993428 :SURFACE X 
YCOORD      .                                  10247941.6299489 :SURFACE Y 
LAT         .                                        28.1931224 :LATITUDE  
LON         .                                       -96.5672747 :LONGITUDE 
ELEV        .FT                                              74 :ELEVATION VALUE
ELEV_TYPE   .                                                KB :ELEVATION REFERENCE TYPE
~Curve Information Section
#MNEM       .UNIT                                      API CODE :CURVE DESCRIPTION
#------------------------------------------------------------------------------
DEPT        .FT                                                 :DEPTH     
ASFL        .OHMM                                               :          
CILD        .MMHO                                               :          
ILD         .OHMM                                               :          
SP          .MV                                                 :          
SP_NORM     .MV                                                 :SP Normalized
VSH_SP      .V/V                                                :Volume of Shale from SP
~A        DEPTH           ASFL           CILD            ILD             SP        SP_NORM         VSH_SP
# ...
      5168.0000         1.4206       604.8737         1.6532       -30.4083    -0.02254677              1
      5168.5000         1.4206       717.3394          1.394       -32.0314      -1.635693      0.9877751
      5169.0000         1.4396       829.8051         1.2051       -33.6546      -3.248941      0.9567511
      5169.5000         1.4597       942.2708         1.0613       -35.9186      -5.502989       0.913404
      5170.0000         1.4597       1054.736         0.9481       -44.5993      -14.17374      0.7466589
      5170.5000          1.117       1167.202         0.8567       -57.1293      -26.69379      0.5058887
      5171.0000          1.115       1279.668         0.7815       -57.0345      -26.58904      0.5079032
      5171.5000         1.1169       1379.833         0.7247       -54.8014      -24.34598      0.5510388
      5172.0000         1.1208       1349.028         0.7413       -52.5684      -22.10303      0.5941725
      5172.5000         1.2169       1318.223         0.7586       -49.5513      -19.07598       0.652385
      5173.0000         1.3131       1287.417         0.7767       -49.5531      -19.06783      0.6525418
      5173.5000         1.3764       1256.613         0.9267       -52.8115      -22.31627      0.5900716
      5174.0000         1.3763       1225.807         0.9853         -56.07      -25.56482      0.5275996
      5174.5000         2.2052       1195.002         0.9849       -59.3284      -28.81327      0.4651294
      5175.0000          2.205       1180.194         0.9845       -62.5869      -32.06182      0.4026574
      5175.5000         2.2046       1306.014         0.9743       -65.8453      -35.31026      0.3401872
      5176.0000         2.1747       1431.834         0.9442       -69.1037      -38.55872       0.277717
      5176.5000         1.2207       1557.653          0.642       -72.3622      -41.80726       0.215245
      5177.0000         1.1508       1683.473          0.594       -75.6206      -45.05571      0.1527748
      5177.5000         1.0726       1809.293         0.5527       -79.2813      -48.70646     0.08256802
      5178.0000         1.0567       1935.113         0.5168       -79.9737      -49.38891     0.06944407
      5178.5000         1.0538       2075.272         0.5978       -80.1751      -49.58036     0.06576237
      5179.0000         1.0526       1920.106          0.637       -78.3376       -47.7329      0.1012903
      5179.5000         1.1657        1764.94         0.7151       -76.5002      -45.88555      0.1368163
      5180.0000         1.2787       1609.774          0.764       -74.6628       -44.0382      0.1723423
      5180.5000          2.368       1454.608         0.7931       -72.8253      -42.19075      0.2078702
      5181.0000         2.3381       1174.471         0.8222       -70.9879       -40.3434      0.2433963
      5181.5000         2.3082       1178.579         0.8514       -69.6437      -38.98924      0.2694376
      5182.0000         1.3395        1190.56         0.8399        -66.942      -36.27759      0.3215848
      5182.5000         1.3395       1198.604         0.8343       -64.2403      -33.56594      0.3737319
      5183.0000         1.3473       1372.335         0.7287       -61.5385      -30.85419       0.425881
      5183.5000         1.3674       1432.984         0.6978       -58.8368      -28.14253      0.4780282
      5184.0000         1.3874       1493.634         0.6695       -56.1351      -25.43088      0.5301753
      5184.5000         1.4075       1537.885         0.6502       -52.6984      -21.98423      0.5964571
      5185.0000         1.4375       1537.971         0.6502       -52.7971      -22.07298      0.5947504
      5185.5000         1.4374        1448.13         0.6905       -54.3998      -23.66573      0.5641207
      5186.0000         1.3889        1358.29         0.7362       -56.0026      -25.25858      0.5334889
      5186.5000         1.3403       1302.403         0.7678       -57.6054      -26.85142      0.5028573
      5187.0000         1.2918       1306.425         0.7654       -59.2081      -28.44417      0.4722275
      5187.5000         1.2432       1314.469         0.7608       -60.8109      -30.03702      0.4415958
      5188.0000         1.1947       1596.313         0.6264       -62.4136      -31.62977       0.410966
      5188.5000         1.1461           1693         0.5907       -64.0164      -33.22262      0.3803343
      5189.0000         1.0975       1789.686          0.422       -65.9556      -35.15186      0.3432335
      5189.5000          1.049       1886.373         0.4218       -66.3503      -35.53661      0.3358344
      5190.0000         0.9937       1983.059         0.4214       -72.8716      -42.04796      0.2106162
      5190.5000         0.9878       2079.746          0.421       -73.6629      -42.82931      0.1955902
      5191.0000         0.9857       2134.618         0.4305       -73.7635      -42.91995      0.1938471
      5191.5000         0.9857       2074.328         0.4498       -71.9121       -41.0586      0.2296423
      5192.0000         1.1646       2014.037         0.4691       -70.0606      -39.19715      0.2654394
      5192.5000         1.2043       1953.746         0.4785       -68.2092       -37.3358      0.3012347
      5193.0000         1.2441       1893.456         0.5281       -67.2674      -36.38405      0.3195375
      5193.5000         1.2838       1833.165         0.5455       -69.4014      -38.50809      0.2786905
      5194.0000         1.3236       1772.874         0.5641       -71.5353      -40.63204      0.2378453
      5194.5000         1.3633       1712.583         0.5839       -73.6692      -42.75599      0.1970002
      5195.0000         1.4031        1636.11         0.6112       -75.8032      -44.88004      0.1561532
      5195.5000         1.4515        1779.97          0.614       -77.9371      -47.00399      0.1153079
      5196.0000         1.1069       1923.829         0.5939       -81.2123      -50.26924     0.05251466
      5196.5000         1.0931       2067.689          0.564       -81.5104      -50.55738     0.04697345
      5197.0000         0.9941       2211.548         0.5339       -81.9092      -50.94624     0.03949547
      5197.5000         1.0081       2355.407         0.4941       -82.1107      -51.13778     0.03581194
      5198.0000         0.8035       2499.267         0.4741       -82.5095      -51.52663      0.0283341
      5198.5000         0.7896       2643.126         0.4442        -82.711      -51.71817     0.02465057
      5199.0000         0.7915       2786.985         0.4241       -82.7131      -51.71032     0.02480155
      5199.5000         0.8101       2930.845         0.3253       -81.9755      -50.96277     0.03917746
      5200.0000         0.8288       3106.311         0.3802        -81.238      -50.21532      0.0535516
      5200.5000         0.8474       3110.334         0.3773       -80.5004      -49.46777     0.06792758
      5201.0000         0.8663       3114.446         0.3752       -79.9303      -48.88771     0.07908249
      5201.5000         0.8851       2711.564         0.3751       -79.3603      -48.30776     0.09023535
      5202.0000         0.8895       2681.785          0.374       -79.1865      -48.12401     0.09376907
      5202.5000         0.8874        2685.81         0.3718       -78.9911      -47.91866     0.09771816
      5203.0000         0.8776       2709.603         0.3707       -77.9179      -46.83551       0.118548
      5203.5000         0.8696       2733.231         0.3685       -76.8447      -45.75236      0.1393777
      5204.0000         0.8597        2756.86         0.3685       -75.7716       -44.6693      0.1602057
      5204.5000         0.8379       2780.489         0.3663       -74.6984      -43.58615      0.1810355
      5205.0000          0.826       2808.882         0.3652       -73.6252        -42.503      0.2018654
      5205.5000         0.8141       2816.842         0.3642        -72.552      -41.41985      0.2226953
