#------------------------------------------------------------------------------
# Created by    : vladimir.rabinovich
# Created on    : 09/19/2023 17:19:42
#------------------------------------------------------------------------------
~Version Information Section
VERS.           2.0     :   CWLS log ASCII Standard - VERSION 2.0
WRAP.           NO      :   One line per depth step
~Well Information Section
#MNEM       .UNIT                                         VALUE :DESCRIPTION
#------------------------------------------------------------------------------
STRT        .FT                                            2198 :START DEPTH
STOP        .FT                                            8738 :STOP DEPTH
STEP        .FT                                             0.5 :STEP      
NULL        .                                           -999.25 :NULL      
COMP        .                             CHAMPLIN PETROLEUM CO :COMPANY   
WELL        .                                     ST TR 00360-S :WELL      
FLD         .                                           WILDCAT :FIELD     
LOC         .                                                   :LOCATION  
CNTY        .                             GALVESTON SMALL BLOCK :LOCATION  
STAT        .                                             TEXAS :STATE     
CTRY        .                                     UNITED STATES :COUNTRY   
SRVC        .                                                   :SERVICE COMPANY
DATE        .                             9/13/2023 11:19:17 AM :LOG DATE  
API         .                                    42605301270000 :API NUMBER
UWI         .                                    42605301270000 :UNIQUE WELL ID
XCOORD      .                                  933135.371219094 :SURFACE X 
YCOORD      .                                  10510129.7662443 :SURFACE Y 
LAT         .                                         28.942863 :LATITUDE  
LON         .                                       -95.2117932 :LONGITUDE 
ELEV        .FT                                              20 :ELEVATION VALUE
ELEV_TYPE   .                                                GL :ELEVATION REFERENCE TYPE
~Curve Information Section
#MNEM       .UNIT                                      API CODE :CURVE DESCRIPTION
#------------------------------------------------------------------------------
DEPT        .FT                                                 :DEPTH     
ASFL        .OHMM                                               :          
CILD        .MMHO                                               :          
ILD         .OHMM                                               :          
SP          .MV                                                 :          
SP_NORM     .MV                                                 :SP Normalized
VSH_SP      .V/V                                                :Volume of Shale from SP
~A        DEPTH           ASFL           CILD            ILD             SP        SP_NORM         VSH_SP
# ...
      6530.0000         0.7312         1461.4         0.7127        26.7366      -1.716015      0.9878641
      6530.5000         0.7282       1477.615         0.7093        26.8368      -1.818199      0.9861322
      6531.0000         0.7252       1495.258         0.7059        26.9371      -1.920486      0.9843985
      6531.5000         0.7223       1514.686         0.7025        27.1224      -2.107773      0.9812242
      6532.0000         0.7186       1534.137         0.6991        27.1544      -2.141758      0.9806482
      6532.5000         0.7125       1553.588         0.6956        27.1358      -2.125145      0.9809297
      6533.0000         0.7064       1571.633         0.6922        26.8707      -1.862032      0.9853893
      6533.5000         0.6992       1586.328         0.6887        26.5624      -1.555719       0.990581
      6534.0000         0.6913        1601.01         0.6852        26.2538      -1.249104      0.9957779
      6534.5000         0.6859       1615.693         0.6818        26.0623      -1.059591        0.99899
      6535.0000         0.7015       1621.246         0.6783        26.1225      -1.121777       0.997936
      6535.5000         0.7191       1625.531         0.6749        26.2284      -1.229664      0.9961074
      6536.0000         0.7368       1624.459         0.6714        26.5163       -1.51955      0.9911941
      6536.5000         0.7457       1619.559         0.6682        26.8039      -1.809137      0.9862858
      6537.0000         0.7468       1614.652         0.6657        26.4855      -1.492723      0.9916487
      6537.5000           0.74       1609.744         0.6631        26.1149      -1.124111      0.9978964
      6538.0000         0.7333       1604.838         0.6606         25.744     -0.7551956              1
      6538.5000         0.7265       1604.986          0.658        25.3732     -0.3863811              1
      6539.0000         0.7197        1606.75         0.6555        25.0023    -0.01746941              1
      6539.5000         0.7086       1608.514          0.653         24.517      0.4658451              1
      6540.0000         0.6965       1610.277         0.6504         23.542       1.438858              1
      6540.5000         0.6981       1612.039         0.6479        23.9755       1.003372              1
      6541.0000         0.7007       1622.182         0.6461        24.4096      0.5672855              1
      6541.5000         0.7032       1632.672         0.6454        24.7203      0.2545986              1
      6542.0000         0.7095        1643.15         0.6446        24.7964      0.1765118              1
      6542.5000         0.7164       1653.629         0.6439        24.8724       0.098526              1
      6543.0000           0.72       1663.543         0.6431        24.9484     0.02053833              1
      6543.5000         0.7233       1638.646         0.6424        25.0245    -0.05754662              1
      6544.0000         0.7262       1613.723         0.6417        25.1304     -0.1654339              1
      6544.5000         0.7279       1588.826         0.6409        25.2387     -0.2757206              1
      6545.0000         0.7277       1576.113         0.6402        25.3471     -0.3861046              1
      6545.5000          0.727       1565.283         0.6399        25.4784      -0.519392              1
      6546.0000         0.7263       1554.441         0.6397        25.8632     -0.9061775              1
      6546.5000         0.7254       1543.611         0.6394        25.9948      -1.039766       0.999326
      6547.0000         0.7244       1532.863         0.6391        25.7142     -0.7611504              1
      6547.5000         0.7221       1527.799         0.6389        25.4475      -0.496439              1
      6548.0000         0.7181       1522.734         0.6386        25.2273     -0.2782249              1
      6548.5000         0.7141       1517.678         0.6381         25.007    -0.05991173              1
      6549.0000         0.7023       1512.615         0.6371        24.7871      0.1580029              1
      6549.5000         0.6884       1534.137         0.6362        24.5669       0.376215              1
      6550.0000         0.6721       1556.801         0.6352        24.3466      0.5945301              1
      6550.5000         0.6563       1576.941         0.6343        24.9746    -0.03545761              1
      6551.0000         0.6627       1591.875         0.6334        26.2738      -1.336643      0.9942942
      6551.5000         0.6777       1606.809         0.6303        27.5285      -2.593328      0.9729944
      6552.0000         0.6928       1621.729         0.6249        28.7146      -3.781416      0.9528574
      6552.5000         0.7109       1616.357         0.6194        29.9324      -5.001202       0.932183
      6553.0000         0.7302       1628.506          0.614        31.2024       -6.27319      0.9106239
      6553.5000         0.7489       1668.613         0.6086        32.6287      -7.701475      0.8864157
      6554.0000         0.7628       1708.721         0.6031        34.0295      -9.104261      0.8626397
      6554.5000         0.7741       1760.424         0.5977        35.7648      -10.84155      0.8331941
      6555.0000         0.7798       1852.383         0.5923        37.6233      -12.70203      0.8016604
      6555.5000         0.7854       1936.814         0.5869        39.4819      -14.56262      0.7701251
      6556.0000         0.7911       2004.932         0.5814        41.5132      -16.59591      0.7356626
      6556.5000          0.796        2027.42          0.576        44.7981      -19.88279      0.6799527
      6557.0000         0.8008       1998.104         0.5706        47.5134      -22.60008      0.6338969
      6557.5000         0.8076       1985.656         0.5651        49.7279      -24.81657      0.5963293
      6558.0000         0.8197       2029.326         0.5596        51.4047      -26.49536      0.5678753
      6558.5000         0.8616       1996.549         0.5541         50.225      -25.31764      0.5878366
      6559.0000         0.9106       1919.145         0.5486         49.044      -24.13862      0.6078199
      6559.5000          1.023        1698.18         0.5431        48.0703      -23.16691      0.6242896
      6560.0000         1.0379       1438.211         0.5376        47.2516       -22.3502      0.6381323
      6560.5000         1.0327       1391.477         0.5305        46.4908      -21.59138      0.6509935
      6561.0000         1.0276       1401.881         0.5226        46.0719      -21.17447      0.6580598
      6561.5000         1.0225       1419.889         0.5147        45.6536      -20.75816       0.665116
      6562.0000         0.9787       1455.879         0.5068        45.2354      -20.34195      0.6721704
      6562.5000         0.9181        1491.92         0.4989        44.8165      -19.92503      0.6792367
      6563.0000         0.8575       1742.352          0.491        45.9702      -21.08072      0.6596488
      6563.5000         0.8034       1909.406         0.4787        48.1542      -23.26671      0.6225982
      6564.0000          0.773       2055.176         0.4581        50.5746      -25.68909      0.5815408
      6564.5000          0.739       2200.949         0.4374        53.2086      -28.32508      0.5368631
      6565.0000         0.7031        2346.52         0.4167        62.1122      -37.23067      0.3859209
      6565.5000         0.6572       2492.289          0.396        64.5173      -39.63775      0.3451228
      6566.0000         0.5442       2638.063         0.3754        67.4564      -42.57883       0.295274
      6566.5000         0.5273       2783.633         0.3602        65.4427      -40.56712      0.3293708
      6567.0000         0.6357       2929.402         0.3462        63.4292      -38.55561      0.3634642
      6567.5000         0.5997       3220.043         0.3322        61.2198      -36.34819      0.4008781
