#------------------------------------------------------------------------------
# Created by    : vladimir.rabinovich
# Created on    : 09/19/2023 17:20:27
#------------------------------------------------------------------------------
~Version Information Section
VERS.           2.0     :   CWLS log ASCII Standard - VERSION 2.0
WRAP.           NO      :   One line per depth step
~Well Information Section
#MNEM       .UNIT                                         VALUE :DESCRIPTION
#------------------------------------------------------------------------------
STRT        .FT                                             540 :START DEPTH
STOP        .FT                                            9057 :STOP DEPTH
STEP        .FT                                             0.5 :STEP      
NULL        .                                           -999.25 :NULL      
COMP        .                              MITCHELL ENERGY CORP :COMPANY   
WELL        .                                     ST TR 00228-S :WELL      
FLD         .                                     LAFITTES GOLD :FIELD     
LOC         .                                                   :LOCATION  
CNTY        .                             GALVESTON SMALL BLOCK :LOCATION  
STAT        .                                             TEXAS :STATE     
CTRY        .                                     UNITED STATES :COUNTRY   
SRVC        .                                                   :SERVICE COMPANY
DATE        .                             9/13/2023 11:19:17 AM :LOG DATE  
API         .                                    42605300060000 :API NUMBER
UWI         .                                    42605300060000 :UNIQUE WELL ID
XCOORD      .                                  1068847.04405215 :SURFACE X 
YCOORD      .                                  10622520.7629704 :SURFACE Y 
LAT         .                                        29.2582252 :LATITUDE  
LON         .                                       -94.7929393 :LONGITUDE 
ELEV        .FT                                              67 :ELEVATION VALUE
ELEV_TYPE   .                                                KB :ELEVATION REFERENCE TYPE
~Curve Information Section
#MNEM       .UNIT                                      API CODE :CURVE DESCRIPTION
#------------------------------------------------------------------------------
DEPT        .FT                                                 :DEPTH     
ASN         .OHMM                                               :          
CILD        .MMHO                                               :          
GR          .GAPI                                               :          
GR_NORM     .GAPI                                               :GammaRay Normalized
ILD         .OHMM                                               :          
SP          .MV                                                 :          
SP_NORM     .MV                                                 :SP Normalized
VSH_GR      .V/V                                                :Volume of Shale from GR
VSH_SP      .V/V                                                :Volume of Shale from SP
~A        DEPTH            ASN           CILD             GR        GR_NORM            ILD             SP        SP_NORM         VSH_GR         VSH_SP
# ...
      5628.0000         0.5956       2300.332        -999.25        -999.25           0.43        90.5293      -27.10427        -999.25      0.6611966
      5628.5000         0.5912       2256.488        -999.25        -999.25         0.4389        87.3684      -23.95119        -999.25        0.70061
      5629.0000         0.5968       2184.137        -999.25        -999.25         0.4477        75.4193       -12.0099        -999.25      0.8498762
      5629.5000         0.6117       2050.773        -999.25        -999.25         0.4794        73.8923      -10.49072        -999.25       0.868866
      5630.0000         0.6265       1625.563        -999.25        -999.25         0.5516        73.5427      -10.14893        -999.25      0.8731383
      5630.5000         0.6409       1556.365        -999.25        -999.25         0.5705        73.2898      -9.903847        -999.25      0.8762019
      5631.0000          0.655       1584.627        -999.25        -999.25         0.5656        73.0365       -9.65836        -999.25      0.8792705
      5631.5000         0.6692       1636.117        -999.25        -999.25         0.5589        72.7836      -9.413273        -999.25      0.8823341
      5632.0000         0.6833        1762.77        -999.25        -999.25         0.5497        72.5306      -9.168087        -999.25      0.8853989
      5632.5000         0.6838       1843.359        -999.25        -999.25         0.5405        73.0306        -9.6759        -999.25      0.8790513
      5633.0000         0.6756       1901.951        -999.25        -999.25         0.5238        75.7653      -12.41841        -999.25      0.8447698
      5633.5000         0.6613       1936.523        -999.25        -999.25         0.4985        83.1472      -19.80813        -999.25      0.7523984
      5634.0000         0.6456       1975.438        -999.25        -999.25         0.4733        88.8717      -25.54044        -999.25      0.6807445
      5634.5000         0.6299       2120.711        -999.25        -999.25         0.4442        95.0491      -31.72565        -999.25      0.6034293
      5635.0000         0.6051       2584.316        -999.25        -999.25         0.4157         97.854      -34.53836        -999.25      0.5682705
      5635.5000         0.5794       2702.785        -999.25        -999.25         0.3924        97.1932      -33.88538        -999.25      0.5764328
      5636.0000         0.5567       2786.824        -999.25        -999.25         0.3707        96.2225       -32.9225        -999.25      0.5884688
      5636.5000         0.5356       2850.793        -999.25        -999.25         0.3615        95.5194      -32.22721        -999.25      0.5971599
      5637.0000           0.53       2900.805        -999.25        -999.25         0.3524         94.817      -31.53262        -999.25      0.6058422
      5637.5000         0.5302       2907.066        -999.25        -999.25         0.3517        94.1139      -30.83733        -999.25      0.6145333
      5638.0000          0.533       2805.023        -999.25        -999.25         0.3578        93.2509      -29.98215        -999.25      0.6252232
      5638.5000         0.5358       2754.816        -999.25        -999.25          0.364        92.1918      -28.93086        -999.25      0.6383642
      5639.0000          0.535       2654.254        -999.25        -999.25         0.3701         91.134      -27.88087        -999.25      0.6514891
      5639.5000          0.531       2468.613        -999.25        -999.25         0.3919        84.7351      -21.48978        -999.25      0.7313777
      5640.0000         0.5248       2382.402        -999.25        -999.25         0.4219        68.1344        -4.8969        -999.25      0.9387888
      5640.5000         0.5375       2194.297        -999.25        -999.25          0.452        66.0586      -2.828915        -999.25      0.9646386
      5641.0000         0.5545       2145.617        -999.25        -999.25         0.4779        65.3359      -2.114025        -999.25      0.9735747
      5641.5000          0.569       2088.453        -999.25        -999.25         0.4947        65.1873       -1.97324        -999.25      0.9753345
      5642.0000         0.5801       1751.697        -999.25        -999.25         0.5097        65.0387      -1.832451        -999.25      0.9770944
      5642.5000         0.5913       1721.242        -999.25        -999.25         0.5248        64.8899      -1.691467        -999.25      0.9788567
      5643.0000         0.6024       1676.115        -999.25        -999.25         0.5398        64.7415       -1.55088        -999.25       0.980614
      5643.5000         0.6076       1693.277        -999.25        -999.25         0.5487        65.1975      -2.014694        -999.25      0.9748163
      5644.0000         0.6056       1717.938        -999.25        -999.25         0.5468         65.806      -2.631004        -999.25      0.9671124
      5644.5000         0.6062        1751.92        -999.25        -999.25         0.5372        66.4139      -3.246723        -999.25       0.959416
      5645.0000         0.6095       1789.008        -999.25        -999.25         0.5163        72.4338      -9.274433        -999.25      0.8840696
      5645.5000         0.6129       1824.986        -999.25        -999.25         0.4954         74.145      -10.99344        -999.25       0.862582
      5646.0000         0.6162       1858.943        -999.25        -999.25         0.4761        76.0142      -12.87046        -999.25      0.8391193
      5646.5000         0.6198       1898.104        -999.25        -999.25         0.4619        78.0551      -14.91917        -999.25      0.8135103
      5647.0000         0.6241        1979.58        -999.25        -999.25         0.4476         80.183      -17.05489        -999.25      0.7868139
      5647.5000         0.6284       1991.828        -999.25        -999.25         0.4335        82.3185       -19.1982        -999.25      0.7600225
      5648.0000         0.6327       1992.896        -999.25        -999.25         0.4192         85.559      -22.44651        -999.25      0.7194186
      5648.5000         0.6293       1993.797        -999.25        -999.25         0.4073        88.9712      -25.86653        -999.25      0.6766684
      5649.0000         0.6201       1992.738        -999.25        -999.25         0.4008        92.9236      -29.82674        -999.25      0.6271657
      5649.5000         0.6108       2001.455        -999.25        -999.25         0.4141         98.623      -35.53395        -999.25      0.5558256
      5650.0000         0.6048        2103.25        -999.25        -999.25         0.4449         93.277      -30.19577        -999.25      0.6225529
      5650.5000         0.5989       2142.016        -999.25        -999.25         0.4731        77.6033      -14.52988        -999.25      0.8183765
      5651.0000         0.6031       2153.754        -999.25        -999.25         0.4927        75.9426      -12.87699        -999.25      0.8390376
      5651.5000         0.6079       2094.273        -999.25        -999.25         0.5124        75.1132       -12.0554        -999.25      0.8493074
      5652.0000         0.6127       2047.816        -999.25        -999.25          0.532        74.2694      -11.21942        -999.25      0.8597572
      5652.5000         0.6174       2013.416        -999.25        -999.25         0.5517        72.8583      -9.816132        -999.25      0.8772984
      5653.0000         0.6209       1792.066        -999.25        -999.25          0.571        71.4458      -8.411449        -999.25      0.8948569
      5653.5000         0.6218       1774.039        -999.25        -999.25         0.5753        69.7645      -6.737965        -999.25      0.9157754
      5654.0000         0.6227       1761.723        -999.25        -999.25         0.5796        67.8867      -4.867977        -999.25      0.9391503
