#------------------------------------------------------------------------------
# Created by    : vladimir.rabinovich
# Created on    : 09/19/2023 17:19:42
#------------------------------------------------------------------------------
~Version Information Section
VERS.           2.0     :   CWLS log ASCII Standard - VERSION 2.0
WRAP.           NO      :   One line per depth step
~Well Information Section
#MNEM       .UNIT                                         VALUE :DESCRIPTION
#------------------------------------------------------------------------------
STRT        .FT                                            2198 :START DEPTH
STOP        .FT                                            8738 :STOP DEPTH
STEP        .FT                                             0.5 :STEP      
NULL        .                                           -999.25 :NULL      
COMP        .                             CHAMPLIN PETROLEUM CO :COMPANY   
WELL        .                                     ST TR 00360-S :WELL      
FLD         .                                           WILDCAT :FIELD     
LOC         .                                                   :LOCATION  
CNTY        .                             GALVESTON SMALL BLOCK :LOCATION  
STAT        .                                             TEXAS :STATE     
CTRY        .                                     UNITED STATES :COUNTRY   
SRVC        .                                                   :SERVICE COMPANY
DATE        .                             9/13/2023 11:19:17 AM :LOG DATE  
API         .                                    42605301270000 :API NUMBER
UWI         .                                    42605301270000 :UNIQUE WELL ID
XCOORD      .                                  933135.371219094 :SURFACE X 
YCOORD      .                                  10510129.7662443 :SURFACE Y 
LAT         .                                         28.942863 :LATITUDE  
LON         .                                       -95.2117932 :LONGITUDE 
ELEV        .FT                                              20 :ELEVATION VALUE
ELEV_TYPE   .                                                GL :ELEVATION REFERENCE TYPE
~Curve Information Section
#MNEM       .UNIT                                      API CODE :CURVE DESCRIPTION
#------------------------------------------------------------------------------
DEPT        .FT                                                 :DEPTH     
ASFL        .OHMM                                               :          
CILD        .MMHO                                               :          
ILD         .OHMM                                               :          
SP          .MV                                                 :          
SP_NORM     .MV                                                 :SP Normalized
VSH_SP      .V/V                                                :Volume of Shale from SP
~A        DEPTH           ASFL           CILD            ILD             SP        SP_NORM         VSH_SP
# ...
      5238.0000         0.4846       4303.711         0.3328        66.5005      -32.64093       0.280888
      5238.5000         0.4737       4248.047         0.3436        64.8008      -30.93842      0.3195814
      5239.0000         0.4454       4324.844         0.3543        62.4656      -28.60041      0.3727179
      5239.5000         0.4641       4374.141          0.365        59.4503      -25.58231      0.4413112
      5240.0000         0.5025       4418.664         0.3809        56.4349      -22.56411      0.5099067
      5240.5000         0.6153       4464.789         0.4093        53.4704       -19.5968      0.5773454
      5241.0000          0.706       4479.398         0.4376        52.0403      -18.16389      0.6099115
      5241.5000         0.7338       4380.414         0.4657         51.221      -17.34179      0.6285956
      5242.0000         0.7492         3996.5         0.4934        49.8843      -16.00229       0.659039
      5242.5000         0.7599           3384          0.523        48.4529      -14.56808      0.6916345
      5243.0000         0.7595           2771         0.5611        47.1728      -13.28517      0.7207916
      5243.5000         0.7326         2158.5         0.5816        45.8316      -11.94117      0.7513371
      5244.0000         0.7057       1796.363         0.5768        43.8867      -9.993465       0.795603
      5244.5000         0.6838       1679.631          0.572        47.6304      -13.73436      0.7105827
      5245.0000         0.6737       1652.199         0.5672        46.1697      -12.27085      0.7438442
      5245.5000         0.6741       1706.211         0.5624        44.9049      -11.00325      0.7726534
      5246.0000         0.6818       2008.244         0.5576        45.0742      -11.16974      0.7688695
      5246.5000         0.6896       2052.492         0.5531        45.9473      -12.04004        0.74909
      5247.0000         0.6973       2060.801         0.5486        47.8643      -13.95423      0.7055857
      5247.5000          0.705       2008.695         0.5417        49.7826      -15.86973      0.6620516
      5248.0000         0.7071       1956.643         0.5203        51.7301      -17.81442      0.6178541
      5248.5000         0.7077       1917.086         0.4988        53.4844      -19.56592      0.5780473
      5249.0000         0.7083       1877.732         0.4773        56.2595      -22.33821      0.5150406
      5249.5000         0.7089       1887.371          0.455        64.7512      -30.82711      0.3221112
      5250.0000         0.7094       2236.086         0.4308        62.9156       -28.9887      0.3638932
      5250.5000         0.6971       2543.891         0.4067          60.33       -26.4003      0.4227205
      5251.0000         0.6806       2873.184         0.3825        58.1485      -24.21599      0.4723639
      5251.5000         0.6081       2802.004         0.3584        57.7672      -23.83189      0.4810935
      5252.0000         0.6487       2730.773         0.3442        59.4935      -25.55538      0.4419231
      5252.5000         0.6895       2667.727         0.3329        60.0906      -26.14967      0.4284165
      5253.0000         0.7421        2615.02         0.3217        60.5706      -26.62687      0.4175712
      5253.5000         0.7743       2569.391         0.3104        61.0507      -27.10417      0.4067235
      5254.0000         0.7938        2546.93         0.3028        62.0397      -28.09036        0.38431
      5254.5000         0.8105       2556.641         0.3016        59.7579      -25.80576      0.4362328
      5255.0000         0.7951       2715.867         0.3004        54.7238      -20.76885       0.550708
      5255.5000         0.7328       3334.992         0.2991        51.8636      -17.90585      0.6157762
      5256.0000         0.5931       3467.813         0.2979        49.0059      -15.04534      0.6807877
      5256.5000         0.5835       3445.523         0.3287        46.1456      -12.18223      0.7458584
      5257.0000         0.6244        3364.91         0.3617        43.3082       -9.34203      0.8104084
      5257.5000         0.6635       3266.223         0.3947        40.5828      -6.613823      0.8724131
      5258.0000         0.6754       3160.609         0.4289        37.8597      -3.887917      0.9343655
      5258.5000         0.6845       3028.992         0.4682        34.8088     -0.8342133              1
      5259.0000         0.6943       2772.789         0.5075        32.1011       1.876293              1
      5259.5000         0.7012       2516.586         0.5467        30.4269       3.553297              1
      5260.0000         0.7077       2260.383         0.5798        28.9243       5.058702              1
      5260.5000         0.8068       2004.379         0.6047        27.6252       6.360609              1
      5261.0000         0.8444       1748.176         0.6297         27.636       6.352613              1
      5261.5000         0.8627       1552.408         0.6895        28.1902        5.80122              1
      5262.0000         0.8811       1115.896         0.7357        28.7444       5.249825              1
      5262.5000         0.8966         1094.4          0.782        28.7693       5.227728              1
      5263.0000         0.8961       1105.807         0.8282        27.5527       6.447136              1
      5263.5000         0.8932       1117.215         0.8617        26.0132       7.989439              1
      5264.0000         0.8903       1128.621         0.8664         24.864       9.141443              1
      5264.5000         0.8873       1132.037         0.8711        23.8668       10.14145              1
      5265.0000         0.8868        1131.83         0.8757        23.3678       10.64326              1
      5265.5000         0.8875       1131.621         0.8804        25.0077       9.006163              1
      5266.0000         0.8912       1131.412          0.879        27.0696       6.947067              1
      5266.5000         0.8977       1131.205         0.8709        28.7731        5.24637              1
      5267.0000         0.9042       1126.746         0.8627        30.1727       3.849577              1
      5267.5000         0.9106       1120.289         0.8545         29.518       4.507082              1
      5268.0000         0.9154       1113.832         0.8463        28.5315       5.496386              1
      5268.5000         0.9191       1107.377         0.8381        27.8355       6.195192              1
      5269.0000         0.9091       1114.943         0.8299        27.5457       6.487797              1
      5269.5000         0.8914       1126.777         0.8218        27.7321       6.304205              1
      5270.0000         0.8737       1152.164         0.8118        27.9185       6.120607              1
      5270.5000         0.8539       1183.035         0.8014        28.1047       5.937212              1
      5271.0000         0.8339       1213.906          0.791        28.6084       5.436319              1
      5271.5000         0.8139       1241.967         0.7806         29.485       4.562523              1
      5272.0000         0.8007       1263.902         0.7703        30.3615       3.688828              1
      5272.5000         0.7877       1285.838         0.7723        30.7304       3.322735              1
      5273.0000         0.7826       1307.773         0.7743        31.0692       2.986738              1
      5273.5000         0.7824       1328.305         0.7762         31.408       2.650745              1
      5274.0000         0.7897       1338.531         0.7806        31.6916       2.369949              1
      5274.5000         0.7969       1348.113         0.7869         31.732       2.332354              1
      5275.0000         0.8042       1346.945         0.7933        31.7725       2.294662              1
      5275.5000          0.811       1345.779         0.7997         31.813       2.256966              1
