#------------------------------------------------------------------------------
# Created by    : vladimir.rabinovich
# Created on    : 09/19/2023 17:19:42
#------------------------------------------------------------------------------
~Version Information Section
VERS.           2.0     :   CWLS log ASCII Standard - VERSION 2.0
WRAP.           NO      :   One line per depth step
~Well Information Section
#MNEM       .UNIT                                         VALUE :DESCRIPTION
#------------------------------------------------------------------------------
STRT        .FT                                            2198 :START DEPTH
STOP        .FT                                            8738 :STOP DEPTH
STEP        .FT                                             0.5 :STEP      
NULL        .                                           -999.25 :NULL      
COMP        .                             CHAMPLIN PETROLEUM CO :COMPANY   
WELL        .                                     ST TR 00360-S :WELL      
FLD         .                                           WILDCAT :FIELD     
LOC         .                                                   :LOCATION  
CNTY        .                             GALVESTON SMALL BLOCK :LOCATION  
STAT        .                                             TEXAS :STATE     
CTRY        .                                     UNITED STATES :COUNTRY   
SRVC        .                                                   :SERVICE COMPANY
DATE        .                             9/13/2023 11:19:17 AM :LOG DATE  
API         .                                    42605301270000 :API NUMBER
UWI         .                                    42605301270000 :UNIQUE WELL ID
XCOORD      .                                  933135.371219094 :SURFACE X 
YCOORD      .                                  10510129.7662443 :SURFACE Y 
LAT         .                                         28.942863 :LATITUDE  
LON         .                                       -95.2117932 :LONGITUDE 
ELEV        .FT                                              20 :ELEVATION VALUE
ELEV_TYPE   .                                                GL :ELEVATION REFERENCE TYPE
~Curve Information Section
#MNEM       .UNIT                                      API CODE :CURVE DESCRIPTION
#------------------------------------------------------------------------------
DEPT        .FT                                                 :DEPTH     
ASFL        .OHMM                                               :          
CILD        .MMHO                                               :          
ILD         .OHMM                                               :          
SP          .MV                                                 :          
SP_NORM     .MV                                                 :SP Normalized
VSH_SP      .V/V                                                :Volume of Shale from SP
~A        DEPTH           ASFL           CILD            ILD             SP        SP_NORM         VSH_SP
# ...
      4782.0000         0.8896        1599.99         0.6744        48.3305      -16.47364      0.6483265
      4782.5000          0.831       1631.027         0.6625        46.2114      -14.35557      0.6964644
      4783.0000         0.8073       1655.678         0.6507        43.6703       -11.8155      0.7541932
      4783.5000         0.7853       1650.475         0.6388        40.3922      -8.538435      0.8286719
      4784.0000         0.7677        1570.92         0.6503        37.4155      -5.562767      0.8963007
      4784.5000         0.7531       1500.283         0.6629        36.4445        -4.5928      0.9183455
      4785.0000         0.7434       1423.447         0.6756        35.7498      -3.899134      0.9341106
      4785.5000         0.7348       1344.598         0.6953        35.0328      -3.183165      0.9503826
      4786.0000         0.7334       1268.469         0.7515        34.3026         -2.454      0.9669545
      4786.5000          0.742       1140.848         0.8077        33.4609      -1.613331      0.9860607
      4787.0000         0.7683       1051.771         0.8508        32.4634     -0.6168671              1
      4787.5000         0.8042       992.4199         0.8892        31.5412      0.3043022              1
      4788.0000         0.8679       926.6191         0.9268        30.9529      0.8915691              1
      4788.5000         0.9271       880.9971         0.9591        30.3645       1.478937              1
      4789.0000         0.9559       844.5703         0.9914         29.834       2.008404              1
      4789.5000         0.9686       820.6885         1.0092        29.3198        2.52157              1
      4790.0000         0.9665       862.9854         1.0126        28.9551       2.885239              1
      4790.5000         0.9645       917.4492         1.0161         28.705       3.134304              1
      4791.0000         0.9506       973.1729         1.0152        28.4546       3.383673              1
      4791.5000         0.9343       1035.346         0.9827        28.8109       3.026339              1
      4792.0000         0.9173       1089.609         0.9503        29.1798       2.656406              1
      4792.5000         0.8989       1131.402         0.9179        29.5487       2.286472              1
      4793.0000          0.875       1170.096         0.8852        29.8841       1.950039              1
      4793.5000         0.8458       1204.406         0.8522        30.1811       1.652006              1
      4794.0000         0.8269       1227.986         0.8191        30.4781       1.353973              1
      4794.5000         0.8088        1238.15          0.786        30.7752       1.055841              1
      4795.0000         0.8006       1221.248         0.7941        31.0722      0.7578068              1
      4795.5000         0.8393       1199.771         0.8092        30.9425      0.8864746              1
      4796.0000         0.8878       1167.551         0.8242        30.7625       1.065441              1
      4796.5000         0.9211       1122.408         0.8615        30.5347       1.292208              1
      4797.0000         0.9692        1070.16         0.9101        30.3068       1.519075              1
      4797.5000          1.014        984.459         0.9588         30.079       1.745842              1
      4798.0000         1.0398       871.0459         1.0066        29.8511        1.97271              1
      4798.5000         1.0527        852.127         1.0285        29.7029       2.119877              1
      4799.0000         1.0623       874.9512         1.0503        29.6796       2.142143              1
      4799.5000          1.042       897.7998         1.0302        29.6563       2.164412              1
      4800.0000          1.013       920.0439         1.0012        29.6331       2.186577              1
      4800.5000         0.9691       941.5322         0.9723        29.6098       2.208845              1
      4801.0000         0.9444       963.0332         0.9561        29.7961       2.021511              1
      4801.5000         0.9302       973.6582         0.9442        30.1552       1.661381              1
      4802.0000         0.9287       983.2939         0.9322        30.5139       1.301645              1
      4802.5000         0.9298       992.6348         0.9417        30.8797      0.9348125              1
      4803.0000         0.9442       991.3975         0.9621        31.2974      0.5160809              1
      4803.5000         0.9587       990.1582         0.9825        31.7151     0.09734726              1
      4804.0000         0.9854       971.1826         1.0029        32.1193     -0.3078861              1
      4804.5000         1.0309       944.9336         1.0233        32.3737     -0.5633183              1
      4805.0000         1.0764       907.7754         1.0444        32.6284     -0.8190498              1
      4805.5000         1.1036        862.708         1.0679        32.4211     -0.6127853              1
      4806.0000         1.0848       833.8379         1.0914        32.2043     -0.3970184              1
      4806.5000          1.066       822.6846         1.1149        31.9876     -0.1813507              1
      4807.0000         1.0473       832.7295         1.1221        32.0859     -0.2806835              1
      4807.5000         1.0285       847.9453         1.0935        32.2361     -0.4319153              1
      4808.0000          1.008       873.2881         1.0648        32.3878     -0.5846481              1
      4808.5000         0.9846       898.6309         1.0362        32.5427     -0.7405853              1
      4809.0000         0.9612       923.9736         1.0078        32.6977      -0.896616              1
      4809.5000         0.9436       963.1973         0.9793        32.6241      -0.824049              1
      4810.0000         0.9278       1008.643         0.9508        32.4398     -0.6407814              1
      4810.5000          0.912       1040.736         0.9259        32.2556     -0.4576149              1
      4811.0000         0.8984       1063.561         0.9146        32.0715     -0.2745457              1
      4811.5000         0.8865       1078.662         0.9033        31.9709     -0.1749802              1
      4812.0000         0.8746       1089.975         0.8921        31.9301     -0.1352139              1
      4812.5000         0.8649       1101.285         0.8869        31.8893    -0.09544563              1
      4813.0000         0.8562       1109.057         0.8822        31.8876    -0.09477997              1
      4813.5000         0.8475       1115.832         0.8775        31.8916    -0.09981155              1
      4814.0000         0.8438       1122.609         0.8728        31.8957     -0.1049461              1
      4814.5000         0.8465       1129.379         0.8681        31.8087    -0.01897812              1
      4815.0000         0.8495       1136.326         0.8649        31.5819       0.206789              1
      4815.5000         0.8544       1144.199         0.8632        31.3553       0.432354              1
      4816.0000         0.8593       1152.078         0.8614        31.1286      0.6580238              1
      4816.5000         0.8643       1159.949         0.8597        30.8445      0.9410896              1
      4817.0000         0.8692       1167.822          0.858        30.9037      0.8808575              1
      4817.5000          0.866       1178.912         0.8559         31.299      0.4845238              1
      4818.0000          0.852       1209.043         0.8503        31.6869      0.0955925              1
      4818.5000         0.8345       1239.172         0.8446        32.0513     -0.2698421              1
      4819.0000         0.8139       1269.301          0.839        32.4161     -0.6356754              1
      4819.5000         0.7976        1299.43         0.8334        32.3505      -0.571106              1
