#------------------------------------------------------------------------------
# Created by    : vladimir.rabinovich
# Created on    : 09/19/2023 17:22:47
#------------------------------------------------------------------------------
~Version Information Section
VERS.           2.0     :   CWLS log ASCII Standard - VERSION 2.0
WRAP.           NO      :   One line per depth step
~Well Information Section
#MNEM       .UNIT                                         VALUE :DESCRIPTION
#------------------------------------------------------------------------------
STRT        .FT                                             494 :START DEPTH
STOP        .FT                                            8323 :STOP DEPTH
STEP        .FT                                             0.5 :STEP      
NULL        .                                           -999.25 :NULL      
COMP        .                                       MONSANTO CO :COMPANY   
WELL        .                                     ST TR 00293-S :WELL      
FLD         .                                           WILDCAT :FIELD     
LOC         .                                                   :LOCATION  
CNTY        .                             GALVESTON SMALL BLOCK :LOCATION  
STAT        .                                             TEXAS :STATE     
CTRY        .                                     UNITED STATES :COUNTRY   
SRVC        .                                                   :SERVICE COMPANY
DATE        .                             9/13/2023 11:19:17 AM :LOG DATE  
API         .                                    42605300230000 :API NUMBER
UWI         .                                    42605300230000 :UNIQUE WELL ID
XCOORD      .                                  996050.411534576 :SURFACE X 
YCOORD      .                                  10568409.9475512 :SURFACE Y 
LAT         .                                        29.1061939 :LATITUDE  
LON         .                                        -95.018267 :LONGITUDE 
ELEV        .FT                                              81 :ELEVATION VALUE
ELEV_TYPE   .                                                KB :ELEVATION REFERENCE TYPE
~Curve Information Section
#MNEM       .UNIT                                      API CODE :CURVE DESCRIPTION
#------------------------------------------------------------------------------
DEPT        .FT                                                 :DEPTH     
DT          .US/F                                               :          
GR          .GAPI                                               :          
GR_NORM     .GAPI                                               :GammaRay Normalized
ILD         .OHMM                                               :          
SFL         .OHMM                                               :          
SP          .MV                                                 :          
SP_NORM     .MV                                                 :SP Normalized
VSH_GR      .V/V                                                :Volume of Shale from GR
VSH_SP      .V/V                                                :Volume of Shale from SP
~A        DEPTH             DT             GR        GR_NORM            ILD            SFL             SP        SP_NORM         VSH_GR         VSH_SP
# ...
      6721.5000       108.5637        -999.25        -999.25         0.3738         0.7244        65.4523      -45.18977        -999.25      0.3776089
      6722.0000       106.8745        -999.25        -999.25         0.3266         0.6722        72.4138      -52.14926        -999.25      0.2795879
      6722.5000       105.4702        -999.25        -999.25         0.2699         0.6178        81.7203      -61.45374        -999.25      0.1485388
      6723.0000       103.9895        -999.25        -999.25         0.2193         0.6469        88.2582      -67.98963        -999.25     0.05648406
      6723.5000        102.015        -999.25        -999.25         0.2025         0.6672        91.8807      -71.61012        -999.25    0.005491337
      6724.0000       101.0442        -999.25        -999.25         0.2018         0.6879        92.8091       -72.5365        -999.25              0
      6724.5000       103.5096        -999.25        -999.25         0.2012         0.6574        90.7389      -70.46429        -999.25     0.02162976
      6725.0000       106.4789        -999.25        -999.25         0.2007         0.6174        87.7175      -67.44087        -999.25     0.06421307
      6725.5000       109.6188        -999.25        -999.25         0.2007         0.5787        84.4764      -64.19776        -999.25      0.1098907
      6726.0000         112.51        -999.25        -999.25         0.2006         0.5425        81.6724      -61.39175        -999.25       0.149412
      6726.5000       118.1594        -999.25        -999.25         0.2005         0.5198         80.528      -60.24533        -999.25      0.1655587
      6727.0000        124.389        -999.25        -999.25         0.2004         0.5046        81.2354      -60.95072        -999.25      0.1556237
      6727.5000       123.6506        -999.25        -999.25         0.2002          0.518        83.3043       -63.0176        -999.25      0.1265126
      6728.0000       117.7877        -999.25        -999.25         0.1999         0.5491        85.5172      -65.22849        -999.25     0.09537345
      6728.5000       112.5076        -999.25        -999.25         0.1997         0.5821        87.2729      -66.98219        -999.25     0.07067344
      6729.0000       109.0209        -999.25        -999.25         0.1994         0.5991        87.8407      -67.54797        -999.25      0.0627047
      6729.5000       108.9154        -999.25        -999.25         0.1992         0.6135        87.9398      -67.64505        -999.25     0.06133732
      6730.0000       111.0958        -999.25        -999.25         0.1993         0.6167        87.7646      -67.46784        -999.25     0.06383321
      6730.5000       112.9973        -999.25        -999.25         0.1994         0.6153        86.8662      -66.56743        -999.25     0.07651509
      6731.0000        114.686        -999.25        -999.25         0.1994         0.6082        85.7863      -65.48551        -999.25     0.09175336
      6731.5000       112.6432        -999.25        -999.25         0.1995         0.5981        84.0975       -63.7947        -999.25      0.1155676
      6732.0000        90.0255        -999.25        -999.25         0.1996         0.5905        82.2711      -61.96629        -999.25      0.1413199
      6732.5000        83.5798        -999.25        -999.25         0.1999         0.5892        80.2957      -59.98887        -999.25      0.1691709
      6733.0000        81.0754        -999.25        -999.25         0.2002         0.6089         79.318      -59.00916        -999.25      0.1829696
      6733.5000        82.0575        -999.25        -999.25         0.2005         0.7432        79.3331      -59.02224        -999.25      0.1827853
      6734.0000        87.9958        -999.25        -999.25         0.2008         0.6941        80.7705      -60.45763        -999.25      0.1625685
      6734.5000        99.6714        -999.25        -999.25         0.2011          0.583        82.8218      -62.50692        -999.25      0.1337053
      6735.0000       106.1664        -999.25        -999.25         0.2011         0.5767        84.8782       -64.5613        -999.25      0.1047704
      6735.5000       106.4855        -999.25        -999.25         0.2008         0.6297        86.6489      -66.32999        -999.25     0.07985923
      6736.0000       107.1809        -999.25        -999.25         0.2006         0.6797        87.7466      -67.42567        -999.25     0.06442712
      6736.5000       110.4979        -999.25        -999.25         0.2003         0.6363        88.4835      -68.16056        -999.25     0.05407661
      6737.0000       114.9792        -999.25        -999.25         0.2001         0.6106        88.6709      -68.34595        -999.25     0.05146553
      6737.5000       118.8075        -999.25        -999.25         0.1998         0.6083        88.6431      -68.31613        -999.25     0.05188547
      6738.0000       117.9208        -999.25        -999.25         0.1995          0.604        88.4319      -68.10292        -999.25     0.05488844
      6738.5000       114.3112        -999.25        -999.25         0.1992         0.5912         87.847      -67.51601        -999.25     0.06315484
      6739.0000       109.9052        -999.25        -999.25         0.1987         0.5806        87.1094       -66.7764        -999.25     0.07357186
      6739.5000       106.5692        -999.25        -999.25         0.1982         0.6005        85.6688      -65.33379        -999.25     0.09389034
      6740.0000       104.2633        -999.25        -999.25         0.1976         0.6262        83.6454      -63.30837        -999.25      0.1224173
      6740.5000       106.2025        -999.25        -999.25         0.1976         0.6217        78.3151      -57.97606        -999.25      0.1975203
      6741.0000       108.2498        -999.25        -999.25         0.1985         0.5958        71.2518      -50.91074        -999.25      0.2970318
      6741.5000       110.0106        -999.25        -999.25         0.2005         0.5993        63.2387      -42.89563        -999.25      0.4099207
      6742.0000       111.7363        -999.25        -999.25         0.2126          0.637        56.2917      -35.94661        -999.25      0.5077942
      6742.5000       113.3591        -999.25        -999.25         0.2495         0.6728        49.2537       -28.9066        -999.25      0.6069493
      6743.0000       114.4781        -999.25        -999.25         0.3056         0.6414        48.4908      -28.14169        -999.25      0.6177227
      6743.5000       115.2706        -999.25        -999.25         0.3601         0.6115        50.5143      -30.16318        -999.25       0.589251
      6744.0000       114.2509        -999.25        -999.25         0.3906         0.5996        53.5381      -33.18496        -999.25      0.5466907
      6744.5000       112.0754        -999.25        -999.25          0.415         0.5944        60.3791      -40.02395        -999.25      0.4503669
      6745.0000       109.3324        -999.25        -999.25         0.3683         0.6192        69.3521      -48.99493        -999.25      0.3240151
      6745.5000       107.1545        -999.25        -999.25         0.3177         0.6484        76.2941      -55.93492        -999.25      0.2262687
      6746.0000       108.8752        -999.25        -999.25         0.2578         0.6819        81.3162      -60.95501        -999.25      0.1555633
      6746.5000        110.925        -999.25        -999.25         0.2137         0.6827        84.7518       -64.3886        -999.25      0.1072029
      6747.0000       112.9773        -999.25        -999.25         0.1889         0.5788        87.3689      -67.00368        -999.25     0.07037074
      6747.5000        114.178        -999.25        -999.25         0.1879         0.5907        89.3925      -69.02527        -999.25     0.04189762
