#------------------------------------------------------------------------------
# Created by    : vladimir.rabinovich
# Created on    : 09/19/2023 17:22:47
#------------------------------------------------------------------------------
~Version Information Section
VERS.           2.0     :   CWLS log ASCII Standard - VERSION 2.0
WRAP.           NO      :   One line per depth step
~Well Information Section
#MNEM       .UNIT                                         VALUE :DESCRIPTION
#------------------------------------------------------------------------------
STRT        .FT                                             494 :START DEPTH
STOP        .FT                                            8323 :STOP DEPTH
STEP        .FT                                             0.5 :STEP      
NULL        .                                           -999.25 :NULL      
COMP        .                                       MONSANTO CO :COMPANY   
WELL        .                                     ST TR 00293-S :WELL      
FLD         .                                           WILDCAT :FIELD     
LOC         .                                                   :LOCATION  
CNTY        .                             GALVESTON SMALL BLOCK :LOCATION  
STAT        .                                             TEXAS :STATE     
CTRY        .                                     UNITED STATES :COUNTRY   
SRVC        .                                                   :SERVICE COMPANY
DATE        .                             9/13/2023 11:19:17 AM :LOG DATE  
API         .                                    42605300230000 :API NUMBER
UWI         .                                    42605300230000 :UNIQUE WELL ID
XCOORD      .                                  996050.411534576 :SURFACE X 
YCOORD      .                                  10568409.9475512 :SURFACE Y 
LAT         .                                        29.1061939 :LATITUDE  
LON         .                                        -95.018267 :LONGITUDE 
ELEV        .FT                                              81 :ELEVATION VALUE
ELEV_TYPE   .                                                KB :ELEVATION REFERENCE TYPE
~Curve Information Section
#MNEM       .UNIT                                      API CODE :CURVE DESCRIPTION
#------------------------------------------------------------------------------
DEPT        .FT                                                 :DEPTH     
DT          .US/F                                               :          
GR          .GAPI                                               :          
GR_NORM     .GAPI                                               :GammaRay Normalized
ILD         .OHMM                                               :          
SFL         .OHMM                                               :          
SP          .MV                                                 :          
SP_NORM     .MV                                                 :SP Normalized
VSH_GR      .V/V                                                :Volume of Shale from GR
VSH_SP      .V/V                                                :Volume of Shale from SP
~A        DEPTH             DT             GR        GR_NORM            ILD            SFL             SP        SP_NORM         VSH_GR         VSH_SP
# ...
      7755.0000       107.5182        -999.25        -999.25         0.7937         0.9192        24.8731      -3.951235        -999.25      0.9626426
      7755.5000       108.5437        -999.25        -999.25         0.7909         0.9255        24.5781      -3.665815        -999.25      0.9662555
      7756.0000       109.5476        -999.25        -999.25          0.788         0.9016         24.283      -3.380297        -999.25      0.9698697
      7756.5000       109.7072        -999.25        -999.25         0.7852         0.8874        24.0606      -3.167475        -999.25      0.9725636
      7757.0000       109.8667        -999.25        -999.25         0.7829         0.8737        23.8896      -3.006056        -999.25      0.9746069
      7757.5000       110.2185        -999.25        -999.25         0.7854         0.8658        23.7186      -2.844635        -999.25      0.9766502
      7758.0000       110.6587        -999.25        -999.25         0.7878         0.8672        23.5479      -2.683516        -999.25      0.9786897
      7758.5000       110.8864        -999.25        -999.25         0.7903         0.8686        23.6217      -2.766897        -999.25      0.9776342
      7759.0000       110.8933        -999.25        -999.25          0.792         0.8679        23.7024      -2.857178        -999.25      0.9764914
      7759.5000       110.8195        -999.25        -999.25         0.7922         0.8666        23.7845      -2.948858        -999.25      0.9753309
      7760.0000       110.9187        -999.25        -999.25         0.7923         0.8627        23.8846      -3.058538        -999.25      0.9739426
      7760.5000       111.3451        -999.25        -999.25         0.7925         0.8586        23.9848       -3.16832        -999.25      0.9725529
      7761.0000       111.7709        -999.25        -999.25         0.7941         0.8792        24.0848      -3.277901        -999.25      0.9711658
      7761.5000        112.053        -999.25        -999.25         0.7991         0.8817        24.1077      -3.310381        -999.25      0.9707547
      7762.0000       112.0867        -999.25        -999.25          0.804         0.8671         24.067      -3.279261        -999.25      0.9711486
      7762.5000       111.7363        -999.25        -999.25         0.8091         0.8584        24.0262      -3.248041        -999.25      0.9715438
      7763.0000       110.5909        -999.25        -999.25         0.8215         0.8621        23.8974      -3.128822        -999.25      0.9730529
      7763.5000       109.4077        -999.25        -999.25         0.8387         0.8657        23.5933      -2.834303        -999.25       0.976781
      7764.0000       108.1555        -999.25        -999.25         0.8564         0.8814        23.2892      -2.539783        -999.25       0.980509
      7764.5000       106.9033        -999.25        -999.25         0.8744         0.9068        23.0189      -2.279064        -999.25      0.9838093
      7765.0000       105.6361        -999.25        -999.25         0.8931          0.933        23.0159      -2.285645        -999.25       0.983726
      7765.5000       104.3662        -999.25        -999.25         0.9124         0.9405        23.0129      -2.292223        -999.25      0.9836428
      7766.0000       103.1693        -999.25        -999.25          0.932         0.9434        23.0098      -2.298704        -999.25      0.9835607
      7766.5000       102.1458        -999.25        -999.25         0.9521         0.9496        22.9492      -2.247684        -999.25      0.9842065
      7767.0000       101.1208        -999.25        -999.25         0.9608         0.9636        22.8759      -2.183966        -999.25      0.9850131
      7767.5000       100.4633        -999.25        -999.25         0.9692         0.9724        22.8026      -2.120247        -999.25      0.9858196
      7768.0000       100.7924        -999.25        -999.25         0.9778         0.9644        22.7368      -2.064026        -999.25      0.9865313
      7768.5000       101.5428        -999.25        -999.25           0.98         0.9582        22.6839      -2.020708        -999.25      0.9870796
      7769.0000       102.9294        -999.25        -999.25         0.9762         0.9876        22.6311      -1.977488        -999.25      0.9876267
      7769.5000       104.1716        -999.25        -999.25         0.9725         1.0181        23.0927      -2.448668        -999.25      0.9816625
      7770.0000       105.1676        -999.25        -999.25         0.9688         1.0507        23.5886      -2.954149        -999.25       0.975264
      7770.5000       106.1824        -999.25        -999.25          0.973         1.0469        23.7595       -3.13463        -999.25      0.9729794
      7771.0000       107.6093        -999.25        -999.25         0.9789         1.0238        23.8223       -3.20701        -999.25      0.9720632
      7771.5000       107.2512        -999.25        -999.25         0.9847         1.0133        23.8851       -3.27939        -999.25      0.9711469
      7772.0000       105.2681        -999.25        -999.25         0.9901         1.0029        23.9145      -3.318371        -999.25      0.9706535
      7772.5000       103.3389        -999.25        -999.25          1.006         1.0116        23.4768      -2.890253        -999.25      0.9760727
      7773.0000       101.8618        -999.25        -999.25         1.0214         1.0229        23.0387      -2.461733        -999.25       0.981497
      7773.5000       101.9573        -999.25        -999.25         1.0239         0.9998         22.601      -2.033613        -999.25      0.9869163
      7774.0000       102.9344        -999.25        -999.25         1.0076         0.9781        22.2888      -1.730991        -999.25      0.9907469
      7774.5000       103.5072        -999.25        -999.25         0.9959         0.9851        21.9772      -1.428972        -999.25        0.99457
      7775.0000       103.0211        -999.25        -999.25         0.9956         0.9921        21.8045      -1.265854        -999.25      0.9966348
      7775.5000         102.26        -999.25        -999.25         1.0021         1.0057        22.0494      -1.520334        -999.25      0.9934135
      7776.0000       101.6885        -999.25        -999.25          1.009         1.0254        22.4712      -1.951715        -999.25      0.9879529
      7776.5000       102.8792        -999.25        -999.25         1.0169         1.0456         23.321      -2.811094        -999.25      0.9770747
      7777.0000       104.4341        -999.25        -999.25         1.0248         1.0661        24.1717      -3.671375        -999.25      0.9661852
      7777.5000       105.7416        -999.25        -999.25         1.0286         1.0861        25.1019      -4.611156        -999.25      0.9542891
      7778.0000       105.5886        -999.25        -999.25         1.0278         1.0912        26.0445      -5.563337        -999.25      0.9422362
      7778.5000       105.7577        -999.25        -999.25         1.0216         1.0503        26.8696      -6.398018        -999.25      0.9316707
      7779.0000        105.927        -999.25        -999.25         1.0147         1.0111        26.0142      -5.552198        -999.25      0.9423772
      7779.5000       106.0961        -999.25        -999.25         1.0072         0.9733         24.813      -4.360579        -999.25      0.9574611
      7780.0000       106.6277        -999.25        -999.25         0.9949         0.9369        24.1167      -3.673859        -999.25      0.9661537
      7780.5000       107.2438        -999.25        -999.25         0.9801         0.9304         24.084       -3.65074        -999.25      0.9664463
      7781.0000       107.7374        -999.25        -999.25         0.9684         0.9316        24.3625       -3.93882        -999.25      0.9627997
