#------------------------------------------------------------------------------
# Created by    : vladimir.rabinovich
# Created on    : 09/19/2023 17:19:42
#------------------------------------------------------------------------------
~Version Information Section
VERS.           2.0     :   CWLS log ASCII Standard - VERSION 2.0
WRAP.           NO      :   One line per depth step
~Well Information Section
#MNEM       .UNIT                                         VALUE :DESCRIPTION
#------------------------------------------------------------------------------
STRT        .FT                                            2198 :START DEPTH
STOP        .FT                                            8738 :STOP DEPTH
STEP        .FT                                             0.5 :STEP      
NULL        .                                           -999.25 :NULL      
COMP        .                             CHAMPLIN PETROLEUM CO :COMPANY   
WELL        .                                     ST TR 00360-S :WELL      
FLD         .                                           WILDCAT :FIELD     
LOC         .                                                   :LOCATION  
CNTY        .                             GALVESTON SMALL BLOCK :LOCATION  
STAT        .                                             TEXAS :STATE     
CTRY        .                                     UNITED STATES :COUNTRY   
SRVC        .                                                   :SERVICE COMPANY
DATE        .                             9/13/2023 11:19:17 AM :LOG DATE  
API         .                                    42605301270000 :API NUMBER
UWI         .                                    42605301270000 :UNIQUE WELL ID
XCOORD      .                                  933135.371219094 :SURFACE X 
YCOORD      .                                  10510129.7662443 :SURFACE Y 
LAT         .                                         28.942863 :LATITUDE  
LON         .                                       -95.2117932 :LONGITUDE 
ELEV        .FT                                              20 :ELEVATION VALUE
ELEV_TYPE   .                                                GL :ELEVATION REFERENCE TYPE
~Curve Information Section
#MNEM       .UNIT                                      API CODE :CURVE DESCRIPTION
#------------------------------------------------------------------------------
DEPT        .FT                                                 :DEPTH     
ASFL        .OHMM                                               :          
CILD        .MMHO                                               :          
ILD         .OHMM                                               :          
SP          .MV                                                 :          
SP_NORM     .MV                                                 :SP Normalized
VSH_SP      .V/V                                                :Volume of Shale from SP
~A        DEPTH           ASFL           CILD            ILD             SP        SP_NORM         VSH_SP
# ...
      8278.0000         0.8204        1377.57          0.725        18.8434      0.6687965              1
      8278.5000         0.8309       1390.566         0.7551        18.8274      0.6847954              1
      8279.0000         0.8413       1403.537          0.781        18.8176      0.6945953              1
      8279.5000         0.8362       1424.645         0.7983        18.8079      0.7042961              1
      8280.0000         0.8244       1449.609         0.7887        19.0248      0.4873962              1
      8280.5000         0.8114       1474.574         0.7791        19.2581      0.2540951              1
      8281.0000         0.7984       1494.693         0.7696        19.4913       0.020895              1
      8281.5000         0.7854       1483.137         0.7534        19.7041     -0.1919041      0.9972585
      8282.0000         0.7724       1471.582         0.7355        19.8828     -0.3706036      0.9947057
      8282.5000         0.7604       1460.025         0.7176        20.0619     -0.5497036      0.9921471
      8283.0000         0.7692       1448.482         0.7177        20.2406      -0.728405      0.9895942
      8283.5000         0.7779       1436.928         0.7444        20.4608     -0.9486046      0.9864485
      8284.0000         0.7867       1425.584         0.7711        20.7402      -1.228004      0.9824571
      8284.5000         0.7955       1414.654         0.7978           20.6      -1.087805      0.9844599
      8285.0000         0.8042       1403.736         0.8038        20.2221     -0.7099037      0.9898585
      8285.5000         0.8091       1392.807         0.8044        19.9885      -0.476305      0.9931957
      8286.0000         0.8131       1381.877          0.805        19.8473      -0.335104      0.9952128
      8286.5000         0.8171       1370.947         0.8057        19.7062     -0.1940041      0.9972285
      8287.0000         0.8212       1358.703         0.8063        19.6234     -0.1112041      0.9984114
      8287.5000         0.8211       1346.434         0.8069        19.5554    -0.04320526      0.9993828
      8288.0000         0.8184       1334.152         0.8005        19.4873     0.02489471              1
      8288.5000         0.8157       1321.883         0.7923        19.3734      0.1387959              1
      8289.0000         0.8131       1309.602         0.7842        19.1889      0.3232956              1
      8289.5000         0.8178        1303.93         0.7842        19.0048      0.5073948              1
      8290.0000         0.8236       1299.824         0.7862        18.8127      0.6994953              1
      8290.5000         0.8296       1295.723         0.7858        18.6922      0.8199959              1
      8291.0000         0.8383       1291.617         0.7849        18.9646       0.547596              1
      8291.5000         0.8387       1291.172         0.7839        19.2373      0.2748947              1
      8292.0000         0.8333       1302.527          0.783        19.5101    0.002096176              1
      8292.5000         0.8283       1313.883         0.7809        19.7853     -0.2731037      0.9960985
      8293.0000          0.825       1325.238         0.7747        20.0699     -0.5577049      0.9920328
      8293.5000         0.8217       1330.891           0.77        20.3544      -0.842205      0.9879685
      8294.0000         0.8187       1333.826           0.77        20.4453     -0.9331036        0.98667
      8294.5000         0.8227       1336.764         0.7699        20.3087      -0.796505      0.9886214
      8295.0000         0.8267       1339.695         0.7699         20.172     -0.6598053      0.9905742
      8295.5000         0.8307       1340.613         0.7698        20.0777     -0.5655041      0.9919214
      8296.0000         0.8334       1340.717         0.7703        19.9911     -0.4789047      0.9931585
      8296.5000         0.8353       1340.822          0.771        19.9045     -0.3923035      0.9943957
      8297.0000         0.8372       1340.926         0.7717         19.818     -0.3058052      0.9956313
      8297.5000         0.8391       1343.504         0.7725        19.7314     -0.2192039      0.9968685
      8298.0000         0.8341       1348.156         0.7732         19.671     -0.1588039      0.9977314
      8298.5000         0.8277       1352.807         0.7728        19.6442     -0.1320038      0.9981142
      8299.0000         0.8213       1353.451         0.7717        19.6175     -0.1053047      0.9984956
      8299.5000         0.8143       1347.348         0.7706        19.5907    -0.07850456      0.9988785
      8300.0000         0.8074       1341.244         0.7696        19.6138     -0.1016045      0.9985485
      8300.5000          0.811       1335.148         0.7685        19.6998     -0.1876049      0.9973199
      8301.0000         0.8156       1329.045         0.7664        19.7858     -0.2736053      0.9960914
      8301.5000         0.8201       1322.947         0.7641        19.8719      -0.359705      0.9948614
      8302.0000         0.8246       1317.207         0.7619        19.9148     -0.4026051      0.9942485
      8302.5000         0.8291       1313.826         0.7597        19.9174     -0.4052048      0.9942114
      8303.0000         0.8336       1310.447         0.7576        19.9201     -0.4079037      0.9941728
      8303.5000         0.8369       1307.061          0.757        19.9227     -0.4105053      0.9941356
      8304.0000         0.8401        1303.68         0.7564        19.8249     -0.3127041      0.9955328
      8304.5000         0.8433       1300.299         0.7559        19.6452     -0.1330051      0.9980999
      8305.0000         0.8465       1296.918         0.7553        19.6342     -0.1220036      0.9982571
      8305.5000         0.8378       1301.764         0.7548        19.6761     -0.1639042      0.9976585
      8306.0000         0.8279       1311.266         0.7542         19.718     -0.2058048      0.9970599
      8306.5000          0.818       1320.756         0.7527        19.7599     -0.2477036      0.9964614
      8307.0000         0.8088        1330.26         0.7509        19.8277     -0.3155041      0.9954928
      8307.5000         0.8022       1341.102         0.7492        19.9129     -0.4007053      0.9942756
      8308.0000         0.7956       1352.457         0.7522         19.998     -0.4858036      0.9930599
      8308.5000         0.7943       1363.799         0.7616        20.0831     -0.5709038      0.9918442
      8309.0000          0.799       1375.154         0.7709        20.1682      -0.656004      0.9906285
      8309.5000         0.8036       1384.883         0.7803        20.2532     -0.7410049      0.9894142
      8310.0000         0.8083       1353.984         0.7897        20.2834      -0.771204      0.9889828
      8310.5000         0.8356       1320.631          0.799        20.2861     -0.7739048      0.9889442
      8311.0000         0.8645       1285.926         0.8183        20.2887     -0.7765045      0.9889071
      8311.5000         0.8795       1251.271         0.8557        20.2914     -0.7792053      0.9888685
      8312.0000         0.9032       1216.617         0.8932         20.294      -0.781805      0.9888313
      8312.5000          0.927       1181.912         0.9294        20.2967     -0.7845039      0.9887928
      8313.0000         0.9507       1151.365          0.965        20.2863     -0.7741051      0.9889414
      8313.5000         0.9718       1121.367         1.0005        20.1863     -0.6741047      0.9903699
      8314.0000         0.9908        1091.17         1.0331        20.0823     -0.5701046      0.9918556
      8314.5000         1.0098       1060.922         1.0569        19.9744      -0.462204      0.9933971
      8315.0000         1.0287       1035.959         1.0807        19.8666     -0.3544044      0.9949371
      8315.5000          1.047       1011.846         1.1026        19.7825     -0.2703037      0.9961385
