#------------------------------------------------------------------------------
# Created by    : vladimir.rabinovich
# Created on    : 09/19/2023 17:20:27
#------------------------------------------------------------------------------
~Version Information Section
VERS.           2.0     :   CWLS log ASCII Standard - VERSION 2.0
WRAP.           NO      :   One line per depth step
~Well Information Section
#MNEM       .UNIT                                         VALUE :DESCRIPTION
#------------------------------------------------------------------------------
STRT        .FT                                             540 :START DEPTH
STOP        .FT                                            9057 :STOP DEPTH
STEP        .FT                                             0.5 :STEP      
NULL        .                                           -999.25 :NULL      
COMP        .                              MITCHELL ENERGY CORP :COMPANY   
WELL        .                                     ST TR 00228-S :WELL      
FLD         .                                     LAFITTES GOLD :FIELD     
LOC         .                                                   :LOCATION  
CNTY        .                             GALVESTON SMALL BLOCK :LOCATION  
STAT        .                                             TEXAS :STATE     
CTRY        .                                     UNITED STATES :COUNTRY   
SRVC        .                                                   :SERVICE COMPANY
DATE        .                             9/13/2023 11:19:17 AM :LOG DATE  
API         .                                    42605300060000 :API NUMBER
UWI         .                                    42605300060000 :UNIQUE WELL ID
XCOORD      .                                  1068847.04405215 :SURFACE X 
YCOORD      .                                  10622520.7629704 :SURFACE Y 
LAT         .                                        29.2582252 :LATITUDE  
LON         .                                       -94.7929393 :LONGITUDE 
ELEV        .FT                                              67 :ELEVATION VALUE
ELEV_TYPE   .                                                KB :ELEVATION REFERENCE TYPE
~Curve Information Section
#MNEM       .UNIT                                      API CODE :CURVE DESCRIPTION
#------------------------------------------------------------------------------
DEPT        .FT                                                 :DEPTH     
ASN         .OHMM                                               :          
CILD        .MMHO                                               :          
GR          .GAPI                                               :          
GR_NORM     .GAPI                                               :GammaRay Normalized
ILD         .OHMM                                               :          
SP          .MV                                                 :          
SP_NORM     .MV                                                 :SP Normalized
VSH_GR      .V/V                                                :Volume of Shale from GR
VSH_SP      .V/V                                                :Volume of Shale from SP
~A        DEPTH            ASN           CILD             GR        GR_NORM            ILD             SP        SP_NORM         VSH_GR         VSH_SP
# ...
      8463.5000         0.7806       1113.115        -999.25        -999.25         0.9177        26.2157      0.6912804        -999.25              1
      8464.0000         0.7871       953.8223        -999.25        -999.25         0.9404        26.2719      0.6039448        -999.25              1
      8464.5000         0.7969       932.1699        -999.25        -999.25         0.9631        26.2739      0.5708122        -999.25              1
      8465.0000         0.8216       898.2197        -999.25        -999.25         0.9858        26.2759      0.5376778        -999.25              1
      8465.5000         0.8899       853.2471        -999.25        -999.25         1.0084        26.2948      0.4876442        -999.25              1
      8466.0000         1.0726       806.8018        -999.25        -999.25         1.0282        26.3166      0.4347095        -999.25              1
      8466.5000         1.1046       764.6279        -999.25        -999.25         1.0459         26.402      0.3181763        -999.25              1
      8467.0000         1.1308       727.6084        -999.25        -999.25         1.0499        26.4973      0.1917439        -999.25              1
      8467.5000         1.1475        683.127        -999.25        -999.25         1.0439        26.5928     0.06510925        -999.25              1
      8468.0000         1.1598       660.0947        -999.25        -999.25          1.038        26.6879     -0.0611248        -999.25      0.9993209
      8468.5000         1.1632       654.1963        -999.25        -999.25          1.032        26.7825     -0.1868572        -999.25      0.9979238
      8469.0000         1.1628        696.874        -999.25        -999.25          1.026        26.8771     -0.3125916        -999.25      0.9965268
      8469.5000         1.1596       744.8418        -999.25        -999.25         1.0129        26.9977      -0.464325        -999.25      0.9948409
      8470.0000         1.1527        789.127        -999.25        -999.25         0.9984        27.1441      -0.641861        -999.25      0.9928682
      8470.5000         1.1457       991.2578        -999.25        -999.25         0.9788        27.2589     -0.7877941        -999.25      0.9912468
      8471.0000         1.1383       1068.635        -999.25        -999.25         0.9592         27.305     -0.8650284        -999.25      0.9903886
      8471.5000         1.1229       1107.076        -999.25        -999.25         0.9402        27.3279     -0.9190617        -999.25      0.9897882
      8472.0000         1.1072       1131.281        -999.25        -999.25         0.9234        27.3299     -0.9521961        -999.25      0.9894201
      8472.5000         1.0884       1148.736        -999.25        -999.25         0.9065        27.3568      -1.010229        -999.25      0.9887753
      8473.0000         1.0715       1165.404        -999.25        -999.25         0.8884        27.4055      -1.090063        -999.25      0.9878882
      8473.5000         1.0498       1181.557        -999.25        -999.25         0.8688        27.4541      -1.169796        -999.25      0.9870023
      8474.0000         1.0576       1196.898        -999.25        -999.25         0.8528        27.5241      -1.270929        -999.25      0.9858786
      8474.5000         1.0753       1211.775        -999.25        -999.25         0.8374        27.7116      -1.489563        -999.25      0.9834493
      8475.0000         1.0937       1227.781        -999.25        -999.25         0.8217        27.8988      -1.707897        -999.25      0.9810234
      8475.5000         1.0785       1244.229        -999.25        -999.25         0.8033        28.0714      -1.911633        -999.25      0.9787596
      8476.0000         1.0632       1264.898        -999.25        -999.25         0.7849        28.1727      -2.044067        -999.25      0.9772881
      8476.5000          1.043       1290.502        -999.25        -999.25         0.7665        28.1631      -2.065599        -999.25      0.9770489
      8477.0000         1.0092       1320.893        -999.25        -999.25         0.7523        28.0735      -2.007133        -999.25      0.9776985
      8477.5000         0.9665       1353.051        -999.25        -999.25         0.7385        27.9841      -1.948868        -999.25      0.9783459
      8478.0000         0.9393       1394.047        -999.25        -999.25         0.7334        27.8762      -1.872101        -999.25      0.9791989
      8478.5000         0.9212       1430.281        -999.25        -999.25         0.7305        27.8017      -1.828735        -999.25      0.9796807
      8479.0000         0.9127       1458.143        -999.25        -999.25         0.7377        27.8632      -1.921368        -999.25      0.9786515
      8479.5000         0.9085       1451.404        -999.25        -999.25         0.7449        27.9332      -2.022503        -999.25      0.9775277
      8480.0000         0.9121       1444.666        -999.25        -999.25         0.7721        28.0344      -2.154837        -999.25      0.9760574
      8480.5000         0.9226        1435.67        -999.25        -999.25         0.8006         28.152       -2.30357        -999.25      0.9744048
      8481.0000         0.9332       1424.242        -999.25        -999.25         0.8309        28.3279      -2.510603        -999.25      0.9721044
      8481.5000         0.9461       1411.059        -999.25        -999.25         0.8586         28.347      -2.560839        -999.25      0.9715462
      8482.0000         0.9621       1396.035        -999.25        -999.25         0.8805        28.2746      -2.519571        -999.25      0.9720048
      8482.5000         0.9785       1378.949        -999.25        -999.25         0.9023        28.2022      -2.478306        -999.25      0.9724633
      8483.0000         1.0101       1356.807        -999.25        -999.25         0.9242        28.1041      -2.411339        -999.25      0.9732074
      8483.5000          1.034       1334.615        -999.25        -999.25         0.9572         28.002      -2.340374        -999.25      0.9739959
      8484.0000          1.061       1308.422        -999.25        -999.25         0.9968        27.9842      -2.353706        -999.25      0.9738477
      8484.5000         1.1385       1258.736        -999.25        -999.25         1.0666        28.0284      -2.429041        -999.25      0.9730107
      8485.0000         1.3186       1171.051        -999.25        -999.25         1.3033        28.2489      -2.680674        -999.25      0.9702147
      8485.5000         1.3819       1133.246        -999.25        -999.25         1.3845        28.5181      -2.981009        -999.25      0.9668777
      8486.0000         1.4775       1080.025        -999.25        -999.25         1.4231        28.9185      -3.412542        -999.25      0.9620829
      8486.5000         1.5738       1039.273        -999.25        -999.25         1.4243        29.3182      -3.843374        -999.25      0.9572958
      8487.0000         1.5783       930.4766        -999.25        -999.25         1.4255        29.4317      -3.988008        -999.25      0.9556888
      8487.5000         1.5257       845.3428        -999.25        -999.25         1.4238        28.8654      -3.452845        -999.25      0.9616351
      8488.0000         1.4551       814.4121        -999.25        -999.25         1.4069        27.9229      -2.541477        -999.25      0.9717613
      8488.5000         1.4225       791.4346        -999.25        -999.25         1.3829        27.6388      -2.288511        -999.25      0.9745721
      8489.0000         1.2849       798.6758        -999.25        -999.25         1.3522        27.2616      -1.942446        -999.25      0.9784173
      8489.5000         1.2064       825.0166        -999.25        -999.25         1.3181        26.8199      -1.531879        -999.25      0.9829791
