#------------------------------------------------------------------------------
# Created by    : vladimir.rabinovich
# Created on    : 09/19/2023 17:20:26
#------------------------------------------------------------------------------
~Version Information Section
VERS.           2.0     :   CWLS log ASCII Standard - VERSION 2.0
WRAP.           NO      :   One line per depth step
~Well Information Section
#MNEM       .UNIT                                         VALUE :DESCRIPTION
#------------------------------------------------------------------------------
STRT        .FT                                             494 :START DEPTH
STOP        .FT                                            8560 :STOP DEPTH
STEP        .FT                                             0.5 :STEP      
NULL        .                                           -999.25 :NULL      
COMP        .                           COLORADO OIL & GAS CORP :COMPANY   
WELL        .                                     ST TR 00122-S :WELL      
FLD         .                                           WILDCAT :FIELD     
LOC         .                                                   :LOCATION  
CNTY        .                           HIGH ISLAND SMALL BLOCK :LOCATION  
STAT        .                                             TEXAS :STATE     
CTRY        .                                     UNITED STATES :COUNTRY   
SRVC        .                                                   :SERVICE COMPANY
DATE        .                             9/13/2023 11:19:17 AM :LOG DATE  
API         .                                    42606300100000 :API NUMBER
UWI         .                                    42606300100000 :UNIQUE WELL ID
XCOORD      .                                  1208966.22079576 :SURFACE X 
YCOORD      .                                  10715303.2202208 :SURFACE Y 
LAT         .                                        29.5185768 :LATITUDE  
LON         .                                       -94.3569047 :LONGITUDE 
ELEV        .FT                                              93 :ELEVATION VALUE
ELEV_TYPE   .                                                KB :ELEVATION REFERENCE TYPE
~Curve Information Section
#MNEM       .UNIT                                      API CODE :CURVE DESCRIPTION
#------------------------------------------------------------------------------
DEPT        .FT                                                 :DEPTH     
ASN         .OHMM                                               :          
CILD        .MMHO                                               :          
GR          .GAPI                                               :          
GR_NORM     .GAPI                                               :GammaRay Normalized
ILD         .OHMM                                               :          
SP          .MV                                                 :          
SP_NORM     .MV                                                 :SP Normalized
VSH_GR      .V/V                                                :Volume of Shale from GR
VSH_SP      .V/V                                                :Volume of Shale from SP
~A        DEPTH            ASN           CILD             GR        GR_NORM            ILD             SP        SP_NORM         VSH_GR         VSH_SP
# ...
      5847.0000         0.6346       4798.844        -999.25        -999.25         0.2335      -114.6821      -64.98512        -999.25     0.04499817
      5847.5000         0.6444       4801.359        -999.25        -999.25         0.2322      -115.5171      -65.82013        -999.25     0.03253538
      5848.0000         0.6371       4667.523        -999.25        -999.25         0.2308      -115.5347      -65.83772        -999.25     0.03227279
      5848.5000         0.6221       4527.813        -999.25        -999.25         0.2294      -114.7947      -65.09773        -999.25     0.04331743
      5849.0000         0.6067       4454.258        -999.25        -999.25         0.2281      -113.7559      -64.05893        -999.25     0.05882195
      5849.5000         0.5873       4411.063        -999.25        -999.25         0.2243      -112.0398      -62.34283        -999.25     0.08443537
      5850.0000         0.5697       4424.938        -999.25        -999.25         0.2197      -110.3403      -60.64333        -999.25      0.1098011
      5850.5000         0.5364        4460.43        -999.25        -999.25         0.2152      -109.0331      -59.33612        -999.25      0.1293116
      5851.0000         0.5185       4495.922        -999.25        -999.25         0.2106      -107.6998      -58.00283        -999.25      0.1492115
      5851.5000         0.4784       4531.422        -999.25        -999.25         0.2061      -106.8008      -57.10382        -999.25      0.1626295
      5852.0000         0.4431       4568.891        -999.25        -999.25         0.2015      -106.7499      -57.05293        -999.25      0.1633891
      5852.5000         0.4687       4607.844        -999.25        -999.25         0.1971      -106.8496      -57.15263        -999.25       0.161901
      5853.0000         0.4953       4646.742        -999.25        -999.25         0.1947      -107.7607      -58.06372        -999.25      0.1483026
      5853.5000          0.573       4685.641        -999.25        -999.25         0.1923      -108.7137      -59.01673        -999.25      0.1340787
      5854.0000         0.6096       4624.672        -999.25        -999.25         0.1899      -109.6669      -59.96993        -999.25      0.1198518
      5854.5000          0.627       4539.859        -999.25        -999.25         0.1875      -112.8333      -63.13633        -999.25     0.07259215
      5855.0000         0.6408       4420.984        -999.25        -999.25         0.1872      -114.2098      -64.51283        -999.25     0.05204728
      5855.5000         0.6595       4264.297        -999.25        -999.25         0.1914      -114.4138      -64.71683        -999.25     0.04900258
      5856.0000         0.6417       4122.219        -999.25        -999.25         0.1955      -114.3169      -64.61993        -999.25     0.05044875
      5856.5000         0.5289       4010.453        -999.25        -999.25         0.1996      -113.6941      -63.99713        -999.25     0.05974437
      5857.0000         0.5387       3976.156        -999.25        -999.25         0.2038      -113.0057      -63.30873        -999.25       0.070019
      5857.5000         0.5485       3947.406        -999.25        -999.25         0.2115      -112.2889      -62.59193        -999.25     0.08071746
      5858.0000         0.5584       3918.688        -999.25        -999.25         0.2239      -111.4069      -61.70993        -999.25     0.09388169
      5858.5000         0.5699       3889.938        -999.25        -999.25         0.2364      -110.5249      -60.82793        -999.25      0.1070458
      5859.0000         0.5865       3756.719        -999.25        -999.25         0.2489      -109.6428      -59.94583        -999.25      0.1202115
      5859.5000         0.6031        3186.43        -999.25        -999.25         0.2613      -108.7618      -59.06483        -999.25      0.1333607
      5860.0000         0.6196       3073.871        -999.25        -999.25         0.2727       -106.578      -56.88103        -999.25      0.1659548
      5860.5000         0.6361       2997.453        -999.25        -999.25         0.2819      -104.4948      -54.79782        -999.25      0.1970474
      5861.0000          0.647       2916.195        -999.25        -999.25         0.2911      -102.9364      -53.23943        -999.25       0.220307
      5861.5000         0.6577       2801.887        -999.25        -999.25         0.3002      -102.2925      -52.59553        -999.25      0.2299174
      5862.0000         0.6445       2821.535        -999.25        -999.25         0.3175      -101.3007      -51.60373        -999.25      0.2447205
      5862.5000         0.6314       2841.207        -999.25        -999.25          0.336      -100.2645      -50.56753        -999.25      0.2601861
      5863.0000         0.6182       2973.559        -999.25        -999.25         0.3545       -98.6656      -48.96863        -999.25      0.2840503
      5863.5000         0.6003       2818.348        -999.25        -999.25          0.373        -93.429      -43.73203        -999.25      0.3622085
      5864.0000         0.6335       2213.309        -999.25        -999.25         0.4303       -99.2081      -49.51113        -999.25      0.2759533
      5864.5000         0.8199       1950.971        -999.25        -999.25         0.5145      -100.7876      -51.09063        -999.25      0.2523787
      5865.0000         0.9636       1834.268        -999.25        -999.25         0.6502      -101.4482      -51.75122        -999.25       0.242519
      5865.5000         1.1023       1738.793        -999.25        -999.25         0.8628      -100.2451      -50.54813        -999.25      0.2604757
      5866.0000         1.1951       1615.178        -999.25        -999.25         0.9655       -98.2412      -48.54423        -999.25      0.2903846
      5866.5000         1.5701       1508.545        -999.25        -999.25         1.0028       -95.4438      -45.74683        -999.25      0.3321369
      5867.0000         1.5752       1417.906        -999.25        -999.25         1.0274       -92.7462      -43.04923        -999.25      0.3723996
      5867.5000         1.5803       868.9453        -999.25        -999.25         1.0313       -90.2219      -40.52493        -999.25      0.4100757
      5868.0000         1.3227        841.498        -999.25        -999.25         1.0351       -83.3171      -33.62013        -999.25      0.5131324
      5868.5000         1.1402       864.6016        -999.25        -999.25         1.0389       -73.7035      -24.00653        -999.25       0.656619
      5869.0000         1.0845       918.6582        -999.25        -999.25         1.0427       -70.0574      -20.36043        -999.25      0.7110384
      5869.5000         1.0522       975.0352        -999.25        -999.25          1.045       -68.1254      -18.42842        -999.25      0.7398742
      5870.0000         1.0235       1039.064        -999.25        -999.25         1.0259       -66.0735      -16.37653        -999.25      0.7704995
      5870.5000         0.9948       1114.201        -999.25        -999.25         1.0069       -63.5622      -13.86523        -999.25      0.8079817
      5871.0000          0.972       1189.238        -999.25        -999.25         0.9878       -61.8757      -12.17873        -999.25      0.8331533
      5871.5000         0.9515       1251.736        -999.25        -999.25         0.9641       -56.5005      -6.803528        -999.25      0.9133802
      5872.0000          0.931       1297.203        -999.25        -999.25         0.9188       -56.2924      -6.595428        -999.25      0.9164861
      5872.5000         0.9087       1342.672        -999.25        -999.25         0.8734       -56.3336      -6.636627        -999.25      0.9158713
      5873.0000         0.8836       1375.723        -999.25        -999.25         0.8374       -56.6271       -6.93013        -999.25      0.9114906
