#------------------------------------------------------------------------------
# Created by    : vladimir.rabinovich
# Created on    : 09/19/2023 17:22:47
#------------------------------------------------------------------------------
~Version Information Section
VERS.           2.0     :   CWLS log ASCII Standard - VERSION 2.0
WRAP.           NO      :   One line per depth step
~Well Information Section
#MNEM       .UNIT                                         VALUE :DESCRIPTION
#------------------------------------------------------------------------------
STRT        .FT                                             494 :START DEPTH
STOP        .FT                                            8323 :STOP DEPTH
STEP        .FT                                             0.5 :STEP      
NULL        .                                           -999.25 :NULL      
COMP        .                                       MONSANTO CO :COMPANY   
WELL        .                                     ST TR 00293-S :WELL      
FLD         .                                           WILDCAT :FIELD     
LOC         .                                                   :LOCATION  
CNTY        .                             GALVESTON SMALL BLOCK :LOCATION  
STAT        .                                             TEXAS :STATE     
CTRY        .                                     UNITED STATES :COUNTRY   
SRVC        .                                                   :SERVICE COMPANY
DATE        .                             9/13/2023 11:19:17 AM :LOG DATE  
API         .                                    42605300230000 :API NUMBER
UWI         .                                    42605300230000 :UNIQUE WELL ID
XCOORD      .                                  996050.411534576 :SURFACE X 
YCOORD      .                                  10568409.9475512 :SURFACE Y 
LAT         .                                        29.1061939 :LATITUDE  
LON         .                                        -95.018267 :LONGITUDE 
ELEV        .FT                                              81 :ELEVATION VALUE
ELEV_TYPE   .                                                KB :ELEVATION REFERENCE TYPE
~Curve Information Section
#MNEM       .UNIT                                      API CODE :CURVE DESCRIPTION
#------------------------------------------------------------------------------
DEPT        .FT                                                 :DEPTH     
DT          .US/F                                               :          
GR          .GAPI                                               :          
GR_NORM     .GAPI                                               :GammaRay Normalized
ILD         .OHMM                                               :          
SFL         .OHMM                                               :          
SP          .MV                                                 :          
SP_NORM     .MV                                                 :SP Normalized
VSH_GR      .V/V                                                :Volume of Shale from GR
VSH_SP      .V/V                                                :Volume of Shale from SP
~A        DEPTH             DT             GR        GR_NORM            ILD            SFL             SP        SP_NORM         VSH_GR         VSH_SP
# ...
      2561.0000        135.197        77.5596       50.15448         0.2914         0.4114        60.3057      -12.87693      0.3649889      0.3748982
      2561.5000       138.0237        77.5913       50.19773         0.2858         0.4386        61.6738      -14.24723      0.3659092      0.3027773
      2562.0000        141.033        76.8336       49.18689         0.2825          0.469        64.2245      -16.80012      0.3444019      0.1684147
      2562.5000       143.6311        74.3406       45.85885         0.2825         0.4911        64.9077      -17.48551      0.2735925      0.1323417
      2563.0000       145.9333        71.1854       41.64656         0.2805         0.4878        64.5845      -17.16451      0.1839694      0.1492366
      2563.5000        147.512        68.5792       38.16737         0.2744         0.4763        64.4373      -17.01949      0.1099441      0.1568688
      2564.0000       148.2083        65.9454       34.65132         0.2653         0.4644        64.3663      -16.95068     0.03513442      0.1604903
      2564.5000       148.6094        63.7466       31.71614         0.2568         0.4528        64.7891      -17.37568              0      0.1381224
      2565.0000       148.6743        62.7004       30.32006          0.256         0.4406        65.3167      -17.90547              0      0.1102385
      2565.5000       148.6497        61.6535       28.92303         0.2601         0.4284        66.2233      -18.81425              0     0.06240784
      2566.0000       148.4246        63.9129       31.94099         0.2658         0.4121         64.672      -17.26514              0      0.1439398
      2566.5000       147.9089        66.7498       35.73011         0.2821         0.3962        62.4539      -15.04924     0.05808737      0.2605665
      2567.0000       143.5564        68.6185       38.22635         0.3024         0.4251        61.0695      -13.66703      0.1111989      0.3333144
      2567.5000       134.2354        69.7292       39.71043         0.3206         0.4774        60.7635      -13.36322      0.1427751      0.3493042
      2568.0000        129.356        69.1567       38.94687         0.3431         0.5162        61.0294      -13.63131      0.1265292      0.3351942
      2568.5000       126.6616         67.438       36.65279         0.3791         0.5282        60.9871       -13.5912     0.07771885      0.3373054
      2569.0000       125.8655        65.7223        34.3627          0.431         0.5276         60.918      -13.52429     0.02899357      0.3408269
      2569.5000       124.8389        64.0079       32.07434         0.4906         0.5794        60.7973      -13.40578              0      0.3470642
      2570.0000       121.0002        64.3241       32.49751         0.5485         0.8118        60.4984      -13.10907              0      0.3626803
      2570.5000        115.722        65.5973       34.19856         0.5888         0.9793        59.8644      -12.47726     0.02550133      0.3959337
      2571.0000       112.2927        68.9843       38.72224         0.6197         1.0674         58.572      -11.18705      0.1217498      0.4638393
      2571.5000        112.161        72.1918       43.00623         0.6416         0.9733        56.9188      -9.536045      0.2128984      0.5507345
      2572.0000       117.8293        74.8256       46.52414         0.6526         0.6888        55.5632      -8.182636      0.2877476      0.6219665
      2572.5000       126.8896        77.3793       49.93509         0.6505         0.5126        54.4249      -7.046528       0.360321      0.6817617
      2573.0000       135.7063        81.1556        54.9786         0.6354         0.5234        53.9408      -6.564617      0.4676297      0.7071254
      2573.5000       140.5928        84.7644       59.79844         0.6019         0.5388        53.6794      -6.305408      0.5701795       0.720768
      2574.0000       141.4368        87.3782       63.28964         0.5716         0.5591        53.7057        -6.3339      0.6444604      0.7192684
      2574.5000       140.8933         89.667       66.34686         0.5459         0.5728        53.8381      -6.468491      0.7095076      0.7121847
      2575.0000       140.3499        91.5801       68.90241         0.5247         0.5625        54.0019       -6.63448      0.7638811      0.7034485
      2575.5000       139.6711        93.1107       70.94718         0.5094         0.5349        54.2155      -6.850273      0.8073868      0.6920909
      2576.0000       139.3933        93.6227       71.63179         0.4951         0.5097        54.2394      -6.876362       0.821953      0.6907178
      2576.5000       140.1787        91.6808       69.03965         0.4839         0.4899        54.2948      -6.933952      0.7668011      0.6876867
      2577.0000       142.2332        87.4795       63.43048         0.4729         0.5209         54.383      -7.024345      0.6474571      0.6829292
      2577.5000       146.1062        84.0769       58.88784         0.4631          0.554         54.615      -7.258537       0.550805      0.6706033
      2578.0000       149.9604        81.7382       55.76584          0.454         0.5794        54.8797      -7.525425      0.4843796      0.6565566
      2578.5000       151.6428        81.2549       55.12141         0.4459         0.5966        55.1501      -7.798016      0.4706683      0.6422097
      2579.0000       152.6545        81.8831       55.96119         0.4476         0.6091         55.345       -7.99511      0.4885359      0.6318364
      2579.5000       153.5459        83.3644       57.94013         0.4581          0.614        55.2114      -7.863697      0.5306411      0.6387528
      2580.0000       154.0857        85.5745       60.89226         0.4694           0.59        55.0777      -7.732189      0.5934524      0.6456742
      2580.5000       154.5356         88.405       64.67282         0.4852         0.5047        54.9156      -7.572281      0.6738898      0.6540905
      2581.0000       154.1677        89.9463        66.7319         0.5084         0.4794        54.5347      -7.193569      0.7176999      0.6740227
      2581.5000       153.1057        89.4789       66.10869          0.541         0.4894        54.0703      -6.731361      0.7044402      0.6983494
      2582.0000       151.3992        88.6995       65.06886         0.5768          0.549        53.5864      -6.249653      0.6823162      0.7237025
      2582.5000       147.9536        88.0459       64.19702         0.6184         0.6113        53.0969      -5.762344      0.6637664      0.7493503
      2583.0000       145.4141         88.252       64.47317         0.6706         0.6415        52.5338      -5.201431      0.6696419       0.778872
      2583.5000        142.939        89.5482       66.20495         0.7377         0.6474        51.8559      -4.525726      0.7064883      0.8144355
      2584.0000          140.7        90.8577       67.95448         0.7954         0.6535        51.1778      -3.849815      0.7437122      0.8500097
      2584.5000       138.6362         91.923       69.37791          0.813         0.6613        50.5193      -3.193504      0.7739982      0.8845524
      2585.0000        135.658        92.8108       70.56435         0.8153         0.6694        49.7759      -2.452301      0.7992416      0.9235631
      2585.5000        131.698        94.2307       72.46132         0.8088         0.6711        49.0462      -1.724789      0.8396025      0.9618532
      2586.0000       128.3235        95.6389       74.34265         0.7996         0.6632        49.5718      -2.252579      0.8796309      0.9340748
      2586.5000       126.1193        95.9597       74.77195         0.7773         0.6444          50.64      -3.322971      0.8887649      0.8777384
      2587.0000       125.9354        93.8571       71.96523         0.7557         0.6245        51.4281      -4.113262      0.8290473      0.8361441
