#------------------------------------------------------------------------------
# Created by    : vladimir.rabinovich
# Created on    : 09/19/2023 17:19:43
#------------------------------------------------------------------------------
~Version Information Section
VERS.           2.0     :   CWLS log ASCII Standard - VERSION 2.0
WRAP.           NO      :   One line per depth step
~Well Information Section
#MNEM       .UNIT                                         VALUE :DESCRIPTION
#------------------------------------------------------------------------------
STRT        .FT                                            1596 :START DEPTH
STOP        .FT                                            6079 :STOP DEPTH
STEP        .FT                                             0.5 :STEP      
NULL        .                                           -999.25 :NULL      
COMP        .                                 EOG RESOURCES INC :COMPANY   
WELL        .                                     ST TR 00721-S :WELL      
FLD         .                                  SHERMAN OFFSHORE :FIELD     
LOC         .                                                   :LOCATION  
CNTY        .                      MATAGORDA ISLAND SMALL BLOCK :LOCATION  
STAT        .                                             TEXAS :STATE     
CTRY        .                                     UNITED STATES :COUNTRY   
SRVC        .                                                   :SERVICE COMPANY
DATE        .                             9/13/2023 11:19:17 AM :LOG DATE  
API         .                                    42603300060000 :API NUMBER
UWI         .                                    42603300060000 :UNIQUE WELL ID
XCOORD      .                                  491308.028993428 :SURFACE X 
YCOORD      .                                  10247941.6299489 :SURFACE Y 
LAT         .                                        28.1931224 :LATITUDE  
LON         .                                       -96.5672747 :LONGITUDE 
ELEV        .FT                                              74 :ELEVATION VALUE
ELEV_TYPE   .                                                KB :ELEVATION REFERENCE TYPE
~Curve Information Section
#MNEM       .UNIT                                      API CODE :CURVE DESCRIPTION
#------------------------------------------------------------------------------
DEPT        .FT                                                 :DEPTH     
ASFL        .OHMM                                               :          
CILD        .MMHO                                               :          
ILD         .OHMM                                               :          
SP          .MV                                                 :          
SP_NORM     .MV                                                 :SP Normalized
VSH_SP      .V/V                                                :Volume of Shale from SP
~A        DEPTH           ASFL           CILD            ILD             SP        SP_NORM         VSH_SP
# ...
      5738.0000         0.9584       3096.875         0.4149       -89.7573      -51.11367      0.1208129
      5738.5000         1.0927       2853.529         0.4537       -88.9544      -50.26088       0.135774
      5739.0000         1.2269       2424.414         0.4827       -88.1515       -49.4081       0.150735
      5739.5000         1.4015       1995.298         0.5215       -87.1271      -48.33383       0.169582
      5740.0000         1.2941       1566.183         0.5407       -87.2272      -48.38406      0.1687008
      5740.5000         1.1866       1320.997           0.55       -87.5252      -48.63217      0.1643479
      5741.0000         1.0792       1594.459         0.5495       -91.6439      -52.70099     0.09296504
      5741.5000         0.9717       1867.921         0.5294       -91.6483      -52.65552     0.09376285
      5742.0000         0.8642       2141.384         0.5193       -91.6526      -52.60994     0.09456246
      5742.5000         0.7956       2414.846         0.4498       -91.7549      -52.66236     0.09364285
      5743.0000         0.7857       2688.308         0.4297       -91.9551      -52.81268     0.09100556
      5743.5000         0.7698        2961.77         0.3997       -92.1553        -52.963     0.08836847
      5744.0000         0.7638       3235.232         0.3695       -92.4533      -53.21112     0.08401536
      5744.5000          0.748       3508.695         0.3592       -92.6535      -53.36145     0.08137807
      5745.0000         0.7361       3782.157         0.3587       -92.6579      -53.31597     0.08217601
      5745.5000         0.7203       4079.703         0.3484       -92.6622      -53.27039     0.08297562
      5746.0000         0.7045       4057.504         0.3381       -92.4708      -53.02911     0.08720853
      5746.5000         0.6946       4035.305         0.3376       -92.1814      -52.68983     0.09316086
      5747.0000         0.6866       4008.585         0.3372       -91.7942      -52.25275      0.1008289
      5747.5000         0.6826       4012.709         0.3367       -91.6027      -52.01138      0.1050636
      5748.0000         0.6766       3993.158         0.3362       -91.5092        -51.868      0.1075789
      5748.5000         0.7059       3963.201         0.3357       -91.5135      -51.82242      0.1083786
      5749.0000         0.7352       3933.244         0.3352       -91.9095      -52.16854      0.1023063
      5749.5000         0.7645       3903.287         0.3347        -92.795      -53.00416     0.08764628
      5750.0000         0.8078        3873.33         0.3441       -93.5246      -53.68388     0.07572134
      5750.5000         0.8058       3844.904         0.3534       -94.5705      -54.67991     0.05824722
      5751.0000          0.766       4025.713         0.3529       -94.5727      -54.63223      0.0590837
      5751.5000         0.7262        4025.81         0.3721       -94.2833      -54.29295      0.0650359
      5752.0000         0.6895       4021.978         0.3814       -93.6023      -53.56207     0.07785837
      5752.5000         0.6875       4014.217         0.4006       -92.0379       -51.9478       0.106179
      5753.0000         0.6874       3243.057         0.4099       -86.4035      -46.26352      0.2059032
      5753.5000         0.6873       3050.204         0.4193        -80.769      -40.57914      0.3056292
      5754.0000         0.7617        2857.35         0.4384       -75.1346      -34.89486      0.4053534
      5754.5000         0.8325       2664.497         0.4674       -69.5001      -29.21048      0.5050793
      5755.0000         0.8305       2471.643         0.4964       -63.8657       -23.5262      0.6048034
      5755.5000            0.8       2199.783         0.5058       -60.0373      -19.64792      0.6728435
      5756.0000         0.7695       2199.881         0.5151       -66.4211      -25.98184       0.561722
      5756.5000          0.739       2215.793         0.5048       -72.8049      -32.31577      0.4506005
      5757.0000         0.7121       2601.735         0.4847       -79.1887      -38.64969      0.3394791
      5757.5000         0.7081        2734.41         0.4449       -85.7175      -45.12861      0.2258139
      5758.0000         0.7061       2867.084         0.4346       -85.8154      -45.17663      0.2249714
      5758.5000         0.7079       2971.336         0.4341       -81.2624      -40.57375      0.3057236
      5759.0000          0.739        2975.46         0.4336       -76.7093      -35.97077      0.3864777
      5759.5000           0.77       2991.373         0.4528       -72.1562      -31.36779      0.4672317
      5760.0000          0.801       2433.035         0.4818       -68.5989      -27.76062      0.5305154
      5760.5000         0.8321       1910.749         0.5304       -70.9235      -30.03534      0.4906081
      5761.0000         0.8631       1918.803         0.5496       -73.2481      -32.31006      0.4507007
      5761.5000         0.8941       1930.786         0.5589       -75.5727      -34.58479      0.4107932
      5762.0000         0.9252       2029.316         0.5682       -79.0011      -37.96331      0.3515209
      5762.5000         0.9666       2037.273         0.5678       -79.4928      -38.40512      0.3437697
      5763.0000         0.9665       2049.256         0.5771       -79.7909      -38.65335      0.3394149
      5763.5000         0.8938        2053.38         0.5766       -79.9911      -38.80367      0.3367777
      5764.0000         0.8212       1912.209         0.5565       -80.0934      -38.85609       0.335858
      5764.5000         0.7303       1928.025         0.5462       -71.1251      -29.83791      0.4940717
      5765.0000         0.7389       2309.904          0.526       -62.1568      -20.81974      0.6522853
      5765.5000         0.7474       2461.646         0.4958       -52.6834      -11.29646      0.8193604
      5766.0000          0.756       2613.388         0.4561       -59.2683      -17.83148      0.7047109
      5766.5000         0.7646        2765.13         0.4458       -65.8531      -24.36641       0.590063
      5767.0000         0.7731       2916.872         0.4256        -72.438      -30.90143      0.4754135
      5767.5000         0.7817       3068.614         0.4156       -79.0229      -37.43645      0.3607641
      5768.0000         0.7902       3220.356         0.4073       -85.6078      -43.97147      0.2461146
      5768.5000         0.7983       3333.007         0.3849       -91.2985      -49.61229      0.1471528
      5769.0000         0.7963       3477.616         0.3746       -91.7924       -50.0563      0.1393631
      5769.5000         0.7689       3622.226         0.3643       -91.9926      -50.20663      0.1367258
      5770.0000         0.7415       3766.835         0.3539       -92.0949      -50.25906       0.135806
      5770.5000         0.7016       3907.787         0.3436       -92.0992      -50.21347      0.1366057
      5771.0000         0.6996       3907.885         0.3432       -92.1036        -50.168      0.1374036
      5771.5000         0.7116       3867.478         0.3427         -92.01      -50.02452      0.1399207
      5772.0000         0.7235       3827.071         0.3424       -91.6228      -49.58744      0.1475887
      5772.5000         0.7355        3782.82         0.3416       -91.3334      -49.24816      0.1535411
      5773.0000         0.7444       3798.635         0.3412        -91.044      -48.90888      0.1594933
      5773.5000         0.7463       3838.222          0.341       -90.7547      -48.56971      0.1654437
      5774.0000            0.7       3881.641         0.3401       -90.5632      -48.32833      0.1696784
      5774.5000         0.6538       3873.879         0.3398       -90.3718      -48.08705      0.1739114
      5775.0000         0.6064       3679.441         0.3393       -89.9845      -47.64987      0.1815813
      5775.5000         0.5965       3485.003         0.3386       -65.4073       -23.0228      0.6136351
