#------------------------------------------------------------------------------
# Created by    : vladimir.rabinovich
# Created on    : 09/19/2023 17:20:27
#------------------------------------------------------------------------------
~Version Information Section
VERS.           2.0     :   CWLS log ASCII Standard - VERSION 2.0
WRAP.           NO      :   One line per depth step
~Well Information Section
#MNEM       .UNIT                                         VALUE :DESCRIPTION
#------------------------------------------------------------------------------
STRT        .FT                                             540 :START DEPTH
STOP        .FT                                            9057 :STOP DEPTH
STEP        .FT                                             0.5 :STEP      
NULL        .                                           -999.25 :NULL      
COMP        .                              MITCHELL ENERGY CORP :COMPANY   
WELL        .                                     ST TR 00228-S :WELL      
FLD         .                                     LAFITTES GOLD :FIELD     
LOC         .                                                   :LOCATION  
CNTY        .                             GALVESTON SMALL BLOCK :LOCATION  
STAT        .                                             TEXAS :STATE     
CTRY        .                                     UNITED STATES :COUNTRY   
SRVC        .                                                   :SERVICE COMPANY
DATE        .                             9/13/2023 11:19:17 AM :LOG DATE  
API         .                                    42605300060000 :API NUMBER
UWI         .                                    42605300060000 :UNIQUE WELL ID
XCOORD      .                                  1068847.04405215 :SURFACE X 
YCOORD      .                                  10622520.7629704 :SURFACE Y 
LAT         .                                        29.2582252 :LATITUDE  
LON         .                                       -94.7929393 :LONGITUDE 
ELEV        .FT                                              67 :ELEVATION VALUE
ELEV_TYPE   .                                                KB :ELEVATION REFERENCE TYPE
~Curve Information Section
#MNEM       .UNIT                                      API CODE :CURVE DESCRIPTION
#------------------------------------------------------------------------------
DEPT        .FT                                                 :DEPTH     
ASN         .OHMM                                               :          
CILD        .MMHO                                               :          
GR          .GAPI                                               :          
GR_NORM     .GAPI                                               :GammaRay Normalized
ILD         .OHMM                                               :          
SP          .MV                                                 :          
SP_NORM     .MV                                                 :SP Normalized
VSH_GR      .V/V                                                :Volume of Shale from GR
VSH_SP      .V/V                                                :Volume of Shale from SP
~A        DEPTH            ASN           CILD             GR        GR_NORM            ILD             SP        SP_NORM         VSH_GR         VSH_SP
# ...
      3375.5000         1.0224       2010.049        -999.25        -999.25         0.3969       136.9568      -72.59549        -999.25     0.09255638
      3376.0000          0.993       3077.961        -999.25        -999.25          0.391       138.4897      -74.13131        -999.25     0.07335863
      3376.5000         0.9766       3135.715        -999.25        -999.25         0.3851       140.3589      -76.00344        -999.25     0.04995699
      3377.0000         0.9617       3219.906        -999.25        -999.25         0.3793       142.6692      -78.31667        -999.25     0.02104168
      3377.5000         0.9563       3258.301        -999.25        -999.25         0.3683        143.323      -78.97339        -999.25     0.01283264
      3378.0000         0.9509       3284.211        -999.25        -999.25         0.3507       143.9766      -79.62991        -999.25    0.004626179
      3378.5000           0.94       3277.598        -999.25        -999.25         0.3336       144.2717      -79.92794        -999.25   0.0009007454
      3379.0000         0.9278        3286.09        -999.25        -999.25           0.33       144.4673      -80.12646        -999.25              0
      3379.5000         0.9089           3358        -999.25        -999.25         0.3264       144.6631       -80.3252        -999.25              0
      3380.0000         0.8813       3473.902        -999.25        -999.25         0.3228       144.8589      -80.52392        -999.25              0
      3380.5000         0.8492       3516.316        -999.25        -999.25         0.3192       144.9907      -80.65865        -999.25              0
      3381.0000         0.8162       3552.863        -999.25        -999.25         0.3162       145.1067      -80.77757        -999.25              0
      3381.5000         0.7936       3569.102        -999.25        -999.25         0.3221        145.168       -80.8418        -999.25              0
      3382.0000         0.7744       3581.543        -999.25        -999.25          0.328       145.2173      -80.89402        -999.25              0
      3382.5000         0.7678       3515.035        -999.25        -999.25         0.3339       145.2664      -80.94605        -999.25              0
      3383.0000         0.7637        3478.66        -999.25        -999.25         0.3398       144.5728      -80.25537        -999.25              0
      3383.5000         0.7645       3392.426        -999.25        -999.25         0.3468       143.6628       -79.3483        -999.25    0.008146286
      3384.0000         0.7826       3323.059        -999.25        -999.25         0.3611       142.0999      -77.78832        -999.25     0.02764597
      3384.5000         0.8431       3276.473        -999.25        -999.25         0.3755       140.3242      -76.01556        -999.25     0.04980554
      3385.0000         0.8694       3136.504        -999.25        -999.25         0.3898       137.7756      -73.46988        -999.25     0.08162651
      3385.5000         0.8847       2902.727        -999.25        -999.25         0.4067       135.0664      -70.76361        -999.25      0.1154549
      3386.0000         0.8965        2775.48        -999.25        -999.25          0.434       132.5862      -68.28632        -999.25       0.146421
      3386.5000         0.9054       2699.137        -999.25        -999.25         0.4645       130.2578      -65.96085        -999.25      0.1754894
      3387.0000         0.9144       3010.047        -999.25        -999.25         0.4992       128.3689      -64.07487        -999.25      0.1990641
      3387.5000         0.9242       3242.691        -999.25        -999.25         0.5338       126.5918       -62.3007        -999.25      0.2212413
      3388.0000         0.9441       3316.473        -999.25        -999.25         0.5768       125.4196      -61.13143        -999.25      0.2358571
      3388.5000          0.964       3419.207        -999.25        -999.25         0.6203       124.4688      -60.18356        -999.25      0.2477055
      3389.0000         0.9859       3490.473        -999.25        -999.25         0.6638       123.5211      -59.23878        -999.25      0.2595152
      3389.5000         1.0227       3574.762        -999.25        -999.25         0.7071       122.6388      -58.35941        -999.25      0.2705074
      3390.0000         1.0667       3512.273        -999.25        -999.25         0.7503       121.7566      -57.48013        -999.25      0.2814983
      3390.5000         1.1493        3359.48        -999.25        -999.25         0.7302       120.8743      -56.60075        -999.25      0.2924906
      3391.0000         1.3215       2882.211        -999.25        -999.25         0.6884       121.5555      -57.28488        -999.25       0.283939
      3391.5000         1.4801       2291.555        -999.25        -999.25         0.6386       122.3163      -58.04861        -999.25      0.2743924
      3392.0000         1.4514       2104.805        -999.25        -999.25         0.5853       123.0769      -58.81213        -999.25      0.2648483
      3392.5000         1.4194        2092.34        -999.25        -999.25         0.5398       124.5721      -60.31026        -999.25      0.2461218
      3393.0000         1.3878       2079.449        -999.25        -999.25         0.5043        127.392      -63.13309        -999.25      0.2108364
      3393.5000          1.356       2081.625        -999.25        -999.25         0.4689       129.0806      -64.82461        -999.25      0.1896924
      3394.0000         1.3227       2124.656        -999.25        -999.25         0.4378       131.0046      -66.75153        -999.25      0.1656058
      3394.5000         1.2963       2194.887        -999.25        -999.25         0.4099       133.0752      -68.82506        -999.25      0.1396868
      3395.0000         1.2758       2402.129        -999.25        -999.25         0.3819       133.6963       -69.4491        -999.25      0.1318863
      3395.5000         1.2693       2628.707        -999.25        -999.25         0.3841       133.4485      -69.20422        -999.25      0.1349473
      3396.0000         1.2627       2770.402        -999.25        -999.25         0.3878       131.8633      -67.62194        -999.25      0.1547257
      3396.5000           1.25       2793.547        -999.25        -999.25         0.4092       129.6716      -65.43317        -999.25      0.1820854
      3397.0000         1.2185       2770.363        -999.25        -999.25         0.4433       126.9403       -62.7048        -999.25      0.2161901
      3397.5000         1.0703       2740.934        -999.25        -999.25         0.4774       124.0643      -59.83172        -999.25      0.2521035
      3398.0000         0.9533       2705.793        -999.25        -999.25         0.5134       121.1748      -56.94514        -999.25      0.2881858
      3398.5000         0.7704       2683.957        -999.25        -999.25         0.5672       117.9293      -53.70257        -999.25      0.3287179
      3399.0000         0.7337       2663.934        -999.25        -999.25          0.621       114.6489      -50.42509        -999.25      0.3696863
      3399.5000         0.7225       2633.785        -999.25        -999.25         0.6715        105.801      -41.58012        -999.25      0.4802485
      3400.0000         0.7113        2568.98        -999.25        -999.25         0.7121       101.5376      -37.31964        -999.25      0.5335045
      3400.5000         0.7017        2369.48        -999.25        -999.25         0.7526        97.1844      -32.96938        -999.25      0.5878828
      3401.0000         0.6937       1259.016        -999.25        -999.25         0.7673        91.7114       -27.4993        -999.25      0.6562588
      3401.5000         0.6857       1182.742        -999.25        -999.25          0.765         76.502      -12.29282        -999.25      0.8463397
