#------------------------------------------------------------------------------
# Created by    : vladimir.rabinovich
# Created on    : 09/19/2023 17:20:26
#------------------------------------------------------------------------------
~Version Information Section
VERS.           2.0     :   CWLS log ASCII Standard - VERSION 2.0
WRAP.           NO      :   One line per depth step
~Well Information Section
#MNEM       .UNIT                                         VALUE :DESCRIPTION
#------------------------------------------------------------------------------
STRT        .FT                                             494 :START DEPTH
STOP        .FT                                            8560 :STOP DEPTH
STEP        .FT                                             0.5 :STEP      
NULL        .                                           -999.25 :NULL      
COMP        .                           COLORADO OIL & GAS CORP :COMPANY   
WELL        .                                     ST TR 00122-S :WELL      
FLD         .                                           WILDCAT :FIELD     
LOC         .                                                   :LOCATION  
CNTY        .                           HIGH ISLAND SMALL BLOCK :LOCATION  
STAT        .                                             TEXAS :STATE     
CTRY        .                                     UNITED STATES :COUNTRY   
SRVC        .                                                   :SERVICE COMPANY
DATE        .                             9/13/2023 11:19:17 AM :LOG DATE  
API         .                                    42606300100000 :API NUMBER
UWI         .                                    42606300100000 :UNIQUE WELL ID
XCOORD      .                                  1208966.22079576 :SURFACE X 
YCOORD      .                                  10715303.2202208 :SURFACE Y 
LAT         .                                        29.5185768 :LATITUDE  
LON         .                                       -94.3569047 :LONGITUDE 
ELEV        .FT                                              93 :ELEVATION VALUE
ELEV_TYPE   .                                                KB :ELEVATION REFERENCE TYPE
~Curve Information Section
#MNEM       .UNIT                                      API CODE :CURVE DESCRIPTION
#------------------------------------------------------------------------------
DEPT        .FT                                                 :DEPTH     
ASN         .OHMM                                               :          
CILD        .MMHO                                               :          
GR          .GAPI                                               :          
GR_NORM     .GAPI                                               :GammaRay Normalized
ILD         .OHMM                                               :          
SP          .MV                                                 :          
SP_NORM     .MV                                                 :SP Normalized
VSH_GR      .V/V                                                :Volume of Shale from GR
VSH_SP      .V/V                                                :Volume of Shale from SP
~A        DEPTH            ASN           CILD             GR        GR_NORM            ILD             SP        SP_NORM         VSH_GR         VSH_SP
# ...
      6377.0000         0.8689       1148.906        -999.25        -999.25         0.8184       -50.5429     -0.8459282        -999.25              1
      6377.5000         0.8611       1165.912        -999.25        -999.25         0.8093       -50.3831     -0.6861267        -999.25              1
      6378.0000         0.8532        1182.92        -999.25        -999.25         0.8003       -50.3284     -0.6314278        -999.25              1
      6378.5000          0.843       1198.408        -999.25        -999.25         0.7912       -50.2737     -0.5767288        -999.25              1
      6379.0000         0.8318       1211.775        -999.25        -999.25         0.7822       -50.1991     -0.5021286        -999.25              1
      6379.5000         0.8206       1214.305        -999.25        -999.25         0.7773       -50.0856     -0.3886299        -999.25              1
      6380.0000         0.8134       1209.727        -999.25        -999.25         0.7775        -49.972     -0.2750282        -999.25              1
      6380.5000         0.8064       1202.055        -999.25        -999.25         0.7777       -49.8205     -0.1235275        -999.25              1
      6381.0000         0.8005       1194.385        -999.25        -999.25          0.778       -49.4942      0.2027702        -999.25              1
      6381.5000         0.7966       1186.715        -999.25        -999.25         0.7782       -49.1652      0.5317726        -999.25              1
      6382.0000          0.797       1179.045        -999.25        -999.25         0.7784        -48.665       1.031971        -999.25              1
      6382.5000         0.7989       1172.275        -999.25        -999.25         0.7786       -48.1731       1.523872        -999.25              1
      6383.0000         0.8009       1165.535        -999.25        -999.25         0.7788       -47.7062       1.990772        -999.25              1
      6383.5000         0.8049       1158.791        -999.25        -999.25          0.779       -47.2006       2.496372        -999.25              1
      6384.0000         0.8122       1152.053        -999.25        -999.25         0.7792       -46.6544       3.042572        -999.25              1
      6384.5000         0.8194       1145.352        -999.25        -999.25         0.7823         -46.03       3.666973        -999.25              1
      6385.0000         0.8266       1139.076        -999.25        -999.25         0.7897       -45.2551       4.441872        -999.25              1
      6385.5000         0.8339       1132.799        -999.25        -999.25         0.7972       -45.3525       4.344471        -999.25              1
      6386.0000         0.8405       1126.523        -999.25        -999.25         0.8047       -45.4673       4.229671        -999.25              1
      6386.5000         0.8469       1120.248        -999.25        -999.25         0.8121        -45.738       3.958973        -999.25              1
      6387.0000         0.8532       1115.438        -999.25        -999.25         0.8196       -46.0095       3.687473        -999.25              1
      6387.5000         0.8596       1111.713        -999.25        -999.25         0.8271       -46.2813       3.415672        -999.25              1
      6388.0000         0.8659        1107.99        -999.25        -999.25         0.8345        -46.514       3.182972        -999.25              1
      6388.5000         0.8721       1106.379        -999.25        -999.25          0.842       -46.7367       2.960274        -999.25              1
      6389.0000         0.8775       1105.971        -999.25        -999.25         0.8495       -46.9532       2.743771        -999.25              1
      6389.5000         0.8829       1105.563        -999.25        -999.25         0.8571       -47.1461       2.550873        -999.25              1
      6390.0000         0.8884       1105.582        -999.25        -999.25         0.8647       -47.3391       2.357872        -999.25              1
      6390.5000         0.8938       1109.334        -999.25        -999.25         0.8722       -47.5296       2.167374        -999.25              1
      6391.0000         0.8991       1113.084        -999.25        -999.25         0.8798       -47.7122       1.984772        -999.25              1
      6391.5000         0.9029         1115.9        -999.25        -999.25         0.8874       -47.8947       1.802273        -999.25              1
      6392.0000         0.9068       1117.953        -999.25        -999.25         0.8949       -48.0773       1.619671        -999.25              1
      6392.5000         0.9107       1119.957        -999.25        -999.25         0.9014       -48.2676       1.429371        -999.25              1
      6393.0000         0.9145       1121.783        -999.25        -999.25         0.9041       -48.4679       1.229073        -999.25              1
      6393.5000         0.9163       1124.555        -999.25        -999.25         0.9068        -48.668       1.028973        -999.25              1
      6394.0000         0.9175       1128.615        -999.25        -999.25         0.9095       -48.5099       1.187073        -999.25              1
      6394.5000         0.9187       1130.773        -999.25        -999.25         0.9122       -48.2863       1.410671        -999.25              1
      6395.0000         0.9191        1132.35        -999.25        -999.25         0.9149       -48.0663       1.630672        -999.25              1
      6395.5000         0.9184        1131.15        -999.25        -999.25         0.9176       -47.8461       1.850872        -999.25              1
      6396.0000         0.9178       1129.951        -999.25        -999.25         0.9204       -47.6444        2.05257        -999.25              1
      6396.5000          0.917       1125.832        -999.25        -999.25         0.9195       -47.4824       2.214573        -999.25              1
      6397.0000         0.9157       1122.189        -999.25        -999.25         0.9114       -47.3204       2.376572        -999.25              1
      6397.5000         0.9143       1124.018        -999.25        -999.25         0.9034        -47.217       2.479973        -999.25              1
      6398.0000          0.913       1132.787        -999.25        -999.25         0.8953       -47.1339       2.563072        -999.25              1
      6398.5000         0.9092       1146.363        -999.25        -999.25         0.8872         -47.29       2.406971        -999.25              1
      6399.0000         0.9044       1160.063        -999.25        -999.25         0.8706       -47.6282       2.068771        -999.25              1
      6399.5000         0.8933       1178.748        -999.25        -999.25         0.8479       -47.9664       1.730572        -999.25              1
      6400.0000         0.7995       1560.416        -999.25        -999.25          0.742       -48.3045       1.392471        -999.25              1
      6400.5000         0.7774       1601.625        -999.25        -999.25         0.7332       -47.8712       1.825771        -999.25              1
      6401.0000         0.7554       1631.627        -999.25        -999.25         0.7193       -47.9385       1.758472        -999.25              1
      6401.5000         0.7393       1649.246        -999.25        -999.25         0.7046       -48.0057       1.691273        -999.25              1
      6402.0000         0.7269       1655.363        -999.25        -999.25         0.6898        -48.073        1.62397        -999.25              1
      6402.5000         0.7145       1615.721        -999.25        -999.25         0.6751       -48.1403       1.556671        -999.25              1
      6403.0000         0.7025       1576.127        -999.25        -999.25         0.6604       -48.2076       1.489372        -999.25              1
