#------------------------------------------------------------------------------
# Created by    : vladimir.rabinovich
# Created on    : 09/19/2023 17:20:26
#------------------------------------------------------------------------------
~Version Information Section
VERS.           2.0     :   CWLS log ASCII Standard - VERSION 2.0
WRAP.           NO      :   One line per depth step
~Well Information Section
#MNEM       .UNIT                                         VALUE :DESCRIPTION
#------------------------------------------------------------------------------
STRT        .FT                                             494 :START DEPTH
STOP        .FT                                            8560 :STOP DEPTH
STEP        .FT                                             0.5 :STEP      
NULL        .                                           -999.25 :NULL      
COMP        .                           COLORADO OIL & GAS CORP :COMPANY   
WELL        .                                     ST TR 00122-S :WELL      
FLD         .                                           WILDCAT :FIELD     
LOC         .                                                   :LOCATION  
CNTY        .                           HIGH ISLAND SMALL BLOCK :LOCATION  
STAT        .                                             TEXAS :STATE     
CTRY        .                                     UNITED STATES :COUNTRY   
SRVC        .                                                   :SERVICE COMPANY
DATE        .                             9/13/2023 11:19:17 AM :LOG DATE  
API         .                                    42606300100000 :API NUMBER
UWI         .                                    42606300100000 :UNIQUE WELL ID
XCOORD      .                                  1208966.22079576 :SURFACE X 
YCOORD      .                                  10715303.2202208 :SURFACE Y 
LAT         .                                        29.5185768 :LATITUDE  
LON         .                                       -94.3569047 :LONGITUDE 
ELEV        .FT                                              93 :ELEVATION VALUE
ELEV_TYPE   .                                                KB :ELEVATION REFERENCE TYPE
~Curve Information Section
#MNEM       .UNIT                                      API CODE :CURVE DESCRIPTION
#------------------------------------------------------------------------------
DEPT        .FT                                                 :DEPTH     
ASN         .OHMM                                               :          
CILD        .MMHO                                               :          
GR          .GAPI                                               :          
GR_NORM     .GAPI                                               :GammaRay Normalized
ILD         .OHMM                                               :          
SP          .MV                                                 :          
SP_NORM     .MV                                                 :SP Normalized
VSH_GR      .V/V                                                :Volume of Shale from GR
VSH_SP      .V/V                                                :Volume of Shale from SP
~A        DEPTH            ASN           CILD             GR        GR_NORM            ILD             SP        SP_NORM         VSH_GR         VSH_SP
# ...
      3700.5000         0.9854       967.3955        -999.25        -999.25         0.8745       -72.0022      -4.229515        -999.25       0.947911
      3701.0000         0.9983       947.7354        -999.25        -999.25         0.8849       -69.7732       -2.00544        -999.25      0.9837832
      3701.5000         1.0096       928.0752        -999.25        -999.25         0.8979       -68.4663     -0.7034607        -999.25              1
      3702.0000         1.0209       930.2715        -999.25        -999.25         0.9124       -67.7804    -0.02248383        -999.25              1
      3702.5000         1.0385       955.8438        -999.25        -999.25         0.9103       -67.0944      0.6585999        -999.25              1
      3703.0000         1.0574        981.416        -999.25        -999.25         0.8877       -66.3618       1.386276        -999.25              1
      3703.5000          1.076       1060.094        -999.25        -999.25         0.8649       -66.0292       1.713966        -999.25              1
      3704.0000         1.0703       1154.188        -999.25        -999.25         0.8307       -72.7366       -4.99836        -999.25      0.9355103
      3704.5000         1.0616       1266.152        -999.25        -999.25         0.7965       -74.8364      -7.103081        -999.25      0.9015632
      3705.0000         1.0529       1302.092        -999.25        -999.25         0.7622       -76.4358      -8.707397        -999.25      0.8756871
      3705.5000          1.032       1338.006        -999.25        -999.25          0.728       -77.4686      -9.745117        -999.25      0.8589497
      3706.0000         1.0041       1370.219        -999.25        -999.25         0.6938        -78.502      -10.78343        -999.25      0.8422027
      3706.5000         0.9709       1402.232        -999.25        -999.25         0.6832       -79.1676      -11.45396        -999.25      0.8313878
      3707.0000         0.9334       1424.225        -999.25        -999.25         0.6802       -85.5239      -17.81518        -999.25      0.7287875
      3707.5000         0.9043       1403.553        -999.25        -999.25         0.6772        -85.655      -17.95119        -999.25      0.7265936
      3708.0000         0.8767       1382.893        -999.25        -999.25         0.6743       -82.5494      -14.85052        -999.25      0.7766045
      3708.5000         0.8542       1362.232        -999.25        -999.25         0.6822       -80.0548      -12.36084        -999.25      0.8167607
      3709.0000         0.8317       1341.572        -999.25        -999.25         0.6909       -77.5601      -9.871048        -999.25      0.8569186
      3709.5000         0.8043         1320.9        -999.25        -999.25         0.6996        -68.415     -0.7308731        -999.25              1
      3710.0000         0.7816       1290.959        -999.25        -999.25         0.7083       -64.1914       3.487808        -999.25              1
      3710.5000         0.7807        1260.18        -999.25        -999.25          0.717       -62.8707       4.803585        -999.25              1
      3711.0000         0.7846       1229.373        -999.25        -999.25         0.7256       -62.7084       4.960964        -999.25              1
      3711.5000         0.7914       1198.594        -999.25        -999.25         0.7343       -62.5461       5.118351        -999.25              1
      3712.0000         0.7981       1167.789        -999.25        -999.25         0.7429       -62.4674       5.192131        -999.25              1
      3712.5000         0.8049       1136.367        -999.25        -999.25          0.751       -62.4813       5.173309        -999.25              1
      3713.0000         0.8105       1103.857        -999.25        -999.25          0.759       -62.4951       5.154591        -999.25              1
      3713.5000         0.8155        1071.35        -999.25        -999.25          0.767        -62.509       5.135769        -999.25              1
      3714.0000         0.8205       1068.795        -999.25        -999.25         0.7751       -62.5429       5.096947        -999.25              1
      3714.5000         0.8254       1085.777        -999.25        -999.25         0.7831       -62.5857       5.049232        -999.25              1
      3715.0000         0.8304        1102.76        -999.25        -999.25         0.7911       -62.6284       5.001614        -999.25              1
      3715.5000         0.8354       1122.051        -999.25        -999.25         0.7992       -62.6711       4.953991        -999.25              1
      3716.0000         0.8404       1141.857        -999.25        -999.25         0.8072       -63.6203        3.99987        -999.25              1
      3716.5000         0.8454       1161.666        -999.25        -999.25         0.8153       -64.9294       2.685852        -999.25              1
      3717.0000         0.8506       1176.199        -999.25        -999.25         0.8233       -69.1901      -1.579765        -999.25      0.9906489
      3717.5000         0.8558       1172.666        -999.25        -999.25         0.8313       -71.4312      -3.825783        -999.25      0.9544228
      3718.0000         0.8611       1153.201        -999.25        -999.25         0.8394       -72.8649      -5.264404        -999.25      0.9312193
      3718.5000         0.8663       1113.238        -999.25        -999.25         0.8431       -74.2501      -6.654526        -999.25       0.908798
      3719.0000         0.8715        1073.25        -999.25        -999.25         0.8452       -75.0643      -7.473648        -999.25      0.8955863
      3719.5000          0.877       1038.953        -999.25        -999.25         0.8474       -75.8647      -8.278969        -999.25      0.8825973
      3720.0000         0.8829       1019.527        -999.25        -999.25         0.8495       -76.4072      -8.826385        -999.25       0.873768
      3720.5000         0.8889       1000.102        -999.25        -999.25         0.8516       -75.4924      -7.916504        -999.25      0.8884435
      3721.0000         0.8948       982.8926        -999.25        -999.25         0.8538        -66.019       1.551979        -999.25              1
      3721.5000         0.8981       984.8799        -999.25        -999.25         0.8559       -64.6896       2.876457        -999.25              1
      3722.0000          0.896       1012.925        -999.25        -999.25          0.858       -64.1248       3.436333        -999.25              1
      3722.5000         0.8872       1065.723        -999.25        -999.25          0.827       -64.7957       2.760521        -999.25              1
      3723.0000         0.8722       1164.852        -999.25        -999.25         0.7901       -66.3798       1.171501        -999.25              1
      3723.5000         0.8572       1379.449        -999.25        -999.25         0.7255       -68.6919      -1.145523        -999.25      0.9976528
      3724.0000         0.8422       1477.344        -999.25        -999.25         0.6609        -72.757      -5.215546        -999.25      0.9320073
      3724.5000         0.8272       1585.063        -999.25        -999.25          0.602        -76.451      -8.914459        -999.25      0.8723474
      3725.0000         0.8122       1720.725        -999.25        -999.25         0.5443       -80.5161      -12.98448        -999.25      0.8067019
      3725.5000         0.7972       1833.281        -999.25        -999.25         0.4906       -84.6346      -17.10789        -999.25      0.7401952
      3726.0000         0.7808       1985.824        -999.25        -999.25         0.4542       -87.4744      -19.95262        -999.25      0.6943126
      3726.5000          0.762       2158.609        -999.25        -999.25         0.4179       -92.9233      -25.40644        -999.25      0.6063477
