#------------------------------------------------------------------------------
# Created by    : vladimir.rabinovich
# Created on    : 09/19/2023 17:19:42
#------------------------------------------------------------------------------
~Version Information Section
VERS.           2.0     :   CWLS log ASCII Standard - VERSION 2.0
WRAP.           NO      :   One line per depth step
~Well Information Section
#MNEM       .UNIT                                         VALUE :DESCRIPTION
#------------------------------------------------------------------------------
STRT        .FT                                            2198 :START DEPTH
STOP        .FT                                            8738 :STOP DEPTH
STEP        .FT                                             0.5 :STEP      
NULL        .                                           -999.25 :NULL      
COMP        .                             CHAMPLIN PETROLEUM CO :COMPANY   
WELL        .                                     ST TR 00360-S :WELL      
FLD         .                                           WILDCAT :FIELD     
LOC         .                                                   :LOCATION  
CNTY        .                             GALVESTON SMALL BLOCK :LOCATION  
STAT        .                                             TEXAS :STATE     
CTRY        .                                     UNITED STATES :COUNTRY   
SRVC        .                                                   :SERVICE COMPANY
DATE        .                             9/13/2023 11:19:17 AM :LOG DATE  
API         .                                    42605301270000 :API NUMBER
UWI         .                                    42605301270000 :UNIQUE WELL ID
XCOORD      .                                  933135.371219094 :SURFACE X 
YCOORD      .                                  10510129.7662443 :SURFACE Y 
LAT         .                                         28.942863 :LATITUDE  
LON         .                                       -95.2117932 :LONGITUDE 
ELEV        .FT                                              20 :ELEVATION VALUE
ELEV_TYPE   .                                                GL :ELEVATION REFERENCE TYPE
~Curve Information Section
#MNEM       .UNIT                                      API CODE :CURVE DESCRIPTION
#------------------------------------------------------------------------------
DEPT        .FT                                                 :DEPTH     
ASFL        .OHMM                                               :          
CILD        .MMHO                                               :          
ILD         .OHMM                                               :          
SP          .MV                                                 :          
SP_NORM     .MV                                                 :SP Normalized
VSH_SP      .V/V                                                :Volume of Shale from SP
~A        DEPTH           ASFL           CILD            ILD             SP        SP_NORM         VSH_SP
# ...
      3072.0000         0.7873       1132.848         0.8026        38.8777      -4.731358      0.9172316
      3072.5000         0.7879       1154.875         0.7911        38.8423      -4.695957      0.9183043
      3073.0000         0.7747       1176.916         0.7796        38.6309      -4.484558      0.9247103
      3073.5000         0.7615       1209.027         0.7681        38.4194      -4.273056      0.9311195
      3074.0000         0.7459       1259.309         0.7514         38.208      -4.061657      0.9375256
      3074.5000         0.7265       1322.115         0.7309        37.9789      -3.832558       0.944468
      3075.0000         0.6998       1373.535         0.7105        37.6878      -3.541458      0.9532892
      3075.5000         0.6591       1413.998           0.69        37.6349      -3.488556      0.9548922
      3076.0000         0.6459       1446.807         0.6701        37.9019      -3.755558      0.9468012
      3076.5000         0.6449       1465.445         0.6629         38.169      -4.022655      0.9387074
      3077.0000         0.6459       1465.541         0.6558        38.4359      -4.289558      0.9306194
      3077.5000         0.6471       1465.639         0.6486        38.6622      -4.515858      0.9237619
      3078.0000         0.6482       1465.736          0.644          38.46      -4.313656      0.9298892
      3078.5000         0.6493       1465.834         0.6411        38.2578      -4.111458      0.9360164
      3079.0000         0.6505       1463.654         0.6382        38.0555      -3.909157      0.9421468
      3079.5000         0.6516       1460.607         0.6353        37.8533      -3.706955      0.9482741
      3080.0000         0.6528       1457.561         0.6331         37.651      -3.504658      0.9544043
      3080.5000         0.6548       1454.516         0.6346        37.5497      -3.403358       0.957474
      3081.0000         0.6569       1451.324          0.636        37.4537      -3.307358      0.9603831
      3081.5000         0.6589       1446.598         0.6375        37.3577      -3.211357      0.9632922
      3082.0000         0.6615       1441.875         0.6389        37.2617      -3.115356      0.9662013
      3082.5000         0.6664       1437.152         0.6391        37.1632      -3.016857      0.9691861
      3083.0000         0.6713       1432.428         0.6314        37.0289      -2.882557      0.9732559
      3083.5000         0.6762       1427.348         0.6237        36.8945      -2.748158      0.9773285
      3084.0000          0.682       1415.094         0.6159        37.1426      -2.996258      0.9698104
      3084.5000          0.689       1402.832         0.6082        37.5579      -3.411556      0.9572256
      3085.0000          0.696       1390.572          0.616        37.9803      -3.833958      0.9444255
      3085.5000          0.703       1360.176         0.6525        38.3788      -4.232456      0.9323498
      3086.0000         0.7098       1327.797         0.6916        38.2396      -4.093258       0.936568
      3086.5000         0.7165       1292.357         0.7439        38.1395      -3.993156      0.9396013
      3087.0000         0.7258       1256.398         0.7962        38.0393      -3.892956      0.9426377
      3087.5000         0.7414       1218.264          0.836        38.1016      -3.955257      0.9407498
      3088.0000         0.7591       1176.662         0.8751        38.1921      -4.045757      0.9380074
      3088.5000         0.7842       1134.732         0.9142        38.2828      -4.136456      0.9352589
      3089.0000         0.8155       1090.018         0.9557        38.3734      -4.227058      0.9325134
      3089.5000         0.8593       1045.305         1.0112        38.4639      -4.317558      0.9297709
      3090.0000         0.9016       1000.059         1.0661        38.6859      -4.539558      0.9230437
      3090.5000         0.9324       950.9668         1.1177        38.9728      -4.826458      0.9143497
      3091.0000         0.9545       882.1123         1.1694        38.1151      -3.968758      0.9403407
      3091.5000         0.9726       829.3506         1.2177        36.9034      -2.757057      0.9770589
      3092.0000         0.9887       798.6748          1.238        36.4721      -2.325756      0.9901286
      3092.5000          0.999        783.418         1.2583        36.4622      -2.315857      0.9904286
      3093.0000         1.0092       783.5137         1.2786        36.4522      -2.305859      0.9907315
      3093.5000         1.0186       783.8965         1.2795          36.39      -2.243656      0.9926165
      3094.0000         1.0261       800.2822         1.2732         36.208      -2.061657      0.9981316
      3094.5000         1.0331        816.667         1.2317        35.8697      -1.723358              1
      3095.0000         1.0303       834.3867         1.1903        35.2171      -1.070755              1
      3095.5000         1.0099       889.0713         1.1196        34.5641     -0.4177551              1
      3096.0000         0.9599       938.7451         1.0418        34.6619     -0.5155563              1
      3096.5000         0.9142        985.584         0.9806        34.8918     -0.7454567              1
      3097.0000         0.8837       1025.262         0.9194        35.1219     -0.9755554              1
      3097.5000         0.8506       1063.902         0.8709        35.3621      -1.215755              1
      3098.0000         0.7989        1102.24         0.8393        35.7574      -1.611057              1
      3098.5000         0.7849       1139.008         0.8077        36.1527      -2.006355      0.9998074
      3099.0000         0.7776       1175.777         0.7819        36.5479      -2.401558      0.9878316
      3099.5000         0.7702       1203.156         0.7751        36.5911      -2.444756      0.9865226
      3100.0000         0.7629       1225.869         0.7684        36.3088      -2.162457      0.9950771
      3100.5000         0.7514       1248.566         0.7621        36.0185      -1.872158              1
      3101.0000         0.7396       1271.277         0.7589        35.7249      -1.578556              1
      3101.5000         0.7274       1291.996         0.7557         35.431      -1.284657              1
      3102.0000         0.7175       1308.988         0.7526        35.2069      -1.060558              1
      3102.5000         0.7102       1325.988         0.7494        35.0684     -0.9220581              1
      3103.0000         0.7034       1336.756         0.7462        34.9299     -0.7835579              1
      3103.5000         0.7009       1346.283         0.7431        34.7914     -0.6450577              1
      3104.0000         0.6984       1355.803         0.7399        34.6879     -0.5415573              1
      3104.5000         0.6958       1362.984         0.7377        34.7076     -0.5612564              1
      3105.0000         0.6935       1369.139         0.7364        34.7274     -0.5810585              1
      3105.5000         0.6922       1375.295         0.7351        34.7631     -0.6167564              1
      3106.0000         0.6909       1381.449         0.7338        34.8494     -0.7030563              1
      3106.5000         0.6897       1387.605         0.7325        34.9356      -0.789257              1
      3107.0000         0.6884       1393.762         0.7311        35.0219     -0.8755569              1
      3107.5000         0.6871       1399.916         0.7279        35.2311      -1.084755              1
      3108.0000          0.686       1402.621         0.7247        35.4987      -1.352356              1
      3108.5000         0.6848       1402.855         0.7215        35.7072      -1.560856              1
      3109.0000         0.6837        1403.09         0.7183        35.8017      -1.655357              1
      3109.5000         0.6825       1396.846         0.7151        35.8962      -1.749855              1
