#------------------------------------------------------------------------------
# Created by    : vladimir.rabinovich
# Created on    : 09/19/2023 17:20:27
#------------------------------------------------------------------------------
~Version Information Section
VERS.           2.0     :   CWLS log ASCII Standard - VERSION 2.0
WRAP.           NO      :   One line per depth step
~Well Information Section
#MNEM       .UNIT                                         VALUE :DESCRIPTION
#------------------------------------------------------------------------------
STRT        .FT                                             540 :START DEPTH
STOP        .FT                                            9057 :STOP DEPTH
STEP        .FT                                             0.5 :STEP      
NULL        .                                           -999.25 :NULL      
COMP        .                              MITCHELL ENERGY CORP :COMPANY   
WELL        .                                     ST TR 00228-S :WELL      
FLD         .                                     LAFITTES GOLD :FIELD     
LOC         .                                                   :LOCATION  
CNTY        .                             GALVESTON SMALL BLOCK :LOCATION  
STAT        .                                             TEXAS :STATE     
CTRY        .                                     UNITED STATES :COUNTRY   
SRVC        .                                                   :SERVICE COMPANY
DATE        .                             9/13/2023 11:19:17 AM :LOG DATE  
API         .                                    42605300060000 :API NUMBER
UWI         .                                    42605300060000 :UNIQUE WELL ID
XCOORD      .                                  1068847.04405215 :SURFACE X 
YCOORD      .                                  10622520.7629704 :SURFACE Y 
LAT         .                                        29.2582252 :LATITUDE  
LON         .                                       -94.7929393 :LONGITUDE 
ELEV        .FT                                              67 :ELEVATION VALUE
ELEV_TYPE   .                                                KB :ELEVATION REFERENCE TYPE
~Curve Information Section
#MNEM       .UNIT                                      API CODE :CURVE DESCRIPTION
#------------------------------------------------------------------------------
DEPT        .FT                                                 :DEPTH     
ASN         .OHMM                                               :          
CILD        .MMHO                                               :          
GR          .GAPI                                               :          
GR_NORM     .GAPI                                               :GammaRay Normalized
ILD         .OHMM                                               :          
SP          .MV                                                 :          
SP_NORM     .MV                                                 :SP Normalized
VSH_GR      .V/V                                                :Volume of Shale from GR
VSH_SP      .V/V                                                :Volume of Shale from SP
~A        DEPTH            ASN           CILD             GR        GR_NORM            ILD             SP        SP_NORM         VSH_GR         VSH_SP
       540.0000        -999.25        -999.25         50.957       64.29034        -999.25        -999.25      0.0899109      0.6657518              1
       540.5000        -999.25        -999.25        50.8457       64.17903        -999.25        -999.25       2.957388      0.6633837              1
       541.0000        -999.25        -999.25        51.0546       64.38794        -999.25        -999.25      -1.229437      0.6678285              1
       541.5000        -999.25        -999.25        52.6491       65.98244        -999.25        -999.25       1.056181       0.701754              1
       542.0000        -999.25        -999.25        55.5143       68.84764        -999.25        -999.25       3.348947      0.7627158              1
       542.5000        -999.25        -999.25        61.9932       75.32654        -999.25        -999.25       1.353356      0.9005646              1
       543.0000        -999.25        -999.25        67.3737       79.32413        -999.25        -999.25       1.981711      0.9856199              1
       543.5000        -999.25        -999.25        68.0688       77.41947        -999.25        -999.25       2.502172      0.9450951              1
       544.0000        -999.25        -999.25        68.3269        75.0778        -999.25        -999.25     0.08912518      0.8952724              1
       544.5000        -999.25        -999.25        68.5062       72.65734        -999.25        -999.25       3.725341      0.8437732              1
       545.0000        -999.25        -999.25        68.6854       70.23678        -999.25        -999.25       3.502945      0.7922719              1
       545.5000        -999.25        -999.25        69.0842       68.03581        -999.25        -999.25       1.077227      0.7454428              1
       546.0000        -999.25        -999.25        70.5255       66.87734        -999.25        -999.25       1.069152      0.7207945              1
       546.5000        -999.25        -999.25        78.2311       71.98318        -999.25        -999.25        1.91591      0.8294294              1
       547.0000         2.0295       136.2222           73.4       64.55231         3.6807         99.593       2.805614      0.6713259              1
       547.5000         2.0338       136.2898        84.2576       72.81015         3.7169        99.5608       3.116966      0.8470245              1
       548.0000          2.038       136.3582        87.0728       73.02559         3.7531        99.5052      0.8556166      0.8516083              1
       548.5000         2.0423       136.4258        99.2051       84.09519         3.7921          99.35    -0.05979145              1              1
       549.0000         2.0468       136.4941       100.5638       85.43397         3.8427        99.1946       2.016543              1              1
       549.5000         2.1827       136.5623       101.8903       86.74055         3.8787        97.5677      0.3748472              1              1
       550.0000         2.3168       136.6299       103.4628       88.29313         3.8869        73.1895       1.559348              1              1
       550.5000          2.446       136.6982       105.3466       90.15701         3.8951        69.7206      0.3368496              1              1
       551.0000         2.5686       136.7659       107.5454       92.33588         3.9033        68.6198     -0.1327949              1              1
       551.5000         2.6449        136.834       110.8781       95.64866         3.9116        67.5188       1.525259              1              1
       552.0000         2.7212       136.9019       113.3145       98.06514         3.9198        66.1449     -0.2338922              1              1
       552.5000         2.7938         136.97       111.8461       96.57682         3.9524        63.5165       2.850076              1              1
       553.0000         2.8526       137.0378       110.3776        95.0884         4.0039        58.9989     -0.4928902              1              1
       553.5000         2.9114        137.106       107.9891       92.67998         4.1894        57.2379       2.514306              1              1
       554.0000         2.9703       137.1738       104.4745       89.14546         4.6814        55.9213       -1.05925              1              1
       554.5000         3.0157       137.2419       100.5238       85.17484         4.8555        54.6998     -0.6043627              1              1
       555.0000         3.0481       137.3101        96.3832       81.01431          5.003        53.6384       3.627534              1              1
       555.5000         3.0805       137.3779        86.8295       71.44069         5.0779        52.9653       1.996374       0.817887              1
       556.0000          3.113        137.446        84.9154       69.50667         4.8835        52.3429      0.9498921      0.7767376              1
       556.5000         3.1454       137.5139         84.131       68.70235         4.7507        51.6683       1.671018      0.7596244              1
       557.0000         3.1778        137.582        83.3466       67.89803         4.8658        50.9053       2.544032      0.7425113              1
       557.5000          3.201       139.1499        82.2562        66.7877          4.981        50.1421       1.733635      0.7188873              1
       558.0000         3.2117       141.6318         80.502       65.01358         4.9941         49.379      -1.182118        0.68114              1
       558.5000         3.2225       144.1133        78.7477       63.23936          4.979        48.1428       2.868867      0.6433907              1
       559.0000         3.2333       146.5952         75.425       59.89674         4.9639        46.7664       3.244961      0.5722712              1
       559.5000          3.244       149.0774        71.8896       56.34142         4.6375        45.4234      -4.014801       0.496626      0.8880666
       560.0000         3.2548       151.5588        69.4014        53.8333         4.2718        44.1458        -5.2924      0.4432617      0.8170888
       560.5000         3.2656       154.0408        67.5724       51.98438         4.0863        42.9901      -6.448101      0.4039229      0.7528833
       561.0000         3.2763       156.5227        66.0045       50.39655         4.1918        41.9218      -7.516403      0.3701394      0.6935332
       561.5000         3.2767       159.0046        64.8611       49.23323         4.4116        41.2338      -8.204403      0.3453879      0.6553109
       562.0000         3.2629       161.4863        65.2635       49.61571           4.79        40.6114      -8.826801      0.3535257      0.6207333
       562.5000         3.2492       163.9683        65.9945       50.32679         5.2423        40.6334      -8.804802      0.3686551      0.6219555
       563.0000         3.2354       166.4502        66.7255       51.03787         5.5308        40.6776      -8.760601      0.3837845       0.624411
       563.5000         3.2221       168.9316        68.6168       52.90924         5.7023        40.7218        -8.7164      0.4236009      0.6268666
       564.0000           3.21       171.4138         70.604       54.87652         5.7651        40.7659      -8.672302      0.4654578      0.6293166
       564.5000         3.1979       173.8958        73.2124         57.465         5.8073        40.8101      -8.628101       0.520532      0.6317722
       565.0000         3.1896       176.3777        76.4053       60.63798         5.8494        40.8543        -8.5839      0.5880421      0.6342278
       565.5000         3.1818       178.8591         82.795       67.00776         5.7129        41.0894      -8.348801      0.7235693      0.6472889
       566.0000         3.1739       181.3411        86.5133       70.70614         5.0695        41.4768      -7.961403      0.8022583       0.668811
