#------------------------------------------------------------------------------
# Created by    : vladimir.rabinovich
# Created on    : 09/19/2023 17:20:27
#------------------------------------------------------------------------------
~Version Information Section
VERS.           2.0     :   CWLS log ASCII Standard - VERSION 2.0
WRAP.           NO      :   One line per depth step
~Well Information Section
#MNEM       .UNIT                                         VALUE :DESCRIPTION
#------------------------------------------------------------------------------
STRT        .FT                                             540 :START DEPTH
STOP        .FT                                            9057 :STOP DEPTH
STEP        .FT                                             0.5 :STEP      
NULL        .                                           -999.25 :NULL      
COMP        .                              MITCHELL ENERGY CORP :COMPANY   
WELL        .                                     ST TR 00228-S :WELL      
FLD         .                                     LAFITTES GOLD :FIELD     
LOC         .                                                   :LOCATION  
CNTY        .                             GALVESTON SMALL BLOCK :LOCATION  
STAT        .                                             TEXAS :STATE     
CTRY        .                                     UNITED STATES :COUNTRY   
SRVC        .                                                   :SERVICE COMPANY
DATE        .                             9/13/2023 11:19:17 AM :LOG DATE  
API         .                                    42605300060000 :API NUMBER
UWI         .                                    42605300060000 :UNIQUE WELL ID
XCOORD      .                                  1068847.04405215 :SURFACE X 
YCOORD      .                                  10622520.7629704 :SURFACE Y 
LAT         .                                        29.2582252 :LATITUDE  
LON         .                                       -94.7929393 :LONGITUDE 
ELEV        .FT                                              67 :ELEVATION VALUE
ELEV_TYPE   .                                                KB :ELEVATION REFERENCE TYPE
~Curve Information Section
#MNEM       .UNIT                                      API CODE :CURVE DESCRIPTION
#------------------------------------------------------------------------------
DEPT        .FT                                                 :DEPTH     
ASN         .OHMM                                               :          
CILD        .MMHO                                               :          
GR          .GAPI                                               :          
GR_NORM     .GAPI                                               :GammaRay Normalized
ILD         .OHMM                                               :          
SP          .MV                                                 :          
SP_NORM     .MV                                                 :SP Normalized
VSH_GR      .V/V                                                :Volume of Shale from GR
VSH_SP      .V/V                                                :Volume of Shale from SP
~A        DEPTH            ASN           CILD             GR        GR_NORM            ILD             SP        SP_NORM         VSH_GR         VSH_SP
# ...
      2236.0000         0.7028       1574.885       118.4651       87.74726         0.6531        25.0911      -2.613945              1      0.9561468
      2236.5000         0.6986       1590.822       117.3004       86.75764         0.6437        25.3313      -2.632769              1      0.9548022
      2237.0000         0.6944        1606.76       116.2744       85.88583         0.6343        25.5715       -2.65159              1      0.9534578
      2237.5000         0.6902       1622.703       115.2484         85.014          0.625        25.8117      -2.670412              1      0.9521134
      2238.0000          0.686       1638.641       114.6443       84.50053         0.6156        26.0635      -2.700832              1      0.9499406
      2238.5000         0.6818        1659.32       115.5457       85.26574         0.6062        26.3156      -2.731554              1      0.9477462
      2239.0000          0.676       1685.826       116.4469        86.0308         0.5968        26.5676      -2.762177              1      0.9455588
      2239.5000         0.6685       1720.195       117.3485       86.79618         0.5874        26.8196      -2.792797              1      0.9433717
      2240.0000         0.6658       1700.465       118.5378       87.80593         0.5781        27.0716       -2.82342              1      0.9411843
      2240.5000         0.6686       1680.734        119.988       89.03726         0.5687        27.3236      -2.854044              1      0.9389969
      2241.0000         0.6713       1660.998       121.4381       90.26852         0.5652        27.6115      -2.920565              1      0.9342454
      2241.5000         0.6741        1641.27       122.8888       91.50027         0.5773         28.206      -3.293686              1      0.9075938
      2242.0000         0.6769       1621.539        124.339       92.73161         0.5894        28.8003      -3.666609              1      0.8809565
      2242.5000         0.6794       1599.676       125.7892       93.96294         0.6016        29.2059       -3.85083              1      0.8677979
      2243.0000         0.6811       1572.373       126.7631       94.78974         0.6137        29.1378      -3.561352              1      0.8884749
      2243.5000         0.6827       1542.742        127.575       95.47894         0.6259        29.1414      -3.343573              1      0.9040305
      2244.0000         0.6843       1511.725        128.387       96.16821         0.6381        29.1827      -3.163494              1      0.9168933
      2244.5000         0.6859       1480.721       129.1985       96.85708         0.6502         29.224      -2.983419              1      0.9297557
      2245.0000         0.6875        1455.74       130.0112       97.54697         0.6624        29.2653      -2.803341              1      0.9426185
      2245.5000         0.6891       1445.354       130.8528       98.26138         0.6735        29.3066      -2.623262              1      0.9554812
      2246.0000         0.6907       1434.967       130.9683       98.35911         0.6733        29.3478      -2.443083              1      0.9683512
      2246.5000         0.6923       1424.584       129.9536       97.49688         0.6731        29.4187      -2.292604              1      0.9790997
      2247.0000         0.6939       1422.625       128.3159       96.10553         0.6728        29.6506      -2.303127              1      0.9783481
      2247.5000         0.6956       1433.467         125.66       93.84935         0.6726        29.8825      -2.313648              1      0.9775966
      2248.0000         0.6972       1444.309       123.0032       91.59243         0.6724        30.1143      -2.324072              1       0.976852
      2248.5000         0.6988       1479.139       120.3473       89.33627         0.6721        30.3463      -2.334694              1      0.9760933
      2249.0000         0.7004       1521.025       114.9316       84.73608          0.667        30.5781      -2.345116              1      0.9753489
      2249.5000          0.698       1562.924       108.5924       79.35151         0.6619        30.8101      -2.355738      0.9862023      0.9745902
      2250.0000         0.6951       1618.818       102.0948       73.83241         0.6567        31.0419      -2.366159      0.8687747      0.9738458
      2250.5000         0.6923       1678.082        97.1661       69.64585         0.6515        31.2153       -2.31818       0.779699      0.9772729
      2251.0000         0.6894       1745.875        94.0243       66.97698         0.6464        31.3587      -2.240202      0.7229145      0.9828427
      2251.5000         0.6865       1818.006        91.5228       64.85195         0.6412        31.5022      -2.288715      0.6777011      0.9793774
      2252.0000         0.6837       1835.836        90.2678       63.78565         0.6361        31.6456      -2.432116      0.6550138      0.9691346
      2252.5000         0.6808       1845.939        90.2035       63.73064         0.6309        31.7889      -2.575417      0.6538434      0.9588988
      2253.0000         0.6779       1830.775        90.5161       63.99577         0.6257        31.9324      -2.718916      0.6594846      0.9486489
      2253.5000         0.6751       1810.371        92.6423       65.80126         0.6206        32.0757      -2.862215      0.6978992      0.9384132
      2254.0000         0.6722       1783.803        96.7494       69.28922         0.6154        32.2192      -3.005716      0.7721111      0.9281631
      2254.5000         0.6696       1757.234       100.9891       72.88981         0.6128        32.1653      -2.951815      0.8487194      0.9320132
      2255.0000         0.6672       1730.666         103.54       75.05602         0.6108        32.1018      -2.888315       0.894809      0.9365489
      2255.5000         0.6649       1704.938         106.09       77.22147         0.6087        32.0382      -2.824717      0.9408823      0.9410917
      2256.0000         0.6625       1686.354       108.9388       79.64072         0.6066        31.9746      -2.761116      0.9923556      0.9456345
      2256.5000         0.6601        1667.77       114.7703       84.59328         0.6046         31.911      -2.697515              1      0.9501775
      2257.0000         0.6577       1649.186       118.4606       87.72725         0.6025        31.8474      -2.633917              1      0.9547202
      2257.5000         0.6571       1630.596       118.1924       87.49906         0.6005        31.7838      -2.570316              1      0.9592631
      2258.0000         0.6581       1626.754       116.5481        86.1021         0.5984        31.7018      -2.488316              1      0.9651203
      2258.5000         0.6593       1634.162       111.5126        91.0173         0.5963        31.5945      -2.381016              1      0.9727846
      2259.0000          0.661       1641.566        94.1421       73.64634         0.5943        31.4872      -2.273716      0.8648157      0.9804488
      2259.5000         0.6627       1648.971        85.7399       65.24368         0.5921          31.38      -2.166515      0.6860358      0.9881061
      2260.0000         0.6644       1694.307         84.955       64.45834         0.5886        31.2727      -2.059216      0.6693263      0.9957703
      2260.5000          0.666       1742.738        88.0929       67.59578         0.5851        31.1654      -1.951916      0.7360804              1
      2261.0000         0.6677       1791.168        90.3082       69.81062         0.5815        31.0582      -1.844717      0.7832047              1
      2261.5000         0.6677       1846.117        92.4139       71.91587          0.578        30.9509      -1.737415      0.8279973              1
      2262.0000         0.6648       1902.955        93.1094       72.61092         0.5745        30.8437      -1.630217      0.8427855              1
