#------------------------------------------------------------------------------
# Created by    : vladimir.rabinovich
# Created on    : 09/19/2023 17:22:47
#------------------------------------------------------------------------------
~Version Information Section
VERS.           2.0     :   CWLS log ASCII Standard - VERSION 2.0
WRAP.           NO      :   One line per depth step
~Well Information Section
#MNEM       .UNIT                                         VALUE :DESCRIPTION
#------------------------------------------------------------------------------
STRT        .FT                                             494 :START DEPTH
STOP        .FT                                            8323 :STOP DEPTH
STEP        .FT                                             0.5 :STEP      
NULL        .                                           -999.25 :NULL      
COMP        .                                       MONSANTO CO :COMPANY   
WELL        .                                     ST TR 00293-S :WELL      
FLD         .                                           WILDCAT :FIELD     
LOC         .                                                   :LOCATION  
CNTY        .                             GALVESTON SMALL BLOCK :LOCATION  
STAT        .                                             TEXAS :STATE     
CTRY        .                                     UNITED STATES :COUNTRY   
SRVC        .                                                   :SERVICE COMPANY
DATE        .                             9/13/2023 11:19:17 AM :LOG DATE  
API         .                                    42605300230000 :API NUMBER
UWI         .                                    42605300230000 :UNIQUE WELL ID
XCOORD      .                                  996050.411534576 :SURFACE X 
YCOORD      .                                  10568409.9475512 :SURFACE Y 
LAT         .                                        29.1061939 :LATITUDE  
LON         .                                        -95.018267 :LONGITUDE 
ELEV        .FT                                              81 :ELEVATION VALUE
ELEV_TYPE   .                                                KB :ELEVATION REFERENCE TYPE
~Curve Information Section
#MNEM       .UNIT                                      API CODE :CURVE DESCRIPTION
#------------------------------------------------------------------------------
DEPT        .FT                                                 :DEPTH     
DT          .US/F                                               :          
GR          .GAPI                                               :          
GR_NORM     .GAPI                                               :GammaRay Normalized
ILD         .OHMM                                               :          
SFL         .OHMM                                               :          
SP          .MV                                                 :          
SP_NORM     .MV                                                 :SP Normalized
VSH_GR      .V/V                                                :Volume of Shale from GR
VSH_SP      .V/V                                                :Volume of Shale from SP
~A        DEPTH             DT             GR        GR_NORM            ILD            SFL             SP        SP_NORM         VSH_GR         VSH_SP
       494.0000        -999.25        69.6456       36.60205        -999.25        -999.25        -999.25        -999.25     0.07663938        -999.25
       494.5000        -999.25        68.3528       34.87575        -999.25        -999.25        -999.25        -999.25     0.03990953        -999.25
       495.0000        -999.25        67.1395        33.2556        -999.25        -999.25        -999.25        -999.25    0.005438298        -999.25
       495.5000        -999.25        66.1459       31.92881        -999.25        -999.25        -999.25        -999.25              0        -999.25
       496.0000        -999.25        66.2986       32.13273        -999.25        -999.25        -999.25        -999.25              0        -999.25
       496.5000        -999.25        67.7227       34.03437        -999.25        -999.25        -999.25        -999.25      0.0220078        -999.25
       497.0000        -999.25          69.11       35.88686        -999.25        -999.25        -999.25        -999.25     0.06142247        -999.25
       497.5000        -999.25        70.4513       37.67793        -999.25        -999.25        -999.25        -999.25     0.09953032        -999.25
       498.0000        -999.25        71.7947       39.47181        -999.25        -999.25        -999.25        -999.25       0.137698        -999.25
       498.5000        -999.25        73.1389       41.26674        -999.25        -999.25        -999.25        -999.25      0.1758881        -999.25
       499.0000        -999.25        74.2343       42.72945        -999.25        -999.25        -999.25        -999.25      0.2070097        -999.25
       499.5000        -999.25        75.0768       43.85446        -999.25        -999.25        -999.25        -999.25       0.230946        -999.25
       500.0000        -999.25        75.9365       45.00245        -999.25        -999.25        -999.25        -999.25      0.2553712        -999.25
       500.5000        -999.25        76.8591       46.23441        -999.25        -999.25        -999.25        -999.25      0.2815832        -999.25
       501.0000        -999.25        77.7819       47.46665        -999.25        -999.25        -999.25        -999.25      0.3078011        -999.25
       501.5000        -999.25        78.6095       48.57176        -999.25        -999.25        -999.25        -999.25      0.3313141        -999.25
       502.0000        -999.25         79.395       49.62066        -999.25        -999.25        -999.25        -999.25       0.353631        -999.25
       502.5000        -999.25        80.1804       50.66942        -999.25        -999.25        -999.25        -999.25      0.3759452        -999.25
       503.0000        -999.25         80.714       51.38196        -999.25        -999.25        -999.25        -999.25      0.3911055        -999.25
       503.5000        -999.25        81.2308       52.07204        -999.25        -999.25        -999.25        -999.25      0.4057882        -999.25
       504.0000        -999.25        81.7478       52.76242        -999.25        -999.25        -999.25        -999.25       0.420477        -999.25
       504.5000        -999.25        82.2646       53.45252        -999.25        -999.25        -999.25        -999.25        0.43516        -999.25
       505.0000        -999.25        82.7816       54.14288        -999.25        -999.25        -999.25        -999.25      0.4498484        -999.25
       505.5000        -999.25        82.9512       54.36935        -999.25        -999.25        -999.25        -999.25       0.454667        -999.25
       506.0000        -999.25        83.1154       54.58861        -999.25        -999.25        -999.25        -999.25      0.4593321        -999.25
       506.5000        -999.25        83.2797       54.80801        -999.25        -999.25        -999.25        -999.25      0.4640001        -999.25
       507.0000        -999.25        83.3973       54.96503        -999.25        -999.25        -999.25        -999.25      0.4673412        -999.25
       507.5000        -999.25        83.4854       55.08266        -999.25        -999.25        -999.25        -999.25      0.4698439        -999.25
       508.0000       127.3046        83.5734       55.20019         0.2988         0.1671        95.6019      0.8535843      0.4723444              1
       508.5000       149.5193        83.6726       55.33265         0.6903         0.3722        90.8495      -1.544319      0.4751628              1
       509.0000       166.2468        83.7726       55.46618         1.0823         1.0224        86.3944      -3.644928      0.4780038      0.8734671
       509.5000       177.1819         83.854       55.57487           1.28         1.2402        82.3538      -5.331039      0.4803165      0.7437662
       510.0000       164.4556        83.9222       55.66595         1.4927         1.3521        80.5989      -4.731438      0.4822542      0.7898894
       510.5000       193.2869        84.2347       56.08324         1.9435         1.4188        79.1899      -3.785942      0.4911328      0.8626198
       511.0000       201.1455        85.0923       57.22841         2.4194         1.4933        77.9182      -2.703156       0.515498      0.9459111
       511.5000       200.9724        87.2551       60.11645         3.0391         1.6418        76.4601      -1.806755      0.5769458              1
       512.0000       200.7683        89.8927        63.6385         3.0952         1.9559         74.712      -1.200363      0.6518831              1
       512.5000       200.4019        93.5266       68.49094         3.0051         2.3575         73.454     -0.5943146      0.7551265              1
       513.0000       200.0354        97.7264       74.09904         2.9444         2.7318        72.8815     -0.7387238      0.8744476              1
       513.5000       199.6689        99.4808       76.44171         2.9523         3.0155        72.3088     -0.8833389      0.9242917              1
       514.0000       199.4678       100.6563       78.01141         3.0147         3.0995        71.3735      -1.390549      0.9576895              1
       514.5000       199.3655       101.3835       78.98245         3.0868         3.0271        70.7823       -1.55365        0.97835              1
       515.0000       199.2629       102.0085       79.81702         3.1499         2.9565         70.621      -1.286865      0.9961069              1
       515.5000       199.2876        102.262       80.15554         3.1495         2.8431        71.6467      0.1669235              1              1
       516.0000       199.4949       102.5155       80.49404         3.0263         2.7115        71.3848      0.3331146              1              1
       516.5000       199.7021       102.7568       80.81624         2.8935         2.5859        69.6178      -1.005798              1              1
       517.0000       199.9097       102.8475       80.93736         2.7825         2.4404         68.113      -2.082504              1      0.9936535
       517.5000       200.1228       102.9382       81.05848         2.6838         2.3009        66.9653      -2.802116              1      0.9382988
       518.0000       200.3362        103.037       81.19041         2.6108         2.2137        66.9678      -2.371529              1      0.9714209
       518.5000       200.5498       103.1443       81.33369         2.5668         2.2496        67.5103       -1.40094              1              1
       519.0000        200.792       103.0879       81.25838          2.567          2.319        68.3823     -0.1008453              1              1
       519.5000       201.0347       102.6237       80.63852         2.5781         2.3786        69.2131       1.158043              1              1
       520.0000       201.2776       102.1224       79.96912         2.5974         2.4311        69.9038       2.276833      0.9993429              1
