#------------------------------------------------------------------------------
# Created by    : vladimir.rabinovich
# Created on    : 09/19/2023 17:20:27
#------------------------------------------------------------------------------
~Version Information Section
VERS.           2.0     :   CWLS log ASCII Standard - VERSION 2.0
WRAP.           NO      :   One line per depth step
~Well Information Section
#MNEM       .UNIT                                         VALUE :DESCRIPTION
#------------------------------------------------------------------------------
STRT        .FT                                             540 :START DEPTH
STOP        .FT                                            9057 :STOP DEPTH
STEP        .FT                                             0.5 :STEP      
NULL        .                                           -999.25 :NULL      
COMP        .                              MITCHELL ENERGY CORP :COMPANY   
WELL        .                                     ST TR 00228-S :WELL      
FLD         .                                     LAFITTES GOLD :FIELD     
LOC         .                                                   :LOCATION  
CNTY        .                             GALVESTON SMALL BLOCK :LOCATION  
STAT        .                                             TEXAS :STATE     
CTRY        .                                     UNITED STATES :COUNTRY   
SRVC        .                                                   :SERVICE COMPANY
DATE        .                             9/13/2023 11:19:17 AM :LOG DATE  
API         .                                    42605300060000 :API NUMBER
UWI         .                                    42605300060000 :UNIQUE WELL ID
XCOORD      .                                  1068847.04405215 :SURFACE X 
YCOORD      .                                  10622520.7629704 :SURFACE Y 
LAT         .                                        29.2582252 :LATITUDE  
LON         .                                       -94.7929393 :LONGITUDE 
ELEV        .FT                                              67 :ELEVATION VALUE
ELEV_TYPE   .                                                KB :ELEVATION REFERENCE TYPE
~Curve Information Section
#MNEM       .UNIT                                      API CODE :CURVE DESCRIPTION
#------------------------------------------------------------------------------
DEPT        .FT                                                 :DEPTH     
ASN         .OHMM                                               :          
CILD        .MMHO                                               :          
GR          .GAPI                                               :          
GR_NORM     .GAPI                                               :GammaRay Normalized
ILD         .OHMM                                               :          
SP          .MV                                                 :          
SP_NORM     .MV                                                 :SP Normalized
VSH_GR      .V/V                                                :Volume of Shale from GR
VSH_SP      .V/V                                                :Volume of Shale from SP
~A        DEPTH            ASN           CILD             GR        GR_NORM            ILD             SP        SP_NORM         VSH_GR         VSH_SP
# ...
      7324.0000         0.5515       649.4355        -999.25        -999.25         0.2192        161.814      -96.25613        -999.25     0.03743866
      7324.5000         0.5467       591.9697        -999.25        -999.25         0.2213       160.8469      -95.30962        -999.25     0.04690376
      7325.0000         0.5393         511.98        -999.25        -999.25         0.2235       159.4304      -93.91373        -999.25     0.06086273
      7325.5000         0.5319       412.9487        -999.25        -999.25         0.2263       157.6121      -92.11603        -999.25     0.07883972
      7326.0000         0.5234       412.3599        -999.25        -999.25         0.2292       155.2334      -89.75791        -999.25      0.1024209
      7326.5000         0.5283       473.2603        -999.25        -999.25         0.2321       152.9116      -87.45671        -999.25      0.1254329
      7327.0000         0.5365       523.3643        -999.25        -999.25          0.235       151.1597       -85.7254        -999.25       0.142746
      7327.5000         0.5556       583.8242        -999.25        -999.25          0.238        149.699       -84.2853        -999.25       0.157147
      7328.0000         0.5793       643.1055        -999.25        -999.25          0.241        147.113      -81.71989        -999.25      0.1828011
      7328.5000         0.6023       696.0068        -999.25        -999.25          0.244       146.6624      -81.28989        -999.25      0.1871011
      7329.0000         0.6196       841.6582        -999.25        -999.25          0.247         147.25      -81.89808        -999.25      0.1810192
      7329.5000         0.6368       1017.146        -999.25        -999.25         0.2456       148.4111      -83.07977        -999.25      0.1692023
      7330.0000         0.6603       1192.635        -999.25        -999.25         0.2442        150.116      -84.80527        -999.25      0.1519473
      7330.5000          0.701       1368.123        -999.25        -999.25         0.2437        151.821      -86.53086        -999.25      0.1346914
      7331.0000         0.7143       1543.611        -999.25        -999.25         0.2449       152.1851      -86.91556        -999.25      0.1308444
      7331.5000         0.7261       1587.189        -999.25        -999.25          0.246         151.24      -85.99106        -999.25      0.1400894
      7332.0000         0.7417       1669.928        -999.25        -999.25         0.2471       149.7903      -84.56194        -999.25      0.1543806
      7332.5000         0.7522       1739.221        -999.25        -999.25         0.2526       147.8262      -82.61844        -999.25      0.1738156
      7333.0000         0.7422       1834.129        -999.25        -999.25          0.261        145.011      -79.82384        -999.25      0.2017616
      7333.5000         0.7027           2230        -999.25        -999.25         0.2695       141.1199      -75.95333        -999.25      0.2404667
      7334.0000         0.6097       2367.504        -999.25        -999.25         0.2849       138.0874      -72.94142        -999.25      0.2705858
      7334.5000         0.5736       2415.695        -999.25        -999.25         0.3023       133.8137      -68.68832        -999.25      0.3131168
      7335.0000         0.5363       2433.363        -999.25        -999.25         0.3204       128.5828        -63.478        -999.25        0.36522
      7335.5000         0.4939       2392.875        -999.25        -999.25         0.3386        114.785      -49.70081        -999.25      0.5029919
      7336.0000         0.4691         2354.5        -999.25        -999.25         0.3591        84.2087       -19.1451        -999.25       0.808549
      7336.5000         0.4181       2325.008        -999.25        -999.25         0.3811        71.4891      -6.446091        -999.25      0.9355391
      7337.0000         0.4402       2300.176        -999.25        -999.25          0.391        72.1948      -7.172386        -999.25      0.9282761
      7337.5000         0.4831       2265.234        -999.25        -999.25         0.4009        75.1434      -10.14159        -999.25      0.8985841
      7338.0000         0.5048       2230.344        -999.25        -999.25         0.4107        81.2034      -16.22218        -999.25      0.8377783
      7338.5000         0.5279       2195.207        -999.25        -999.25         0.4103        87.8408      -22.88017        -999.25      0.7711983
      7339.0000         0.5518       2161.984        -999.25        -999.25         0.4074        99.5265      -34.58646        -999.25      0.6541353
      7339.5000         0.5733       2123.805        -999.25        -999.25         0.4039       109.0607      -44.14126        -999.25      0.5585874
      7340.0000         0.5941       2183.477        -999.25        -999.25         0.3979       108.1526      -43.25375        -999.25      0.5674624
      7340.5000         0.6293        2295.27        -999.25        -999.25          0.392       102.1963      -37.31805        -999.25      0.6268196
      7341.0000         0.7122       2436.012        -999.25        -999.25         0.3845        98.7715      -33.91384        -999.25      0.6608616
      7341.5000         0.8095       2552.219        -999.25        -999.25         0.3761        106.001      -41.16393        -999.25      0.5883607
      7342.0000         0.9902       2688.793        -999.25        -999.25         0.3676       110.2104      -45.39394        -999.25      0.5460606
      7342.5000         0.9196       2740.418        -999.25        -999.25         0.3586       113.1368      -48.34093        -999.25      0.5165907
      7343.0000         0.8692       2792.043        -999.25        -999.25         0.3489       119.6212      -54.84592        -999.25      0.4515408
      7343.5000          0.852       2843.621        -999.25        -999.25         0.3392        128.499      -63.74431        -999.25      0.3625569
      7344.0000         0.8373       2895.246        -999.25        -999.25         0.3292       135.7581      -71.02401        -999.25      0.2897599
      7344.5000         0.8391       2946.871        -999.25        -999.25         0.3179       143.0566       -78.3431        -999.25       0.216569
      7345.0000         0.8691       2998.496        -999.25        -999.25         0.3065       149.8323       -85.1394        -999.25       0.148606
      7345.5000         0.9149       3050.121        -999.25        -999.25         0.2905       153.6814      -89.00909        -999.25      0.1099091
      7346.0000         0.9656       3062.391        -999.25        -999.25         0.2732       155.4407      -90.78899        -999.25     0.09211006
      7346.5000           1.05       3025.781        -999.25        -999.25         0.2628       156.9236      -92.29248        -999.25      0.0770752
      7347.0000         1.0473       2989.172        -999.25        -999.25         0.2524       158.1018      -93.49128        -999.25     0.06508721
      7347.5000          1.011       2952.516        -999.25        -999.25         0.2421       159.1597      -94.56977        -999.25     0.05430229
      7348.0000         0.9721       2915.906        -999.25        -999.25         0.2361       159.6587      -95.08937        -999.25     0.04910629
      7348.5000         0.9403       2604.727        -999.25        -999.25           0.23       160.1577      -95.60896        -999.25     0.04391045
      7349.0000         0.9563       2123.559        -999.25        -999.25          0.224        160.374      -95.84585        -999.25     0.04154152
      7349.5000         0.9844        2085.82        -999.25        -999.25         0.2139       160.5818      -96.07425        -999.25     0.03925751
      7350.0000         1.0105       2053.285        -999.25        -999.25         0.2089       160.7896      -96.30264        -999.25     0.03697365
