#------------------------------------------------------------------------------
# Created by    : vladimir.rabinovich
# Created on    : 09/19/2023 17:22:47
#------------------------------------------------------------------------------
~Version Information Section
VERS.           2.0     :   CWLS log ASCII Standard - VERSION 2.0
WRAP.           NO      :   One line per depth step
~Well Information Section
#MNEM       .UNIT                                         VALUE :DESCRIPTION
#------------------------------------------------------------------------------
STRT        .FT                                             494 :START DEPTH
STOP        .FT                                            8323 :STOP DEPTH
STEP        .FT                                             0.5 :STEP      
NULL        .                                           -999.25 :NULL      
COMP        .                                       MONSANTO CO :COMPANY   
WELL        .                                     ST TR 00293-S :WELL      
FLD         .                                           WILDCAT :FIELD     
LOC         .                                                   :LOCATION  
CNTY        .                             GALVESTON SMALL BLOCK :LOCATION  
STAT        .                                             TEXAS :STATE     
CTRY        .                                     UNITED STATES :COUNTRY   
SRVC        .                                                   :SERVICE COMPANY
DATE        .                             9/13/2023 11:19:17 AM :LOG DATE  
API         .                                    42605300230000 :API NUMBER
UWI         .                                    42605300230000 :UNIQUE WELL ID
XCOORD      .                                  996050.411534576 :SURFACE X 
YCOORD      .                                  10568409.9475512 :SURFACE Y 
LAT         .                                        29.1061939 :LATITUDE  
LON         .                                        -95.018267 :LONGITUDE 
ELEV        .FT                                              81 :ELEVATION VALUE
ELEV_TYPE   .                                                KB :ELEVATION REFERENCE TYPE
~Curve Information Section
#MNEM       .UNIT                                      API CODE :CURVE DESCRIPTION
#------------------------------------------------------------------------------
DEPT        .FT                                                 :DEPTH     
DT          .US/F                                               :          
GR          .GAPI                                               :          
GR_NORM     .GAPI                                               :GammaRay Normalized
ILD         .OHMM                                               :          
SFL         .OHMM                                               :          
SP          .MV                                                 :          
SP_NORM     .MV                                                 :SP Normalized
VSH_GR      .V/V                                                :Volume of Shale from GR
VSH_SP      .V/V                                                :Volume of Shale from SP
~A        DEPTH             DT             GR        GR_NORM            ILD            SFL             SP        SP_NORM         VSH_GR         VSH_SP
# ...
      1024.0000       156.5076        87.6436       60.76447         3.8243          2.885        36.0604      -7.383347      0.5907334      0.7692975
      1024.5000        157.002        88.3966       61.77089         3.9308         2.6816        38.0306      -5.409306      0.6121467      0.8731945
      1025.0000       157.4963        89.1495       62.77718         3.8892         2.4927        40.0095      -3.426567      0.6335571      0.9775491
      1025.5000       157.6768        89.9027       63.78389         3.6054         2.3178        41.6298      -1.802429      0.6549763              1
      1026.0000        157.554        90.2039       64.18701         3.3443         2.1552        43.0775     -0.3508873      0.6635534              1
      1026.5000       156.4038        90.4785       64.55462         3.1869         2.0413        43.0294     -0.3951492      0.6713749              1
      1027.0000       154.5725        90.7532       64.92236         3.0787         1.9838           42.9     -0.5207062      0.6791992              1
      1027.5000        149.123        90.5808       64.69309         3.0387         2.0612        42.9311     -0.4857712      0.6743211              1
      1028.0000       145.7041        90.2726       64.28246          3.012         2.1295        43.0288     -0.3842278      0.6655843              1
      1028.5000       152.9377        89.9642       63.87159         2.9856         2.1838        43.0709     -0.3382912      0.6568424              1
      1029.0000       157.8762        90.1427       64.11086          2.959         2.2395        43.1011     -0.3042488      0.6619332              1
      1029.5000       156.6047        90.6443       64.78159         2.9121          2.227        43.2006     -0.2009125       0.676204              1
      1030.0000       155.5288        91.1743       65.49026         2.8659         2.1564        42.3783      -1.019371      0.6912821              1
      1030.5000       155.1804        91.7522       66.26286         2.8204         2.0917        41.1474      -2.246433      0.7077203              1
      1031.0000       155.9446        92.3301       67.03548         2.7251         2.0412        39.8295      -3.560493      0.7241591      0.9705003
      1031.5000       158.6189        92.1554       66.80312         2.6175         1.9919        38.8903      -4.495853      0.7192152      0.9212708
      1032.0000       161.2205        91.7256       66.23013         2.5503         1.9438        39.2424      -4.139912      0.7070239      0.9400046
      1032.5000       163.5745        91.5469       65.99243         2.5283         1.9013        40.0751      -3.303375      0.7019666      0.9840329
      1033.0000       165.9446        91.9689       66.55687         2.5065         1.8612        40.8476      -2.527039       0.713976              1
      1033.5000       168.5164        93.4048       68.47519         2.4909         1.8256        41.4898      -1.880997      0.7547913              1
      1034.0000       169.9045        95.1202       70.76674         2.4832         1.8198         42.061      -1.305958      0.8035476              1
      1034.5000            170        96.3207       72.37072         2.4755         1.8556        42.5794     -0.7837181      0.8376749              1
      1035.0000       170.0955        97.0813        73.3873         2.4678         1.8962         42.886      -0.473278      0.8593042              1
      1035.5000       170.1909        97.8418       74.40375         2.4392          1.914        42.8668     -0.4886398      0.8809308              1
      1036.0000       170.9846        98.2418        74.9388         2.4048         1.9214        42.3528     -0.9988022      0.8923149              1
      1036.5000       175.9421         98.606       75.42606         2.3588         1.8694        41.3665      -1.981258      0.9026822              1
      1037.0000       179.4526        98.9978       75.95016         2.2469          1.803        41.6906       -1.65332      0.9138333              1
      1037.5000       182.1118        99.4585       76.56628         2.1384         1.7318        43.3681     0.02801895      0.9269422              1
      1038.0000       183.9832        99.9193       77.18252         2.0251         1.6485        44.7835       1.447258      0.9400536              1
      1038.5000        184.136       100.2313       77.60008         1.9228         1.5692        45.5634       2.230999       0.948938              1
      1039.0000       182.6489       100.2594       77.63852         1.8401         1.5064        45.8071       2.478535      0.9497557              1
      1039.5000       179.2361       100.2875       77.67698          1.845         1.4611        45.9065       2.581779       0.950574              1
      1040.0000       175.6018        100.915       78.51582         1.8598         1.4626        46.0038       2.682915      0.9684218              1
      1040.5000       172.4629       101.6871       79.54775         1.9006         1.5876        46.2853       2.968254      0.9903777              1
      1041.0000       180.2114       103.0614       81.38381         1.9606         1.7492        46.2623       2.949093              1              1
      1041.5000       182.1299       104.6543       83.51178         2.0225         1.9011        46.1537       2.844334              1              1
      1042.0000       180.7275       105.4064       84.51701         2.0864          2.041        45.9747       2.669174              1              1
      1042.5000       179.3254       102.9581       81.24866         2.1319         2.1365        45.7073       2.405609              1              1
      1043.0000       178.7458       100.4834       77.94506         2.1726         2.1893        45.3868       2.088951      0.9562779              1
      1043.5000       179.0652        99.7157       76.92085         2.1888         2.1163        45.0283       1.734291      0.9344862              1
      1044.0000       179.6675       101.9828       79.94913         2.1246         2.0197        44.7279       1.437733      0.9989176              1
      1044.5000       179.8984       103.2863       81.69064         2.0623         1.9276        44.5543       1.267967              1              1
      1045.0000       179.7214       103.8242       82.40984         2.0142         1.8456        44.5488       1.266312              1              1
      1045.5000        179.762         103.21        81.5906         1.9748          1.767        44.9966       1.717949              1              1
      1046.0000       180.4512       102.5958       80.77138         1.9361         1.7107        46.2972       3.022388              1              1
      1046.5000       181.1306       102.0696       80.06967         1.9001          1.664        47.5132       4.242226              1              1
      1047.0000       181.3979       101.5797       79.41642         1.9186         1.6435        48.0313       4.764168      0.9875834              1
      1047.5000       181.5249       102.5022       80.64918         1.9373         1.6434        48.3861       5.122807              1              1
      1048.0000       181.0684       103.5629       82.06649         1.9561         1.6458        48.8008       5.541348              1              1
      1048.5000       180.6121       104.6235       83.48366         1.9794         1.6735        48.8129       5.557285              1              1
      1049.0000       180.1558       105.5255       84.68904         2.0184         1.7017        47.5575       4.305721              1              1
      1049.5000       179.6106        106.049       85.38905         2.0582         1.7304         45.626       2.378063              1              1
      1050.0000       179.0271       105.6271       84.82659         2.0988         1.7639        44.4191       1.175003              1              1
