#------------------------------------------------------------------------------
# Created by    : vladimir.rabinovich
# Created on    : 09/19/2023 17:22:47
#------------------------------------------------------------------------------
~Version Information Section
VERS.           2.0     :   CWLS log ASCII Standard - VERSION 2.0
WRAP.           NO      :   One line per depth step
~Well Information Section
#MNEM       .UNIT                                         VALUE :DESCRIPTION
#------------------------------------------------------------------------------
STRT        .FT                                             494 :START DEPTH
STOP        .FT                                            8323 :STOP DEPTH
STEP        .FT                                             0.5 :STEP      
NULL        .                                           -999.25 :NULL      
COMP        .                                       MONSANTO CO :COMPANY   
WELL        .                                     ST TR 00293-S :WELL      
FLD         .                                           WILDCAT :FIELD     
LOC         .                                                   :LOCATION  
CNTY        .                             GALVESTON SMALL BLOCK :LOCATION  
STAT        .                                             TEXAS :STATE     
CTRY        .                                     UNITED STATES :COUNTRY   
SRVC        .                                                   :SERVICE COMPANY
DATE        .                             9/13/2023 11:19:17 AM :LOG DATE  
API         .                                    42605300230000 :API NUMBER
UWI         .                                    42605300230000 :UNIQUE WELL ID
XCOORD      .                                  996050.411534576 :SURFACE X 
YCOORD      .                                  10568409.9475512 :SURFACE Y 
LAT         .                                        29.1061939 :LATITUDE  
LON         .                                        -95.018267 :LONGITUDE 
ELEV        .FT                                              81 :ELEVATION VALUE
ELEV_TYPE   .                                                KB :ELEVATION REFERENCE TYPE
~Curve Information Section
#MNEM       .UNIT                                      API CODE :CURVE DESCRIPTION
#------------------------------------------------------------------------------
DEPT        .FT                                                 :DEPTH     
DT          .US/F                                               :          
GR          .GAPI                                               :          
GR_NORM     .GAPI                                               :GammaRay Normalized
ILD         .OHMM                                               :          
SFL         .OHMM                                               :          
SP          .MV                                                 :          
SP_NORM     .MV                                                 :SP Normalized
VSH_GR      .V/V                                                :Volume of Shale from GR
VSH_SP      .V/V                                                :Volume of Shale from SP
~A        DEPTH             DT             GR        GR_NORM            ILD            SFL             SP        SP_NORM         VSH_GR         VSH_SP
# ...
      5158.0000       124.6033        -999.25        -999.25         0.4196         0.5995        31.1692      -1.426266        -999.25      0.9935414
      5158.5000       127.7871        -999.25        -999.25         0.4116         0.5889        31.3118      -1.572613        -999.25      0.9913241
      5159.0000       130.5618        -999.25        -999.25         0.4117         0.5848        30.9398      -1.204363        -999.25      0.9969036
      5159.5000       133.7905        -999.25        -999.25         0.4192         0.5844        30.5378     -0.8061123        -999.25              1
      5160.0000       135.2466        -999.25        -999.25         0.4345         0.5872        30.1241     -0.3961601        -999.25              1
      5160.5000       133.7241        -999.25        -999.25         0.4613         0.5944         29.578      0.1461906        -999.25              1
      5161.0000       131.2422        -999.25        -999.25         0.4866         0.6026          29.04      0.6804409        -999.25              1
      5161.5000       129.2444        -999.25        -999.25         0.5047         0.6132        28.6282       1.088491        -999.25              1
      5162.0000       126.6687        -999.25        -999.25         0.5152         0.6285        28.2162       1.496744        -999.25              1
      5162.5000       124.5795        -999.25        -999.25         0.5257         0.6424        27.8116       1.897594        -999.25              1
      5163.0000       125.1187        -999.25        -999.25         0.5366         0.6534        27.4072       2.298244        -999.25              1
      5163.5000       126.9414        -999.25        -999.25         0.5487         0.6571        27.0569       2.644796        -999.25              1
      5164.0000       129.0205        -999.25        -999.25         0.5624         0.6504        26.7076       2.990347        -999.25              1
      5164.5000       130.5342        -999.25        -999.25         0.5747         0.6439          26.24       3.454199        -999.25              1
      5165.0000       128.3298        -999.25        -999.25         0.5868         0.6426        25.7459        3.94455        -999.25              1
      5165.5000       122.4803        -999.25        -999.25         0.5992         0.6486        25.3302       4.356501        -999.25              1
      5166.0000       119.0326        -999.25        -999.25          0.611         0.6551        25.1026       4.580351        -999.25              1
      5166.5000       115.4673        -999.25        -999.25         0.6257         0.6598        24.8306         4.8486        -999.25              1
      5167.0000       115.7926        -999.25        -999.25         0.6368         0.6983        24.5239       5.151554        -999.25              1
      5167.5000       118.8125        -999.25        -999.25         0.6392         0.7749        23.9384       5.733303        -999.25              1
      5168.0000       122.1951        -999.25        -999.25         0.6393         0.7454        23.7023       5.965656        -999.25              1
      5168.5000       123.2998        -999.25        -999.25         0.6563         0.7068        23.8007       5.863506        -999.25              1
      5169.0000       122.3684        -999.25        -999.25         0.6625         0.6887        24.9543       4.706158        -999.25              1
      5169.5000       121.4764        -999.25        -999.25         0.6604         0.6896        26.3388       3.317907        -999.25              1
      5170.0000       121.1539        -999.25        -999.25         0.6396         0.6939        28.2042       1.448757        -999.25              1
      5170.5000       120.9019        -999.25        -999.25         0.6068         0.6968        30.0292     -0.3799896        -999.25              1
      5171.0000        120.567        -999.25        -999.25         0.5782          0.696        31.4945      -1.849039        -999.25      0.9871358
      5171.5000       119.8458        -999.25        -999.25         0.5583         0.6922        32.6619      -3.020187        -999.25      0.9693911
      5172.0000       118.8875        -999.25        -999.25         0.5328         0.6866        33.9997      -4.361736        -999.25      0.9490646
      5172.5000       117.4564        -999.25        -999.25         0.5037         0.6745        34.8643      -5.230085        -999.25      0.9359078
      5173.0000       116.0077        -999.25        -999.25         0.4885         0.6722        34.9924      -5.361937        -999.25      0.9339101
      5173.5000       114.8944        -999.25        -999.25         0.4782         0.6656        33.7662      -4.139484        -999.25       0.952432
      5174.0000       115.8363        -999.25        -999.25         0.4712         0.6452        31.6838      -2.060833        -999.25      0.9839268
      5174.5000       117.7241        -999.25        -999.25         0.4643          0.625        31.1965      -1.577284        -999.25      0.9912533
      5175.0000       119.2878        -999.25        -999.25         0.4575         0.6546         31.969      -2.353531        -999.25      0.9794919
      5175.5000       120.9929        -999.25        -999.25         0.4499         0.6707        33.3649       -3.75318        -999.25      0.9582852
      5176.0000       122.0287        -999.25        -999.25         0.4422         0.6231        34.3405      -4.732529        -999.25      0.9434465
      5176.5000       122.2792        -999.25        -999.25         0.4325         0.6116         34.887       -5.28278        -999.25      0.9351094
      5177.0000       122.5094        -999.25        -999.25          0.423         0.6131        34.6566      -5.056128        -999.25      0.9385435
      5177.5000       123.0302        -999.25        -999.25         0.4154         0.6132        33.7662      -4.169477        -999.25      0.9519776
      5178.0000       123.4507        -999.25        -999.25         0.4117         0.6113        32.5862      -2.993227        -999.25      0.9697996
      5178.5000       123.6047        -999.25        -999.25         0.4103         0.6002        31.5184      -1.929174        -999.25      0.9859216
      5179.0000       122.9557        -999.25        -999.25         0.4145         0.5884        30.1087     -0.5232239        -999.25              1
      5179.5000       122.2358        -999.25        -999.25         0.4294         0.5863        28.3733       1.208427        -999.25              1
      5180.0000       121.4308        -999.25        -999.25          0.456         0.6102        26.6442       2.933779        -999.25              1
      5180.5000       122.9871        -999.25        -999.25         0.4849         0.6447        25.8456        3.72863        -999.25              1
      5181.0000       124.2623        -999.25        -999.25         0.5151         0.6568        25.5848        3.98568        -999.25              1
      5181.5000       124.0624        -999.25        -999.25         0.5549         0.6636        25.6346       3.932131        -999.25              1
      5182.0000       122.6593        -999.25        -999.25         0.5983         0.6531        25.7817       3.781282        -999.25              1
      5182.5000       119.9083        -999.25        -999.25         0.6317           0.65        26.0099       3.549334        -999.25              1
      5183.0000       119.3936        -999.25        -999.25         0.6511         0.6577        26.2088       3.346685        -999.25              1
      5183.5000       120.0593        -999.25        -999.25         0.6635          0.672         26.397       3.154736        -999.25              1
      5184.0000       120.5482        -999.25        -999.25         0.6686         0.6858        26.4889       3.059088        -999.25              1
