#------------------------------------------------------------------------------
# Created by    : vladimir.rabinovich
# Created on    : 09/19/2023 17:20:27
#------------------------------------------------------------------------------
~Version Information Section
VERS.           2.0     :   CWLS log ASCII Standard - VERSION 2.0
WRAP.           NO      :   One line per depth step
~Well Information Section
#MNEM       .UNIT                                         VALUE :DESCRIPTION
#------------------------------------------------------------------------------
STRT        .FT                                             540 :START DEPTH
STOP        .FT                                            9057 :STOP DEPTH
STEP        .FT                                             0.5 :STEP      
NULL        .                                           -999.25 :NULL      
COMP        .                              MITCHELL ENERGY CORP :COMPANY   
WELL        .                                     ST TR 00228-S :WELL      
FLD         .                                     LAFITTES GOLD :FIELD     
LOC         .                                                   :LOCATION  
CNTY        .                             GALVESTON SMALL BLOCK :LOCATION  
STAT        .                                             TEXAS :STATE     
CTRY        .                                     UNITED STATES :COUNTRY   
SRVC        .                                                   :SERVICE COMPANY
DATE        .                             9/13/2023 11:19:17 AM :LOG DATE  
API         .                                    42605300060000 :API NUMBER
UWI         .                                    42605300060000 :UNIQUE WELL ID
XCOORD      .                                  1068847.04405215 :SURFACE X 
YCOORD      .                                  10622520.7629704 :SURFACE Y 
LAT         .                                        29.2582252 :LATITUDE  
LON         .                                       -94.7929393 :LONGITUDE 
ELEV        .FT                                              67 :ELEVATION VALUE
ELEV_TYPE   .                                                KB :ELEVATION REFERENCE TYPE
~Curve Information Section
#MNEM       .UNIT                                      API CODE :CURVE DESCRIPTION
#------------------------------------------------------------------------------
DEPT        .FT                                                 :DEPTH     
ASN         .OHMM                                               :          
CILD        .MMHO                                               :          
GR          .GAPI                                               :          
GR_NORM     .GAPI                                               :GammaRay Normalized
ILD         .OHMM                                               :          
SP          .MV                                                 :          
SP_NORM     .MV                                                 :SP Normalized
VSH_GR      .V/V                                                :Volume of Shale from GR
VSH_SP      .V/V                                                :Volume of Shale from SP
~A        DEPTH            ASN           CILD             GR        GR_NORM            ILD             SP        SP_NORM         VSH_GR         VSH_SP
# ...
      9020.0000         0.7233       1380.693        -999.25        -999.25         0.5765        27.6237     -0.6574059        -999.25      0.9926955
      9020.5000         0.7285       1400.676        -999.25        -999.25         0.5811        28.0518      -1.085506        -999.25      0.9879388
      9021.0000         0.7207       1423.652        -999.25        -999.25         0.5858        28.3726      -1.406307        -999.25      0.9843743
      9021.5000         0.7124       1450.215        -999.25        -999.25         0.5905        28.6366      -1.670307        -999.25       0.981441
      9022.0000         0.7022       1468.035        -999.25        -999.25         0.5951        28.7994      -1.833107        -999.25      0.9796321
      9022.5000         0.6924       1484.533        -999.25        -999.25         0.5998        28.9623      -1.996006        -999.25      0.9778222
      9023.0000          0.683       1498.869        -999.25        -999.25         0.6045        29.1162      -2.149906        -999.25      0.9761121
      9023.5000         0.6736       1513.254        -999.25        -999.25         0.6091        29.1671      -2.200808        -999.25      0.9755466
      9024.0000         0.6649       1527.982        -999.25        -999.25         0.6138        29.1665      -2.200207        -999.25      0.9755533
      9024.5000         0.6596         1543.4        -999.25        -999.25         0.6146        29.1135      -2.147207        -999.25      0.9761422
      9025.0000         0.6564       1562.596        -999.25        -999.25         0.6119        28.9271      -1.960806        -999.25      0.9782133
      9025.5000         0.6536       1584.861        -999.25        -999.25         0.6092         28.446      -1.479706        -999.25      0.9835588
      9026.0000          0.655       1583.277        -999.25        -999.25         0.6066        28.1197      -1.153406        -999.25      0.9871844
      9026.5000         0.6638       1577.275        -999.25        -999.25         0.6037        27.8057      -0.839407        -999.25      0.9906732
      9027.0000         0.6735       1557.957        -999.25        -999.25         0.5993        27.5771     -0.6108074        -999.25      0.9932132
      9027.5000         0.6836       1533.285        -999.25        -999.25          0.595        27.4226     -0.4563065        -999.25      0.9949299
      9028.0000         0.6955       1501.617        -999.25        -999.25         0.5906        27.2681     -0.3018074        -999.25      0.9966466
      9028.5000         0.7081       1474.492        -999.25        -999.25         0.5863        27.1139     -0.1476059        -999.25      0.9983599
      9029.0000         0.7221       1457.039        -999.25        -999.25         0.5821        26.9594    0.006893158        -999.25              1
      9029.5000         0.7294       1440.615        -999.25        -999.25         0.5779        27.2462     -0.2799072        -999.25      0.9968899
      9030.0000         0.7215       1475.154        -999.25        -999.25         0.5737         27.546     -0.5797062        -999.25      0.9935588
      9030.5000         0.7076       1586.605        -999.25        -999.25         0.5695        27.9229     -0.9566059        -999.25      0.9893711
      9031.0000         0.6936       1627.256        -999.25        -999.25         0.5653        28.6218      -1.655506        -999.25      0.9816055
      9031.5000         0.6746        1650.65        -999.25        -999.25         0.5592        29.1214      -2.155107        -999.25      0.9760544
      9032.0000         0.6534       1670.584        -999.25        -999.25         0.5527        29.1852      -2.218906        -999.25      0.9753455
      9032.5000         0.6355       1690.322        -999.25        -999.25         0.5461        29.1532      -2.186907        -999.25       0.975701
      9033.0000         0.6209       1709.789        -999.25        -999.25         0.5405        29.0752      -2.108906        -999.25      0.9765677
      9033.5000         0.6099       1732.619        -999.25        -999.25         0.5383        28.9387      -1.972406        -999.25      0.9780844
      9034.0000         0.5993       1751.986        -999.25        -999.25          0.536        28.8022      -1.835907        -999.25       0.979601
      9034.5000         0.5888       1771.553        -999.25        -999.25         0.5337        28.6702      -1.703907        -999.25      0.9810677
      9035.0000         0.5851       1794.922        -999.25        -999.25         0.5314        28.5436      -1.577307        -999.25      0.9824744
      9035.5000         0.5882       1838.275        -999.25        -999.25         0.5291        28.4784      -1.512106        -999.25      0.9831988
      9036.0000         0.5913       1839.734        -999.25        -999.25         0.5291        28.4133      -1.447006        -999.25      0.9839221
      9036.5000         0.5944       1829.375        -999.25        -999.25          0.529        28.3567      -1.390408        -999.25       0.984551
      9037.0000         0.5981       1807.736        -999.25        -999.25         0.5322        28.3813      -1.415007        -999.25      0.9842777
      9037.5000         0.6025       1783.285        -999.25        -999.25         0.5377        28.4059      -1.439606        -999.25      0.9840044
      9038.0000         0.6069       1755.891        -999.25        -999.25         0.5432        28.4305      -1.464207        -999.25       0.983731
      9038.5000         0.6121       1728.004        -999.25        -999.25         0.5518        28.5053      -1.539007        -999.25      0.9828999
      9039.0000         0.6186        1700.41        -999.25        -999.25         0.5615        28.5994      -1.633106        -999.25      0.9818544
      9039.5000          0.625       1654.162        -999.25        -999.25         0.5712        28.6935      -1.727207        -999.25      0.9808088
      9040.0000         0.6316         1605.9        -999.25        -999.25         0.5803        28.8667      -1.900406        -999.25      0.9788844
      9040.5000         0.6382       1571.287        -999.25        -999.25         0.5895        28.8658      -1.899508        -999.25      0.9788944
      9041.0000         0.6469        1536.33        -999.25        -999.25         0.5986        28.7041      -1.737806        -999.25       0.980691
      9041.5000          0.659       1491.258        -999.25        -999.25         0.6063        28.5715      -1.605207        -999.25      0.9821644
      9042.0000         0.6668       1456.105        -999.25        -999.25         0.6127        28.4875      -1.521206        -999.25      0.9830977
      9042.5000         0.6733       1430.158        -999.25        -999.25         0.6192        28.4034      -1.437107        -999.25      0.9840322
      9043.0000         0.6798       1412.164        -999.25        -999.25         0.6256        28.3994      -1.433107        -999.25      0.9840766
      9043.5000         0.6857       1397.189        -999.25        -999.25         0.6305        28.4509      -1.484606        -999.25      0.9835044
      9044.0000         0.6916       1382.068        -999.25        -999.25         0.6318        28.5801      -1.613806        -999.25      0.9820688
      9044.5000         0.6941       1366.725        -999.25        -999.25          0.633        28.7092      -1.742907        -999.25      0.9806344
      9045.0000         0.6902       1355.139        -999.25        -999.25         0.6311        28.8317      -1.865406        -999.25      0.9792733
      9045.5000         0.6863       1353.113        -999.25        -999.25         0.6208        28.9324      -1.966106        -999.25      0.9781544
      9046.0000         0.6748       1359.654        -999.25        -999.25         0.6105        29.0331      -2.066807        -999.25      0.9770355
