#------------------------------------------------------------------------------
# Created by    : vladimir.rabinovich
# Created on    : 09/19/2023 17:19:43
#------------------------------------------------------------------------------
~Version Information Section
VERS.           2.0     :   CWLS log ASCII Standard - VERSION 2.0
WRAP.           NO      :   One line per depth step
~Well Information Section
#MNEM       .UNIT                                         VALUE :DESCRIPTION
#------------------------------------------------------------------------------
STRT        .FT                                            1596 :START DEPTH
STOP        .FT                                            6079 :STOP DEPTH
STEP        .FT                                             0.5 :STEP      
NULL        .                                           -999.25 :NULL      
COMP        .                                 EOG RESOURCES INC :COMPANY   
WELL        .                                     ST TR 00721-S :WELL      
FLD         .                                  SHERMAN OFFSHORE :FIELD     
LOC         .                                                   :LOCATION  
CNTY        .                      MATAGORDA ISLAND SMALL BLOCK :LOCATION  
STAT        .                                             TEXAS :STATE     
CTRY        .                                     UNITED STATES :COUNTRY   
SRVC        .                                                   :SERVICE COMPANY
DATE        .                             9/13/2023 11:19:17 AM :LOG DATE  
API         .                                    42603300060000 :API NUMBER
UWI         .                                    42603300060000 :UNIQUE WELL ID
XCOORD      .                                  491308.028993428 :SURFACE X 
YCOORD      .                                  10247941.6299489 :SURFACE Y 
LAT         .                                        28.1931224 :LATITUDE  
LON         .                                       -96.5672747 :LONGITUDE 
ELEV        .FT                                              74 :ELEVATION VALUE
ELEV_TYPE   .                                                KB :ELEVATION REFERENCE TYPE
~Curve Information Section
#MNEM       .UNIT                                      API CODE :CURVE DESCRIPTION
#------------------------------------------------------------------------------
DEPT        .FT                                                 :DEPTH     
ASFL        .OHMM                                               :          
CILD        .MMHO                                               :          
ILD         .OHMM                                               :          
SP          .MV                                                 :          
SP_NORM     .MV                                                 :SP Normalized
VSH_SP      .V/V                                                :Volume of Shale from SP
~A        DEPTH           ASFL           CILD            ILD             SP        SP_NORM         VSH_SP
# ...
      3078.0000         0.9579       1352.811         0.7678       -48.6861       1.097652              1
      3078.5000         0.7272       1380.529         0.7577       -48.1042       1.684395              1
      3079.0000         0.7252       1400.282         0.7378       -47.2607        2.53273              1
      3079.5000         0.7232       1463.484         0.7277       -47.7555        2.04277              1
      3080.0000         0.7231       1475.352         0.7275       -56.2531      -6.449993      0.8761365
      3080.5000         0.8808       1503.069         0.7273       -56.1551      -6.347157      0.8784737
      3081.0000         0.8788       1522.823          0.737       -55.6857      -5.872913      0.8892519
      3081.5000         0.8516       1534.769         0.7468       -55.2163      -5.398678      0.9000301
      3082.0000         0.8156       1478.274         0.7464       -54.7469      -4.924438      0.9108082
      3082.5000         0.8156       1421.779         0.7561       -54.1881      -4.360798      0.9236183
      3083.0000         0.8155       1365.283         0.7559       -57.8443      -8.012161      0.8406327
      3083.5000         0.8194       1211.777         0.7754       -57.0704      -7.233425      0.8583313
      3084.0000         0.8293       1172.428         0.7851       -56.2965      -6.454685      0.8760299
      3084.5000         0.8342       1133.079         0.8046       -55.5227      -5.676048      0.8937262
      3085.0000         0.8537       1101.615          0.834       -54.7488      -4.897308      0.9114248
      3085.5000         0.8634       1062.306         0.8732       -53.9749      -4.118568      0.9291235
      3086.0000         0.8927       999.8339         0.9223       -53.2011      -3.339931      0.9468197
      3086.5000         1.0281       937.3621         0.9615       -52.4272      -2.561195      0.9645183
      3087.0000         1.0819       874.8904         1.0106       -51.6533      -1.782455      0.9822169
      3087.5000         1.1168       812.4187         1.2309       -50.8795      -1.003819      0.9999132
      3088.0000          0.959        749.947         1.3334       -50.1056     -0.2250786              1
      3088.5000         0.9472       687.4752         1.4546       -49.4659      0.4194603              1
      3089.0000         0.9472       625.0035            1.6        -51.246      -1.355801      0.9919136
      3089.5000         2.1728       562.1641         1.7788       -54.7763      -4.881264      0.9117895
      3090.0000         2.8034       558.2607         1.7913       -58.3066      -8.406723      0.8316654
      3090.5000         2.7736       530.7793          1.884       -61.8369      -11.93219      0.7515412
      3091.0000          2.734       572.1117         1.8272       -66.7653      -16.85575      0.6396421
      3091.5000         2.6747        613.444         1.7975       -68.8263      -18.91191      0.5929111
      3092.0000         2.6252       654.7764         1.6888       -70.8874      -20.96817      0.5461779
      3092.5000         2.5659       696.1087         1.6295       -72.9485      -23.02444      0.4994446
      3093.0000         2.5065       737.4411          1.511       -75.0095      -25.08059      0.4527138
      3093.5000         2.4472       778.7735         1.4221       -77.0496      -27.11586      0.4064578
      3094.0000         2.4569       820.1058          1.343       -77.6443      -27.70572      0.3930517
      3094.5000          2.609       861.4382          1.264       -79.5084      -29.56498      0.3507959
      3095.0000          2.761       902.7706         1.1849       -81.3724      -31.42414      0.3085423
      3095.5000         2.8801       941.6141         1.1453       -83.2364       -33.2833      0.2662886
      3096.0000         2.8701       953.4817         1.0859       -85.1005      -35.14257      0.2240326
      3096.5000         2.6682       1058.401         1.0463       -86.9645      -37.00173      0.1817789
      3097.0000         2.4662       1163.319         0.8596       -88.8286      -38.86099       0.139523
      3097.5000         2.2642       1268.238         0.7885       -90.6926      -40.72015     0.09726941
      3098.0000         2.0313       1373.157         0.7282       -92.5567      -42.57941     0.05501331
      3098.5000         2.0031       1478.075         0.6766       -94.4207      -44.43858     0.01275964
      3099.0000         2.0031       1582.994         0.6317       -95.7464      -45.75943              0
      3099.5000         1.8327       1687.913         0.5924       -96.0448        -46.053              0
      3100.0000         1.2676       1792.832         0.5431       -96.1455      -46.14886              0
      3100.5000         1.2656        1897.75         0.5431       -94.5935      -44.59202    0.009272316
      3101.0000         1.2675       1936.075         0.5339        -93.032      -43.02568      0.0448709
      3101.5000         1.6401       1940.107         0.5317       -91.4705      -41.45934     0.08046948
      3102.0000          1.646       1614.621          0.525       -78.0735      -28.05751      0.3850567
      3102.5000         1.6558       1520.244         0.6578       -76.5924      -26.57157       0.418828
      3103.0000         2.1676       1425.868         0.7013       -76.1995      -26.17383      0.4278674
      3103.5000         2.1489       1331.491          0.751       -76.0042      -25.97369      0.4324161
      3104.0000         2.1302       1237.115         0.8083       -75.4136      -25.37825      0.4459489
      3104.5000         2.1278       1142.739         0.8751       -75.2183      -25.17812      0.4504974
      3105.0000          1.998       1048.362         0.9539       -74.6277      -24.58268      0.4640301
      3105.5000         1.8681       953.9855         1.0482        -74.037      -23.98714       0.477565
      3106.0000         1.7382        859.609         1.1633       -58.9877      -8.933002      0.8197045
      3106.5000         1.6639       766.1322         1.3053       -56.6451       -6.58556      0.8730555
      3107.0000         1.7701       766.1798         1.3052       -56.7448      -6.680424      0.8708994
      3107.5000         1.8763       766.3141         1.3049       -58.5913      -8.522087      0.8290434
      3108.0000         1.9826       770.3603         1.2981       -60.4377      -10.36364      0.7871899
      3108.5000         2.0888       790.2151         1.2655       -62.2842      -12.20531      0.7453339
      3109.0000         2.2051       798.0999          1.253       -64.3658      -14.28207      0.6981348
      3109.5000         2.1853       916.5916          1.091       -66.4417      -16.35313      0.6510651
      3110.0000         2.1754       1035.083         0.8742       -75.1475      -25.05409      0.4533161
      3110.5000          1.395       1153.575         0.8347       -80.2881      -30.18986      0.3365941
      3111.0000          1.395       1354.442         0.8148       -80.2905      -30.18741      0.3366497
      3111.5000         1.3949       1370.257         0.8048       -79.3492      -29.24128      0.3581528
      3112.0000         1.3988       1378.234         0.7948       -78.4079      -28.29514      0.3796559
      3112.5000         1.4106       1378.326         0.7558       -77.4665       -27.3489      0.4011614
      3113.0000           1.56       1317.931         0.7425       -76.5252      -26.40276      0.4226645
      3113.5000         1.7094       1289.119         0.7648       -75.5839      -25.45663      0.4441676
      3114.0000         1.8304       1260.308         0.7885       -74.6425      -24.51039       0.465673
      3114.5000         1.8284       1231.497         0.8138       -73.4865      -23.34955      0.4920556
      3115.0000         1.3887       1202.686         0.8407        -73.091      -22.94921      0.5011542
      3115.5000         0.8486       1173.875         0.8814       -68.0465      -17.89987       0.615912
