#------------------------------------------------------------------------------
# Created by    : vladimir.rabinovich
# Created on    : 09/19/2023 17:19:42
#------------------------------------------------------------------------------
~Version Information Section
VERS.           2.0     :   CWLS log ASCII Standard - VERSION 2.0
WRAP.           NO      :   One line per depth step
~Well Information Section
#MNEM       .UNIT                                         VALUE :DESCRIPTION
#------------------------------------------------------------------------------
STRT        .FT                                            2198 :START DEPTH
STOP        .FT                                            8738 :STOP DEPTH
STEP        .FT                                             0.5 :STEP      
NULL        .                                           -999.25 :NULL      
COMP        .                             CHAMPLIN PETROLEUM CO :COMPANY   
WELL        .                                     ST TR 00360-S :WELL      
FLD         .                                           WILDCAT :FIELD     
LOC         .                                                   :LOCATION  
CNTY        .                             GALVESTON SMALL BLOCK :LOCATION  
STAT        .                                             TEXAS :STATE     
CTRY        .                                     UNITED STATES :COUNTRY   
SRVC        .                                                   :SERVICE COMPANY
DATE        .                             9/13/2023 11:19:17 AM :LOG DATE  
API         .                                    42605301270000 :API NUMBER
UWI         .                                    42605301270000 :UNIQUE WELL ID
XCOORD      .                                  933135.371219094 :SURFACE X 
YCOORD      .                                  10510129.7662443 :SURFACE Y 
LAT         .                                         28.942863 :LATITUDE  
LON         .                                       -95.2117932 :LONGITUDE 
ELEV        .FT                                              20 :ELEVATION VALUE
ELEV_TYPE   .                                                GL :ELEVATION REFERENCE TYPE
~Curve Information Section
#MNEM       .UNIT                                      API CODE :CURVE DESCRIPTION
#------------------------------------------------------------------------------
DEPT        .FT                                                 :DEPTH     
ASFL        .OHMM                                               :          
CILD        .MMHO                                               :          
ILD         .OHMM                                               :          
SP          .MV                                                 :          
SP_NORM     .MV                                                 :SP Normalized
VSH_SP      .V/V                                                :Volume of Shale from SP
~A        DEPTH           ASFL           CILD            ILD             SP        SP_NORM         VSH_SP
      2198.0000         0.7412       7918.352         9.3427        71.2516      -17.59306      0.2203468
      2198.5000         0.7589       7905.414         9.3811         74.896      -21.23746     0.03812676
      2199.0000         0.7671       7892.477         9.4194        67.1257      -13.46716      0.4266419
      2199.5000         0.7655       7879.539         0.1558        56.6685       -3.00996       0.949502
      2200.0000         0.7614       3193.113         0.1345        46.2113       7.447239              1
      2200.5000          0.755       3217.238         0.1853        43.7804       9.878139              1
      2201.0000         0.7442       3219.625         0.2554        65.1698      -11.51126       0.524437
      2201.5000          0.719       3218.059         0.3271         71.524      -17.86546      0.2067268
      2202.0000         0.6986       3215.352         0.3964        90.6525      -36.99396              0
      2202.5000         0.6816       3198.082         0.4439        57.7127      -4.054161       0.897292
      2203.0000         0.6741       3180.809         0.4915         55.646      -1.987461              1
      2203.5000         0.6673        3140.84         0.5266        53.5793     0.07923889              1
      2204.0000          0.666       2728.723         0.5592        52.7413      0.9172401              1
      2204.5000         0.6749       2603.461         0.5919        57.1868      -3.528259       0.923587
      2205.0000         0.6882       2436.953         0.6197        59.6712      -6.012661       0.799367
      2205.5000         0.6959        2293.02         0.6259        62.3276       -8.66906       0.666547
      2206.0000         0.7037        2021.75          0.632        61.3076      -7.649059      0.7175471
      2206.5000         0.7102       1945.203         0.6382        60.4964       -6.83786       0.758107
      2207.0000         0.7167       1766.777         0.6444        57.3663       -3.70776       0.914612
      2207.5000         0.7253        1633.52         0.6506        50.8293       2.829239              1
      2208.0000         0.7352        1551.57         0.6568        52.9859      0.6726379              1
      2208.5000         0.7441       1582.164          0.663         53.211      0.4475403              1
      2209.0000         0.7526       1600.326         0.6629        53.4361      0.2224388              1
      2209.5000         0.7579       1608.961         0.6619        53.7133    -0.05475998              1
      2210.0000         0.7606         1617.6         0.6608        54.3198     -0.6612625              1
      2210.5000         0.7521       1625.479         0.6598        54.9262      -1.267662              1
      2211.0000         0.7441       1631.246         0.6587        56.5129      -2.854362      0.9572819
      2211.5000          0.736       1637.016         0.6577        56.3364       -2.67786       0.966107
      2212.0000          0.728       1641.148         0.6537        56.1599      -2.501362      0.9749319
      2212.5000           0.72       1642.412         0.6477        56.1083       -2.44976       0.977512
      2213.0000         0.7158       1643.676         0.6417        56.3517      -2.693161      0.9653419
      2213.5000         0.7142       1644.938         0.6357        57.2833       -3.62476       0.918762
      2214.0000         0.7132       1646.201         0.6297        58.1546      -4.496059      0.8751971
      2214.5000         0.7203       1644.131         0.6237        58.8865      -5.227962      0.8386019
      2215.0000         0.7274       1641.467         0.6178        60.0851      -6.426559       0.778672
      2215.5000         0.7376       1638.801         0.6122        60.9217      -7.263161       0.736842
      2216.0000         0.7483       1636.135         0.6067        61.0544      -7.395863      0.7302068
      2216.5000         0.7542       1621.848         0.6012        60.2452      -6.586662      0.7706669
      2217.0000         0.7547        1605.85         0.5956        59.2936      -5.635059       0.818247
      2217.5000         0.7351       1676.184         0.5901        58.9595      -5.300961       0.834952
      2218.0000         0.7143       1857.014         0.5845        58.6256       -4.96706       0.851647
      2218.5000         0.6878       2055.559         0.5817        58.2915      -4.632961      0.8683519
      2219.0000         0.6612       2226.012         0.5793        57.9574      -4.298862      0.8850569
      2219.5000         0.6392       2313.391         0.5768        57.6088       -3.95026       0.902487
      2220.0000          0.624       2393.305         0.5744        57.1683      -3.509762      0.9245119
      2220.5000         0.6088       2415.762         0.5832        56.9466      -3.288063      0.9355968
      2221.0000         0.5936       2432.672         0.5925        57.6204      -3.961861       0.901907
      2221.5000         0.5744        2432.93         0.6018        58.6115      -4.952961       0.852352
      2222.0000         0.5537       2337.961         0.6111        59.6022      -5.943661       0.802817
      2222.5000         0.5913        2164.27         0.6194        59.0317      -5.373161      0.8313419
      2223.0000          0.624       1915.773         0.6264        58.2243      -4.565762      0.8717119
      2223.5000         0.6567       1784.744         0.6334        57.4788      -3.820263      0.9089869
      2224.0000         0.6815       1708.195         0.6404        56.8191      -3.160561       0.941972
      2224.5000         0.6941       1636.404         0.6474        56.2704      -2.611862      0.9694069
      2225.0000         0.7057       1582.455         0.6543        55.3378       -1.67926              1
      2225.5000          0.715       1561.713         0.6613         54.405       -0.74646              1
      2226.0000         0.7242       1555.852         0.6603        54.8294       -1.17086              1
      2226.5000         0.7346       1565.504         0.6581        55.2958       -1.63726              1
      2227.0000         0.7457       1576.877         0.6559         55.762      -2.103462      0.9948269
      2227.5000         0.7484       1588.252         0.6537        55.6517       -1.99316              1
      2228.0000          0.751       1608.771         0.6496        55.4286      -1.770061              1
      2228.5000         0.7517       1630.787         0.6422        55.2365      -1.577961              1
      2229.0000         0.7512       1652.803         0.6347        55.0508      -1.392262              1
      2229.5000         0.7506       1674.818         0.6273         54.865      -1.206463              1
      2230.0000         0.7492       1694.682         0.6198        54.6793       -1.02076              1
      2230.5000         0.7469        1713.27         0.6124        54.5837     -0.9251595              1
      2231.0000         0.7447        1709.34         0.6049         54.796      -1.137463              1
      2231.5000         0.7438       1704.379         0.5979        55.1788       -1.52026              1
      2232.0000         0.7506        1699.42         0.5914        55.7339      -2.075359       0.996232
      2232.5000         0.7575       1694.459         0.5849        56.2891      -2.630562      0.9684719
      2233.0000         0.7627         1689.5         0.5784        57.0403       -3.38176       0.930912
      2233.5000         0.7674       1684.539         0.5719        58.1727       -4.51416       0.874292
      2234.0000         0.7695       1680.107         0.5654        59.0425      -5.383961       0.830802
      2234.5000         0.7691       1676.684         0.5589        59.8279      -6.169361      0.7915319
      2235.0000         0.7687       1695.568          0.553        60.4268      -6.768261       0.761587
      2235.5000          0.768        1732.59         0.5484        61.0139      -7.355362      0.7322319
