#------------------------------------------------------------------------------
# Created by    : vladimir.rabinovich
# Created on    : 09/19/2023 17:19:43
#------------------------------------------------------------------------------
~Version Information Section
VERS.           2.0     :   CWLS log ASCII Standard - VERSION 2.0
WRAP.           NO      :   One line per depth step
~Well Information Section
#MNEM       .UNIT                                         VALUE :DESCRIPTION
#------------------------------------------------------------------------------
STRT        .FT                                            1596 :START DEPTH
STOP        .FT                                            6079 :STOP DEPTH
STEP        .FT                                             0.5 :STEP      
NULL        .                                           -999.25 :NULL      
COMP        .                                 EOG RESOURCES INC :COMPANY   
WELL        .                                     ST TR 00721-S :WELL      
FLD         .                                  SHERMAN OFFSHORE :FIELD     
LOC         .                                                   :LOCATION  
CNTY        .                      MATAGORDA ISLAND SMALL BLOCK :LOCATION  
STAT        .                                             TEXAS :STATE     
CTRY        .                                     UNITED STATES :COUNTRY   
SRVC        .                                                   :SERVICE COMPANY
DATE        .                             9/13/2023 11:19:17 AM :LOG DATE  
API         .                                    42603300060000 :API NUMBER
UWI         .                                    42603300060000 :UNIQUE WELL ID
XCOORD      .                                  491308.028993428 :SURFACE X 
YCOORD      .                                  10247941.6299489 :SURFACE Y 
LAT         .                                        28.1931224 :LATITUDE  
LON         .                                       -96.5672747 :LONGITUDE 
ELEV        .FT                                              74 :ELEVATION VALUE
ELEV_TYPE   .                                                KB :ELEVATION REFERENCE TYPE
~Curve Information Section
#MNEM       .UNIT                                      API CODE :CURVE DESCRIPTION
#------------------------------------------------------------------------------
DEPT        .FT                                                 :DEPTH     
ASFL        .OHMM                                               :          
CILD        .MMHO                                               :          
ILD         .OHMM                                               :          
SP          .MV                                                 :          
SP_NORM     .MV                                                 :SP Normalized
VSH_SP      .V/V                                                :Volume of Shale from SP
~A        DEPTH           ASFL           CILD            ILD             SP        SP_NORM         VSH_SP
# ...
      6042.0000         1.2056       858.6684         1.0588       -34.9845      -7.493084      0.8860862
      6042.5000         1.2037       862.6829         1.0681       -39.8219      -12.34568       0.800953
      6043.0000         1.1711       870.6254         1.0676       -44.6592      -17.19817      0.7158215
      6043.5000         1.1386       1120.194         1.0475       -49.4966      -22.05077      0.6306883
      6044.0000          1.106       1212.624         1.0078       -54.3339      -26.90326      0.5455568
      6044.5000         1.0069       1248.069          0.968       -59.2976      -31.88216      0.4582077
      6045.0000         0.9989       1256.018         0.9283       -59.4002      -31.99996      0.4561411
      6045.5000         0.9988       1267.895         0.8984       -59.5004      -32.11535      0.4541166
      6046.0000         1.0066       1271.916         0.8586       -59.5073      -32.13745      0.4537289
      6046.5000          1.148       1260.224         0.8483        -59.512      -32.15734      0.4533799
      6047.0000         1.1519        1252.46         0.8282       -59.4164      -32.07694      0.4547905
      6047.5000         1.1537       1256.481         0.8081       -53.8531      -26.52884      0.5521257
      6048.0000         1.0246       1288.002         0.7978       -48.2897      -20.98063      0.6494626
      6048.5000         0.8451       1307.738         0.7777       -42.7264      -15.43253      0.7467978
      6049.0000         0.7841       1315.688         0.7772       -37.1631      -9.884422       0.844133
      6049.5000         0.7821        1319.71         0.7767       -31.5997      -4.336218      0.9414698
      6050.0000         1.4815       1319.804         0.7762       -26.6514      0.5968876              1
      6050.5000         1.4892       1319.898         0.7756       -26.7547      0.4783916              1
      6051.0000          1.049       1108.144         0.7851       -27.2493     -0.0314045              1
      6051.5000         0.8819       1057.265         0.7849       -27.5905     -0.3878002              1
      6052.0000         0.8799       1006.386         0.8003       -27.8471     -0.6595955              1
      6052.5000         1.1981       955.5068         0.8033       -30.5844      -3.412092      0.9576826
      6053.0000         1.2059       923.4391         0.8225       -33.3217      -6.164589      0.9093932
      6053.5000         1.2314       911.7393         0.9005        -36.059      -8.917082      0.8611038
      6054.0000         1.2411       896.1098         0.9492       -38.7963      -11.66958      0.8128144
      6054.5000         1.2411       888.3385          0.988       -42.1664      -15.05487      0.7534233
      6055.0000         1.2026       884.4963         0.9875       -42.3646      -15.26827      0.7496794
      6055.5000         1.1092       888.5127         0.9674       -42.6631      -15.58197       0.744176
      6056.0000         1.0993       930.5047         0.9571       -43.0594      -15.99346      0.7369568
      6056.5000         1.1031       972.4967         0.9271       -43.2601      -16.20936      0.7331691
      6057.0000         1.1306       1014.489          0.907       -44.6345      -17.59895      0.7087903
      6057.5000         1.1384       1056.481         0.8771       -47.4296      -20.40925      0.6594869
      6058.0000         1.1462       1199.484          0.857       -51.0093      -24.00414      0.5964185
      6058.5000          1.152       1207.435         0.8368       -51.2073      -24.21734      0.5926782
      6059.0000         1.1539       1215.387         0.8364       -51.3076      -24.33283       0.590652
      6059.5000          0.855       1211.549         0.8261       -48.9055      -21.94593      0.6325275
      6060.0000         0.8608       1195.128         0.8256       -46.5034      -19.55902      0.6744031
      6060.5000         0.8686       1178.708         0.8153       -44.1013      -17.17212      0.7162786
      6061.0000         0.8744       1162.287         0.8148       -41.6992      -14.78522      0.7581541
      6061.5000         1.0453       1145.867         0.8222       -39.2972      -12.39841      0.8000278
      6062.0000         1.0472       1129.447         0.8237       -36.8951      -10.01151      0.8419033
      6062.5000         0.8702       1113.026          0.833        -34.493      -7.624605      0.8837789
      6063.0000         0.8702       1096.605         0.8424       -32.0909      -5.237701      0.9256544
      6063.5000         0.8701       1080.185         0.8615       -29.6365      -2.798496      0.9684474
      6064.0000         1.0444       1063.765         0.8709       -28.7592      -1.936392      0.9835721
      6064.5000         1.0841       1047.344         0.8999       -28.4713      -1.663689      0.9883564
      6065.0000         1.2038       1030.923         0.9289       -28.2812      -1.488785      0.9914248
      6065.5000         1.4201       1014.503         0.9382        -28.091      -1.313778      0.9944952
      6066.0000         1.4201       998.0825         0.9574       -27.9987      -1.236673      0.9958478
      6066.5000         1.4161        981.662         0.9667       -28.0041      -1.257271      0.9954865
      6067.0000         0.9855       957.4278         0.9761       -28.0095      -1.277866      0.9951252
      6067.5000         0.9795       949.6102         0.9756       -28.0149      -1.298462      0.9947639
      6068.0000         0.9715       941.7924         0.9555       -27.8248      -1.123558      0.9978323
      6068.5000         0.9616       934.0179         0.9353       -27.7325      -1.046453       0.999185
      6069.0000         1.0227       922.3127         0.9054       -27.5424     -0.8715496              1
      6069.5000         1.0503       914.5382         0.8951       -27.3203     -0.6646442              1
      6070.0000         1.4057       922.4442         0.8553       -27.1622     -0.5217419              1
      6070.5000         1.4036       994.8717         0.8352       -26.9722     -0.3469372              1
      6071.0000          0.861       1067.299         0.8249       -26.9776     -0.3675308              1
      6071.5000         0.8451       1142.995         0.8146       -26.7876     -0.1927261              1
      6072.0000         0.8431       1162.743         0.8141       -26.6926     -0.1129227              1
      6072.5000         0.8489       1182.491         0.8234       -26.7013     -0.1368179              1
      6073.0000         0.9724       1178.651         0.8328       -26.6057    -0.05641365              1
      6073.5000         1.0959       1106.695         0.8421       -26.6144    -0.08031082              1
      6074.0000         1.2194       1034.738         0.8711       -26.6193     -0.1004066              1
      6074.5000         1.3244       962.7817         0.9296       -26.6247     -0.1186752              1
      6075.0000         1.3322       884.0908         0.9979       -26.6302     -0.1241741              1
      6075.5000          1.338       872.3389         1.0171       -26.6368     -0.1307755              1
      6076.0000         1.3418       872.4258         1.0265       -26.7388     -0.2327747              1
      6076.5000         1.3457       876.4012         1.0358       -26.7455     -0.2394753              1
      6077.0000         1.3495       876.5595          1.055       -26.7497     -0.2436752              1
      6077.5000         1.3495       880.5507        -999.25       -26.7551     -0.2490749              1
      6078.0000         1.3474       884.5699        -999.25       -26.7605     -0.2544746              1
      6078.5000         1.3434       892.5214        -999.25        -26.766     -0.2599754              1
      6079.0000         1.3335       900.4731        -999.25       -26.6737      -0.167675              1
