#------------------------------------------------------------------------------
# Created by    : vladimir.rabinovich
# Created on    : 09/19/2023 17:19:42
#------------------------------------------------------------------------------
~Version Information Section
VERS.           2.0     :   CWLS log ASCII Standard - VERSION 2.0
WRAP.           NO      :   One line per depth step
~Well Information Section
#MNEM       .UNIT                                         VALUE :DESCRIPTION
#------------------------------------------------------------------------------
STRT        .FT                                            2198 :START DEPTH
STOP        .FT                                            8738 :STOP DEPTH
STEP        .FT                                             0.5 :STEP      
NULL        .                                           -999.25 :NULL      
COMP        .                             CHAMPLIN PETROLEUM CO :COMPANY   
WELL        .                                     ST TR 00360-S :WELL      
FLD         .                                           WILDCAT :FIELD     
LOC         .                                                   :LOCATION  
CNTY        .                             GALVESTON SMALL BLOCK :LOCATION  
STAT        .                                             TEXAS :STATE     
CTRY        .                                     UNITED STATES :COUNTRY   
SRVC        .                                                   :SERVICE COMPANY
DATE        .                             9/13/2023 11:19:17 AM :LOG DATE  
API         .                                    42605301270000 :API NUMBER
UWI         .                                    42605301270000 :UNIQUE WELL ID
XCOORD      .                                  933135.371219094 :SURFACE X 
YCOORD      .                                  10510129.7662443 :SURFACE Y 
LAT         .                                         28.942863 :LATITUDE  
LON         .                                       -95.2117932 :LONGITUDE 
ELEV        .FT                                              20 :ELEVATION VALUE
ELEV_TYPE   .                                                GL :ELEVATION REFERENCE TYPE
~Curve Information Section
#MNEM       .UNIT                                      API CODE :CURVE DESCRIPTION
#------------------------------------------------------------------------------
DEPT        .FT                                                 :DEPTH     
ASFL        .OHMM                                               :          
CILD        .MMHO                                               :          
ILD         .OHMM                                               :          
SP          .MV                                                 :          
SP_NORM     .MV                                                 :SP Normalized
VSH_SP      .V/V                                                :Volume of Shale from SP
~A        DEPTH           ASFL           CILD            ILD             SP        SP_NORM         VSH_SP
# ...
      7822.0000         0.6447       1772.943         0.5911        22.2128      -2.325151      0.9667835
      7822.5000         0.6492       1738.639         0.5962        22.1067      -2.221039      0.9682709
      7823.0000          0.658       1703.635         0.6012        22.0006      -2.116926      0.9697582
      7823.5000         0.6681       1665.225         0.6063        21.8947       -2.01301      0.9712427
      7824.0000         0.6782       1626.813         0.6113         21.783      -1.903299        0.97281
      7824.5000         0.6945       1587.352         0.6205        21.6638      -1.786083      0.9744845
      7825.0000         0.7114       1546.186         0.6312        21.5447      -1.668972      0.9761575
      7825.5000          0.726       1507.977          0.642        21.4255      -1.551758       0.977832
      7826.0000         0.7401       1470.518         0.6527        21.8916      -2.019844      0.9711451
      7826.5000         0.7533       1436.564         0.6635        22.5339      -2.664129       0.961941
      7827.0000         0.7634       1407.568         0.6741        23.6031      -3.735317      0.9466383
      7827.5000         0.7523       1378.623         0.6842        24.7119      -4.846104      0.9307699
      7828.0000         0.7678       1358.691         0.6943        25.5587      -5.694891      0.9186444
      7828.5000         0.7855       1340.963         0.7044        26.0309      -6.169075      0.9118704
      7829.0000         0.8048       1323.373         0.7148         27.002      -7.142162      0.8979691
      7829.5000         0.8275       1315.824         0.7327        29.0946       -9.23675      0.8680465
      7830.0000         0.8389       1354.734         0.7505        34.7835      -14.92764      0.7867481
      7830.5000         0.8484       1393.646         0.7684        35.1888      -15.33492      0.7809297
      7831.0000         0.8536       1432.557         0.7862        34.0979      -14.24601      0.7964856
      7831.5000         0.8501       1465.408         0.7905        33.1599         -13.31      0.8098572
      7832.0000         0.8445       1496.658         0.7723        32.3087      -12.46078      0.8219888
      7832.5000         0.8307       1515.877         0.7541        31.4573      -11.61137      0.8341233
      7833.0000         0.8117       1526.594          0.736        30.9578      -11.11385      0.8412307
      7833.5000         0.7918       1538.074         0.7178        30.5805      -10.73854      0.8465922
      7834.0000         0.7771       1553.021         0.6996        31.6765      -11.83653      0.8309067
      7834.5000         0.7814       1567.996         0.6831         35.747      -15.90902      0.7727283
      7835.0000         0.7866       1586.199         0.6666        39.5244       -19.6884      0.7187372
      7835.5000         0.7919       1620.152         0.6501        38.8744      -19.04039      0.7279945
      7836.0000         0.7971       1654.105         0.6336        38.1442      -18.31217      0.7383975
      7836.5000         0.8023       1681.523         0.6171        37.4152      -17.58516      0.7487835
      7837.0000         0.8023        1706.84         0.6006        36.7379      -16.90985      0.7584308
      7837.5000         0.8022       1727.021         0.5948        36.2363      -16.41023      0.7655681
      7838.0000         0.8022       1731.928         0.5927        35.7343      -15.91022      0.7727112
      7838.5000          0.802       1703.635         0.5906        36.7844      -16.96231      0.7576814
      7839.0000         0.8015        1675.34         0.5886        37.8956      -18.07549      0.7417787
      7839.5000         0.8019       1647.096         0.5872        39.0668      -19.24868      0.7250189
      7840.0000         0.8038       1607.482         0.5912        38.2474      -18.43126      0.7366962
      7840.5000         0.8057       1564.266         0.5952        37.0864      -17.27225      0.7532536
      7841.0000         0.8164       1521.098         0.5992        35.8591      -16.04694       0.770758
      7841.5000         0.8317       1477.879         0.6032        34.5771      -14.76692       0.789044
      7842.0000         0.8458       1440.971         0.6169         33.295      -13.48681      0.8073313
      7842.5000         0.8389        1408.92         0.6415         31.651       -11.8448      0.8307886
      7843.0000         0.8288       1376.869          0.666        29.7598      -9.955582      0.8577774
      7843.5000          0.817       1352.205         0.6906        29.0717      -9.269468       0.867579
      7844.0000         0.8051           1333         0.7151        28.8059      -9.005655      0.8713478
      7844.5000         0.7834       1313.795         0.7396        28.5858      -8.787542      0.8744637
      7845.0000         0.7605       1296.969         0.7517        28.3653      -8.569027      0.8775854
      7845.5000         0.7596       1281.871         0.7608        27.8087      -8.014416      0.8855084
      7846.0000         0.7782       1266.771         0.7698        26.7165        -6.9242      0.9010829
      7846.5000         0.7968       1251.697         0.7788        25.9812      -6.190887      0.9115587
      7847.0000         0.8016       1259.297         0.7878        25.3911      -5.602774      0.9199604
      7847.5000          0.804       1312.369         0.7969          24.84      -5.053661      0.9278048
      7848.0000         0.8065       1378.271         0.8001        24.4124      -4.628046       0.933885
      7848.5000         0.8086       1444.275          0.792        23.9848      -4.202433      0.9399652
      7849.0000         0.7941       1548.641         0.7839        23.5573       -3.77692       0.946044
      7849.5000         0.7735        1575.27         0.7758        23.1476      -3.369205      0.9518685
      7850.0000         0.7328       1563.162         0.7678        23.0437      -3.267292      0.9533244
      7850.5000         0.6921       1551.043         0.7597        23.1995      -3.425077      0.9510703
      7851.0000         0.6793       1538.938         0.7518        23.3553      -3.582867      0.9488162
      7851.5000         0.6906       1526.818         0.7456        23.5111      -3.740652      0.9465621
      7852.0000         0.7001       1514.711         0.7393        23.6325      -3.864038      0.9447994
      7852.5000         0.7086       1504.984         0.7331        23.7204      -3.953924      0.9435154
      7853.0000         0.7148       1499.807         0.7268        23.7896      -4.025112      0.9424984
      7853.5000         0.7209       1494.631         0.7205        23.6653      -3.902798      0.9442458
      7854.0000          0.726       1489.453         0.7183         23.541      -3.780485      0.9459931
      7854.5000         0.7296       1484.275          0.718        23.4168       -3.65827       0.947739
      7855.0000         0.7333       1486.111         0.7177        23.2925      -3.535955      0.9494864
      7855.5000         0.7344       1490.393         0.7173        23.3331      -3.578543       0.948878
      7856.0000          0.734        1494.68          0.717        23.2954       -3.54283      0.9493881
      7856.5000         0.7335       1499.758         0.7171        23.0134      -3.262815      0.9533883
      7857.0000         0.7331       1506.418         0.7277        22.5543      -2.805702      0.9599186
      7857.5000         0.7317       1513.072         0.7382        22.0943      -2.347689      0.9664616
      7858.0000         0.7286       1519.732         0.7488        21.9389      -2.194275      0.9686532
      7858.5000         0.7255       1526.387         0.7593        22.0532      -2.310562       0.966992
      7859.0000         0.7224       1512.057         0.7699        22.0417      -2.301048      0.9671279
      7859.5000         0.7194       1489.922         0.7804        21.7597      -2.021036       0.971128
