#------------------------------------------------------------------------------
# Created by    : vladimir.rabinovich
# Created on    : 09/19/2023 17:19:43
#------------------------------------------------------------------------------
~Version Information Section
VERS.           2.0     :   CWLS log ASCII Standard - VERSION 2.0
WRAP.           NO      :   One line per depth step
~Well Information Section
#MNEM       .UNIT                                         VALUE :DESCRIPTION
#------------------------------------------------------------------------------
STRT        .FT                                            1596 :START DEPTH
STOP        .FT                                            6079 :STOP DEPTH
STEP        .FT                                             0.5 :STEP      
NULL        .                                           -999.25 :NULL      
COMP        .                                 EOG RESOURCES INC :COMPANY   
WELL        .                                     ST TR 00721-S :WELL      
FLD         .                                  SHERMAN OFFSHORE :FIELD     
LOC         .                                                   :LOCATION  
CNTY        .                      MATAGORDA ISLAND SMALL BLOCK :LOCATION  
STAT        .                                             TEXAS :STATE     
CTRY        .                                     UNITED STATES :COUNTRY   
SRVC        .                                                   :SERVICE COMPANY
DATE        .                             9/13/2023 11:19:17 AM :LOG DATE  
API         .                                    42603300060000 :API NUMBER
UWI         .                                    42603300060000 :UNIQUE WELL ID
XCOORD      .                                  491308.028993428 :SURFACE X 
YCOORD      .                                  10247941.6299489 :SURFACE Y 
LAT         .                                        28.1931224 :LATITUDE  
LON         .                                       -96.5672747 :LONGITUDE 
ELEV        .FT                                              74 :ELEVATION VALUE
ELEV_TYPE   .                                                KB :ELEVATION REFERENCE TYPE
~Curve Information Section
#MNEM       .UNIT                                      API CODE :CURVE DESCRIPTION
#------------------------------------------------------------------------------
DEPT        .FT                                                 :DEPTH     
ASFL        .OHMM                                               :          
CILD        .MMHO                                               :          
ILD         .OHMM                                               :          
SP          .MV                                                 :          
SP_NORM     .MV                                                 :SP Normalized
VSH_SP      .V/V                                                :Volume of Shale from SP
~A        DEPTH           ASFL           CILD            ILD             SP        SP_NORM         VSH_SP
      1596.0000         1.6056        -999.25           1.34         -71.16       1.129158              1
      1596.5000         1.5144        -999.25           1.74         -68.36       1.909401              1
      1597.0000         1.4232        -999.25           2.14          -65.6       2.649643              1
      1597.5000          1.332        -999.25          2.008         -65.28      0.9498825              1
      1598.0000         1.2408        -999.25           1.88            -65     -0.7898788              1
      1598.5000         1.1496        -999.25          1.752          -61.8      0.3903656              1
      1599.0000         1.0584        -999.25          1.624          -58.6       1.570606              1
      1599.5000         0.9672        -999.25          1.496         -55.44        2.71085              1
      1600.0000          0.876        -999.25          1.368         -52.24       3.891087              1
      1600.5000         0.7856        -999.25          1.116         -49.04       5.071327              1
      1601.0000         0.7608        -999.25           1.04         -45.88       6.211567              1
      1601.5000          0.736        -999.25          0.968         -44.96       5.111813              1
      1602.0000          0.712        -999.25         0.9263       -44.9197       3.132351              1
      1602.5000         0.7114        -999.25         0.8771       -45.2992      0.7330933              1
      1603.0000         0.7094       1067.868         0.8082       -45.6787       0.104435              1
      1603.5000         0.6909       1204.777         0.7688       -46.0581     -0.2749672              1
      1604.0000         0.6725       1341.685         0.7453       -46.4376     -0.6544647              1
      1604.5000          0.654       1478.594         0.6763       -46.8171      -1.033966      0.9989386
      1605.0000         0.6355       1615.502          0.619       -47.1966      -1.413467      0.9870791
      1605.5000         0.6208       1773.179          0.564       -47.5761      -1.792965      0.9752198
      1606.0000         0.6149       1784.991         0.5602       -47.7048      -1.921665       0.971198
      1606.5000          0.609       1784.982         0.5602       -47.7031      -1.919964      0.9712511
      1607.0000         0.6051       1761.558         0.5524       -48.0991      -2.315964      0.9588761
      1607.5000         0.6011       1738.135         0.5426       -49.2879      -3.504765      0.9217261
      1608.0000         0.5992       1714.712         0.5229       -49.4217      -3.638565      0.9175448
      1608.5000         0.6012       1690.305          0.523       -49.8804      -4.097267      0.9032104
      1609.0000         0.6031       1694.235         0.5329       -49.8792      -4.096066       0.903248
      1609.5000         0.6175       1721.801         0.5526       -50.2745      -4.491367      0.8908948
      1610.0000         0.6319       1757.247         0.5625       -48.6869      -2.903767      0.9405073
      1610.5000         0.6406       1745.415         0.5724       -48.0908      -2.307667      0.9591354
      1611.0000         0.6367       1725.709         0.5823       -46.1067     -0.3235664              1
      1611.5000         0.6327       1706.002         0.5824        -45.709     0.07413483              1
      1612.0000         0.6268       1686.296          0.593        -45.113      0.6701355              1
      1612.5000          0.619       1666.589            0.6       -45.1119      0.6712341              1
      1613.0000         0.6131       1646.883         0.6072       -45.1107      0.6724358              1
      1613.5000         0.6111       1627.176         0.6146       -44.9114      0.8717346              1
      1614.0000         0.6111        1607.47         0.6221       -44.9102      0.8729362              1
      1614.5000         0.6111       1587.763         0.6298       -45.1074      0.6757355              1
      1615.0000         0.6131           1560          0.641       -45.3045      0.4786339              1
      1615.5000         0.6171       1559.982          0.641       -45.5016      0.2815361              1
      1616.0000         0.6249       1552.091         0.6443       -45.6988     0.08433533              1
      1616.5000         0.6269        1548.12         0.6459       -45.8959     -0.1127663              1
      1617.0000          0.625       1533.586         0.6521       -46.2912     -0.5080643              1
      1617.5000          0.621       1519.052         0.6583       -46.2901     -0.5069656              1
      1618.0000         0.6112       1504.517         0.6647       -46.6854     -0.9022636              1
      1618.5000         0.5974       1489.983         0.6711       -46.8824      -1.099266      0.9968979
      1619.0000         0.5895       1475.449         0.6778       -46.8813      -1.098167      0.9969323
      1619.5000         0.5856       1460.914         0.6845       -46.8801      -1.096966      0.9969698
      1620.0000         0.6526        1446.38         0.6914       -46.8789      -1.095764      0.9970074
      1620.5000         0.6526       1431.846         0.6984       -46.6796     -0.8964653              1
      1621.0000         0.6487       1413.946         0.7072        -46.282      -0.498867              1
      1621.5000         0.6448       1413.936         0.7072       -45.6863     0.09683609              1
      1622.0000         0.6408       1413.916         0.7073        -45.487      0.2961349              1
      1622.5000          0.633       1417.837         0.7053       -45.2877      0.4954338              1
      1623.0000          0.629       1425.699         0.7014       -45.2866      0.4965363              1
      1623.5000         0.6251        1433.56         0.6976       -45.2854      0.4977341              1
      1624.0000         0.6172       1441.422         0.6938       -45.4825      0.3006363              1
      1624.5000         0.6133       1453.224         0.6881       -45.4814      0.3017349              1
      1625.0000         0.6133       1472.908         0.6789       -45.8765    -0.09336472              1
      1625.5000         0.6054        1484.71         0.6735       -46.0736     -0.2904663              1
      1626.0000         0.6015       1496.512         0.6682       -46.2706     -0.4874649              1
      1626.5000         0.6015       1500.443         0.6665       -46.6657     -0.8825645              1
      1627.0000         0.5936       1500.423         0.6665       -46.8627      -1.119316      0.9962714
      1627.5000         0.5897       1496.463         0.6682       -47.0596      -1.368675      0.9884789
      1628.0000         0.5858        1480.67         0.6754       -47.4547      -1.816235      0.9744927
      1628.5000         0.6316       1451.699         0.6888       -47.8498      -2.263798      0.9605063
      1629.0000         0.6429       1422.729         0.7029       -47.8486      -2.315056      0.9589045
      1629.5000         0.6429       1397.855         0.7154       -47.8474      -2.366322      0.9573025
      1630.0000          0.643       1409.657         0.7094       -47.8462       -2.41758      0.9557006
      1630.5000          0.639       1429.341         0.6996       -47.8451      -2.468941      0.9540956
      1631.0000         0.6255       1449.025         0.6901       -47.8439      -2.520203      0.9524937
      1631.5000          0.612       1460.561         0.6847       -43.6822       1.589035              1
      1632.0000         0.5986       1472.639         0.6791        -43.384       1.834774              1
      1632.5000         0.5898       1484.442         0.6737       -43.2839       1.882412              1
      1633.0000           0.58       1508.066         0.6631       -42.7871       2.326748              1
      1633.5000           0.58       1523.809         0.6563       -42.4889       2.572491              1
