#------------------------------------------------------------------------------
# Created by    : vladimir.rabinovich
# Created on    : 09/19/2023 17:20:26
#------------------------------------------------------------------------------
~Version Information Section
VERS.           2.0     :   CWLS log ASCII Standard - VERSION 2.0
WRAP.           NO      :   One line per depth step
~Well Information Section
#MNEM       .UNIT                                         VALUE :DESCRIPTION
#------------------------------------------------------------------------------
STRT        .FT                                             494 :START DEPTH
STOP        .FT                                            8560 :STOP DEPTH
STEP        .FT                                             0.5 :STEP      
NULL        .                                           -999.25 :NULL      
COMP        .                           COLORADO OIL & GAS CORP :COMPANY   
WELL        .                                     ST TR 00122-S :WELL      
FLD         .                                           WILDCAT :FIELD     
LOC         .                                                   :LOCATION  
CNTY        .                           HIGH ISLAND SMALL BLOCK :LOCATION  
STAT        .                                             TEXAS :STATE     
CTRY        .                                     UNITED STATES :COUNTRY   
SRVC        .                                                   :SERVICE COMPANY
DATE        .                             9/13/2023 11:19:17 AM :LOG DATE  
API         .                                    42606300100000 :API NUMBER
UWI         .                                    42606300100000 :UNIQUE WELL ID
XCOORD      .                                  1208966.22079576 :SURFACE X 
YCOORD      .                                  10715303.2202208 :SURFACE Y 
LAT         .                                        29.5185768 :LATITUDE  
LON         .                                       -94.3569047 :LONGITUDE 
ELEV        .FT                                              93 :ELEVATION VALUE
ELEV_TYPE   .                                                KB :ELEVATION REFERENCE TYPE
~Curve Information Section
#MNEM       .UNIT                                      API CODE :CURVE DESCRIPTION
#------------------------------------------------------------------------------
DEPT        .FT                                                 :DEPTH     
ASN         .OHMM                                               :          
CILD        .MMHO                                               :          
GR          .GAPI                                               :          
GR_NORM     .GAPI                                               :GammaRay Normalized
ILD         .OHMM                                               :          
SP          .MV                                                 :          
SP_NORM     .MV                                                 :SP Normalized
VSH_GR      .V/V                                                :Volume of Shale from GR
VSH_SP      .V/V                                                :Volume of Shale from SP
~A        DEPTH            ASN           CILD             GR        GR_NORM            ILD             SP        SP_NORM         VSH_GR         VSH_SP
# ...
      4230.5000         0.9296        1235.16        -999.25        -999.25         0.8789       -68.2675      -5.325245        -999.25       0.930238
      4231.0000         0.9772       1164.441        -999.25        -999.25         0.9072       -67.7826      -4.844143        -999.25      0.9379977
      4231.5000         1.0233       1065.883        -999.25        -999.25         0.9385       -67.3029       -4.36824        -999.25      0.9456735
      4232.0000          1.045       911.9893        -999.25        -999.25         0.9707       -66.8226      -3.891739        -999.25      0.9533591
      4232.5000         1.0629       866.6982        -999.25        -999.25         1.0029       -66.3641      -3.437031        -999.25      0.9606931
      4233.0000         1.0807       828.5693        -999.25        -999.25         1.0302        -65.948      -3.024731        -999.25       0.967343
      4233.5000         1.0961       824.5996        -999.25        -999.25         1.0477       -65.4854      -2.565926        -999.25      0.9747431
      4234.0000         1.1115        834.501        -999.25        -999.25          1.053       -64.9304      -2.014721        -999.25      0.9836335
      4234.5000          1.126       849.6641        -999.25        -999.25         1.0468       -65.0343      -2.122425        -999.25      0.9818963
      4235.0000         1.1377       868.5195        -999.25        -999.25         1.0394       -65.1764      -2.268318        -999.25      0.9795433
      4235.5000         1.1495       897.3926        -999.25        -999.25         1.0171       -65.3185      -2.414215        -999.25      0.9771901
      4236.0000         1.1574       927.1768        -999.25        -999.25         0.9948       -65.8516      -2.951115        -999.25      0.9685304
      4236.5000         1.1646       960.3828        -999.25        -999.25         0.9725       -66.5791      -3.682411        -999.25      0.9567353
      4237.0000         1.1603       996.5176        -999.25        -999.25         0.9479       -68.1549      -5.262009        -999.25      0.9312579
      4237.5000         1.1483       1033.932        -999.25        -999.25         0.9199       -70.3839      -7.494808        -999.25      0.9030626
      4238.0000         1.1363       1070.215        -999.25        -999.25          0.892       -72.1479      -9.262608        -999.25      0.8766775
      4238.5000         1.1135       1098.521        -999.25        -999.25         0.8489       -73.2957       -10.4142        -999.25      0.8594896
      4239.0000         1.0809       1135.643        -999.25        -999.25         0.8118       -72.2771      -9.399395        -999.25      0.8746359
      4239.5000         0.9938       1180.023        -999.25        -999.25         0.7841       -68.3929      -5.518993        -999.25      0.9325523
      4240.0000          0.971        1214.09        -999.25        -999.25         0.7864       -69.6237      -6.753593        -999.25      0.9141254
      4240.5000         0.9634       1216.785        -999.25        -999.25         0.8016        -73.781      -10.91469        -999.25      0.8520196
      4241.0000         0.9603       1201.855        -999.25        -999.25         0.8168       -78.6376      -15.77509        -999.25      0.7794763
      4241.5000         0.9573       1165.105        -999.25        -999.25          0.832       -76.7002      -13.84148        -999.25      0.8083361
      4242.0000         0.9542       1132.418        -999.25        -999.25         0.8498       -74.7627      -11.90778        -999.25      0.8371972
      4242.5000         0.9573       1071.102        -999.25        -999.25         0.8756       -70.9984      -8.147274        -999.25      0.8933243
      4243.0000          0.963        1015.25        -999.25        -999.25         0.9015       -65.8927      -3.045376        -999.25       0.969472
      4243.5000         0.9884       982.0439        -999.25        -999.25         0.9275       -63.6522       -0.80867        -999.25              1
      4244.0000         1.0327       943.3496        -999.25        -999.25         0.9533       -63.0612     -0.2214661        -999.25              1
      4244.5000         1.0698        910.291        -999.25        -999.25         0.9792       -63.4224     -0.5864677        -999.25              1
      4245.0000         1.0929       885.8975        -999.25        -999.25         1.0051       -63.7836     -0.9514618        -999.25              1
      4245.5000           1.11       866.6113        -999.25        -999.25         1.0264       -64.6222      -1.793861        -999.25      0.9881513
      4246.0000         1.1272       872.7656        -999.25        -999.25         1.0475       -65.5707      -2.746159        -999.25      0.9739379
      4246.5000         1.1443        879.707        -999.25        -999.25         1.0603       -66.5182      -3.697456        -999.25      0.9597394
      4247.0000         1.1594       896.2363        -999.25        -999.25          1.056       -67.4657       -4.64875        -999.25       0.945541
      4247.5000         1.1742       917.4912        -999.25        -999.25         1.0518       -69.3599      -6.546749        -999.25      0.9172127
      4248.0000          1.189        941.208        -999.25        -999.25         1.0306       -71.5261      -8.716747        -999.25      0.8848247
      4248.5000         1.2031       962.5488        -999.25        -999.25         1.0019       -73.3529      -10.54734        -999.25      0.8575024
      4249.0000         1.2151       990.0684        -999.25        -999.25         0.9732       -74.8568      -12.05503        -999.25      0.8349995
      4249.5000         1.2271       1016.628        -999.25        -999.25         0.9444       -76.3606      -13.56264        -999.25      0.8124979
      4250.0000         1.1843       1043.162        -999.25        -999.25         0.9073       -79.3535      -16.55933        -999.25      0.7677711
      4250.5000         1.1209       1071.791        -999.25        -999.25         0.8649       -81.6379      -18.84753        -999.25      0.7336189
      4251.0000          1.072       1103.076        -999.25        -999.25         0.8225       -78.7244      -15.93783        -999.25      0.7770473
      4251.5000         0.9352       1145.783        -999.25        -999.25         0.7848       -75.2922      -12.50942        -999.25      0.8282176
      4252.0000         0.8449       1220.957        -999.25        -999.25         0.7486       -71.4634      -8.684425        -999.25      0.8853071
      4252.5000         0.8249       1297.807        -999.25        -999.25         0.7631       -67.6193       -4.84412        -999.25       0.942625
      4253.0000         0.8311       1323.283        -999.25        -999.25          0.782       -67.5525      -4.781116        -999.25      0.9435654
      4253.5000         0.8477       1275.801        -999.25        -999.25         0.8008       -67.4857      -4.718117        -999.25      0.9445057
      4254.0000          0.889       1176.994        -999.25        -999.25         0.8196       -67.4189      -4.655113        -999.25      0.9454461
      4254.5000         0.9285       1135.986        -999.25        -999.25         0.8385       -67.8193      -5.059307        -999.25      0.9394133
      4255.0000         0.9642       1111.826        -999.25        -999.25          0.863       -68.2444      -5.488205        -999.25      0.9330119
      4255.5000         1.0026       1104.863        -999.25        -999.25         0.8884       -69.4558      -6.703407        -999.25      0.9148745
      4256.0000         1.0601       1102.883        -999.25        -999.25         0.8989        -70.778        -8.0294        -999.25      0.8950836
      4256.5000          1.104       1108.023        -999.25        -999.25         0.8831        -72.101      -9.356197        -999.25      0.8752806
