#------------------------------------------------------------------------------
# Created by    : vladimir.rabinovich
# Created on    : 09/19/2023 17:19:43
#------------------------------------------------------------------------------
~Version Information Section
VERS.           2.0     :   CWLS log ASCII Standard - VERSION 2.0
WRAP.           NO      :   One line per depth step
~Well Information Section
#MNEM       .UNIT                                         VALUE :DESCRIPTION
#------------------------------------------------------------------------------
STRT        .FT                                            1596 :START DEPTH
STOP        .FT                                            6079 :STOP DEPTH
STEP        .FT                                             0.5 :STEP      
NULL        .                                           -999.25 :NULL      
COMP        .                                 EOG RESOURCES INC :COMPANY   
WELL        .                                     ST TR 00721-S :WELL      
FLD         .                                  SHERMAN OFFSHORE :FIELD     
LOC         .                                                   :LOCATION  
CNTY        .                      MATAGORDA ISLAND SMALL BLOCK :LOCATION  
STAT        .                                             TEXAS :STATE     
CTRY        .                                     UNITED STATES :COUNTRY   
SRVC        .                                                   :SERVICE COMPANY
DATE        .                             9/13/2023 11:19:17 AM :LOG DATE  
API         .                                    42603300060000 :API NUMBER
UWI         .                                    42603300060000 :UNIQUE WELL ID
XCOORD      .                                  491308.028993428 :SURFACE X 
YCOORD      .                                  10247941.6299489 :SURFACE Y 
LAT         .                                        28.1931224 :LATITUDE  
LON         .                                       -96.5672747 :LONGITUDE 
ELEV        .FT                                              74 :ELEVATION VALUE
ELEV_TYPE   .                                                KB :ELEVATION REFERENCE TYPE
~Curve Information Section
#MNEM       .UNIT                                      API CODE :CURVE DESCRIPTION
#------------------------------------------------------------------------------
DEPT        .FT                                                 :DEPTH     
ASFL        .OHMM                                               :          
CILD        .MMHO                                               :          
ILD         .OHMM                                               :          
SP          .MV                                                 :          
SP_NORM     .MV                                                 :SP Normalized
VSH_SP      .V/V                                                :Volume of Shale from SP
~A        DEPTH           ASFL           CILD            ILD             SP        SP_NORM         VSH_SP
# ...
      2204.0000         1.5495       1001.723          0.986        -52.612      -11.64814      0.7042182
      2204.5000         1.5594       1001.763         0.9861       -53.0063      -12.04245      0.6932654
      2205.0000          1.583       1001.788         0.9763       -53.3019      -12.33804      0.6850544
      2205.5000         1.5771       997.8774         0.9664       -53.9923      -13.02844      0.6658766
      2206.0000         1.5751         997.91         0.9665       -54.2881      -13.32425      0.6576598
      2206.5000         1.5673       997.9427         0.9567       -54.8796      -13.91574      0.6412293
      2207.0000         1.5613       1001.918         0.9469       -55.2738      -14.30994      0.6302793
      2207.5000         1.5515       1005.893         0.9272       -55.5694      -14.60555      0.6220682
      2208.0000         1.5574       1013.811         0.9218       -55.8649      -14.90104      0.6138599
      2208.5000         1.3839       1037.498         0.9076       -55.9631      -14.99924      0.6111321
      2209.0000         1.1139       1065.127         0.8879       -43.3287      -2.364845      0.9620876
      2209.5000         1.0961       1116.411         0.8584       -39.8739       1.089954              1
      2210.0000         0.9079       1167.693         0.8486       -38.8869       2.076954              1
      2210.5000         0.7749       1183.478         0.8388       -38.6892       2.274654              1
      2211.0000          0.767       1191.394         0.8388       -38.0966       2.867256              1
      2211.5000          0.763       1183.541         0.8487       -36.9119       4.051956              1
      2212.0000          0.763       1179.614         0.8487       -36.5164       4.447456              1
      2212.5000          0.767       1161.527         0.8586       -36.7849       4.178955              1
      2213.0000         0.7729       1143.441         0.8587       -37.0534       3.910458              1
      2213.5000         0.7749       1125.354         0.8686       -37.3218       3.642056              1
      2214.0000         0.7709       1107.267         0.8686       -37.5903       3.373554              1
      2214.5000          0.767       1097.002         0.8687       -37.6992       3.264656              1
      2215.0000         0.7611       1093.091         0.8687       -37.8962       3.067657              1
      2215.5000         0.7512       1093.122         0.8688       -38.8827       2.081154              1
      2216.0000         0.7493       1101.038         0.8688        -39.277       1.686855              1
      2216.5000         0.7355       1108.954          0.859        -39.474       1.489857              1
      2217.0000         0.7296        1116.87          0.859       -39.8685       1.095356              1
      2217.5000         0.7158       1132.669         0.8492       -40.8548      0.1090546              1
      2218.0000         0.7079       1140.585         0.8394       -41.5451     -0.5812454              1
      2218.5000          0.704       1164.268         0.8296       -42.4328      -1.468945      0.9869738
      2219.0000         0.6981        1187.95         0.8198       -43.3205      -2.356644      0.9623154
      2219.5000         0.6981       1203.733         0.8198       -43.5174      -2.553543       0.956846
      2220.0000            0.7       1239.256           0.81        -43.221      -2.257145      0.9650793
      2220.5000          0.704       1258.995           0.81       -43.0232      -2.059345      0.9705737
      2221.0000          0.706       1282.676         0.8101       -42.8254      -1.861546      0.9760682
      2221.5000         0.7138       1282.707         0.8101       -42.7078      -1.743946      0.9793348
      2222.0000         0.7217       1278.796           0.82       -42.6272      -1.663345      0.9815738
      2222.5000         0.7316       1286.709         0.8299       -42.3308      -1.366943      0.9898071
      2223.0000         0.7336       1267.016         0.8398        -42.133      -1.169144      0.9953015
      2223.5000         0.7499       1232.158         0.8596       -41.9353     -0.9714432              1
      2224.0000         0.7662       1197.299         0.8793       -41.8771     -0.9132462              1
      2224.5000         0.7825        1162.44         0.8892       -41.8358     -0.8719444              1
      2225.0000         0.7988       1127.581          0.909       -41.5394     -0.5755424              1
      2225.5000         0.8144       1092.722         0.9386       -41.2429     -0.2790451              1
      2226.0000         0.8416       1057.864         0.9682       -40.9465     0.01735687              1
      2226.5000         0.8688       1023.005         0.9775       -38.7753       2.188557              1
      2227.0000          0.896       988.1459          1.012       -38.0845       2.879356              1
      2227.5000         0.9232       953.2871          1.049       -37.8868       3.077057              1
      2228.0000         0.9504       918.4282         1.0888       -37.8864       3.077457              1
      2228.5000         0.9776       883.5694         1.1318        -37.886       3.077854              1
      2229.0000         1.0095       837.8177         1.1936       -38.2803       2.683556              1
      2229.5000         1.0174       763.0632         1.3105       -38.2799       2.683956              1
      2230.0000         1.3129       693.1706         1.4426       -38.8714       2.092457              1
      2230.5000         1.7189        623.278         1.6044        -39.463       1.500854              1
      2231.0000         2.8012       546.3082         1.8305       -40.4492      0.5146561              1
      2231.5000         2.7913       546.3262         1.8304       -51.3189      -10.35505      0.7401376
      2232.0000         2.7421       550.2853         1.8172       -56.1707      -15.20684      0.6053655
      2232.5000         2.7027       834.4943         1.1983       -61.0225      -20.05864      0.4705932
      2233.0000         1.5176       1118.703         0.8939       -65.8743      -24.91044       0.335821
      2233.5000         1.2965       1402.912         0.7128       -70.7261      -29.76224      0.2010489
      2234.0000         1.0529       1687.121         0.6241        -74.284      -33.32014      0.1022183
      2234.5000          1.045        1971.33         0.5847       -74.9738      -34.00994     0.08305708
      2235.0000         1.0016       2386.945         0.5355       -75.4663      -34.50245     0.06937652
      2235.5000         0.9957       2390.897         0.5059       -76.1561      -35.19224     0.05021551
      2236.0000         0.9839       2566.199         0.4764       -76.8458      -35.88195     0.03105704
      2236.5000         0.9721       2741.502         0.4568       -77.3383      -36.37445     0.01737648
      2237.0000         0.9603       2916.804          0.447       -77.4365      -36.47264     0.01464876
      2237.5000         0.9426       3009.659          0.447       -76.6693      -35.70544     0.03595999
      2238.0000         0.9307       3017.558          0.447        -75.902      -34.93814     0.05727376
      2238.5000         0.9209       3025.457         0.4471       -75.1348      -34.17095     0.07858478
      2239.0000          0.911       3025.466          0.457       -74.3675      -33.40364     0.09989876
      2239.5000         0.9032       2894.825          0.457       -73.6841      -32.72024      0.1188822
      2240.0000         0.8973       2764.185         0.4768       -73.7823      -32.81845      0.1161542
      2240.5000         1.0233       2633.544         0.4867       -74.8157      -33.85184     0.08744887
      2241.0000         1.0049       2502.904         0.4867       -75.8491      -34.88524     0.05874326
      2241.5000         0.9864       2422.677         0.4868       -76.8374      -35.87355     0.03129037
