#------------------------------------------------------------------------------
# Created by    : vladimir.rabinovich
# Created on    : 09/19/2023 17:20:26
#------------------------------------------------------------------------------
~Version Information Section
VERS.           2.0     :   CWLS log ASCII Standard - VERSION 2.0
WRAP.           NO      :   One line per depth step
~Well Information Section
#MNEM       .UNIT                                         VALUE :DESCRIPTION
#------------------------------------------------------------------------------
STRT        .FT                                             494 :START DEPTH
STOP        .FT                                            8560 :STOP DEPTH
STEP        .FT                                             0.5 :STEP      
NULL        .                                           -999.25 :NULL      
COMP        .                           COLORADO OIL & GAS CORP :COMPANY   
WELL        .                                     ST TR 00122-S :WELL      
FLD         .                                           WILDCAT :FIELD     
LOC         .                                                   :LOCATION  
CNTY        .                           HIGH ISLAND SMALL BLOCK :LOCATION  
STAT        .                                             TEXAS :STATE     
CTRY        .                                     UNITED STATES :COUNTRY   
SRVC        .                                                   :SERVICE COMPANY
DATE        .                             9/13/2023 11:19:17 AM :LOG DATE  
API         .                                    42606300100000 :API NUMBER
UWI         .                                    42606300100000 :UNIQUE WELL ID
XCOORD      .                                  1208966.22079576 :SURFACE X 
YCOORD      .                                  10715303.2202208 :SURFACE Y 
LAT         .                                        29.5185768 :LATITUDE  
LON         .                                       -94.3569047 :LONGITUDE 
ELEV        .FT                                              93 :ELEVATION VALUE
ELEV_TYPE   .                                                KB :ELEVATION REFERENCE TYPE
~Curve Information Section
#MNEM       .UNIT                                      API CODE :CURVE DESCRIPTION
#------------------------------------------------------------------------------
DEPT        .FT                                                 :DEPTH     
ASN         .OHMM                                               :          
CILD        .MMHO                                               :          
GR          .GAPI                                               :          
GR_NORM     .GAPI                                               :GammaRay Normalized
ILD         .OHMM                                               :          
SP          .MV                                                 :          
SP_NORM     .MV                                                 :SP Normalized
VSH_GR      .V/V                                                :Volume of Shale from GR
VSH_SP      .V/V                                                :Volume of Shale from SP
~A        DEPTH            ASN           CILD             GR        GR_NORM            ILD             SP        SP_NORM         VSH_GR         VSH_SP
# ...
      2640.5000         0.7267       1257.908        -999.25        -999.25         0.6755       -85.4313       -1.79493        -999.25      0.9819334
      2641.0000         0.7292       1367.256        -999.25        -999.25         0.6509       -86.5388      -2.902435        -999.25      0.9567629
      2641.5000         0.7332       1482.527        -999.25        -999.25         0.6391       -87.6575      -4.021133        -999.25      0.9313379
      2642.0000         0.7403       1535.549        -999.25        -999.25         0.6273       -88.7841      -5.147736        -999.25      0.9057333
      2642.5000         0.7475       1568.291        -999.25        -999.25         0.6155        -89.911      -6.274635        -999.25      0.8801219
      2643.0000          0.757       1596.961        -999.25        -999.25         0.6037       -91.2977      -7.661331        -999.25      0.8486061
      2643.5000         0.7706       1625.619        -999.25        -999.25         0.5919       -92.8385      -9.202133        -999.25      0.8135879
      2644.0000         0.7842       1651.646        -999.25        -999.25         0.5925       -94.3792      -10.74284        -999.25      0.7785719
      2644.5000         0.7978       1672.504        -999.25        -999.25         0.5932       -96.0612      -12.42484        -999.25      0.7403446
      2645.0000         0.8083       1643.502        -999.25        -999.25         0.5938       -97.9479      -14.31153        -999.25      0.6974652
      2645.5000         0.8189       1614.498        -999.25        -999.25         0.5945       -99.8807      -16.24433        -999.25      0.6535379
      2646.0000         0.8294       1592.086        -999.25        -999.25         0.5952      -101.8717      -18.23533        -999.25       0.608288
      2646.5000         0.8278       1570.586        -999.25        -999.25         0.5964      -102.5542      -18.91783        -999.25      0.5927765
      2647.0000         0.7901       1549.074        -999.25        -999.25         0.5992      -103.0787      -19.44233        -999.25      0.5808561
      2647.5000         0.7524       1525.193        -999.25        -999.25          0.602      -101.9705      -18.33413        -999.25      0.6060425
      2648.0000          0.717       1500.201        -999.25        -999.25         0.6048      -100.6022      -16.96584        -999.25      0.6371401
      2648.5000          0.711       1474.912        -999.25        -999.25         0.6077       -91.2441      -7.607735        -999.25      0.8498242
      2649.0000          0.709       1449.736        -999.25        -999.25         0.6105       -86.0808      -2.444435        -999.25      0.9671719
      2649.5000         0.7112       1462.373        -999.25        -999.25         0.6133       -85.4642      -1.827835        -999.25      0.9811856
      2650.0000         0.7134       1544.754        -999.25        -999.25         0.6163       -84.8479      -1.211533        -999.25      0.9951925
      2650.5000         0.7156       1609.586        -999.25        -999.25         0.6196       -84.5986     -0.9622345        -999.25              1
      2651.0000         0.7199       1670.859        -999.25        -999.25         0.6229       -87.0463      -3.409935        -999.25      0.9452288
      2651.5000         0.7243       1723.652        -999.25        -999.25         0.6262       -89.4829      -5.846535        -999.25      0.8898515
      2652.0000         0.7288       1755.123        -999.25        -999.25         0.6295       -91.5966      -7.960236        -999.25      0.8418128
      2652.5000         0.7332       1726.568        -999.25        -999.25         0.6327       -93.6697      -10.03333        -999.25       0.794697
      2653.0000         0.7377        1691.91        -999.25        -999.25          0.636       -95.7723      -12.13593        -999.25      0.7469106
      2653.5000         0.7523       1663.762        -999.25        -999.25         0.6393       -98.6818      -15.04543        -999.25      0.6807856
      2654.0000         0.7696       1632.291        -999.25        -999.25         0.6426       -99.6302      -15.99384        -999.25       0.659231
      2654.5000         0.7907       1608.127        -999.25        -999.25         0.6431       -100.725      -17.08863        -999.25      0.6343493
      2655.0000         0.8169       1588.094        -999.25        -999.25         0.6436      -102.4077      -18.77133        -999.25      0.5961061
      2655.5000         0.8704       1570.844        -999.25        -999.25         0.6441      -104.1653      -20.52893        -999.25      0.5561607
      2656.0000         0.9321       1550.578        -999.25        -999.25         0.6446      -105.9303      -22.29393        -999.25      0.5160471
      2656.5000         0.9214       1541.238        -999.25        -999.25         0.6451      -107.1462      -23.50983        -999.25      0.4884129
      2657.0000         0.8727       1536.471        -999.25        -999.25         0.6457      -108.1543      -24.51793        -999.25      0.4655016
      2657.5000         0.8219       1532.471        -999.25        -999.25         0.6462      -107.6996      -24.06323        -999.25      0.4758356
      2658.0000          0.799       1526.965        -999.25        -999.25         0.6447      -106.9869      -23.35053        -999.25      0.4920334
      2658.5000         0.7952       1520.186        -999.25        -999.25         0.6424      -106.1292      -22.49284        -999.25      0.5115265
      2659.0000         0.7982       1508.814        -999.25        -999.25         0.6402      -105.2632      -21.62683        -999.25      0.5312084
      2659.5000         0.8013       1489.451        -999.25        -999.25         0.6379      -104.3978      -20.76143        -999.25      0.5508766
      2660.0000         0.8053        1453.32        -999.25        -999.25         0.6356       -103.532      -19.89563        -999.25      0.5705538
      2660.5000         0.8094       1401.779        -999.25        -999.25         0.6333      -102.7108      -19.07443        -999.25      0.5892174
      2661.0000         0.8135       1377.486        -999.25        -999.25         0.6311      -102.1176      -18.48123        -999.25      0.6026993
      2661.5000         0.8176       1403.178        -999.25        -999.25         0.6288      -101.5645      -17.92813        -999.25      0.6152697
      2662.0000         0.8217       1429.107        -999.25        -999.25         0.6265      -100.5635      -16.92713        -999.25      0.6380197
      2662.5000         0.8258       1470.559        -999.25        -999.25         0.6077      -100.3967      -16.76033        -999.25      0.6418107
      2663.0000         0.8305       1505.658        -999.25        -999.25         0.5888      -100.9493      -17.31293        -999.25      0.6292515
      2663.5000          0.836       1527.555        -999.25        -999.25           0.57      -101.8344      -18.19803        -999.25      0.6091357
      2664.0000         0.8415       1546.576        -999.25        -999.25         0.5524      -103.2543      -19.61794        -999.25      0.5768651
      2664.5000          0.847       1564.223        -999.25        -999.25         0.5389      -104.6737      -21.03733        -999.25      0.5446061
      2665.0000         0.8559       1584.844        -999.25        -999.25         0.5253      -106.0936      -22.45723        -999.25      0.5123357
      2665.5000         0.8737       1607.391        -999.25        -999.25         0.5118      -107.5411      -23.90473        -999.25      0.4794379
      2666.0000         0.8944       1666.104        -999.25        -999.25         0.4982      -108.9893      -25.35294        -999.25      0.4465242
      2666.5000         0.9554         1850.1        -999.25        -999.25         0.4737      -110.4373      -26.80093        -999.25      0.4136151
