#------------------------------------------------------------------------------
# Created by    : vladimir.rabinovich
# Created on    : 09/19/2023 17:19:43
#------------------------------------------------------------------------------
~Version Information Section
VERS.           2.0     :   CWLS log ASCII Standard - VERSION 2.0
WRAP.           NO      :   One line per depth step
~Well Information Section
#MNEM       .UNIT                                         VALUE :DESCRIPTION
#------------------------------------------------------------------------------
STRT        .FT                                            1596 :START DEPTH
STOP        .FT                                            6079 :STOP DEPTH
STEP        .FT                                             0.5 :STEP      
NULL        .                                           -999.25 :NULL      
COMP        .                                 EOG RESOURCES INC :COMPANY   
WELL        .                                     ST TR 00721-S :WELL      
FLD         .                                  SHERMAN OFFSHORE :FIELD     
LOC         .                                                   :LOCATION  
CNTY        .                      MATAGORDA ISLAND SMALL BLOCK :LOCATION  
STAT        .                                             TEXAS :STATE     
CTRY        .                                     UNITED STATES :COUNTRY   
SRVC        .                                                   :SERVICE COMPANY
DATE        .                             9/13/2023 11:19:17 AM :LOG DATE  
API         .                                    42603300060000 :API NUMBER
UWI         .                                    42603300060000 :UNIQUE WELL ID
XCOORD      .                                  491308.028993428 :SURFACE X 
YCOORD      .                                  10247941.6299489 :SURFACE Y 
LAT         .                                        28.1931224 :LATITUDE  
LON         .                                       -96.5672747 :LONGITUDE 
ELEV        .FT                                              74 :ELEVATION VALUE
ELEV_TYPE   .                                                KB :ELEVATION REFERENCE TYPE
~Curve Information Section
#MNEM       .UNIT                                      API CODE :CURVE DESCRIPTION
#------------------------------------------------------------------------------
DEPT        .FT                                                 :DEPTH     
ASFL        .OHMM                                               :          
CILD        .MMHO                                               :          
ILD         .OHMM                                               :          
SP          .MV                                                 :          
SP_NORM     .MV                                                 :SP Normalized
VSH_SP      .V/V                                                :Volume of Shale from SP
~A        DEPTH           ASFL           CILD            ILD             SP        SP_NORM         VSH_SP
# ...
      2470.0000         1.2594       840.5587         1.2712       -36.9675       2.435303              1
      2470.5000         1.3153       799.7356          1.281       -38.2523        1.14587              1
      2471.0000         1.3712       758.9125         1.4646       -39.8336     -0.4400558              1
      2471.5000          1.427       718.0894         1.4683       -41.1183      -1.729389      0.9812977
      2472.0000         1.4829       677.2663         1.5923       -42.1066      -2.722317       0.955838
      2472.5000         1.5452       636.4433         1.7164       -42.8971      -3.517445      0.9354501
      2473.0000         1.7064       595.6202         1.8404       -51.9488      -12.57377      0.7032366
      2473.5000         1.7876       554.7971         1.9645       -54.7023      -15.33191      0.6325153
      2474.0000         2.0399        513.974         2.0886       -57.5247      -18.15893      0.5600274
      2474.5000         2.1877       473.1509         2.2126        -58.661      -19.29986      0.5307729
      2475.0000         2.2469       451.3599         2.3367       -59.7973      -20.44079      0.5015182
      2475.5000         2.4538       431.6141         2.4607       -60.9336      -21.58172      0.4722636
      2476.0000         2.6706       407.9075         2.5848       -62.0698      -22.72255      0.4430116
      2476.5000         2.7495       399.9867         2.7088       -63.2061      -23.86348       0.413757
      2477.0000         2.7791       384.1633         2.8329       -64.3424      -25.00441      0.3845024
      2477.5000         2.7791       399.9123         2.9762        -65.232      -25.89864      0.3615734
      2478.0000         2.7594       467.4746          2.986        -66.319      -26.99026      0.3335829
      2478.5000         2.7397       535.0369         2.9762       -67.1094      -27.78529      0.3131977
      2479.0000         1.7916       602.5992         2.9664       -68.3099      -28.99042      0.2822969
      2479.5000         1.5768       670.1615         1.4922       -69.5105      -30.19565      0.2513936
      2480.0000         1.1018       737.7237         1.3555        -70.711      -31.40078      0.2204929
      2480.5000         0.9185       1217.308         0.8215       -62.3639      -23.05831      0.4344024
      2481.0000         0.9146       1341.817         0.7453       -62.3636      -23.06264      0.4342914
      2481.5000         0.9263       1619.995         0.6173       -64.8944      -25.59807      0.3692803
      2482.0000         0.9379       1898.157         0.4731       -67.4253      -28.13359      0.3042668
      2482.5000         0.9496       2176.326         0.4731       -69.9561      -30.66903      0.2392558
      2483.0000         0.9613        2477.02         0.4829        -72.487      -33.20455      0.1742423
      2483.5000          0.973       2488.833         0.4928       -75.1111      -35.83328      0.1068389
      2484.0000         0.9875       2567.649         0.5026       -75.4074      -36.13421     0.09912276
      2484.5000         0.9111        2599.16         0.5322        -75.407      -36.13844     0.09901448
      2485.0000         0.7293       2599.146         0.5519        -70.465      -31.20107      0.2256137
      2485.5000         0.7123       2396.429         0.5716       -70.5636      -31.30429      0.2229668
      2486.0000         0.7017       2193.711         0.5913       -61.1169      -21.86223      0.4650711
      2486.5000         0.6978       1990.993         0.6111       -51.6703      -12.42025       0.707173
      2487.0000         0.6938       1788.275         0.6308       -42.2236      -2.978184      0.9492773
      2487.5000         0.6899       1546.378         0.6702       -36.9612       2.279587              1
      2488.0000         0.6899       1526.667         0.6801       -36.5658       2.670357              1
      2488.5000          0.686       1314.151         0.7392       -35.9725       3.259029              1
      2489.0000          0.686       1187.545         0.7885       -35.8736       3.353302              1
      2489.5000         0.7469       1144.146         0.8279       -35.4781       3.744171              1
      2490.0000         0.8079       1057.363         0.8476       -35.3792       3.838444              1
      2490.5000         0.8688        1010.02         0.9166       -35.1812       4.031815              1
      2491.0000         0.9298       974.5037         0.9856       -35.0822       4.126186              1
      2491.5000         0.9679        962.642         1.0388       -34.9832       4.220554              1
      2492.0000            1.1       962.6075         1.0388        -34.983       4.216125              1
      2492.5000         1.1039       1035.017         0.9662       -34.9829       4.211597              1
      2493.0000         1.1039       1107.426          0.903       -42.3197      -3.129829       0.945389
      2493.5000          1.032        1214.81         0.8232       -49.6564      -10.47116      0.7571498
      2494.0000         0.9601       1414.389          0.707       -56.9932      -17.81259       0.568908
      2494.5000         0.8882       1613.968         0.6196       -64.3299      -25.15392      0.3806687
      2495.0000         0.8339       1813.547         0.5514       -74.4107      -35.23935      0.1220681
      2495.5000          0.822       2013.126         0.5027       -74.5093      -35.34258      0.1194212
      2496.0000         0.8181       2212.706         0.4928       -74.7066       -35.5445      0.1142435
      2496.5000         0.8181       2412.285         0.4928       -74.6074      -35.44993      0.1166684
      2497.0000         0.8181       2611.864         0.4928       -74.3106      -35.15776      0.1241599
      2497.5000         0.8181       2799.538          0.483       -74.1126      -34.96439      0.1291181
      2498.0000         0.8457       2803.455          0.483       -73.6182      -34.47462      0.1416764
      2498.5000         1.1749         2799.5          0.483       -73.2226      -34.08365      0.1517012
      2499.0000         1.1816           2693          0.483       -73.0246      -33.89027      0.1566596
      2499.5000         1.1907         2586.5         0.4731        -73.123      -33.99331      0.1540177
      2500.0000         1.1907           2480         0.4731       -73.7156      -34.59053      0.1387043
      2500.5000         1.1298       2290.835         0.4593        -75.563      -36.44257     0.09121616
      2501.0000         0.9581       2294.799         0.4436       -77.4895       -38.3737     0.04170012
      2501.5000         0.9029       2302.727         0.4436        -77.669      -38.55782     0.03697889
      2502.0000         0.8753       2640.463         0.4337       -77.9658      -38.85925     0.02925002
      2502.5000         0.8713       2729.451         0.4238       -78.1638      -39.06189     0.02405421
      2503.0000         0.8595       2818.438          0.414       -78.3618      -39.26451     0.01885869
      2503.5000         0.8398       2907.426         0.4041       -78.5599      -39.46724     0.01366063
      2504.0000         0.8398       2996.413         0.3943       -78.7579      -39.66986    0.008465009
      2504.5000         0.8358       3085.401         0.3943       -78.8571       -39.7737    0.005802643
      2505.0000         0.8472       3174.388         0.3844       -78.9563      -39.87753    0.003140376
      2505.5000         0.8488       3263.376         0.3745       -79.0885      -40.01435              0
      2506.0000         0.8496       3352.364         0.3745       -79.2537      -40.18419              0
      2506.5000         0.7983        3434.63         0.3745       -79.3529      -40.28801              0
      2507.0000         0.7924       3466.204         0.3745       -79.3533      -40.29305              0
      2507.5000         0.7924        3470.18         0.3844       -79.3537      -40.29807              0
