#------------------------------------------------------------------------------
# Created by    : vladimir.rabinovich
# Created on    : 09/19/2023 17:20:24
#------------------------------------------------------------------------------
~Version Information Section
VERS.           2.0     :   CWLS log ASCII Standard - VERSION 2.0
WRAP.           NO      :   One line per depth step
~Well Information Section
#MNEM       .UNIT                                         VALUE :DESCRIPTION
#------------------------------------------------------------------------------
STRT        .FT                                            3071 :START DEPTH
STOP        .FT                                           14991 :STOP DEPTH
STEP        .FT                                             0.5 :STEP      
NULL        .                                           -999.25 :NULL      
COMP        .                                        TEXACO USA :COMPANY   
WELL        .                                     ST TR 00012-L :WELL      
FLD         .                                           WILDCAT :FIELD     
LOC         .                                                   :LOCATION  
CNTY        .                           HIGH ISLAND LARGE BLOCK :LOCATION  
STAT        .                                             TEXAS :STATE     
CTRY        .                                     UNITED STATES :COUNTRY   
SRVC        .                                                   :SERVICE COMPANY
DATE        .                             9/13/2023 11:19:15 AM :LOG DATE  
API         .                                    42708000680000 :API NUMBER
UWI         .                                    42708000680000 :UNIQUE WELL ID
XCOORD      .                                  1354682.00685938 :SURFACE X 
YCOORD      .                                  10733491.7088446 :SURFACE Y 
LAT         .                                        29.5724948 :LATITUDE  
LON         .                                       -93.8991324 :LONGITUDE 
ELEV        .FT                                              44 :ELEVATION VALUE
ELEV_TYPE   .                                                KB :ELEVATION REFERENCE TYPE
~Curve Information Section
#MNEM       .UNIT                                      API CODE :CURVE DESCRIPTION
#------------------------------------------------------------------------------
DEPT        .FT                                                 :DEPTH     
ASN         .OHMM                                               :          
CILD        .MMHO                                               :          
ILD         .OHMM                                               :          
SP          .MV                                                 :          
SP_NORM     .MV                                                 :SP Normalized
VSH_SP      .V/V                                                :Volume of Shale from SP
~A        DEPTH            ASN           CILD            ILD             SP        SP_NORM         VSH_SP
# ...
     14167.0000         0.7652       1640.813         0.7284       -41.8864      -1.703014      0.9890154
     14167.5000         0.7649       1645.266         0.7271       -41.8259      -1.636604      0.9900531
     14168.0000         0.7645       1649.721         0.7258       -41.7655      -1.570286      0.9910893
     14168.5000         0.7642       1655.457         0.7244        -41.705      -1.503876      0.9921269
     14169.0000         0.7638       1662.045         0.7231       -41.6446      -1.437557      0.9931632
     14169.5000         0.7635       1668.645         0.7218       -41.5841      -1.371143      0.9942009
     14170.0000         0.7631       1665.809         0.7205       -41.5238      -1.304932      0.9952354
     14170.5000         0.7657       1653.125         0.7192       -41.4634      -1.238617      0.9962716
     14171.0000         0.7683       1640.443         0.7179       -41.4067      -1.176003        0.99725
     14171.5000          0.771        1627.76         0.7165        -41.356      -1.119385      0.9981346
     14172.0000         0.7737       1615.078         0.7152       -41.3055      -1.062973       0.999016
     14172.5000         0.7763       1602.395         0.7139       -41.2548      -1.006359      0.9999006
     14173.0000          0.779       1593.129         0.7126       -41.2043     -0.9499435              1
     14173.5000         0.7812       1589.342         0.7113       -41.1536     -0.8933296              1
     14174.0000         0.7807       1585.541           0.71       -41.1029     -0.8367195              1
     14174.5000         0.7802       1584.494         0.7087       -41.0524     -0.7803001              1
     14175.0000         0.7797       1591.537         0.7073       -41.0017       -0.72369              1
     14175.5000         0.7792       1598.582          0.706       -40.9512     -0.6672707              1
     14176.0000         0.7787       1605.615         0.7045       -40.9005     -0.6106606              1
     14176.5000         0.7782       1612.658          0.702       -40.8498     -0.5540466              1
     14177.0000         0.7777       1619.703         0.6995       -40.7993     -0.4976311              1
     14177.5000         0.7772       1626.748         0.6969       -40.7485      -0.440918              1
     14178.0000         0.7759       1633.793         0.6944        -40.698     -0.3845024              1
     14178.5000         0.7747       1640.838          0.697       -40.6816     -0.3621864              1
     14179.0000         0.7734       1647.869         0.7062       -40.6704     -0.3450737              1
     14179.5000         0.7722       1657.689         0.7153       -40.6591      -0.327858              1
     14180.0000          0.771       1668.547         0.7244       -40.6479     -0.3107452              1
     14180.5000         0.7697       1640.492         0.7339       -40.6367     -0.2936287              1
     14181.0000         0.7692       1611.969         0.7438       -40.6254     -0.2764168              1
     14181.5000         0.7757       1583.445         0.7537       -40.6141     -0.2592049              1
     14182.0000         0.7822        1554.92         0.7636       -40.6029     -0.2420883              1
     14182.5000         0.7888       1529.309         0.7735       -41.0635     -0.6967735              1
     14183.0000         0.7953       1504.387         0.7834       -41.6215      -1.248856      0.9961116
     14183.5000         0.8018       1479.416         0.7933       -42.1795      -1.800945      0.9874852
     14184.0000         0.8084       1454.496         0.8033       -42.7375      -2.353031      0.9788589
     14184.5000         0.8149       1432.438         0.8131       -43.2956      -2.905216       0.970231
     14185.0000         0.8214       1414.227         0.8144       -43.5994      -3.203102      0.9655765
     14185.5000          0.828       1415.215         0.8128       -43.8629      -3.460686      0.9615518
     14186.0000         0.8341        1426.07         0.8113       -44.1271      -3.718975       0.957516
     14186.5000         0.8379       1436.928         0.8097       -44.3906      -3.976559      0.9534913
     14187.0000         0.8417       1447.785         0.8082       -44.6541      -4.234142      0.9494665
     14187.5000         0.8456        1458.58         0.8067       -44.9183      -4.492432      0.9454308
     14188.0000         0.8466       1462.256         0.8051       -45.1818      -4.750015       0.941406
     14188.5000          0.844       1465.932         0.8036       -45.4459      -5.008202      0.9373719
     14189.0000         0.8415       1469.609          0.802       -45.7094      -5.265789       0.933347
     14189.5000         0.8389       1473.285         0.8005       -45.7336      -5.284073      0.9330614
     14190.0000         0.8364       1476.961         0.7993       -45.5867       -5.13126      0.9354491
     14190.5000         0.8338       1480.639         0.7986       -45.4397      -4.978348      0.9378383
     14191.0000         0.8313       1484.326         0.7978       -45.2928      -4.825531      0.9402261
     14191.5000         0.8287       1488.004         0.7971       -45.1458      -4.672619      0.9426153
     14192.0000         0.8261        1491.68         0.7964       -44.9985      -4.519402      0.9450094
     14192.5000         0.8236       1495.357         0.7957       -44.8516      -4.366589      0.9473971
     14193.0000          0.821       1499.033          0.795       -44.7047      -4.213776      0.9497848
     14193.5000         0.8185       1502.709         0.7942       -44.4818      -3.984959        0.95336
     14194.0000         0.8159       1506.387         0.7935       -44.2548      -3.752045      0.9569993
     14194.5000         0.8146       1510.074         0.7928       -44.0279       -3.51923       0.960637
     14195.0000         0.8138       1513.764         0.7921       -43.8016      -3.287018      0.9642653
     14195.5000         0.8129        1518.02         0.7913       -43.5746      -3.054104      0.9679046
     14196.0000         0.8121       1522.289         0.7906       -43.3477      -2.821285      0.9715424
     14196.5000         0.8112       1526.545         0.7899       -43.1207      -2.588375      0.9751816
     14197.0000         0.8104       1530.814         0.7892       -42.8944      -2.356159        0.97881
     14197.5000         0.8095        1535.07         0.7884       -42.6675      -2.123344      0.9824477
     14198.0000         0.8087        1539.34         0.7877       -42.4406      -1.890533      0.9860854
     14198.5000         0.8078       1543.596         0.7864       -42.2142      -1.658215      0.9897154
     14199.0000          0.807       1547.863          0.785       -41.9873      -1.425404      0.9933531
     14199.5000         0.8061       1552.121         0.7836       -41.7604      -1.192585      0.9969909
     14200.0000         0.8053       1556.389         0.7821       -41.5341     -0.9603729              1
     14200.5000         0.8044       1560.645         0.7807       -41.3071      -0.727459              1
     14201.0000         0.8036       1560.713         0.7793       -41.3082     -0.7226448              1
     14201.5000         0.8027       1557.406         0.7779       -41.3712     -0.7797318              1
     14202.0000         0.8019       1554.107         0.7764       -41.4339     -0.8365135              1
     14202.5000         0.8012       1550.807          0.775       -41.4969     -0.8936005              1
     14203.0000         0.8036       1544.213         0.7736       -41.5596     -0.9503899              1
     14203.5000         0.8061        1524.57         0.7722       -41.6226      -1.007473      0.9998832
     14204.0000         0.8085        1504.93         0.7707       -41.6854      -1.064358      0.9989944
     14204.5000         0.8109       1485.338         0.7693       -41.7483      -1.121342       0.998104
