#------------------------------------------------------------------------------
# Created by    : vladimir.rabinovich
# Created on    : 09/19/2023 17:21:24
#------------------------------------------------------------------------------
~Version Information Section
VERS.           2.0     :   CWLS log ASCII Standard - VERSION 2.0
WRAP.           NO      :   One line per depth step
~Well Information Section
#MNEM       .UNIT                                         VALUE :DESCRIPTION
#------------------------------------------------------------------------------
STRT        .FT                                            4000 :START DEPTH
STOP        .FT                                            8085 :STOP DEPTH
STEP        .FT                                             0.5 :STEP      
NULL        .                                           -999.25 :NULL      
COMP        .                             WALTER OIL & GAS CORP :COMPANY   
WELL        .                               OCS G09047 ST00BP00 :WELL      
FLD         .                              GALVESTON BLOCK 0351 :FIELD     
LOC         .                                                   :LOCATION  
CNTY        .                             GALVESTON LARGE BLOCK :LOCATION  
STAT        .                                             TEXAS :STATE     
CTRY        .                                     UNITED STATES :COUNTRY   
SRVC        .                                                   :SERVICE COMPANY
DATE        .                             9/13/2023 11:19:36 AM :LOG DATE  
API         .                                    42706402000000 :API NUMBER
UWI         .                                    42706402000000 :UNIQUE WELL ID
XCOORD      .                                  1036183.96101641 :SURFACE X 
YCOORD      .                                  10437562.0132666 :SURFACE Y 
LAT         .                                        28.7482272 :LATITUDE  
LON         .                                       -94.8860948 :LONGITUDE 
ELEV        .FT                                              80 :ELEVATION VALUE
ELEV_TYPE   .                                                KB :ELEVATION REFERENCE TYPE
~Curve Information Section
#MNEM       .UNIT                                      API CODE :CURVE DESCRIPTION
#------------------------------------------------------------------------------
DEPT        .FT                                                 :DEPTH     
CALI        .IN                                                 :          
DRHO        .G/C3                                               :          
GR          .GAPI                                               :          
GR_NORM     .GAPI                                               :GammaRay Normalized
ILD         .OHMM                                               :          
ILM         .OHMM                                               :          
NPHI        .%                                                  :          
RHOB        .G/C3                                               :          
SFL         .OHMM                                               :          
SP          .MV                                                 :          
SP_NORM     .MV                                                 :SP Normalized
VSH_GR      .V/V                                                :Volume of Shale from GR
VSH_SP      .V/V                                                :Volume of Shale from SP
~A        DEPTH           CALI           DRHO             GR        GR_NORM            ILD            ILM           NPHI           RHOB            SFL             SP        SP_NORM         VSH_GR         VSH_SP
# ...
      6717.0000         9.1827         0.0588        74.0302       64.10764          0.335          0.415        32.1587         2.3264         0.6889       -73.5779      -29.13346      0.6618646      0.5838078
      6717.5000         9.1881         0.0639        74.5601       64.69641         0.3575         0.4352         32.172         2.3244         0.6961       -69.8469      -25.40245      0.6743917      0.6371078
      6718.0000           9.19         0.0691        74.7858       64.94719         0.3784         0.4462        32.1967         2.3167          0.699       -67.8125      -23.36805      0.6797274      0.6661707
      6718.5000         9.1836         0.0601        75.3141       65.53419         0.3968          0.441        32.5402         2.2993         0.7019       -67.4845      -23.04005      0.6922169      0.6708564
      6719.0000         9.1772         0.0446        74.7213       64.87552          0.392         0.4215        33.2495         2.2788         0.6963       -71.9153      -27.47085      0.6782025      0.6075593
      6719.5000         9.1708         0.0384         72.007       61.85964         0.3831         0.4126        33.9242         2.2613         0.6902       -79.7678      -35.32335      0.6140348      0.4953807
      6720.0000         9.1644         0.0419         68.907       58.41519         0.3734         0.4062        34.5701         2.2625         0.6913       -81.7728      -37.32835      0.5407487      0.4667379
      6720.5000         9.1493          0.062        68.1299       57.55174         0.3632         0.4111        34.7143         2.2897         0.6835       -79.7628      -35.31836      0.5223775      0.4954521
      6721.0000          9.132         0.0603        68.5916       58.06474         0.3567         0.4177        34.7661         2.3095         0.6516       -74.1764      -29.73195      0.5332924      0.5752578
      6721.5000         9.1148         0.0561        69.4197       58.98486         0.3588         0.4215         33.032         2.3154         0.7093       -76.2422      -31.79776      0.5528694      0.5457463
      6722.0000         9.0975         0.0494        65.7269       54.88174         0.3609         0.4222        30.3268         2.3254         0.8343       -82.5573      -38.11285       0.465569      0.4555307
      6722.5000         9.1057         0.0427        62.2452       51.01319         0.3663         0.4228         29.542          2.339         0.9457       -88.2614      -43.81695      0.3832594      0.3740436
      6723.0000         9.1609         0.0468        62.0762       50.82541         0.3819         0.4243        29.6679         2.3437         0.9531        -88.036      -43.59156      0.3792641      0.3772635
      6723.5000          9.216         0.0514        63.8289       52.77286         0.3982         0.4273        31.1414         2.3332          0.847        -82.382      -37.93756      0.4206991      0.4580349
      6724.0000         9.2887         0.0529        66.2778       55.49386         0.4134         0.4304        32.8721         2.3184         0.7566       -76.8582      -32.41375      0.4785927      0.5369464
      6724.5000         9.3933         0.0542        69.1825       58.72131         0.4169         0.4422        34.0737         2.3029         0.7165       -73.7882      -29.34375      0.5472618      0.5808035
      6725.0000          9.498         0.0606        74.3507       64.46375         0.4303         0.4609        35.2081         2.2967         0.7115       -69.5715      -25.12706      0.6694414      0.6410421
      6725.5000         9.5748         0.0756        79.2135       69.86686         0.4547         0.4803        37.0852         2.2918         0.6928       -62.5353      -18.09085      0.7844012      0.7415592
      6726.0000         9.6398          0.113        82.7341       73.77863          0.481         0.5203        38.8772         2.2872         0.6612       -57.0766      -12.63215      0.8676305      0.8195407
      6726.5000         9.6752          0.132        85.2581       76.58308         0.5155         0.5613        39.1268         2.2865         0.6368       -53.1003      -8.655853      0.9272997       0.876345
      6727.0000         9.6645         0.1316         85.566       76.92519         0.5219         0.5893        36.6667         2.2856          0.651       -51.4188      -6.974354      0.9345786      0.9003664
      6727.5000         9.6538         0.1207        83.5729       74.71063         0.5144         0.5739        34.2156         2.2806         0.6873       -53.3056      -8.861153      0.8874603      0.8734121
      6728.0000         9.5327         0.0833        79.4589       70.13953          0.499          0.538        33.0387          2.265         0.7555        -57.302      -12.85755      0.7902027      0.8163207
      6728.5000         9.3988         0.0527        75.5076       65.74919         0.4769         0.5073        32.2189         2.2586         0.8308       -66.5768      -22.13235      0.6967913      0.6838236
      6729.0000         9.3095         0.0393        72.2974        62.1823         0.4557         0.4813        31.6204         2.2764         0.8154       -75.1754      -30.73095      0.6209001      0.5609864
      6729.5000         9.2337         0.0382        69.5806       59.16363         0.4265         0.4566        32.1531          2.308         0.7478       -76.6296      -32.18515       0.556673      0.5402121
      6730.0000         9.1989         0.0343        69.5734       59.15564         0.3891         0.4266        33.3638         2.3136         0.6874         -74.88      -30.43555       0.556503      0.5652064
      6730.5000          9.164         0.0304         70.432       60.10963         0.3615         0.3974        34.1417         2.3005         0.6592       -72.3485      -27.90406      0.5768007      0.6013706
      6731.0000         9.1391         0.0262         71.396       61.18075         0.3395         0.3709        34.1207         2.2749          0.676       -78.5759      -34.13145      0.5995905      0.5124078
      6731.5000         9.1215          0.022        69.3678       58.92719          0.327         0.3614        33.5917         2.2503         0.7684       -85.8375      -41.39305      0.5516423      0.4086706
      6732.0000          9.104         0.0238        62.3115       51.08686         0.3266         0.3581        32.7861         2.2409         0.8496       -93.0089      -48.56446      0.3848267      0.3062221
      6732.5000         9.1112         0.0285         57.261       45.47519         0.3265         0.3644        32.5443         2.2589         0.8467      -100.4232      -55.97876      0.2654296      0.2003035
      6733.0000         9.1316         0.0423        58.3352       46.66875         0.3436         0.3809        32.8511         2.2973         0.7662       -97.8967      -53.45225      0.2908244      0.2363964
      6733.5000         9.1537         0.0658        63.1428       52.01052         0.3627         0.4039        34.3337         2.3304         0.6875       -90.9857      -46.54126      0.4044792      0.3351249
      6734.0000         9.2159         0.0876        72.9485       62.90575         0.3919         0.4446        35.8163         2.3425         0.6331       -80.0082      -35.56376      0.6362925      0.4919464
      6734.5000         9.2781         0.0936        82.1432       73.12209         0.4285         0.4881        37.2003         2.3419         0.6744       -66.2262      -21.78175      0.8536614      0.6888322
      6735.0000         9.3439         0.1188        86.3925       77.84353         0.4684         0.5307        37.9771         2.3415         0.6848        -56.706      -12.26155      0.9541177      0.8248349
      6735.5000         9.4136         0.1522        88.2604       79.91897         0.5046         0.5649         38.538          2.341         0.6779       -52.9776      -8.533154      0.9982759      0.8780978
