#------------------------------------------------------------------------------
# Created by    : vladimir.rabinovich
# Created on    : 09/19/2023 17:22:29
#------------------------------------------------------------------------------
~Version Information Section
VERS.           2.0     :   CWLS log ASCII Standard - VERSION 2.0
WRAP.           NO      :   One line per depth step
~Well Information Section
#MNEM       .UNIT                                         VALUE :DESCRIPTION
#------------------------------------------------------------------------------
STRT        .FT                                            1202 :START DEPTH
STOP        .FT                                           11047 :STOP DEPTH
STEP        .FT                                             0.5 :STEP      
NULL        .                                           -999.25 :NULL      
COMP        .                                 MESA PETROLEUM CO :COMPANY   
WELL        .                               OCS G03305 ST00BP00 :WELL      
FLD         .                                           WILDCAT :FIELD     
LOC         .                                                   :LOCATION  
CNTY        .                      MATAGORDA ISLAND LARGE BLOCK :LOCATION  
STAT        .                                             TEXAS :STATE     
CTRY        .                                     UNITED STATES :COUNTRY   
SRVC        .                                                   :SERVICE COMPANY
DATE        .                             9/13/2023 11:12:09 AM :LOG DATE  
API         .                                    42703400870000 :API NUMBER
UWI         .                                    42703400870000 :UNIQUE WELL ID
XCOORD      .                                  540264.325087739 :SURFACE X 
YCOORD      .                                   10226560.637492 :SURFACE Y 
LAT         .                                         28.138272 :LATITUDE  
LON         .                                        -96.413655 :LONGITUDE 
ELEV        .FT                                              80 :ELEVATION VALUE
ELEV_TYPE   .                                                KB :ELEVATION REFERENCE TYPE
~Curve Information Section
#MNEM       .UNIT                                      API CODE :CURVE DESCRIPTION
#------------------------------------------------------------------------------
DEPT        .FT                                                 :DEPTH     
CILD        .MMHO                                               :          
DPHI        .%                                                  :          
GR          .GAPI                                               :          
GR_NORM     .GAPI                                               :GammaRay Normalized
ILD         .OHMM                                               :          
ILM         .OHMM                                               :          
SFL         .OHMM                                               :          
SP          .MV                                                 :          
SP_NORM     .MV                                                 :SP Normalized
VSH_GR      .V/V                                                :Volume of Shale from GR
VSH_SP      .V/V                                                :Volume of Shale from SP
~A        DEPTH           CILD           DPHI             GR        GR_NORM            ILD            ILM            SFL             SP        SP_NORM         VSH_GR         VSH_SP
# ...
      6444.5000       2184.527        -999.25        42.5782       39.05243         0.4453         0.5123         0.9154      -138.2251      -65.64086      0.1287751              0
      6445.0000       2227.309        -999.25        44.3387       42.26526         0.4367         0.5014         0.9011      -137.7454      -65.16595      0.1971332              0
      6445.5000       2295.637        -999.25        45.5704       44.51305          0.427         0.4916         0.8995      -137.3149      -64.74021      0.2449585    0.004059196
      6446.0000       2327.078        -999.25        46.4476        46.1139         0.4247         0.4828         0.8645      -136.6863      -64.11639      0.2790191     0.01380646
      6446.5000       2313.363        -999.25        47.2967       47.66346         0.4257         0.4863         0.7355      -135.6873      -63.12218      0.3119885     0.02934098
      6447.0000       2267.117        -999.25        48.0057       48.95734         0.4549         0.4918         0.6158       -134.062      -61.50165      0.3395179     0.05466175
      6447.5000        2179.18        -999.25        48.2509       49.40486         0.4942         0.5058         0.5302      -131.6035      -59.04793      0.3490396     0.09300113
      6448.0000       2062.527        -999.25        48.4672       49.79956         0.5415         0.5294         0.4929      -128.0706      -55.51981      0.3574375       0.148128
      6448.5000       1897.352        -999.25        48.4417       49.75304         0.5838         0.5901         0.5857      -122.7637      -50.21769      0.3564477      0.2309736
      6449.0000       1728.014        -999.25        48.3469       49.58002         0.6289         0.6757         0.7316      -117.6079      -45.06667      0.3527664      0.3114583
      6449.5000       1577.295        -999.25        48.7307       50.28045         0.6787         0.7563         1.0302      -111.5164      -38.97994      0.3676691      0.4065634
      6450.0000       1438.459        -999.25        49.6638       51.98332         0.7396         0.8146         1.2736      -107.8079      -35.27621      0.4039004      0.4644341
      6450.5000       1292.393        -999.25        50.6933       53.86211         0.7987         0.8521         1.4966      -102.8177       -30.2908      0.4438747      0.5423312
      6451.0000       1191.584        -999.25        52.5719       57.29047         0.8531         0.8844         1.3585       -97.9689      -25.44678      0.5168185      0.6180191
      6451.5000       1118.998        -999.25        56.3389       64.16506         0.8837         0.8975         1.0932       -93.2371      -20.71975      0.6630864      0.6918789
      6452.0000       1107.955        -999.25        58.3235       67.78688          0.821         0.9078         0.9172       -91.3962      -18.88363      0.7401464      0.7205683
      6452.5000       1169.502        -999.25        59.5671       70.05638         0.7285         0.8485         0.7804       -91.4827      -18.97491      0.7884337      0.7191421
      6453.0000       1290.018        -999.25        59.5686       70.05913         0.6474         0.8094          0.713       -95.2789      -22.77589      0.7884921      0.6597518
      6453.5000       1446.379        -999.25        58.6902        68.4561          0.573         0.7754         0.6892      -100.2935      -27.79527      0.7543851       0.581324
      6454.0000       1688.008        -999.25        57.2697       65.86373          0.516         0.7271         0.7186      -105.9414      -33.44794      0.6992283       0.493001
      6454.5000       1831.002        -999.25         54.877       61.49718         0.4855         0.6636         0.9319      -115.6829      -43.19422       0.606323      0.3407153
      6455.0000       1999.744        -999.25        50.9735       54.37346         0.4623         0.6093         1.0891      -122.0278       -49.5439      0.4547544      0.2415016
      6455.5000       2191.363        -999.25        46.4707       46.15607         0.4419         0.5619         1.1476      -126.0627      -53.58357      0.2799164      0.1783817
      6456.0000       2265.582        -999.25        44.0585       41.75389         0.4275         0.5295         1.0597      -130.1904      -57.71605       0.186253      0.1138117
      6456.5000       2284.355        -999.25        42.9084       39.65503         0.4256          0.511         0.9966      -132.7036      -60.23403      0.1415964     0.07446826
      6457.0000       2275.684        -999.25        42.4534       38.82468         0.4266         0.5115         0.9509      -133.9646      -61.49981      0.1239294     0.05469048
      6457.5000       2246.273        -999.25        42.6705       39.22088         0.4351         0.5262         0.9407      -135.2012      -62.74119      0.1323591     0.03529394
      6458.0000       2199.086        -999.25        42.9821       39.78953         0.4448         0.5467         0.9506       -135.657      -63.20176      0.1444581     0.02809751
      6458.5000       2119.664        -999.25        43.2772       40.32804           0.46         0.5677         0.9726      -135.9209      -63.47044      0.1559158     0.02389932
      6459.0000       2038.365        -999.25        43.4802       40.69853         0.4803         0.5885         1.0126      -136.4629      -64.01723      0.1637985     0.01535583
      6459.5000       1991.525        -999.25        43.4328       40.61202         0.4929         0.6018         1.0677      -137.1833       -64.7424      0.1619578    0.004024982
      6460.0000       1974.984        -999.25          43.11       40.02295          0.499         0.6035         1.1218      -137.9734      -65.53728      0.1494244              0
      6460.5000       1983.059        -999.25        42.7671       39.39716         0.4936         0.5993         1.1532       -138.564      -66.13265      0.1361098              0
      6461.0000       2006.578        -999.25        42.4622       38.84074         0.4861         0.5933         1.1514      -138.8555      -66.42893      0.1242711              0
      6461.5000       2041.732        -999.25        42.2203       38.39926         0.4767          0.586         1.1209      -138.2549      -65.83311      0.1148779              0
      6462.0000       2098.918        -999.25        42.1625       38.29377         0.4675         0.5788         1.0885      -137.5435      -65.12649      0.1126334              0
      6462.5000        2142.84        -999.25        42.4229         38.769         0.4574         0.5716         1.0824      -136.9392      -64.52696      0.1227447    0.007391214
      6463.0000       2177.199        -999.25        43.1216       40.04411         0.4471         0.5645         1.0674      -136.8318      -64.42435      0.1498747    0.008994579
      6463.5000        2189.59        -999.25         43.473       40.68538         0.4376         0.5538         1.0569      -136.9143      -64.51163      0.1635187    0.007630825
      6464.0000       2210.352        -999.25        43.3591       40.47754         0.4287         0.5417         1.0533      -137.0728       -64.6749      0.1590966    0.005079746
      6464.5000       2237.434        -999.25        43.3452       40.45217         0.4246         0.5337         1.0616      -137.2866      -64.89349      0.1585568    0.001664281
      6465.0000       2264.172        -999.25         43.615       40.94453         0.4216         0.5267         1.0768      -137.5005      -65.11216      0.1690326              0
      6465.5000       2290.688        -999.25        44.2704       42.14062         0.4187         0.5219         1.0975      -138.0928      -65.70924      0.1944813              0
      6466.0000       2306.023        -999.25        45.1573       43.75916         0.4157         0.5186         1.1179      -138.7996      -66.42081      0.2289183              0
      6466.5000       2310.195        -999.25        46.4744        46.1628         0.4162         0.5167         1.1207      -139.3904      -67.01639      0.2800596              0
