#------------------------------------------------------------------------------
# Created by    : vladimir.rabinovich
# Created on    : 09/19/2023 17:22:28
#------------------------------------------------------------------------------
~Version Information Section
VERS.           2.0     :   CWLS log ASCII Standard - VERSION 2.0
WRAP.           NO      :   One line per depth step
~Well Information Section
#MNEM       .UNIT                                         VALUE :DESCRIPTION
#------------------------------------------------------------------------------
STRT        .FT                                            2981 :START DEPTH
STOP        .FT                                           10477 :STOP DEPTH
STEP        .FT                                             0.5 :STEP      
NULL        .                                           -999.25 :NULL      
COMP        .                          SEAGULL ENERGY E & P INC :COMPANY   
WELL        .                               OCS G13783 ST00BP00 :WELL      
FLD         .                                           WILDCAT :FIELD     
LOC         .                                                   :LOCATION  
CNTY        .                             GALVESTON LARGE BLOCK :LOCATION  
STAT        .                                             TEXAS :STATE     
CTRY        .                                     UNITED STATES :COUNTRY   
SRVC        .                                                   :SERVICE COMPANY
DATE        .                             9/13/2023 11:19:39 AM :LOG DATE  
API         .                                    42706403890000 :API NUMBER
UWI         .                                    42706403890000 :UNIQUE WELL ID
XCOORD      .                                  1047250.65699841 :SURFACE X 
YCOORD      .                                  10470150.2239286 :SURFACE Y 
LAT         .                                         28.838318 :LATITUDE  
LON         .                                         -94.85315 :LONGITUDE 
ELEV        .FT                                              94 :ELEVATION VALUE
ELEV_TYPE   .                                                KB :ELEVATION REFERENCE TYPE
~Curve Information Section
#MNEM       .UNIT                                      API CODE :CURVE DESCRIPTION
#------------------------------------------------------------------------------
DEPT        .FT                                                 :DEPTH     
CILD        .MMHO                                               :          
CNC         .%                                                  :          
DT24        .US/F                                               :          
GR          .GAPI                                               :          
GR_NORM     .GAPI                                               :GammaRay Normalized
PORZ        .%                                                  :          
RFOC        .OHMM                                               :          
RILD        .OHMM                                               :          
RILM        .OHMM                                               :          
RWAZ        .OHMM                                               :          
SP          .MV                                                 :          
SP_NORM     .MV                                                 :SP Normalized
TEN         .LBF                                                :          
VSH_GR      .V/V                                                :Volume of Shale from GR
VSH_SP      .V/V                                                :Volume of Shale from SP
ZCOR        .G/C3                                               :          
ZDEN        .G/C3                                               :          
~A        DEPTH           CILD            CNC           DT24             GR        GR_NORM           PORZ           RFOC           RILD           RILM           RWAZ             SP        SP_NORM            TEN         VSH_GR         VSH_SP           ZCOR           ZDEN
# ...
      7946.0000       1306.061         32.902        100.851        72.8719       64.15516         23.411          1.207          0.766           0.88          0.054        -17.194       -15.9964         37.878      0.6628757      0.7714801           0.11          2.264
      7946.5000       1308.184          31.55         99.698        71.3579       62.33716         22.918          1.197          0.764          0.859          0.052        -18.829       -17.6314         37.584      0.6241949      0.7481229          0.095          2.272
      7947.0000       1321.797         30.729         95.877        69.7539       60.41115         21.829          1.181          0.757           0.83          0.046        -21.039      -19.84139         25.063      0.5832159      0.7165515          0.094           2.29
      7947.5000       1340.402          30.79        96.7589        67.2629       57.42075         20.955          1.256          0.746          0.803          0.042        -22.632      -21.43439         19.413      0.5195905      0.6937944          0.102          2.304
      7948.0000       1356.439          31.74         97.276        66.3989       56.38274          20.71          1.294          0.737           0.79           0.04        -21.133      -19.93539         23.527      0.4975052      0.7152086            0.1          2.308
      7948.5000       1363.701         32.865         96.455        68.7289       59.17754         20.473          1.187          0.733          0.795          0.039        -16.731       -15.5334         37.211      0.5569689      0.7780944          0.089          2.312
      7949.0000       1360.934         33.571        97.9139         71.168       62.10325          19.69          1.074          0.735          0.808          0.036        -12.988      -11.79039         52.296      0.6192181      0.8315658          0.081          2.325
      7949.5000       1352.029         33.903       100.4209         72.141       63.26965         19.113          1.034           0.74          0.826          0.034         -12.69      -11.49239         55.685      0.6440352      0.8358229          0.088          2.335
      7950.0000       1346.891         33.704       101.9359        72.4309       63.61633           19.5          1.048          0.742          0.843          0.036        -16.306      -15.10839         56.185      0.6514112      0.7841658           0.09          2.328
      7950.5000       1359.115         32.732        100.756         70.903       61.78165         20.111          1.116          0.736          0.852          0.038        -22.527       -21.3294         67.657      0.6123754      0.6952944          0.072          2.318
      7951.0000       1398.631           31.5        97.5549         67.851       58.11803         20.017          1.253          0.715           0.84          0.036        -29.015      -27.81739        77.0129      0.5344263      0.6026087          0.052           2.32
      7951.5000       1466.063         30.147         93.871         65.575       55.38564         19.368          1.386          0.682          0.806          0.032        -33.732      -32.53439         63.121      0.4762901      0.5352229          0.044           2.33
      7952.0000        1554.02         29.178        90.9679         66.147       56.07083         18.927           1.38          0.643          0.764          0.029        -36.327      -35.12939          45.43      0.4908687      0.4981515          0.043          2.338
      7952.5000         1660.5         29.374         90.813         68.844       59.30602         18.992           1.26          0.602          0.718          0.027       -37.5049       -36.3073         50.189      0.5597026      0.4813243          0.044          2.337
      7953.0000       1795.221          30.18        94.5719        70.6489       61.47071         19.259          1.164          0.557          0.668          0.026        -39.086      -37.88839         61.129      0.6057597      0.4587372          0.043          2.332
      7953.5000       1957.301         30.598        98.6709        69.9039       60.57549         19.841          1.147          0.511          0.615          0.025        -43.193       -41.9954         54.999      0.5867126      0.4000658          0.038          2.323
      7954.0000        2120.34         30.831        100.396        67.6949       57.92349         21.364          1.183          0.472          0.572          0.027        -49.638       -48.4404         47.826      0.5302871      0.3079944          0.039          2.297
      7954.5000       2247.895         31.119       101.3259        64.6279       54.24189         23.561            1.2          0.445          0.546          0.032        -55.399      -54.20139          56.53       0.451955      0.2256944          0.045          2.261
      7955.0000        2316.25         31.174       101.4189        62.4709       51.65229         25.006          1.164          0.432          0.537          0.035        -57.006       -55.8084         67.105      0.3968572      0.2027372          0.052          2.237
      7955.5000        2324.18         30.893       102.0029        62.9319       52.20428         24.859           1.11           0.43          0.541          0.035        -53.222      -52.02439        69.7639      0.4086016      0.2567944          0.055           2.24
      7956.0000       2291.832         30.654       103.5079        65.0459       54.73988          23.68          1.083          0.436          0.556          0.032        -45.827      -44.62939        70.2839      0.4625506      0.3624372          0.053          2.259
      7956.5000       2241.715         30.369       103.2679         67.261       57.39679         22.292          1.083          0.446          0.582          0.029        -38.483       -37.2854         63.929      0.5190807      0.4673515          0.051          2.282
      7957.0000       2176.141          30.02        101.949        69.4719       60.04868          21.17          1.096           0.46          0.612          0.026        -34.421       -33.2234         50.414      0.5755037      0.5253801          0.049          2.301
      7957.5000       2080.297         29.961        99.3049        70.6659       61.48027         20.975          1.127          0.481          0.639          0.027        -34.852       -33.6544         47.884      0.6059631      0.5192229          0.046          2.304
      7958.0000       1952.553          29.99        96.0659        69.5349       60.12186         22.189          1.202          0.512           0.66          0.032        -38.254       -37.0564         58.421      0.5770608      0.4706229          0.049          2.284
      7958.5000        1823.48         29.874        94.2629        66.6119       56.61306         24.136            1.3          0.548          0.679          0.042        -41.402       -40.2044        68.5089      0.5024055      0.4256515          0.056          2.252
      7959.0000       1727.781         29.642        93.6219         64.485       54.05957         25.387          1.311          0.579          0.703          0.049        -41.088       -39.8904         73.225      0.4480759      0.4301372           0.06          2.231
      7959.5000         1676.1         29.136         95.657        65.8419       55.68665         25.001          1.196          0.597          0.726          0.049        -36.655      -35.45739        69.8479      0.4826947      0.4934658          0.067          2.237
      7960.0000        1660.83         28.793         98.663        68.8009       59.23624         23.187          1.092          0.602          0.738          0.042        -30.646      -29.44839         58.917      0.5582179      0.5793086          0.078          2.267
      7960.5000        1662.76         28.961        98.9629        69.8839       60.53465         21.084          1.088          0.601          0.737          0.034        -26.357       -25.1594         50.559      0.5858435      0.6405801          0.084          2.302
