#------------------------------------------------------------------------------
# Created by    : vladimir.rabinovich
# Created on    : 09/19/2023 17:20:11
#------------------------------------------------------------------------------
~Version Information Section
VERS.           2.0     :   CWLS log ASCII Standard - VERSION 2.0
WRAP.           NO      :   One line per depth step
~Well Information Section
#MNEM       .UNIT                                         VALUE :DESCRIPTION
#------------------------------------------------------------------------------
STRT        .FT                                             984 :START DEPTH
STOP        .FT                                            6595 :STOP DEPTH
STEP        .FT                                             0.5 :STEP      
NULL        .                                           -999.25 :NULL      
COMP        .                   MCMORAN OFFSHORE EXPLORATION CO :COMPANY   
WELL        .                               OCS G03106 ST00BP00 :WELL      
FLD         .                                           WILDCAT :FIELD     
LOC         .                                                   :LOCATION  
CNTY        .                      MATAGORDA ISLAND LARGE BLOCK :LOCATION  
STAT        .                                             TEXAS :STATE     
CTRY        .                                     UNITED STATES :COUNTRY   
SRVC        .                                                   :SERVICE COMPANY
DATE        .                             9/13/2023 11:12:09 AM :LOG DATE  
API         .                                    42703400570000 :API NUMBER
UWI         .                                    42703400570000 :UNIQUE WELL ID
XCOORD      .                                  467986.403229072 :SURFACE X 
YCOORD      .                                  10153243.7887249 :SURFACE Y 
LAT         .                                         27.931172 :LATITUDE  
LON         .                                        -96.630795 :LONGITUDE 
ELEV        .FT                                              95 :ELEVATION VALUE
ELEV_TYPE   .                                                KB :ELEVATION REFERENCE TYPE
~Curve Information Section
#MNEM       .UNIT                                      API CODE :CURVE DESCRIPTION
#------------------------------------------------------------------------------
DEPT        .FT                                                 :DEPTH     
ASFL        .OHMM                                               :          
CILD        .MMHO                                               :          
DT          .US/F                                               :          
GR          .GAPI                                               :          
GR_NORM     .GAPI                                               :GammaRay Normalized
ILD         .OHMM                                               :          
SFL         .OHMM                                               :          
SP          .MV                                                 :          
SP_NORM     .MV                                                 :SP Normalized
VSH_GR      .V/V                                                :Volume of Shale from GR
VSH_SP      .V/V                                                :Volume of Shale from SP
~A        DEPTH           ASFL           CILD             DT             GR        GR_NORM            ILD            SFL             SP        SP_NORM         VSH_GR         VSH_SP
# ...
      4719.0000         2.0857       1721.418       143.3691        -999.25        -999.25          0.474         2.1223       -89.6172       -49.0869        -999.25     0.01942769
      4719.5000         2.2555       1747.537       130.4133        -999.25        -999.25         0.4895         2.8013       -91.3662       -50.8391        -999.25              0
      4720.0000         2.1775       1719.963       113.0844        -999.25        -999.25          0.505         3.4649        -95.001       -54.4771        -999.25              0
      4720.5000          1.332       1644.148         99.198        -999.25        -999.25           0.66         3.5966       -96.7238       -56.2031        -999.25              0
      4721.0000         0.8384       1474.463        84.9838        -999.25        -999.25         0.8123         2.9016       -95.5028       -54.9853        -999.25              0
      4721.5000         0.8402       1340.986        72.1051        -999.25        -999.25         0.9356         2.2037       -92.4761       -51.9618        -999.25              0
      4722.0000         1.3213       1238.189        71.7483        -999.25        -999.25          1.023         1.6655       -86.2688       -45.7578        -999.25     0.09025955
      4722.5000         1.9834       1144.123         84.868        -999.25        -999.25         1.1077         1.5349       -82.3862       -41.8784        -999.25         0.1728
      4723.0000         2.4504       1058.047       138.0557        -999.25        -999.25         1.1904         1.4582       -79.6123       -39.1077        -999.25      0.2317511
      4723.5000         2.8098       961.3672       132.7759        -999.25        -999.25         1.2008         1.3911        -79.713       -39.2116        -999.25      0.2295404
      4724.0000         3.2482       845.5479        98.4169        -999.25        -999.25         1.1459         1.3935       -80.3638       -39.8656        -999.25      0.2156255
      4724.5000         3.5177       736.7334         95.225        -999.25        -999.25          1.091         1.4963       -81.0145       -40.5195        -999.25      0.2017128
      4725.0000         3.5851       772.1006       114.2416        -999.25        -999.25         1.0313         1.5316       -80.2399       -39.7481        -999.25      0.2181255
      4725.5000         2.5029       839.8262        123.692        -999.25        -999.25          0.971         1.4065        -78.926       -38.4374        -999.25      0.2460127
      4726.0000         1.6406       907.5518       114.6321        -999.25        -999.25         0.9106         1.2563       -77.2058       -36.7204        -999.25      0.2825446
      4726.5000         1.5854       992.9365       110.7506        -999.25        -999.25         0.8515         1.2236       -75.5612        -35.079        -999.25      0.3174681
      4727.0000         1.4902       1084.881       132.2166        -999.25        -999.25          0.814         1.2954       -74.2773       -33.7984        -999.25      0.3447149
      4727.5000         1.4137       1143.234       146.4888        -999.25        -999.25         0.7765         1.3417       -74.2896       -33.8139        -999.25      0.3443851
      4728.0000         1.4719       1200.996       151.7444        -999.25        -999.25          0.739          1.285       -74.6537       -34.1812        -999.25      0.3365703
      4728.5000         1.5159       1243.959       142.8267        -999.25        -999.25         0.7015         1.2352       -75.0178       -34.5485        -999.25      0.3287553
      4729.0000         1.5599       1283.076       139.6516        -999.25        -999.25         0.6761         1.2464       -75.3817       -34.9156        -999.25      0.3209447
      4729.5000         1.6036        1319.01       143.2727        -999.25        -999.25         0.6534         1.2479       -75.7458       -35.2829        -999.25      0.3131298
      4730.0000          1.645       1349.371       137.6843        -999.25        -999.25         0.6307         1.2275         -76.11       -35.6503        -999.25      0.3053128
      4730.5000         1.2729       1379.732       121.0111        -999.25        -999.25         0.6098         1.1747       -76.4039       -35.9474        -999.25      0.2989915
      4731.0000         1.3233       1410.092       110.2058        -999.25        -999.25            0.6         1.2112       -76.6954       -36.2421        -999.25      0.2927213
      4731.5000         1.3815       1432.197       106.2063        -999.25        -999.25         0.5902         1.3888       -76.9869       -36.5368        -999.25       0.286451
      4732.0000         1.3932       1439.813        94.5692        -999.25        -999.25         0.5804         1.4475       -77.2784       -36.8316        -999.25      0.2801787
      4732.5000         1.2694       1444.525         92.368        -999.25        -999.25         0.5752         1.3228       -77.3969       -36.9533        -999.25      0.2775894
      4733.0000         1.2936       1449.242       102.6888        -999.25        -999.25          0.576         1.2231        -77.226       -36.7856        -999.25      0.2811575
      4733.5000         1.2734       1453.186        119.731        -999.25        -999.25         0.5767         1.1653       -76.8053       -36.3681        -999.25      0.2900404
      4734.0000         1.2206       1456.811       121.6523        -999.25        -999.25         0.5774         1.3728       -76.3846       -35.9506        -999.25      0.2989234
      4734.5000          1.175       1460.436       120.1143        -999.25        -999.25         0.5794         1.6041        -76.058       -35.6272        -999.25      0.3058042
      4735.0000         1.1607       1447.557       118.9572        -999.25        -999.25          0.584         1.7669       -76.0361       -35.6085        -999.25      0.3062021
      4735.5000         1.3152       1423.238       135.3796        -999.25        -999.25         0.5887         1.6679       -76.0142       -35.5898        -999.25         0.3066
      4736.0000          1.377       1393.592       152.4675        -999.25        -999.25         0.5933         1.3359       -75.9923       -35.5711        -999.25      0.3069979
      4736.5000         1.4358       1363.775       147.1638        -999.25        -999.25         0.5979          1.104       -75.9705       -35.5525        -999.25      0.3073936
      4737.0000         1.4849        1333.98       132.7759        -999.25        -999.25         0.6025         1.0221       -75.9338       -35.5191        -999.25      0.3081042
      4737.5000         1.4648        1307.16       116.4402        -999.25        -999.25         0.6114         1.0388       -75.8733       -35.4618        -999.25      0.3093234
      4738.0000         1.7095       1302.236       124.0005        -999.25        -999.25         0.6227         1.1229       -75.8127       -35.4044        -999.25      0.3105447
      4738.5000         1.7737       1297.316       145.2639        -999.25        -999.25          0.634          1.234       -75.7771        -35.372        -999.25       0.311234
      4739.0000         1.8173       1292.396       151.8552        -999.25        -999.25         0.6453          1.337       -75.8097       -35.4078        -999.25      0.3104724
      4739.5000         1.8281       1265.936       162.4868        -999.25        -999.25         0.6567         1.4687       -75.8422       -35.4435        -999.25      0.3097128
      4740.0000         1.7701       1240.025       158.9285        -999.25        -999.25         0.6682         1.6965       -75.8746       -35.4791        -999.25      0.3089553
      4740.5000          1.712       1225.857       120.8568        -999.25        -999.25           0.68         1.7976       -75.8597       -35.4674        -999.25      0.3092043
      4741.0000          1.424        1211.75        88.0021        -999.25        -999.25         0.6918         1.6179       -75.7716       -35.3825        -999.25      0.3110107
