#------------------------------------------------------------------------------
# Created by    : vladimir.rabinovich
# Created on    : 09/19/2023 17:20:37
#------------------------------------------------------------------------------
~Version Information Section
VERS.           2.0     :   CWLS log ASCII Standard - VERSION 2.0
WRAP.           NO      :   One line per depth step
~Well Information Section
#MNEM       .UNIT                                         VALUE :DESCRIPTION
#------------------------------------------------------------------------------
STRT        .FT                                             495 :START DEPTH
STOP        .FT                                            7007 :STOP DEPTH
STEP        .FT                                             0.5 :STEP      
NULL        .                                           -999.25 :NULL      
COMP        .                                      SHELL OIL CO :COMPANY   
WELL        .                                OCS 00718 ST00BP00 :WELL      
FLD         .                                           WILDCAT :FIELD     
LOC         .                                                   :LOCATION  
CNTY        .                             GALVESTON LARGE BLOCK :LOCATION  
STAT        .                                             TEXAS :STATE     
CTRY        .                                     UNITED STATES :COUNTRY   
SRVC        .                                                   :SERVICE COMPANY
DATE        .                             9/13/2023 11:19:25 AM :LOG DATE  
API         .                                    42706000330000 :API NUMBER
UWI         .                                    42706000330000 :UNIQUE WELL ID
XCOORD      .                                  1012682.17104467 :SURFACE X 
YCOORD      .                                  10442833.5651685 :SURFACE Y 
LAT         .                                         28.761679 :LATITUDE  
LON         .                                        -94.959691 :LONGITUDE 
ELEV        .FT                                              75 :ELEVATION VALUE
ELEV_TYPE   .                                                KB :ELEVATION REFERENCE TYPE
~Curve Information Section
#MNEM       .UNIT                                      API CODE :CURVE DESCRIPTION
#------------------------------------------------------------------------------
DEPT        .FT                                                 :DEPTH     
ASN         .OHMM                                               :          
CILD        .MMHO                                               :          
DT          .US/F                                               :          
ILD         .OHMM                                               :          
LAT         .OHMM                                               :          
LN          .OHMM                                               :          
SP          .MV                                                 :          
SP_NORM     .MV                                                 :SP Normalized
VSH_SP      .V/V                                                :Volume of Shale from SP
~A        DEPTH            ASN           CILD             DT            ILD            LAT             LN             SP        SP_NORM         VSH_SP
# ...
      3516.0000         0.9415       1596.004        94.7192         0.7241        -999.25        -999.25       -66.1414      -12.37628      0.8095956
      3516.5000         0.8846       1551.316        94.5424         0.7519        -999.25        -999.25        -61.506      -7.005883      0.8922172
      3517.0000         0.9313       1509.758         94.379         0.7925        -999.25        -999.25       -58.5531      -3.586788      0.9448187
      3517.5000         1.0022        1455.48        93.9369          0.827        -999.25        -999.25       -56.5298      -1.245813      0.9808336
      3518.0000         1.0518       1344.109        92.5988          0.848        -999.25        -999.25       -54.8864      0.6545745              1
      3518.5000         1.0752       1270.049        91.3669         0.8641        -999.25        -999.25       -54.2087       1.434976              1
      3519.0000         1.1144        1245.48        91.1096         0.8732        -999.25        -999.25       -53.9395       1.741614              1
      3519.5000         1.1095       1220.801        92.2572         0.8754        -999.25        -999.25       -53.8909       1.792403              1
      3520.0000         1.0639       1191.113        94.1359         0.8685        -999.25        -999.25       -54.2614       1.357142              1
      3520.5000         1.0406       1161.449         96.043         0.8643        -999.25        -999.25        -54.883       0.630662              1
      3521.0000         1.0584       1148.029        97.6095         0.8621        -999.25        -999.25       -54.5085       1.059424              1
      3521.5000         1.0531       1137.863         99.084         0.8653        -999.25        -999.25       -54.9305      0.5644281              1
      3522.0000         1.0182       1127.703       100.3055         0.8644        -999.25        -999.25        -55.716     -0.3521355      0.9945825
      3522.5000         0.9908       1129.879       100.4192          0.857        -999.25        -999.25       -55.4559     -0.0560495      0.9991377
      3523.0000         1.0004       1137.725        97.6198         0.8472        -999.25        -999.25        -54.515       1.029601              1
      3523.5000         1.0182        1145.57        95.2806         0.8357        -999.25        -999.25       -53.5113       2.188085              1
      3524.0000         0.9963       1157.357        93.3351         0.8075        -999.25        -999.25       -52.7187       3.101738              1
      3524.5000         0.9647       1175.678        92.2493         0.7719        -999.25        -999.25       -52.6132       3.218522              1
      3525.0000         0.9757       1193.998        91.0554         0.7561        -999.25        -999.25       -52.8154        2.97845              1
      3525.5000          0.973       1214.809        90.5039         0.7515        -999.25        -999.25       -53.0908       2.653479              1
      3526.0000         0.8824       1242.016        92.6338         0.7513        -999.25        -999.25       -53.3141       2.388933              1
      3526.5000         0.8396       1297.477        95.3937         0.7631        -999.25        -999.25        -53.171       2.549321              1
      3527.0000         0.8321       1332.887        97.0802         0.7773        -999.25        -999.25       -52.8101       2.962311              1
      3527.5000         0.8575       1351.162        98.5958         0.7942        -999.25        -999.25       -52.4014       3.430735              1
      3528.0000         0.9044       1371.684       100.0103         0.7967        -999.25        -999.25       -52.0491       3.833748              1
      3528.5000         0.9585        1397.75        100.991         0.7911        -999.25        -999.25         -52.09       3.780742              1
      3529.0000         0.9595       1429.059       101.6527         0.7824        -999.25        -999.25       -52.6029       3.180328              1
      3529.5000         0.9401       1492.992       102.1003         0.7749        -999.25        -999.25       -53.1492       2.541181              1
      3530.0000          0.938       1553.217        101.918         0.7604        -999.25        -999.25       -53.6503        1.95445              1
      3530.5000          0.949       1598.686       101.6432         0.7354        -999.25        -999.25        -54.147       1.372826              1
      3531.0000         0.9843       1640.512       101.4467         0.7088        -999.25        -999.25       -54.7601      0.6562026              1
      3531.5000         0.9303       1678.357       101.6006         0.6896        -999.25        -999.25       -55.6619     -0.3952399      0.9939194
      3532.0000          0.933         1709.6       102.1987         0.6731        -999.25        -999.25       -56.9159      -1.855159      0.9714591
      3532.5000         0.9392       1734.402       102.5981         0.6639        -999.25        -999.25       -59.4023      -4.744366      0.9270098
      3533.0000         0.9642       1749.598       102.6411         0.6615        -999.25        -999.25       -65.7111      -12.06665      0.8143593
      3533.5000         0.9484       1730.848       102.6685         0.6708        -999.25        -999.25       -71.9362      -19.29186      0.7032021
      3534.0000          0.951       1531.354       103.2515         0.6941        -999.25        -999.25       -71.8501      -19.19757      0.7046527
      3534.5000         0.9652       1337.045        103.304         0.7274        -999.25        -999.25        -67.731      -14.42597       0.778062
      3535.0000         0.9779       1281.416       103.1378         0.7641        -999.25        -999.25       -62.8692      -8.793003       0.864723
      3535.5000         1.0016       1260.078       102.9833         0.7995        -999.25        -999.25       -59.2698      -4.624117      0.9288597
      3536.0000         1.0308        1238.74       102.7439         0.8259        -999.25        -999.25       -57.2601      -2.298914      0.9646321
      3536.5000         1.0137       1217.402       102.0514         0.8563        -999.25        -999.25       -55.8601     -0.6808186      0.9895259
      3537.0000         1.0624       1196.064        99.5222         0.8787        -999.25        -999.25       -55.4496     -0.2103062      0.9967645
      3537.5000         1.0308       1174.717        97.8279           0.88        -999.25        -999.25       -55.7271     -0.5377107      0.9917275
      3538.0000         0.9987        1162.23        96.1877         0.8707        -999.25        -999.25       -56.3996      -1.323222      0.9796427
      3538.5000          0.955       1151.719        94.4548         0.8422        -999.25        -999.25       -57.3241      -2.400997      0.9630616
      3539.0000         0.9526       1152.932        93.9951         0.8053        -999.25        -999.25       -58.1279      -3.338784      0.9486341
      3539.5000         0.9548       1212.172        94.6359          0.779        -999.25        -999.25       -59.2709      -4.669965      0.9281544
      3540.0000         0.9575       1285.049        95.4607         0.7673        -999.25        -999.25        -60.295      -5.863245      0.9097962
      3540.5000         0.9423       1353.404        95.8108          0.769        -999.25        -999.25       -60.6752      -6.309765      0.9029267
      3541.0000          0.883       1362.256        96.0128         0.7725        -999.25        -999.25       -59.4487      -4.892884      0.9247249
      3541.5000         0.8928       1371.104        96.3065         0.7791        -999.25        -999.25       -57.1299      -2.209197      0.9660124
      3542.0000          0.877       1379.949        96.8068         0.7834        -999.25        -999.25       -55.1779     0.04909475              1
