#------------------------------------------------------------------------------
# Created by    : vladimir.rabinovich
# Created on    : 09/19/2023 17:20:01
#------------------------------------------------------------------------------
~Version Information Section
VERS.           2.0     :   CWLS log ASCII Standard - VERSION 2.0
WRAP.           NO      :   One line per depth step
~Well Information Section
#MNEM       .UNIT                                         VALUE :DESCRIPTION
#------------------------------------------------------------------------------
STRT        .FT                                            3530 :START DEPTH
STOP        .FT                                           11780 :STOP DEPTH
STEP        .FT                                             0.5 :STEP      
NULL        .                                           -999.25 :NULL      
COMP        .                                        TEXACO INC :COMPANY   
WELL        .                                     ST TR 00820-L :WELL      
FLD         .                                           WILDCAT :FIELD     
LOC         .                                                   :LOCATION  
CNTY        .                        MUSTANG ISLAND LARGE BLOCK :LOCATION  
STAT        .                                             TEXAS :STATE     
CTRY        .                                     UNITED STATES :COUNTRY   
SRVC        .                                                   :SERVICE COMPANY
DATE        .                             9/13/2023 11:18:55 AM :LOG DATE  
API         .                                    42702302010000 :API NUMBER
UWI         .                                    42702302010000 :UNIQUE WELL ID
XCOORD      .                                  295719.314319733 :SURFACE X 
YCOORD      .                                  9994218.17259751 :SURFACE Y 
LAT         .                                        27.4796405 :LATITUDE  
LON         .                                       -97.1466422 :LONGITUDE 
ELEV        .FT                                              78 :ELEVATION VALUE
ELEV_TYPE   .                                                KB :ELEVATION REFERENCE TYPE
~Curve Information Section
#MNEM       .UNIT                                      API CODE :CURVE DESCRIPTION
#------------------------------------------------------------------------------
DEPT        .FT                                                 :DEPTH     
ASFL        .OHMM                                               :          
CILD        .MMHO                                               :          
GR          .GAPI                                               :          
GR_NORM     .GAPI                                               :GammaRay Normalized
ILD         .OHMM                                               :          
SP          .MV                                                 :          
SP_NORM     .MV                                                 :SP Normalized
VSH_GR      .V/V                                                :Volume of Shale from GR
VSH_SP      .V/V                                                :Volume of Shale from SP
~A        DEPTH           ASFL           CILD             GR        GR_NORM            ILD             SP        SP_NORM         VSH_GR         VSH_SP
# ...
      7372.5000         0.9828       1099.373        61.7039       62.66418         0.8821       -40.0994      -3.972927      0.6311529      0.9598253
      7373.0000         1.0148       1098.799         62.495       64.04675          0.889       -39.9424      -3.825302      0.6605692      0.9618202
      7373.5000         1.0433       1096.604        63.2208       65.31537         0.8959       -39.8629      -3.755173       0.687561       0.962768
      7374.0000         1.0234       1094.408        63.1566       65.20525         0.9028       -39.9706      -3.872246       0.685218      0.9611859
      7374.5000         1.0042       1092.213        62.1766        63.4969         0.9097       -40.0783      -3.989319      0.6488702      0.9596038
      7375.0000         0.9911        1093.73         60.788       61.07541         0.9166       -40.1862       -4.10659      0.5973491      0.9580191
      7375.5000          0.978       1097.732        61.1015       61.62449         0.9236       -40.1219      -4.051662      0.6090316      0.9587613
      7376.0000         0.9679       1101.732        62.6814       64.38368         0.9305       -40.0577      -3.996838      0.6677379      0.9595022
      7376.5000         0.9759       1112.277        63.8083        66.3523         0.9238       -39.9937      -3.942211      0.7096235      0.9602404
      7377.0000          0.984       1123.816        64.9352       68.32093         0.9164       -41.0023      -4.960186      0.7515091       0.946484
      7377.5000          0.992       1115.484        64.7512       68.00173         0.9091       -41.9601      -5.927357      0.7447177      0.9334141
      7378.0000              1       1098.824        64.2125       67.06353         0.9017       -42.7797      -6.756332      0.7247559      0.9222117
      7378.5000         1.0081       1082.137        63.6744       66.12637         0.8943       -43.5116      -7.497604      0.7048163      0.9121946
      7379.0000         1.0161       1065.451        62.8246       64.64523         0.9009       -43.8016      -7.796978      0.6733027      0.9081489
      7379.5000         1.0242       1050.217        61.9223       63.07245         0.9083       -44.0451       -8.04985      0.6398394      0.9047318
      7380.0000         1.0315       1045.734        61.1534       61.73248         0.9157       -43.9757      -7.989822      0.6113293       0.905543
      7380.5000         1.0348       1045.936         61.615          62.54         0.9231       -43.4758      -7.499294      0.6285107      0.9121717
      7381.0000         1.0204         1053.9        62.0766       63.34755         0.9305       -42.4921      -6.524971      0.6456925      0.9253382
      7381.5000          1.006       1061.865        62.5382       64.15507         0.9379       -41.5084      -5.550644      0.6628738      0.9385048
      7382.0000         0.9922       1069.842        63.2899       65.46889         0.9453       -40.7375      -4.789116      0.6908275      0.9487957
      7382.5000         0.9861       1077.807        63.6484       66.09649         0.9521       -40.5635      -4.624489      0.7041806      0.9510204
      7383.0000         0.9819       1080.934        62.9567       64.89127         0.9571       -41.1529      -5.223263      0.6785377      0.9429289
      7383.5000         0.9896       1083.336        61.5817       62.49352         0.9622       -41.7416      -5.821335      0.6275217      0.9348468
      7384.0000         0.9972       1085.004        60.2079       60.09787         0.9672        -42.331      -6.420109      0.5765505      0.9267553
      7384.5000         1.0085       1086.607        58.8156       57.66995         0.9723       -42.9203       -7.01878      0.5248926      0.9186651
      7385.0000         1.0238        1079.99        57.3962       55.19471         0.9682       -43.1086      -7.216454      0.4722278      0.9159939
      7385.5000          1.039       1073.141        55.9743       52.71515         0.9626       -42.7408      -6.858028      0.4194712      0.9208375
      7386.0000         1.0349       1065.707        56.7383       54.05043          0.957        -42.373      -6.499603      0.4478815      0.9256811
      7386.5000         1.0277       1057.607        57.5616       55.48919         0.9515       -42.9648      -7.100777      0.4784935      0.9175571
      7387.0000         1.0205        1049.51        58.3849       56.92796         0.9459       -44.0621      -8.207447      0.5091056      0.9026021
      7387.5000         1.0133        1041.41        59.2094       58.36884         0.9403       -45.1606      -9.315319      0.5397624      0.8876308
      7388.0000         1.0038       1046.143        59.9049       59.58458         0.9423       -45.8413      -10.00539      0.5656292      0.8783055
      7388.5000         0.9937       1051.119        60.4214       60.48791         0.9452       -46.2103      -10.38377      0.5848492      0.8731924
      7389.0000          0.985       1060.121         60.925       61.36875          0.948       -46.3626      -10.54544      0.6035904      0.8710076
      7389.5000         1.0069       1069.109         60.888       61.30609         0.9509       -46.2258      -10.41801      0.6022572      0.8727296
      7390.0000         1.0183       1078.111        60.0351       59.81955         0.9537       -45.9629      -10.16449      0.5706287      0.8761556
      7390.5000         1.0172       1087.113        59.3019       58.54187         0.9421       -44.7385      -8.949459      0.5434441      0.8925749
      7391.0000          1.016       1097.787        60.8398       61.22779         0.9289       -43.5153      -7.735634      0.6005913      0.9089779
      7391.5000         1.0039       1109.947        61.9359       63.14267         0.9157       -42.7383      -6.968006      0.6413333      0.9193513
      7392.0000         0.9653       1122.107        62.9678       64.94547          0.893        -42.036      -6.275078      0.6796907      0.9287152
      7392.5000         0.9322       1140.318        63.9996       66.74815           0.84       -41.3337       -5.58215      0.7180457      0.9380791
      7393.0000         0.8992       1162.982        64.5331       67.68115         0.7869       -40.6314      -4.889225      0.7378969      0.9474429
      7393.5000         0.8734        1185.67        64.4933       67.61364         0.7319       -39.9291      -4.196297      0.7364604      0.9568068
      7394.0000         0.8534       1208.332        64.1473       67.01173         0.6617       -39.4595      -3.736069      0.7236537      0.9630261
      7394.5000         0.8483        1232.24        63.8015       66.41013         0.6153       -39.0145      -3.300442      0.7108539       0.968913
      7395.0000         0.8579       1256.172        63.4355       65.77335         0.5896       -38.5689       -2.86422      0.6973054      0.9748079
      7395.5000         0.8775       1280.078        62.9887       64.99552         0.5736       -38.1573       -2.46199      0.6807558      0.9802434
      7396.0000         0.9009       1303.521        62.5425       64.21873         0.5948       -37.8392      -2.153263      0.6642283      0.9844154
      7396.5000           0.97       1325.137        62.0958       63.44107         0.6159       -37.5321      -1.855537      0.6476824      0.9884387
      7397.0000         1.0028       1307.717        61.6489       62.66309         0.6371       -37.3409       -1.67371      0.6311296      0.9908958
      7397.5000         1.0333       1266.344        61.2021       61.88526         0.6582       -37.3779      -1.720081        0.61458      0.9902692
      7398.0000         1.0549        1225.02        61.1793        61.8474         0.7095       -37.4294      -1.780956      0.6137745      0.9894465
      7398.5000         1.0755       1189.695        61.5165       62.43783         0.7994       -37.6778      -2.038727      0.6263368      0.9859632
