#------------------------------------------------------------------------------
# Created by    : vladimir.rabinovich
# Created on    : 09/19/2023 17:20:34
#------------------------------------------------------------------------------
~Version Information Section
VERS.           2.0     :   CWLS log ASCII Standard - VERSION 2.0
WRAP.           NO      :   One line per depth step
~Well Information Section
#MNEM       .UNIT                                         VALUE :DESCRIPTION
#------------------------------------------------------------------------------
STRT        .FT                                             495 :START DEPTH
STOP        .FT                                            9652 :STOP DEPTH
STEP        .FT                                             0.5 :STEP      
NULL        .                                           -999.25 :NULL      
COMP        .                                      SHELL OIL CO :COMPANY   
WELL        .                                OCS 00714 ST00BP00 :WELL      
FLD         .                                FEDERAL BLOCK 0288 :FIELD     
LOC         .                                                   :LOCATION  
CNTY        .                             GALVESTON LARGE BLOCK :LOCATION  
STAT        .                                             TEXAS :STATE     
CTRY        .                                     UNITED STATES :COUNTRY   
SRVC        .                                                   :SERVICE COMPANY
DATE        .                             9/13/2023 11:19:25 AM :LOG DATE  
API         .                                    42706000490000 :API NUMBER
UWI         .                                    42706000490000 :UNIQUE WELL ID
XCOORD      .                                  1093419.85109126 :SURFACE X 
YCOORD      .                                  10468907.9519753 :SURFACE Y 
LAT         .                                         28.836806 :LATITUDE  
LON         .                                        -94.708909 :LONGITUDE 
ELEV        .FT                                              83 :ELEVATION VALUE
ELEV_TYPE   .                                                KB :ELEVATION REFERENCE TYPE
~Curve Information Section
#MNEM       .UNIT                                      API CODE :CURVE DESCRIPTION
#------------------------------------------------------------------------------
DEPT        .FT                                                 :DEPTH     
ASN         .OHMM                                               :          
ASN_1       .OHMM                                               :          
CALI        .IN                                                 :          
CALI_1      .IN                                                 :          
DRHO        .G/C3                                               :          
DT          .US/F                                               :          
ILD         .OHMM                                               :          
LAT         .OHMM                                               :          
LN          .OHMM                                               :          
RHOB        .G/C3                                               :          
SP          .MV                                                 :          
SP_1        .MV                                                 :          
SP_NORM     .MV                                                 :SP Normalized
VSH_SP      .V/V                                                :Volume of Shale from SP
~A        DEPTH            ASN          ASN_1           CALI         CALI_1           DRHO             DT            ILD            LAT             LN           RHOB             SP           SP_1        SP_NORM         VSH_SP
# ...
      3015.0000          0.975        -999.25        -999.25        15.8324        -999.25       135.3091         0.7459        -999.25        -999.25        -999.25        -999.25       -45.3218              0              1
      3015.5000         0.9888        -999.25        -999.25        15.6675        -999.25       132.3162         0.7602        -999.25        -999.25        -999.25        -999.25       -45.3871              0              1
      3016.0000         1.0011        -999.25        -999.25        14.3949        -999.25       120.2064         0.7644        -999.25        -999.25        -999.25        -999.25       -45.2277              0              1
      3016.5000         1.0101        -999.25        -999.25        13.8589        -999.25       103.3228          0.766        -999.25        -999.25        -999.25        -999.25       -44.4713              0              1
      3017.0000          1.015        -999.25        -999.25        13.1434        -999.25        92.3906         0.7589        -999.25        -999.25        -999.25        -999.25       -43.7699              0              1
      3017.5000         1.0137        -999.25        -999.25        13.3605        -999.25       119.1111         0.7547        -999.25        -999.25        -999.25        -999.25        -43.079     -0.8567734              1
      3018.0000         1.0022        -999.25        -999.25        14.5464        -999.25         99.421          0.754        -999.25        -999.25        -999.25        -999.25       -42.8348     -0.6125755              1
      3018.5000         0.9901        -999.25        -999.25        14.3588        -999.25        74.4103         0.7583        -999.25        -999.25        -999.25        -999.25       -43.2029     -0.9806747              1
      3019.0000         0.9997        -999.25        -999.25        14.0643        -999.25        63.4905         0.7635        -999.25        -999.25        -999.25        -999.25       -43.9212      -1.698975              1
      3019.5000         1.0123        -999.25        -999.25        14.8937        -999.25        69.1158         0.7704        -999.25        -999.25        -999.25        -999.25       -44.5697      -2.347473      0.9848925
      3020.0000         1.0226        -999.25        -999.25        14.4408        -999.25        59.8821         0.7768        -999.25        -999.25        -999.25        -999.25       -45.2227      -3.000473      0.9565012
      3020.5000          1.032        -999.25        -999.25        13.0589        -999.25        64.2423         0.7807        -999.25        -999.25        -999.25        -999.25       -45.8894      -3.667175      0.9275141
      3021.0000          1.033        -999.25        -999.25         13.743        -999.25        65.0525           0.79        -999.25        -999.25        -999.25        -999.25       -46.0929      -3.870674      0.9186664
      3021.5000         1.0206        -999.25        -999.25        14.5996        -999.25        63.5731          0.803        -999.25        -999.25        -999.25        -999.25       -45.4015      -3.179276      0.9487271
      3022.0000         1.0221        -999.25        -999.25        14.6338        -999.25        64.8232         0.8155        -999.25        -999.25        -999.25        -999.25       -44.3717      -2.149475      0.9935011
      3022.5000         1.0429        -999.25        -999.25        14.6041        -999.25        64.2925         0.8279        -999.25        -999.25        -999.25        -999.25       -43.5269      -1.304676              1
      3023.0000         1.0736        -999.25        -999.25         14.057        -999.25        62.4353         0.8456        -999.25        -999.25        -999.25        -999.25       -43.0407     -0.8184738              1
      3023.5000         1.1052        -999.25        -999.25        12.7587        -999.25        55.9514         0.8674        -999.25        -999.25        -999.25        -999.25       -43.2216     -0.9993744              1
      3024.0000         1.1298        -999.25        -999.25        12.3081        -999.25        57.8323         0.8863        -999.25        -999.25        -999.25        -999.25       -43.2128     -0.9905739              1
      3024.5000         1.1441        -999.25        -999.25        12.6844        -999.25        58.8659         0.9023        -999.25        -999.25        -999.25        -999.25        -42.645     -0.4227753              1
      3025.0000         1.1478        -999.25        -999.25        13.5939        -999.25        56.2792          0.917        -999.25        -999.25        -999.25        -999.25       -42.5117     -0.2894745              1
      3025.5000         1.1423        -999.25        -999.25        14.5751        -999.25        54.5729         0.9235        -999.25        -999.25        -999.25        -999.25       -42.6242     -0.4019737              1
      3026.0000         1.1333        -999.25        -999.25        14.7261        -999.25        53.0849           0.93        -999.25        -999.25        -999.25        -999.25       -43.2235      -1.001274              1
      3026.5000         1.1239        -999.25        -999.25        14.8793        -999.25        52.7832         0.9327        -999.25        -999.25        -999.25        -999.25       -43.5857      -1.363476              1
      3027.0000         1.1193        -999.25        -999.25        14.9257        -999.25        55.4493         0.9335        -999.25        -999.25        -999.25        -999.25       -43.2367      -1.014473              1
      3027.5000         1.1243        -999.25        -999.25        14.9193        -999.25        54.5245         0.9342        -999.25        -999.25        -999.25        -999.25       -43.2857      -1.063477              1
      3028.0000         1.1455        -999.25        -999.25        14.9041        -999.25         55.487         0.9349        -999.25        -999.25        -999.25        -999.25       -43.4583      -1.236076              1
      3028.5000         1.1713        -999.25        -999.25         14.735        -999.25        52.5618         0.9356        -999.25        -999.25        -999.25        -999.25       -43.6976      -1.475376              1
      3029.0000         1.1856        -999.25        -999.25        13.7993        -999.25        55.1353         0.9338        -999.25        -999.25        -999.25        -999.25       -43.7968      -1.574574              1
      3029.5000         1.1791        -999.25        -999.25        12.6428        -999.25        61.4003         0.9317        -999.25        -999.25        -999.25        -999.25       -43.6362      -1.413975              1
      3030.0000         1.1752        -999.25        -999.25        12.6634        -999.25        61.8088         0.9283        -999.25        -999.25        -999.25        -999.25       -43.3021      -1.079876              1
      3030.5000         1.1755        -999.25        -999.25        12.9645        -999.25        63.3995         0.9207        -999.25        -999.25        -999.25        -999.25       -42.9365     -0.7142754              1
      3031.0000         1.1732        -999.25        -999.25         14.564        -999.25         64.326         0.9131        -999.25        -999.25        -999.25        -999.25       -42.6959     -0.4736748              1
      3031.5000         1.1676        -999.25        -999.25        14.9115        -999.25        59.1022         0.9039        -999.25        -999.25        -999.25        -999.25       -42.6583     -0.4360733              1
      3032.0000         1.1587        -999.25        -999.25        14.9115        -999.25        51.3281         0.8937        -999.25        -999.25        -999.25        -999.25       -43.0331     -0.8108749              1
      3032.5000          1.154        -999.25        -999.25        14.8685        -999.25        46.7107         0.8834        -999.25        -999.25        -999.25        -999.25       -43.9055      -1.683273              1
