#------------------------------------------------------------------------------
# Created by    : vladimir.rabinovich
# Created on    : 09/19/2023 17:22:54
#------------------------------------------------------------------------------
~Version Information Section
VERS.           2.0     :   CWLS log ASCII Standard - VERSION 2.0
WRAP.           NO      :   One line per depth step
~Well Information Section
#MNEM       .UNIT                                         VALUE :DESCRIPTION
#------------------------------------------------------------------------------
STRT        .FT                                             494 :START DEPTH
STOP        .FT                                            6854 :STOP DEPTH
STEP        .FT                                             0.5 :STEP      
NULL        .                                           -999.25 :NULL      
COMP        .                          HUMBLE OIL & REFINING CO :COMPANY   
WELL        .                                     ST TR 00247-L :WELL      
FLD         .                                           WILDCAT :FIELD     
LOC         .                                                   :LOCATION  
CNTY        .                             GALVESTON LARGE BLOCK :LOCATION  
STAT        .                                             TEXAS :STATE     
CTRY        .                                     UNITED STATES :COUNTRY   
SRVC        .                                                   :SERVICE COMPANY
DATE        .                             9/13/2023 11:19:42 AM :LOG DATE  
API         .                                    42706000180000 :API NUMBER
UWI         .                                    42706000180000 :UNIQUE WELL ID
XCOORD      .                                  979775.061814126 :SURFACE X 
YCOORD      .                                  10543201.0009156 :SURFACE Y 
LAT         .                                        29.0361078 :LATITUDE  
LON         .                                       -95.0678326 :LONGITUDE 
ELEV        .FT                                              11 :ELEVATION VALUE
ELEV_TYPE   .                                                KB :ELEVATION REFERENCE TYPE
~Curve Information Section
#MNEM       .UNIT                                      API CODE :CURVE DESCRIPTION
#------------------------------------------------------------------------------
DEPT        .FT                                                 :DEPTH     
LAT         .OHMM                                               :          
LN          .OHMM                                               :          
SN          .OHMM                                               :          
SP          .MV                                                 :          
SP_NORM     .MV                                                 :SP Normalized
VSH_SP      .V/V                                                :Volume of Shale from SP
~A        DEPTH            LAT             LN             SN             SP        SP_NORM         VSH_SP
# ...
      5130.0000         0.4689         0.3309         0.5934      -106.0004      -58.22729      0.1058236
      5130.5000          0.393         0.3312          0.631      -107.5505      -59.77967     0.08156765
      5131.0000         0.3438         0.3314         0.6654      -108.5616      -60.79305     0.06573361
      5131.5000         0.3019         0.3321         0.6838      -109.5718      -61.80553     0.04991364
      5132.0000         0.3064          0.337         0.7022      -110.5536       -62.7896     0.03453743
      5132.5000         0.3116         0.3419         0.6939      -111.5015      -63.73979     0.01969081
      5133.0000         0.3169         0.3469         0.6787      -112.3641      -64.60466    0.006177187
      5133.5000         0.3141         0.3518         0.6635      -112.9764      -65.21925              0
      5134.0000         0.3056         0.3567         0.6271      -113.4545      -65.69962              0
      5134.5000          0.297         0.3623         0.5907      -113.5587       -65.8061              0
      5135.0000         0.2884         0.3681         0.5543      -113.5903      -65.83998              0
      5135.5000         0.2797         0.3739         0.5179      -113.4467      -65.69865              0
      5136.0000         0.2707         0.3797         0.4818      -112.9844      -65.23863              0
      5136.5000         0.2618         0.3855         0.4462      -112.4003      -64.65681    0.005362272
      5137.0000         0.2528         0.3854         0.4105      -111.8156      -64.07439     0.01446271
      5137.5000         0.2438         0.3809         0.3749       -111.245      -63.50608     0.02334255
      5138.0000         0.2709         0.3763         0.3393      -110.6841      -62.94745     0.03207111
      5138.5000         0.3255         0.3718         0.3045      -110.1226      -62.38823     0.04080898
      5139.0000         0.3801         0.3672         0.2699      -108.8724      -61.14031     0.06030768
      5139.5000         0.4346         0.3627         0.2354      -107.5166      -59.78679     0.08145642
      5140.0000         0.4883         0.3581         0.2259      -103.2708      -55.54326      0.1477615
      5140.5000         0.5418         0.3535         0.2359       -91.5521      -43.82685      0.3308305
      5141.0000         0.5955         0.3488         0.2459       -81.2482      -33.52522      0.4917934
      5141.5000         0.6465         0.3442         0.2827       -74.0625       -26.3418      0.6040344
      5142.0000         0.6822         0.3395           0.32       -69.4618      -21.74338      0.6758847
      5142.5000          0.718         0.3349         0.3572        -76.286      -28.56986      0.5692209
      5143.0000         0.7077         0.3302         0.3945       -89.4868      -41.77294      0.3629228
      5143.5000         0.6824         0.3256         0.4318       -92.6932      -44.98162      0.3127872
      5144.0000         0.6585         0.3236          0.469       -94.8862       -47.1769       0.278486
      5144.5000         0.6345         0.3252         0.4974       -89.2744      -41.56738      0.3661348
      5145.0000         0.6106         0.3267          0.503        -83.187      -35.48225      0.4612148
      5145.5000         0.6033         0.3283         0.5085       -79.4495      -31.74703      0.5195776
      5146.0000         0.6294         0.3299         0.5141       -76.0984      -28.39821       0.571903
      5146.5000         0.6555         0.3318         0.5049       -74.8691      -27.17119      0.5910751
      5147.0000         0.6666         0.3386         0.4941         -78.41      -30.71437       0.535713
      5147.5000         0.6719         0.3453         0.4834        -84.728      -37.03465      0.4369587
      5148.0000         0.6453         0.3521         0.4726       -86.3324      -38.64132      0.4118543
      5148.5000         0.6063         0.3588         0.4823       -81.0809      -33.39211      0.4938734
      5149.0000         0.5673         0.3653         0.5356        -76.826      -29.13948      0.5603206
      5149.5000         0.5283         0.3691         0.5868       -74.3721      -26.68786      0.5986272
      5150.0000         0.4893          0.373         0.6339       -99.7321      -52.05014      0.2023415
      5150.5000         0.4503         0.3768          0.681      -105.0648      -57.38512      0.1189826
      5151.0000         0.4123         0.3802         0.7272      -107.1449      -59.46749     0.08644539
      5151.5000         0.3744         0.3804         0.7183      -108.4475      -60.77238     0.06605655
      5152.0000         0.3365         0.3807         0.6774      -109.7491      -62.07626      0.0456835
      5152.5000         0.3014         0.3809         0.6238       -110.967      -63.29644     0.02661818
      5153.0000          0.272         0.3811         0.5622      -112.1726      -64.50432    0.007745028
      5153.5000         0.2427         0.3746         0.5005      -113.0719      -65.40589              0
      5154.0000         0.2133         0.3678         0.4388      -113.8284      -66.16467              0
      5154.5000         0.1839         0.3609         0.3827      -112.8934      -65.23195              0
      5155.0000         0.1651          0.354         0.3284      -111.4642      -63.80503     0.01867139
      5155.5000         0.1472         0.3472          0.274      -110.0598       -62.4029     0.04057962
      5156.0000         0.1292         0.3428         0.2324      -107.5233      -59.86869     0.08017677
      5156.5000         0.1528         0.3424         0.2206      -104.7101      -57.05776      0.1240975
      5157.0000           0.18         0.3421         0.2428      -101.9465      -54.29645       0.167243
      5157.5000         0.2072         0.3418         0.2651       -99.4994      -51.85162      0.2054434
      5158.0000         0.2344         0.3415         0.2873       -98.2001       -50.5546      0.2257093
      5158.5000         0.2518         0.3412         0.3004       -96.9816      -49.33838      0.2447128
      5159.0000         0.2473         0.3409         0.2993       -96.5443      -48.90335      0.2515101
      5159.5000         0.2428         0.3373         0.2982        -97.103      -49.46433      0.2427448
      5160.0000         0.2383          0.333         0.2971       -97.7465      -50.11012      0.2326545
      5160.5000          0.244         0.3288          0.296       -96.3427      -48.70859      0.2545533
      5161.0000          0.273         0.3245         0.2948        -88.809      -41.17717      0.3722317
      5161.5000         0.3021         0.3202         0.2881       -82.8435      -35.21395       0.465407
      5162.0000         0.3352          0.316         0.2813       -76.7966      -29.16933      0.5598542
      5162.5000         0.4066          0.312         0.2746       -72.5361      -24.91111      0.6263889
      5163.0000          0.478         0.3081         0.2679       -71.0752      -23.45249      0.6491798
      5163.5000          0.535         0.3042         0.2612       -71.4865      -23.86607      0.6427177
      5164.0000         0.5259         0.3002         0.2763        -77.931      -30.31284      0.5419868
      5164.5000         0.5101         0.2963         0.2956       -83.1237      -35.50783      0.4608152
      5165.0000         0.4942         0.2923         0.3149         -87.67       -40.0564      0.3897437
      5165.5000         0.4776         0.2884         0.3341       -84.8907      -37.27938      0.4331346
      5166.0000         0.4601         0.2918         0.3499       -72.8016      -25.19256      0.6219913
      5166.5000         0.4427         0.3034          0.364       -69.9364      -22.32964      0.6667244
      5167.0000         0.4252         0.3151         0.3781       -95.6331      -48.02862      0.2651778
      5167.5000         0.4077         0.3267         0.3813        -99.436      -51.83379       0.205722
