#------------------------------------------------------------------------------
# Created by    : vladimir.rabinovich
# Created on    : 09/19/2023 17:22:56
#------------------------------------------------------------------------------
~Version Information Section
VERS.           2.0     :   CWLS log ASCII Standard - VERSION 2.0
WRAP.           NO      :   One line per depth step
~Well Information Section
#MNEM       .UNIT                                         VALUE :DESCRIPTION
#------------------------------------------------------------------------------
STRT        .FT                                             890 :START DEPTH
STOP        .FT                                            9495 :STOP DEPTH
STEP        .FT                                             0.5 :STEP      
NULL        .                                           -999.25 :NULL      
COMP        .                                   MARATHON OIL CO :COMPANY   
WELL        .                               OCS G04138 ST00BP00 :WELL      
FLD         .                                           WILDCAT :FIELD     
LOC         .                                                   :LOCATION  
CNTY        .                      MATAGORDA ISLAND LARGE BLOCK :LOCATION  
STAT        .                                             TEXAS :STATE     
CTRY        .                                     UNITED STATES :COUNTRY   
SRVC        .                                                   :SERVICE COMPANY
DATE        .                             9/13/2023 11:12:11 AM :LOG DATE  
API         .                                    42703402070000 :API NUMBER
UWI         .                                    42703402070000 :UNIQUE WELL ID
XCOORD      .                                  590883.400226114 :SURFACE X 
YCOORD      .                                  10259990.6406746 :SURFACE Y 
LAT         .                                         28.233929 :LATITUDE  
LON         .                                        -96.259589 :LONGITUDE 
ELEV        .FT                                              90 :ELEVATION VALUE
ELEV_TYPE   .                                                KB :ELEVATION REFERENCE TYPE
~Curve Information Section
#MNEM       .UNIT                                      API CODE :CURVE DESCRIPTION
#------------------------------------------------------------------------------
DEPT        .FT                                                 :DEPTH     
SP          .MV                                                 :          
SP_NORM     .MV                                                 :SP Normalized
VSH_SP      .V/V                                                :Volume of Shale from SP
~A        DEPTH             SP        SP_NORM         VSH_SP
# ...
      8282.0000        10.8176       2.176311              1
      8282.5000        11.1181       1.872694              1
      8283.0000        11.6145       1.373178              1
      8283.5000        12.1304      0.8541613              1
      8284.0000        12.6464      0.3350439              1
      8284.5000        13.1623     -0.1839724              1
      8285.0000        14.3118      -1.336589      0.9923503
      8285.5000        14.6718      -1.699704      0.9840977
      8286.0000        15.5392      -2.570221      0.9643131
      8286.5000        16.1035      -3.137638      0.9514173
      8287.0000        16.3836      -3.420855      0.9449806
      8287.5000        16.6075      -3.647871      0.9398211
      8288.0000        16.7773      -3.820787      0.9358912
      8288.5000        16.9063      -3.952904      0.9328886
      8289.0000        16.8661      -3.915821      0.9337313
      8289.5000        16.8259      -3.878736      0.9345742
      8290.0000        16.7249      -3.780853      0.9367988
      8290.5000        16.4727       -3.53177      0.9424598
      8291.0000        16.2206      -3.282786      0.9481185
      8291.5000        15.9111      -2.976403      0.9550818
      8292.0000        15.5999       -2.66832      0.9620836
      8292.5000        14.9895      -2.061036      0.9758856
      8293.0000        14.0704      -1.145053      0.9967033
      8293.5000        12.9013     0.02093029              1
      8294.0000        12.3038      0.6153145              1
      8294.5000         12.029      0.8869972              1
      8295.0000        11.7542       1.158681              1
      8295.5000        11.5918       1.317966              1
      8296.0000         11.435       1.471648              1
      8296.5000        11.2781       1.625432              1
      8297.0000        11.1365       1.763915              1
      8297.5000        11.0132       1.884099              1
      8298.0000        10.8899       2.004282              1
      8298.5000        10.7666       2.124466              1
      8299.0000        10.7481       2.139849              1
      8299.5000        10.7328       2.152033              1
      8300.0000        10.7773       2.104417              1
      8300.5000        10.8937         1.9849              1
      8301.0000          11.01       1.865483              1
      8301.5000        11.1263       1.746067              1
      8302.0000        11.2304        1.63885              1
      8302.5000        11.3161       1.550034              1
      8303.0000        11.4019       1.461117              1
      8303.5000        11.4876         1.3723              1
      8304.0000        11.5629       1.293884              1
      8304.5000        11.6342       1.219467              1
      8305.0000        11.7056       1.144952              1
      8305.5000        11.7769       1.070535              1
      8306.0000        11.7503       1.094018              1
      8306.5000         11.708       1.133202              1
      8307.0000        11.6656       1.172485              1
      8307.5000        11.6371       1.197868              1
      8308.0000        11.6712       1.160652              1
      8308.5000        11.7053       1.123435              1
      8309.0000        11.7394       1.086219              1
      8309.5000        11.8366      0.9859018              1
      8310.0000         11.961       0.858386              1
      8310.5000        12.0854      0.7308702              1
      8311.0000        12.2058      0.6073532              1
      8311.5000        12.3124      0.4976368              1
      8312.0000         12.419      0.3879204              1
      8312.5000        12.5257      0.2781038              1
      8313.0000        12.6211      0.1795864              1
      8313.5000          12.66      0.1375704              1
      8314.0000        12.6989      0.0955534              1
      8314.5000        12.7378     0.05353737              1
      8315.0000        12.7714     0.01682091              1
      8315.5000        12.7598     0.02530479              1
      8316.0000        12.7482     0.03378773              1
      8316.5000        12.7366     0.04227161              1
      8317.0000        12.6416      0.1341553              1
      8317.5000        12.5276       0.245038              1
      8318.0000        12.4135      0.3560219              1
      8318.5000        12.2995      0.4669046              1
      8319.0000         12.177      0.5862885              1
      8319.5000        12.0394      0.7207718              1
      8320.0000        11.9019      0.8551559              1
      8320.5000        11.7643      0.9896393              1
      8321.0000        11.6398       1.111023              1
      8321.5000        11.6497       1.098006              1
      8322.0000        11.6597       1.084889              1
      8322.5000        11.6696       1.071874              1
      8323.0000        11.6886       1.049757              1
      8323.5000        12.0526      0.6826401              1
      8324.0000        12.4172      0.3149233              1
      8324.5000        12.7374   -0.008393288              1
      8325.0000        12.9681     -0.2422085              1
      8325.5000        13.1988     -0.4760256              1
      8326.0000        13.2864     -0.5667419              1
      8326.5000        13.1914     -0.4748583              1
      8327.0000        13.0966     -0.3831749              1
      8327.5000        13.0292     -0.3188915              1
      8328.0000        13.1249     -0.4177084              1
      8328.5000        13.2207     -0.5166254              1
      8329.0000        13.3166     -0.6156416              1
      8329.5000        13.4051     -0.7072582              1
      8330.0000        13.4923      -0.797574              1
      8330.5000        13.5796      -0.887991              1
      8331.0000        13.6669     -0.9784069              1
      8331.5000        13.5425     -0.8571234              1
      8332.0000         13.366     -0.6837406              1
      8332.5000        13.1896      -0.510457              1
      8333.0000        13.0128     -0.3367739              1
      8333.5000        12.8002     -0.1272907              1
      8334.0000        12.3743      0.2954931              1
      8334.5000        11.9484       0.718277              1
      8335.0000        11.5226       1.140961              1
      8335.5000         11.033       1.627444              1
      8336.0000        10.7309       1.926428              1
      8336.5000         10.965       1.689211              1
      8337.0000        11.1993       1.451795              1
      8337.5000        11.4334       1.214578              1
      8338.0000        11.6457      0.9991608              1
      8338.5000        11.8265      0.8152447              1
      8339.0000        12.0076      0.6310282              1
      8339.5000        12.1883      0.4472122              1
      8340.0000        12.3694      0.2629957              1
      8340.5000        12.4845      0.1447792              1
      8341.0000        12.3447      0.2814627              1
      8341.5000        12.2052      0.4178457              1
      8342.0000        11.9313      0.6886292              1
      8342.5000        11.5955       1.021313              1
      8343.0000        11.3774       1.236296              1
      8343.5000        11.3777        1.23288              1
      8344.0000         11.378       1.229463              1
      8344.5000        11.3999       1.204447              1
      8345.0000        11.4857       1.115531              1
      8345.5000        11.5713       1.026814              1
      8346.0000        11.6571      0.9378977              1
      8346.5000         11.758      0.8338804              1
      8347.0000          11.87      0.7187643              1
      8347.5000         11.982      0.6036472              1
