#------------------------------------------------------------------------------
# Created by    : vladimir.rabinovich
# Created on    : 09/19/2023 17:21:34
#------------------------------------------------------------------------------
~Version Information Section
VERS.           2.0     :   CWLS log ASCII Standard - VERSION 2.0
WRAP.           NO      :   One line per depth step
~Well Information Section
#MNEM       .UNIT                                         VALUE :DESCRIPTION
#------------------------------------------------------------------------------
STRT        .FT                                            4495 :START DEPTH
STOP        .FT                                            9058 :STOP DEPTH
STEP        .FT                                             0.5 :STEP      
NULL        .                                           -999.25 :NULL      
COMP        .                          SEAGULL ENERGY E & P INC :COMPANY   
WELL        .                               OCS G11322 ST00BP00 :WELL      
FLD         .                                           WILDCAT :FIELD     
LOC         .                                                   :LOCATION  
CNTY        .                             GALVESTON LARGE BLOCK :LOCATION  
STAT        .                                             TEXAS :STATE     
CTRY        .                                     UNITED STATES :COUNTRY   
SRVC        .                                                   :SERVICE COMPANY
DATE        .                             9/13/2023 11:19:34 AM :LOG DATE  
API         .                                    42706402570000 :API NUMBER
UWI         .                                    42706402570000 :UNIQUE WELL ID
XCOORD      .                                  1032943.49501878 :SURFACE X 
YCOORD      .                                  10418025.6284813 :SURFACE Y 
LAT         .                                         28.694364 :LATITUDE  
LON         .                                        -94.895236 :LONGITUDE 
ELEV        .FT                                              97 :ELEVATION VALUE
ELEV_TYPE   .                                                KB :ELEVATION REFERENCE TYPE
~Curve Information Section
#MNEM       .UNIT                                      API CODE :CURVE DESCRIPTION
#------------------------------------------------------------------------------
DEPT        .FT                                                 :DEPTH     
CALI        .IN                                                 :          
DCAL        .IN                                                 :          
DPHI        .%                                                  :          
DRHO        .G/C3                                               :          
GR          .GAPI                                               :          
GR_1        .GAPI                                               :          
GR_NORM     .GAPI                                               :GammaRay Normalized
ILD         .OHMM                                               :          
ILM         .OHMM                                               :          
NPHI        .%                                                  :          
SGRD        .OHMM                                               :          
SP          .MV                                                 :          
SP_NORM     .MV                                                 :SP Normalized
VSH_GR      .V/V                                                :Volume of Shale from GR
VSH_SP      .V/V                                                :Volume of Shale from SP
~A        DEPTH           CALI           DCAL           DPHI           DRHO             GR           GR_1        GR_NORM            ILD            ILM           NPHI           SGRD             SP        SP_NORM         VSH_GR         VSH_SP
# ...
      8728.0000        18.4553        -999.25        17.9072        -0.1219         55.095        63.0296       67.04325         0.5676         0.5613        40.7869         0.6582       -44.0735      -1.851276      0.7243245      0.9691454
      8728.5000        17.4268        -999.25        17.4191        -0.1009        58.5894        66.0685        70.8646         0.5694         0.5652        40.7335         0.6549       -44.1517      -1.929474      0.8056298      0.9678421
      8729.0000        16.7857        -999.25        17.4473         -0.085        62.6205        65.1914       69.76168         0.5707         0.5673        40.8638         0.6331       -44.3729      -2.150673      0.7821634      0.9641554
      8729.5000        16.4166        -999.25        19.7798         -0.076        62.0583         64.291       68.62944           0.57         0.5689        41.1239         0.6161         -44.67      -2.447773      0.7580732      0.9592038
      8730.0000         16.157        -999.25         20.315         -0.073        62.1543         64.104       68.39428         0.5653         0.5694        41.0703         0.6224       -45.0828      -2.860577      0.7530698      0.9523237
      8730.5000        15.8542        -999.25        19.6181        -0.0708         64.045        64.1033       68.39341         0.5611         0.5705        40.8583         0.6428       -45.1808      -2.958576      0.7530513      0.9506904
      8731.0000         15.469        -999.25        19.5883        -0.0656        63.0214        62.9509       66.94428         0.5581         0.5714        40.3105         0.6559       -44.8495      -2.627274      0.7222188      0.9562121
      8731.5000        15.1589        -999.25        19.4647        -0.0584        62.6766        63.5821       67.73801         0.5546         0.5685        39.0831         0.6678       -44.4852      -2.262974      0.7391065      0.9622838
      8732.0000        15.0472        -999.25        19.1025        -0.0527         64.604        63.9763        68.2337         0.5507         0.5604        38.1193         0.6578       -44.0527      -1.830475      0.7496533      0.9694921
      8732.5000        15.0631        -999.25        20.2162        -0.0557         66.944         65.271       69.86178         0.5437         0.5512        38.0665         0.6371       -43.5986      -1.376373      0.7842932      0.9770604
      8733.0000        15.1396        -999.25        20.9888        -0.0539        66.2225        68.3672       73.75519         0.5308         0.5424        38.1591         0.6219       -43.1472     -0.9249763      0.8671317      0.9845837
      8733.5000        15.2892        -999.25         20.494         -0.052        67.8867        72.3809       78.80233         0.5203         0.5376         38.015         0.6323       -42.7081     -0.4858742      0.9745176      0.9919021
      8734.0000        15.4395        -999.25        19.6699        -0.0491        71.3394        74.1472       81.02344         0.5107         0.5338        37.0143         0.6483       -42.3588     -0.1365738              1      0.9977238
      8734.5000        15.2026        -999.25         18.375        -0.0446        74.0371        76.3372       83.77731         0.5028         0.5296        35.8402         0.6621       -42.0272      0.1950264              1              1
      8735.0000        14.8107        -999.25        17.3061        -0.0368        76.1604        77.0409        84.6622         0.4988         0.5246        35.0356         0.6489        -41.733      0.4892235              1              1
      8735.5000        14.5339        -999.25        16.5534         -0.029        78.0146        77.8384       85.66505         0.5008         0.5215        35.0316          0.629       -41.5073      0.7149239              1              1
      8736.0000        14.3103        -999.25        16.3156        -0.0211         79.451        79.1364       87.29726         0.5003          0.521        35.1254         0.6182       -41.3061      0.9161263              1              1
      8736.5000        14.1955        -999.25        16.6719        -0.0142        83.2065        80.9033        89.5191         0.4998         0.5217        35.2106         0.6223       -41.0391       1.183125              1              1
      8737.0000        14.1665        -999.25          16.82         -0.008        85.8757        80.4225       88.91451         0.5003          0.523        35.3323         0.6405       -40.6924       1.529823              1              1
      8737.5000        14.1438        -999.25        16.7162        -0.0057        85.9528        83.1395       92.33109          0.502         0.5231        35.3497         0.6435       -40.5213       1.700924              1              1
      8738.0000        14.0892        -999.25        16.8948        -0.0053        84.3871         83.799        93.1604         0.5055         0.5252        35.2532         0.6382       -40.5096       1.712624              1              1
      8738.5000        13.9094        -999.25        17.3241        -0.0055         77.952        86.4182       96.45398         0.5092         0.5282        35.2587          0.637       -40.3851       1.837124              1              1
      8739.0000        13.7534        -999.25        17.6945        -0.0062        72.0654        85.3693       95.13503         0.5131         0.5263        34.9871         0.6513       -40.3672       1.855026              1              1
      8739.5000        13.6664        -999.25         17.863        -0.0078        68.1584        82.5245       91.55773         0.5171          0.527         34.701         0.6724       -40.3588       1.863426              1              1
      8740.0000         13.595        -999.25        17.8664        -0.0101        68.8896        79.9807       88.35894         0.5217           0.53         34.497         0.6863       -40.3336       1.888626              1              1
      8740.5000        13.5298        -999.25        18.1427        -0.0136        71.9452         76.358       83.80347         0.5281         0.5369        34.8419          0.675       -40.3023       1.919926              1              1
      8741.0000        13.4658        -999.25         18.364        -0.0169        74.4968        74.6223       81.62086          0.536         0.5447        35.3191         0.6629       -40.2894       1.932827              1              1
      8741.5000        13.3957        -999.25        18.0304        -0.0185        76.4999        72.7158       79.22347         0.5418         0.5526        35.8948         0.6589       -40.3887       1.833527      0.9834781              1
      8742.0000        13.3213        -999.25        17.9442        -0.0204        77.5081        72.9985       79.57896         0.5413         0.5558        36.0089         0.6611       -40.4202       1.802025      0.9910416              1
      8742.5000        13.2546        -999.25        17.8374        -0.0238         75.975        75.0522       82.16145         0.5407         0.5563        36.1318         0.6665       -40.5109       1.711327              1              1
      8743.0000        13.1839        -999.25        17.6494        -0.0263        72.7026         77.166       84.81951         0.5421         0.5561        36.2678         0.6839       -40.5515       1.670727              1              1
      8743.5000        13.1265        -999.25        17.6857        -0.0299        69.7253        78.8966       86.99572         0.5431         0.5555        36.0862         0.6909       -40.6443       1.577927              1              1
      8744.0000        13.1409        -999.25        17.9374        -0.0338        68.2316        78.7141       86.76623         0.5433         0.5562        35.8959         0.6938       -40.6474       1.574825              1              1
      8744.5000        13.1693        -999.25        17.1773        -0.0362        67.1711        77.5543       85.30779         0.5428         0.5577        36.1722         0.6904       -40.5417       1.680527              1              1
