#------------------------------------------------------------------------------
# Created by    : vladimir.rabinovich
# Created on    : 09/19/2023 17:22:48
#------------------------------------------------------------------------------
~Version Information Section
VERS.           2.0     :   CWLS log ASCII Standard - VERSION 2.0
WRAP.           NO      :   One line per depth step
~Well Information Section
#MNEM       .UNIT                                         VALUE :DESCRIPTION
#------------------------------------------------------------------------------
STRT        .FT                                            3512 :START DEPTH
STOP        .FT                                           11028 :STOP DEPTH
STEP        .FT                                             0.5 :STEP      
NULL        .                                           -999.25 :NULL      
COMP        .                          SEAGULL ENERGY E & P INC :COMPANY   
WELL        .                   ST TR 147-L NE/4 /ST LSE 88034/ :WELL      
FLD         .                                           WILDCAT :FIELD     
LOC         .                                                   :LOCATION  
CNTY        .                             GALVESTON LARGE BLOCK :LOCATION  
STAT        .                                             TEXAS :STATE     
CTRY        .                                     UNITED STATES :COUNTRY   
SRVC        .                                                   :SERVICE COMPANY
DATE        .                             9/13/2023 11:18:53 AM :LOG DATE  
API         .                                    42706302000000 :API NUMBER
UWI         .                                    42706302000000 :UNIQUE WELL ID
XCOORD      .                                  1107149.67333588 :SURFACE X 
YCOORD      .                                  10638300.0198507 :SURFACE Y 
LAT         .                                        29.3031745 :LATITUDE  
LON         .                                         -94.67354 :LONGITUDE 
ELEV        .FT                                              25 :ELEVATION VALUE
ELEV_TYPE   .                                                KB :ELEVATION REFERENCE TYPE
~Curve Information Section
#MNEM       .UNIT                                      API CODE :CURVE DESCRIPTION
#------------------------------------------------------------------------------
DEPT        .FT                                                 :DEPTH     
DT          .US/F                                               :          
GR          .GAPI                                               :          
GR_NORM     .GAPI                                               :GammaRay Normalized
ILD         .OHMM                                               :          
ILM         .OHMM                                               :          
SFL         .OHMM                                               :          
SP          .MV                                                 :          
SP_NORM     .MV                                                 :SP Normalized
VSH_GR      .V/V                                                :Volume of Shale from GR
VSH_SP      .V/V                                                :Volume of Shale from SP
~A        DEPTH             DT             GR        GR_NORM            ILD            ILM            SFL             SP        SP_NORM         VSH_GR         VSH_SP
# ...
      6501.0000       116.2937        38.8877        35.8792         0.1751         0.2194         1.6744       -100.912       -76.0754     0.06125958       0.183963
      6501.5000       116.9425         39.385        36.5055         0.1664         0.2106         1.7367       -101.123       -76.2864     0.07458521      0.1816696
      6502.0000       117.7531        39.3792       36.50058         0.1576         0.2039         1.6885      -101.6139       -76.7773     0.07448042      0.1763337
      6502.5000       118.2338        39.0881       36.13768         0.1502         0.1977         1.6316      -102.4607       -77.6241     0.06675907      0.1671294
      6503.0000       117.1227        39.0234       36.05884         0.1442         0.1926         1.6739      -102.6637       -77.8271     0.06508174      0.1649229
      6503.5000       114.5984        40.6315       38.07887         0.1416         0.1913         1.8179      -101.9072       -77.0706      0.1080611      0.1731456
      6504.0000       112.4026        42.6392       40.60028         0.1426         0.1909         1.9678      -100.0541       -75.2175      0.1617082      0.1932881
      6504.5000       111.7175        45.1574       43.76222           0.15         0.1924          1.907       -96.8782       -72.0416      0.2289834      0.2278087
      6505.0000       111.7782        47.8278       47.11513         0.1609         0.2033         1.6799       -92.2443       -67.4077      0.3003219      0.2781772
      6505.5000       111.8197        53.6152       54.37894         0.1766          0.222         1.5089       -86.4077       -61.5711      0.4548711      0.3416185
      6506.0000       111.2986        58.4601       60.46019         0.1846         0.2485         1.5057       -80.4535       -55.6169      0.5842595      0.4063381
      6506.5000       109.7313        61.5723       64.36743          0.196         0.2755         2.0049        -76.605       -51.7684      0.6673921      0.4481695
      6507.0000       108.3541        64.1346       67.58468         0.2136         0.2852            2.4       -72.6239       -47.7873      0.7358443      0.4914424
      6507.5000       106.9805        66.9965       71.17789          0.243         0.2948         2.1291       -67.4746        -42.638      0.8122955      0.5474131
      6508.0000       106.8591        71.1444       76.38461         0.2822         0.3187         1.5224       -60.3717       -35.5351      0.9230767      0.6246185
      6508.5000       108.7976        75.0763       81.32032          0.327         0.3661         1.0813       -52.7926        -27.956              1          0.707
      6509.0000       111.0719        78.3627       85.44611         0.3894         0.4593         1.0501       -41.2619       -16.4253              1      0.8323337
      6509.5000       113.4095        79.5015       86.87732         0.4701         0.5617          1.147       -35.5284       -10.6918              1      0.8946543
      6510.0000       112.6477        75.8126       82.25118         0.5605         0.6533         1.9949       -30.6148      -5.778198              1      0.9480631
      6510.5000       107.6384        67.1781       71.41981         0.6661         0.8442         3.6263       -32.6912      -7.854599      0.8174427      0.9254935
      6511.0000        96.2623        64.0168       67.45565         0.7738         0.9026         5.5438       -35.0253       -10.1887      0.7330989      0.9001228
      6511.5000        88.6113        61.4974       64.29689         0.8728         0.9061         6.5188       -36.1212       -11.2846      0.6658913      0.8882109
      6512.0000        85.7917        60.3107       62.81027          0.927         0.8749         5.1454       -36.9084       -12.0718      0.6342611      0.8796543
      6512.5000        89.3514        59.3915        61.6593         0.9502         0.8333         2.8914         -36.79       -11.9534      0.6097723      0.8809413
      6513.0000        95.6888        60.7501       63.36628         0.9212         0.7909         2.0572       -36.3071       -11.4705       0.646091      0.8861902
      6513.5000        99.3478        62.3884       65.42419         0.8748         0.7531         1.9022       -34.0362        -9.1996      0.6898765      0.9108739
      6514.0000       102.3009         63.067         66.278         0.8292         0.7368         1.9731       -30.6688      -5.832199      0.7080426      0.9474761
      6514.5000       105.4156        62.6044       65.69991         0.7814         0.7286         2.0427       -27.2572      -2.420599      0.6957428      0.9845587
      6515.0000       107.0038          63.04       66.24882         0.7515         0.7207         2.0968       -24.4273      0.4093018      0.7074217              1
      6515.5000       107.6753        68.8568       73.54951         0.7458         0.7237         2.0974       -22.9248         1.9118      0.8627557              1
      6516.0000       108.3314        73.8785       79.85259          0.779         0.7326         2.0117       -22.9289       1.907701      0.9968637              1
      6516.5000       109.6063        76.5624       83.22243         0.8168         0.7475         1.9336       -23.3658         1.4708              1              1
      6517.0000       112.3707        77.4337         84.318         0.8449         0.7726         1.8844       -23.9456      0.8910007              1              1
      6517.5000       114.5421        75.5671       81.97831         0.8739         0.8008         1.8615       -24.4954      0.3412018              1              1
      6518.0000       115.9341        68.1893       72.72372         0.9039         0.8301         1.9832       -24.9194      -0.082798      0.8451855              1
      6518.5000       113.6279        64.1052       67.60173         0.9379         0.8603         2.3549        -25.275     -0.4383984       0.736207              1
      6519.0000       108.9668        61.2066        63.9672         0.9776         0.8906         2.8822        -25.583     -0.7463989      0.6588765              1
      6519.5000       103.5948        59.2872       61.56126         1.0246         0.9208         2.9219       -25.8555      -1.018898      0.6076864      0.9997946
      6520.0000       101.2274        58.4571       60.52207         1.0699         0.9521         2.4739       -26.3945      -1.557899       0.585576      0.9939359
      6520.5000        99.2719         57.868       59.78528         1.1111         0.9855         2.2766       -28.1923        -3.3557      0.5698996      0.9743946
      6521.0000        98.0146        57.2919       59.06479         1.1482         1.0103         2.3107       -30.8897      -6.053099      0.5545699       0.945075
      6521.5000        97.3119         56.196        57.6921         1.1762           1.03         2.4238       -34.3503      -9.513699      0.5253639      0.9074598
      6522.0000        96.5834        54.6632       55.77124         1.1819         1.0348         2.5843       -38.3854       -13.5488      0.4844944         0.8636
      6522.5000        94.9144        52.8101       53.44849         1.1581         1.0173         2.7511       -42.4449       -17.6083      0.4350742       0.819475
      6523.0000         92.552        50.3656       50.38371          1.071         0.9785         2.8824       -50.6917       -25.8551      0.3698662      0.7298359
      6523.5000        90.3513        47.3123       46.55507         0.8979          0.907         3.1675       -61.0786        -36.242      0.2884057      0.6169348
      6524.0000        88.1212        43.5129       41.79029          0.712         0.7922         3.5774       -70.4641       -45.6275      0.1870275      0.5149184
      6524.5000        92.2383        39.9983       37.38286         0.5808         0.6073          3.701       -79.9282       -55.0916     0.09325238      0.4120478
      6525.0000         97.223        37.1733       33.84067          0.423         0.3976          2.919       -87.6006        -62.764     0.01788663      0.3286522
