#------------------------------------------------------------------------------
# Created by    : vladimir.rabinovich
# Created on    : 09/19/2023 17:22:38
#------------------------------------------------------------------------------
~Version Information Section
VERS.           2.0     :   CWLS log ASCII Standard - VERSION 2.0
WRAP.           NO      :   One line per depth step
~Well Information Section
#MNEM       .UNIT                                         VALUE :DESCRIPTION
#------------------------------------------------------------------------------
STRT        .FT                                             890 :START DEPTH
STOP        .FT                                            9058 :STOP DEPTH
STEP        .FT                                             0.5 :STEP      
NULL        .                                           -999.25 :NULL      
COMP        .                            COASTAL OIL & GAS CORP :COMPANY   
WELL        .                               OCS G01773 ST00BP00 :WELL      
FLD         .                                           WILDCAT :FIELD     
LOC         .                                                   :LOCATION  
CNTY        .                             GALVESTON LARGE BLOCK :LOCATION  
STAT        .                                             TEXAS :STATE     
CTRY        .                                     UNITED STATES :COUNTRY   
SRVC        .                                                   :SERVICE COMPANY
DATE        .                             9/13/2023 11:19:54 AM :LOG DATE  
API         .                                    42706403500000 :API NUMBER
UWI         .                                    42706403500000 :UNIQUE WELL ID
XCOORD      .                                  1074939.13305719 :SURFACE X 
YCOORD      .                                   10531967.363633 :SURFACE Y 
LAT         .                                         29.009472 :LATITUDE  
LON         .                                        -94.769566 :LONGITUDE 
ELEV        .FT                                              83 :ELEVATION VALUE
ELEV_TYPE   .                                                KB :ELEVATION REFERENCE TYPE
~Curve Information Section
#MNEM       .UNIT                                      API CODE :CURVE DESCRIPTION
#------------------------------------------------------------------------------
DEPT        .FT                                                 :DEPTH     
DCAL        .IN                                                 :          
DPSS        .V/V                                                :          
DRHO        .G/CM3                                              :          
DTLF        .US/FT                                              :          
DTLN        .US/FT                                              :          
GR          .GAPI                                               :          
GRS         .GAPI                                               :          
NPSS        .V/V                                                :Neutron Porosity Sandstone
SFL         .OHMM                                               :          
SP          .MV                                                 :          
SP_NORM     .MV                                                 :SP Normalized
SPHI_SAN    .V/V                                                :          
TENS        .LB                                                 :          
VSH_SP      .V/V                                                :Volume of Shale from SP
~A        DEPTH           DCAL           DPSS           DRHO           DTLF           DTLN             GR            GRS           NPSS            SFL             SP        SP_NORM       SPHI_SAN           TENS         VSH_SP
# ...
      3806.0000          1.861        -999.25        -999.25        -999.25        -999.25        26.8264        -999.25        -999.25         0.7272       -43.8235       -51.7331         0.3806       1930.172      0.3102253
      3806.5000         1.8593        -999.25        -999.25        -999.25        -999.25         27.816        -999.25        -999.25         0.7135       -43.2353       -51.1449         0.3709       1931.172       0.318068
      3807.0000         1.8575        -999.25        -999.25        -999.25        -999.25             30        -999.25        -999.25         0.7067       -41.7647       -49.6743          0.354       1932.173      0.3376759
      3807.5000         1.8557        -999.25        -999.25        -999.25        -999.25        32.6139        -999.25        -999.25         0.7342            -40       -47.9096         0.3348       1933.173      0.3612053
      3808.0000         1.8539        -999.25        -999.25        -999.25        -999.25        35.0218        -999.25        -999.25          0.822       -37.3529       -45.2625         0.3156       1934.374      0.3964999
      3808.5000         1.8521        -999.25        -999.25        -999.25        -999.25        36.8228        -999.25        -999.25         0.9087       -33.8235       -41.7331         0.3024       1935.374      0.4435586
      3809.0000         1.8504        -999.25        -999.25        -999.25        -999.25        39.4222        -999.25        -999.25         0.9087       -30.2941       -38.2037         0.2964       1936.375      0.4906173
      3809.5000         1.8486        -999.25        -999.25        -999.25        -999.25        42.4595        -999.25        -999.25         0.8919            -25       -32.9096            0.3       1937.375      0.5612053
      3810.0000         1.8469        -999.25        -999.25        -999.25        -999.25         46.736        -999.25        -999.25         0.8295       -20.2941       -28.2037         0.3072       1938.375      0.6239506
      3810.5000         1.8462        -999.25        -999.25        -999.25        -999.25        49.1837        -999.25        -999.25         0.7627       -15.2941       -23.2037         0.3168       1938.776      0.6906173
      3811.0000         1.8462        -999.25        -999.25        -999.25        -999.25        49.7959        -999.25        -999.25         0.7483       -11.9388       -19.8484         0.3252       1938.776      0.7353546
      3811.5000         1.8462        -999.25        -999.25        -999.25        -999.25        48.9796        -999.25        -999.25         0.7483        -9.4898       -17.3994           0.33       1938.776      0.7680079
      3812.0000         1.8462        -999.25        -999.25        -999.25        -999.25        48.9796        -999.25        -999.25         0.7342        -7.9592       -15.8688         0.3324       1938.776      0.7884159
      3812.5000         1.8462        -999.25        -999.25        -999.25        -999.25        49.5918        -999.25        -999.25         0.7272        -7.0408      -14.95041         0.3324       1938.776      0.8006613
      3813.0000         1.8462        -999.25        -999.25        -999.25        -999.25        50.6122        -999.25        -999.25         0.6874        -6.4286       -14.3382         0.3276       1938.776      0.8088239
      3813.5000         1.8462        -999.25        -999.25        -999.25        -999.25        51.6327        -999.25        -999.25         0.6751        -6.1224        -14.032         0.3252       1938.776      0.8129066
      3814.0000         1.8462        -999.25        -999.25        -999.25        -999.25        49.5918        -999.25        -999.25         0.6629        -7.3469       -15.2565         0.3216       1938.776        0.79658
      3814.5000         1.8462        -999.25        -999.25        -999.25        -999.25        45.3061        -999.25        -999.25         0.7067        -9.4898       -17.3994         0.3204       1938.776      0.7680079
      3815.0000         1.8462        -999.25        -999.25        -999.25        -999.25        41.2245        -999.25        -999.25         0.8146       -13.4694      -21.37901         0.3216       1938.776      0.7149466
      3815.5000         1.8462        -999.25        -999.25        -999.25        -999.25             37        -999.25        -999.25            0.9       -17.9412      -25.85081         0.3288       1938.776      0.6553226
      3816.0000         1.8462        -999.25        -999.25        -999.25        -999.25           33.8        -999.25        -999.25              1       -22.9412      -30.85081          0.336       1938.776      0.5886559
      3816.5000         1.8462        -999.25        -999.25        -999.25        -999.25             32        -999.25        -999.25         1.0367       -26.4706       -34.3802         0.3432       1938.776      0.5415973
      3817.0000         1.8462        -999.25        -999.25        -999.25        -999.25           32.8        -999.25        -999.25         0.9442       -28.8235       -36.7331         0.3432       1938.776      0.5102253
      3817.5000         1.8462        -999.25        -999.25        -999.25        -999.25           35.6        -999.25        -999.25         0.8601       -29.4118       -37.3214         0.3372       1938.776      0.5023813
      3818.0000         1.8462        -999.25        -999.25        -999.25        -999.25           36.8        -999.25        -999.25         0.8601       -29.1176       -37.0272         0.3264       1938.776       0.506304
      3818.5000         1.8462        -999.25        -999.25        -999.25        -999.25           36.6        -999.25        -999.25         0.9352       -28.8235       -36.7331         0.3192       1938.776      0.5102253
      3819.0000         1.8462        -999.25        -999.25        -999.25        -999.25           35.4        -999.25        -999.25         0.9905       -28.8235       -36.7331         0.3132       1938.776      0.5102253
      3819.5000         1.8462        -999.25        -999.25        -999.25        -999.25           35.6        -999.25        -999.25         0.9624       -29.4118       -37.3214         0.3108       1938.776      0.5023813
      3820.0000         1.8462        -999.25        -999.25        -999.25        -999.25             36        -999.25        -999.25            0.9       -29.4118       -37.3214          0.312       1938.776      0.5023813
      3820.5000         1.8462        -999.25        -999.25        -999.25        -999.25           36.8        -999.25        -999.25          0.868       -28.8235       -36.7331         0.3168       1938.776      0.5102253
      3821.0000         1.8462        -999.25        -999.25        -999.25        -999.25           37.4        -999.25        -999.25         0.9174       -28.8235       -36.7331         0.3204       1938.776      0.5102253
      3821.5000         1.8462        -999.25        -999.25        -999.25        -999.25           37.8        -999.25        -999.25         0.9442       -28.5294        -36.439         0.3252       1938.776      0.5141466
      3822.0000         1.8462        -999.25        -999.25        -999.25        -999.25           38.8        -999.25        -999.25         0.9532       -27.9412       -35.8508         0.3336       1938.776      0.5219893
      3822.5000         1.8462        -999.25        -999.25        -999.25        -999.25        41.0204        -999.25        -999.25         0.8371       -27.0588       -34.9684          0.342       1938.776      0.5337546
      3823.0000         1.8462        -999.25        -999.25        -999.25        -999.25        42.8571        -999.25        -999.25         0.7272       -25.8824        -33.792         0.3516       1938.776        0.54944
      3823.5000         1.8462        -999.25        -999.25        -999.25        -999.25        43.0612        -999.25        -999.25         0.6335            -25       -32.9096         0.3564       1938.776      0.5612053
