#------------------------------------------------------------------------------
# Created by    : vladimir.rabinovich
# Created on    : 09/19/2023 17:19:48
#------------------------------------------------------------------------------
~Version Information Section
VERS.           2.0     :   CWLS log ASCII Standard - VERSION 2.0
WRAP.           NO      :   One line per depth step
~Well Information Section
#MNEM       .UNIT                                         VALUE :DESCRIPTION
#------------------------------------------------------------------------------
STRT        .FT                                             130 :START DEPTH
STOP        .FT                                            9502 :STOP DEPTH
STEP        .FT                                             0.5 :STEP      
NULL        .                                           -999.25 :NULL      
COMP        .            MOBIL PRODUCING TEXAS & NEW MEXICO INC :COMPANY   
WELL        .                               OCS G07243 ST00BP00 :WELL      
FLD         .                                           WILDCAT :FIELD     
LOC         .                                                   :LOCATION  
CNTY        .                             GALVESTON LARGE BLOCK :LOCATION  
STAT        .                                             TEXAS :STATE     
CTRY        .                                     UNITED STATES :COUNTRY   
SRVC        .                                                   :SERVICE COMPANY
DATE        .                             9/13/2023 11:19:36 AM :LOG DATE  
API         .                                    42706401330000 :API NUMBER
UWI         .                                    42706401330000 :UNIQUE WELL ID
XCOORD      .                                  993943.906145108 :SURFACE X 
YCOORD      .                                  10496155.9223708 :SURFACE Y 
LAT         .                                         28.907432 :LATITUDE  
LON         .                                        -95.020991 :LONGITUDE 
ELEV        .FT                                              92 :ELEVATION VALUE
ELEV_TYPE   .                                                KB :ELEVATION REFERENCE TYPE
~Curve Information Section
#MNEM       .UNIT                                      API CODE :CURVE DESCRIPTION
#------------------------------------------------------------------------------
DEPT        .FT                                                 :DEPTH     
ASFL        .OHMM                                               :          
CILD        .MMHO                                               :          
DT          .US/F                                               :          
GR          .GAPI                                               :          
GR_NORM     .GAPI                                               :GammaRay Normalized
ILD         .OHMM                                               :          
SP          .MV                                                 :          
SP_NORM     .GAPI                                               :SP Normalized
VSH_GR      .V/V                                                :Volume of Shale from GR
VSH_SP      .V/V                                                :Volume of Shale from SP
~A        DEPTH           ASFL           CILD             DT             GR        GR_NORM            ILD             SP        SP_NORM         VSH_GR         VSH_SP
# ...
      5128.0000         1.9974       1049.215       102.7764        39.2599       41.13455         0.9617        45.2352       -48.0507      0.1730755      0.1362608
      5128.5000         0.6577       1377.693       110.3162        36.1176       37.79128         0.7959        42.6216      -51.08186       0.101942     0.07682636
      5129.0000         0.6315       2027.164       115.7462          33.34       34.83598         0.6585        40.7274      -53.27868     0.03906347     0.03375139
      5129.5000          0.607       2429.242       117.1046        30.8756       32.21389         0.5431        39.3826      -54.83833              0    0.003169939
      5130.0000         0.5911       3938.949       122.1975        30.8719       32.20955         0.4437        38.5739      -55.77623              0              0
      5130.5000         0.5751       4000.031       128.6777        32.3073       33.73618          0.361         37.765      -56.71436     0.01566331              0
      5131.0000          0.568       4440.305       133.3274        33.9323       35.46451          0.294        38.5273      -55.83028     0.05243634              0
      5131.5000         0.5779       5147.188       131.1802        35.6368       37.27741          0.227        40.1132        -53.991     0.09100869     0.01978422
      5132.0000         0.5879       5257.859       128.2322        38.2394       40.04574         0.1989        44.1144      -49.35056      0.1499093      0.1107733
      5132.5000         0.5978       5321.859       122.7222        40.2657       42.20098         0.1766          46.29      -46.82738      0.1957655      0.1602474
      5133.0000         0.6077         5287.5       115.1565         41.356       43.36047         0.1722        44.2074      -49.24271      0.2204355      0.1128881
      5133.5000         0.6177       4232.648       115.5093        40.8941        42.8687         0.1815        41.9363      -51.87665      0.2099723      0.0612422
      5134.0000         0.6289       4120.641       117.1281           40.3       42.23628         0.1907        39.6628      -54.51336      0.1965166    0.009541905
      5134.5000         0.6442       3811.043       118.2284        39.7053       41.60322            0.2        39.1343       -55.1263      0.1830473              0
      5135.0000         0.6595        3631.25       118.7993        39.1107       40.97027         0.2093        41.2242      -52.70251      0.1695803     0.04504881
      5135.5000         0.6353       3543.516       117.2643        38.4677       40.28583         0.2166        43.3116      -50.28162      0.1550177     0.09251718
      5136.0000         0.6063       3491.676       116.1458        37.7787       39.55246          0.222         44.829       -48.5218      0.1394141      0.1270236
      5136.5000         0.5797       3436.289       115.9641        37.0035       38.72739         0.2275        46.2791      -46.84002      0.1218593      0.1599995
      5137.0000         0.5591       3396.609       116.6405        47.4093       49.79699         0.2329        47.5118      -45.41039      0.3573827      0.1880317
      5137.5000         0.5407       3694.168       118.5192        42.2798       44.33968         0.2384        46.9086      -46.10995      0.2412697      0.1743147
      5138.0000         0.5405       3863.184       119.5242        37.2189       38.95533         0.2438        46.3047      -46.81033      0.1267092      0.1605817
      5138.5000         0.5497       4083.082       120.0774        34.6848       36.25909         0.2492        45.7014      -47.51002     0.06934235      0.1468623
      5139.0000         0.5594        4310.68       123.9104        32.7943       34.24753         0.2543        45.0975       -48.2104     0.02654323      0.1331294
      5139.5000         0.5734       4289.164       126.8906        31.3748       32.73703         0.2595        44.6191      -48.76523              0      0.1222503
      5140.0000         0.5875       4211.867       129.0515        31.7835       33.17142         0.2646        45.8923      -47.28862    0.003647175      0.1512035
      5140.5000         0.6015       4114.195       128.1208         34.916       36.50347         0.2697        47.4414      -45.49203     0.07454186      0.1864307
      5141.0000           0.62       3777.863       124.1455        39.5585       41.44189         0.2749        49.4115      -43.20718      0.1796148      0.2312317
      5141.5000         0.6401       3643.754       120.3831        43.0801       45.18789           0.28        51.4489      -40.84428      0.2593169      0.2775631
      5142.0000         0.6559       3579.703       118.0167        45.6595       47.93154         0.2857        52.5648       -39.5501      0.3176923      0.3029392
      5142.5000         0.6498       3515.258       115.8186        46.7584       49.10018         0.2926        51.2151      -41.11543       0.342557      0.2722464
      5143.0000         0.6368        3450.27       114.6429        43.3444       45.46787         0.2995        50.0845      -42.42666      0.2652738       0.246536
      5143.5000         0.6237       3465.484       113.8867        37.3951       39.13843         0.3064        48.9539      -43.73789      0.1306048      0.2208257
      5144.0000         0.6116       3521.609       111.2196        30.4535       31.75336         0.3133        47.8698      -44.99519              0      0.1961728
      5144.5000         0.5996       3445.645       107.3878        31.7799       33.16402         0.3202        46.8712      -46.15333     0.00348988      0.1734642
      5145.0000         0.5876       3218.387       101.2269        33.1075       34.57597         0.3255        45.8728      -47.31124     0.03353119      0.1507601
      5145.5000          0.578       3076.352        90.8877        34.4743       36.02961         0.3215        44.9141       -48.4231     0.06445986      0.1289588
      5146.0000         0.5695         2999.5        87.4779        35.8497        37.4924         0.3175         44.205      -49.24549     0.09558308      0.1128336
      5146.5000          0.561       2938.059        87.2484        37.1308       38.85489         0.3134        43.4952      -50.06869       0.124572     0.09669241
      5147.0000         0.5528        2879.57        91.5238        38.3324       40.13279         0.3094        42.7861      -50.89108      0.1517615     0.08056708
      5147.5000         0.5457       2928.313       100.1947         39.534       41.41069         0.3043        42.0764      -51.71416      0.1789509     0.06442829
      5148.0000         0.5387       3066.555       102.2955        40.4481       42.38274         0.2915        41.4203      -52.47508      0.1996328     0.04950819
      5148.5000         0.5316       3326.305       103.6304        41.3315       43.32213         0.2787        41.0061      -52.95546      0.2196198      0.0400891
      5149.0000         0.5246       3673.883        105.037         42.215       44.26163          0.266        40.5922      -53.43548      0.2396091      0.0306769
      5149.5000          0.517       4267.406        105.839        42.9828       45.07804         0.2531        40.1783      -53.91551      0.2569796     0.02126454
      5150.0000         0.5093       4486.977       106.2614        43.6295       45.76563         0.2404         39.764        -54.396       0.271609     0.01184314
      5150.5000         0.5015       4529.445       105.8114        44.2768       46.45384         0.2264        39.8138      -54.33824       0.286252     0.01297566
      5151.0000         0.4938        4501.75       107.3112        44.9235       47.14142         0.2114        40.0146      -54.10536      0.3008813     0.01754192
      5151.5000         0.4857       4451.141       109.6021        45.5023       47.75677         0.2125        40.3921      -53.66755      0.3139738     0.02612649
      5152.0000         0.4737       4336.234       111.1001        45.9244       48.20543          0.236        41.0376      -52.91892      0.3235197     0.04080544
