#------------------------------------------------------------------------------
# Created by    : vladimir.rabinovich
# Created on    : 09/19/2023 17:19:47
#------------------------------------------------------------------------------
~Version Information Section
VERS.           2.0     :   CWLS log ASCII Standard - VERSION 2.0
WRAP.           NO      :   One line per depth step
~Well Information Section
#MNEM       .UNIT                                         VALUE :DESCRIPTION
#------------------------------------------------------------------------------
STRT        .FT                                            2960 :START DEPTH
STOP        .FT                                           11758 :STOP DEPTH
STEP        .FT                                             0.5 :STEP      
NULL        .                                           -999.25 :NULL      
COMP        .                             CHAMPLIN PETROLEUM CO :COMPANY   
WELL        .                               OCS G06095 ST00BP00 :WELL      
FLD         .                                           WILDCAT :FIELD     
LOC         .                                                   :LOCATION  
CNTY        .                             GALVESTON LARGE BLOCK :LOCATION  
STAT        .                                             TEXAS :STATE     
CTRY        .                                     UNITED STATES :COUNTRY   
SRVC        .                                                   :SERVICE COMPANY
DATE        .                             9/13/2023 11:19:27 AM :LOG DATE  
API         .                                    42706401150000 :API NUMBER
UWI         .                                    42706401150000 :UNIQUE WELL ID
XCOORD      .                                  1057213.14222316 :SURFACE X 
YCOORD      .                                  10507856.7651171 :SURFACE Y 
LAT         .                                        28.9424301 :LATITUDE  
LON         .                                       -94.8238502 :LONGITUDE 
ELEV        .FT                                              89 :ELEVATION VALUE
ELEV_TYPE   .                                                KB :ELEVATION REFERENCE TYPE
~Curve Information Section
#MNEM       .UNIT                                      API CODE :CURVE DESCRIPTION
#------------------------------------------------------------------------------
DEPT        .FT                                                 :DEPTH     
ASFL        .OHMM                                               :          
CILD        .MMHO                                               :          
GR          .GAPI                                               :          
GR_NORM     .GAPI                                               :GammaRay Normalized
ILD         .OHMM                                               :          
SP          .MV                                                 :          
SP_NORM     .MV                                                 :SP Normalized
VSH_GR      .V/V                                                :Volume of Shale from GR
VSH_SP      .V/V                                                :Volume of Shale from SP
~A        DEPTH           ASFL           CILD             GR        GR_NORM            ILD             SP        SP_NORM         VSH_GR         VSH_SP
# ...
      4735.5000         0.6053       2837.188        44.1658       70.32005         0.4001         77.903      -18.91871      0.7940435      0.6416258
      4736.0000         0.5944       2913.766        43.8365       69.64516         0.3926        79.7413      -20.76504      0.7796842      0.6046992
      4736.5000         0.5834       2982.668        43.5071       68.97005         0.3851        73.5049      -14.53666      0.7653203      0.7292668
      4737.0000         0.5724       3050.676        43.1779       68.29533         0.3776        70.4181      -11.45789      0.7509644      0.7908421
      4737.5000         0.5615       3095.129         43.533       69.02683         0.3701        68.3263      -9.374123      0.7665284      0.8325176
      4738.0000         0.5489       3128.523         44.381       70.77115         0.3626        65.6067      -6.662544      0.8036414      0.8867491
      4738.5000         0.5479        3044.98        45.2297       72.51694         0.3699        61.8068      -2.870674      0.8407859      0.9625865
      4739.0000         0.5618       2927.602        46.0784       74.26272         0.3784        59.3738     -0.4456978      0.8779302              1
      4739.5000         0.5726       2794.973        46.9265       76.00728          0.387        57.7581       1.161972      0.9150485              1
      4740.0000         0.5826       2417.695        47.8552       77.91746         0.3955        56.4807       2.431343      0.9556906              1
      4740.5000         0.5927       2214.539        48.7844       79.82864         0.4129        55.6064       3.297619      0.9963541              1
      4741.0000         0.6027       2172.371        49.7137       81.74006         0.4367        54.7341       4.161892              1              1
      4741.5000         0.6128       2122.785        50.7276       83.82531         0.4606        53.8771       5.010864              1              1
      4742.0000         0.6228       2064.754        51.8494       86.13229         0.4844        53.0349       5.845039              1              1
      4742.5000         0.6262       2006.678        52.9711       88.43906         0.5083        52.4628       6.409111              1              1
      4743.0000         0.6294       1948.459        53.1618       88.83273         0.5321        51.8907       6.973183              1              1
      4743.5000         0.6326       1890.287        52.2538       86.96863          0.556         51.973       6.882858              1              1
      4744.0000         0.6359       1860.211        51.2162       84.83821         0.5694        52.4891        6.35873              1              1
      4744.5000         0.6391       1834.561        50.1792       82.70903         0.5804        53.0053       5.834507              1              1
      4745.0000         0.6414        1821.43        49.1415       80.57845         0.5915        53.5211       5.310677              1              1
      4745.5000         0.6426       1849.504        48.1087        78.4579         0.5912        54.0373       4.786449      0.9671894              1
      4746.0000         0.6438       1877.602        47.0776       76.34081         0.5776        54.7531       4.062622      0.9221449              1
      4746.5000          0.645       1905.676        46.2034        74.5462          0.564        55.5952       3.212498      0.8839616              1
      4747.0000         0.6462        1933.75        45.5768       73.26037         0.5504        56.4374        2.36227      0.8566036              1
      4747.5000         0.6474       1970.697        44.9502       71.97456         0.5368        57.2802       1.511444      0.8292459              1
      4748.0000         0.6505       2009.643         44.689        71.4396         0.5232        58.1253      0.6583138      0.8178638              1
      4748.5000         0.6537       2048.566        45.4205       72.94452         0.5097        58.9716     -0.1960106      0.8498834              1
      4749.0000         0.6569        2083.84        46.1193       74.38227         0.5024        59.8185      -1.050938      0.8804739      0.9989812
      4749.5000         0.6601       2105.371        46.8176       75.81898         0.4951        60.6465      -1.886963      0.9110422      0.9822608
      4750.0000         0.6634        2126.93        47.5164       77.25674         0.4878         61.253      -2.501488      0.9416327      0.9699702
      4750.5000         0.6666       2142.555        48.2153       78.69469         0.4806        61.8589      -3.115417      0.9722275      0.9576917
      4751.0000         0.6715       2114.621        48.9136       80.13142         0.4733        62.4648      -3.729347              1      0.9454131
      4751.5000         0.6842       2084.875         49.565       81.47175          0.478        62.1573      -3.429871              1      0.9514026
      4752.0000         0.6969       2050.824           49.9       82.16195         0.4874        61.3353      -2.615898              1      0.9676821
      4752.5000         0.7096       2016.773        49.9435       82.25312         0.4968        60.5092      -1.797825              1      0.9840435
      4753.0000         0.7221       1982.723        49.3548       81.04516         0.5062        59.6812     -0.9778481              1              1
      4753.5000         0.7321        1948.67        48.7667       79.83842         0.5156        58.8526       -0.15728      0.9965622              1
      4754.0000         0.7227       1914.619         48.178       78.63047          0.525        58.1265      0.5607948      0.9708611              1
      4754.5000         0.7134       1892.887        47.5898       77.42356         0.5306        57.5242       1.155067      0.9451821              1
      4755.0000         0.7041        1874.59        47.0012       76.21582         0.5304        56.9219        1.74934      0.9194855              1
      4755.5000         0.6948       1894.992        46.4291       75.04196         0.5303        56.3201       2.343117      0.8945099              1
      4756.0000         0.6855        1944.27        47.5685       77.38511         0.5301        55.8321       2.823086       0.944364              1
      4756.5000         0.6781       1993.594         48.708       79.72845           0.53         55.552       3.095161      0.9942223              1
      4757.0000         0.6709       2068.145        49.8475       82.07182         0.5292        55.2719       3.367233              1              1
      4757.5000         0.6637       2144.344        50.9882       84.41766         0.5217        54.9917       3.639408              1              1
      4758.0000         0.6565       2214.609        52.1277       86.76099         0.5142        54.7119       3.911182              1              1
      4758.5000         0.6489       2259.465        53.0262       88.60909         0.5066        54.4318       4.183254              1              1
      4759.0000         0.6376       2304.316        53.8316       90.26591         0.4991        54.5814       4.025623              1              1
      4759.5000         0.6263       2349.125        52.1798       86.87336         0.4916        54.7634       3.835598              1              1
      4760.0000         0.6142       2376.352        49.1617       80.67319         0.4841        54.9452       3.645771              1              1
      4760.5000          0.599       2398.754        47.0237       76.28159         0.4778        55.5111       3.071846      0.9208848              1
      4761.0000         0.5843       2413.887        45.9375       74.05128         0.4732        56.3267       2.248222      0.8734316              1
      4761.5000          0.573       2365.598        44.9354       71.99384         0.4685        57.1422        1.42469      0.8296561              1
