#------------------------------------------------------------------------------
# Created by    : vladimir.rabinovich
# Created on    : 09/19/2023 17:20:12
#------------------------------------------------------------------------------
~Version Information Section
VERS.           2.0     :   CWLS log ASCII Standard - VERSION 2.0
WRAP.           NO      :   One line per depth step
~Well Information Section
#MNEM       .UNIT                                         VALUE :DESCRIPTION
#------------------------------------------------------------------------------
STRT        .FT                                             970 :START DEPTH
STOP        .FT                                            6500 :STOP DEPTH
STEP        .FT                                             0.5 :STEP      
NULL        .                                           -999.25 :NULL      
COMP        .                                CONTINENTAL OIL CO :COMPANY   
WELL        .                               OCS G03106 ST00BP00 :WELL      
FLD         .                       MATAGORDA ISLAND BLOCK 0687 :FIELD     
LOC         .                                                   :LOCATION  
CNTY        .                      MATAGORDA ISLAND LARGE BLOCK :LOCATION  
STAT        .                                             TEXAS :STATE     
CTRY        .                                     UNITED STATES :COUNTRY   
SRVC        .                                                   :SERVICE COMPANY
DATE        .                             9/13/2023 11:12:09 AM :LOG DATE  
API         .                                    42703400330000 :API NUMBER
UWI         .                                    42703400330000 :UNIQUE WELL ID
XCOORD      .                                  468864.661343862 :SURFACE X 
YCOORD      .                                  10154488.9405743 :SURFACE Y 
LAT         .                                         27.934663 :LATITUDE  
LON         .                                        -96.628194 :LONGITUDE 
ELEV        .FT                                              96 :ELEVATION VALUE
ELEV_TYPE   .                                                KB :ELEVATION REFERENCE TYPE
~Curve Information Section
#MNEM       .UNIT                                      API CODE :CURVE DESCRIPTION
#------------------------------------------------------------------------------
DEPT        .FT                                                 :DEPTH     
ASFL        .OHMM                                               :          
CALI        .IN                                                 :          
CILD        .MMHO                                               :          
DRHO        .G/C3                                               :          
DT          .US/F                                               :          
DTL         .US/F                                               :          
GR          .GAPI                                               :          
GR_1        .GAPI                                               :          
GR_NORM     .GAPI                                               :GammaRay Normalized
ILD         .OHMM                                               :          
ILM         .OHMM                                               :          
NPHI        .%                                                  :          
RHOB        .G/C3                                               :          
SFL         .OHMM                                               :          
SP          .MV                                                 :          
SP_NORM     .MV                                                 :SP Normalized
VSH_GR      .V/V                                                :Volume of Shale from GR
VSH_SP      .V/V                                                :Volume of Shale from SP
~A        DEPTH           ASFL           CALI           CILD           DRHO             DT            DTL             GR           GR_1        GR_NORM            ILD            ILM           NPHI           RHOB            SFL             SP        SP_NORM         VSH_GR         VSH_SP
# ...
      3560.0000         0.8385         13.945       1109.756         0.0693       121.0311        -999.25        -999.25        56.4158        76.9004         0.8372         0.9522         46.632         2.2324          0.908       -42.5457        -4.5202       0.934051      0.9348111
      3560.5000         0.8452        13.8276       1095.486         0.0898       122.1639        -999.25        -999.25        57.1335       77.95918         0.8469         0.9405        46.2886         2.2448         0.8926       -42.9338        -4.9229      0.9565784      0.9273537
      3561.0000         0.8429        13.6499       1096.621         0.1057       123.2968        -999.25        -999.25        57.6284       78.68813         0.8539         0.9264        46.4958         2.2441         0.8754       -43.0858        -5.0896      0.9720878      0.9242666
      3561.5000         0.8406        13.4272       1111.768         0.1155       124.3074        -999.25        -999.25        58.6999       80.27103         0.8545         0.8992         47.763         2.2304         0.8563       -42.7111        -4.7295              1      0.9309352
      3562.0000         0.8343        13.2312       1136.488         0.1129       125.3149        -999.25        -999.25        59.8254       81.93391         0.8552         0.8728        49.0287         2.2144         0.8343       -41.9233        -3.9563              1      0.9452537
      3562.5000         0.8252        13.1131       1160.865         0.0982       126.3231        -999.25        -999.25        59.4604       81.38933         0.8558         0.8429         49.169          2.199         0.8141       -41.1541        -3.2018              1       0.959226
      3563.0000         0.8162        13.0557       1180.891         0.0878       127.3313        -999.25        -999.25        58.7377       80.31502         0.8565         0.8139        48.8154          2.205         0.7958       -40.5423        -2.6046              1      0.9702852
      3563.5000         0.8072        13.0308       1200.939          0.079        127.863        -999.25        -999.25        57.4597        78.4183         0.8571         0.7786        48.0676         2.2153         0.7782       -40.2486        -2.3256      0.9663467      0.9754518
      3564.0000         0.7981        13.0177       1215.031         0.0731       128.2786        -999.25        -999.25        57.8604       79.00757         0.8578         0.7634        46.5555         2.2239         0.7706       -40.0128        -2.1044      0.9788845      0.9795482
      3564.5000         0.7925        13.0693       1223.316         0.0652       128.2441        -999.25        -999.25        58.8067       80.40507          0.855         0.7494        45.3314         2.2269         0.7631       -39.7995        -1.9057              1      0.9832278
      3565.0000         0.7974         13.162       1225.295         0.0553       127.7849        -999.25        -999.25        59.3113       81.14838         0.8517         0.7535        44.4543         2.2327         0.7745       -39.6118        -1.7327              1      0.9864315
      3565.5000         0.8024        13.2571       1220.098         0.0486       127.1295        -999.25        -999.25        58.8439       80.45216         0.8484         0.7577        44.4001         2.2461          0.788       -39.4276        -1.5631              1      0.9895722
      3566.0000         0.8074        13.3052       1212.439         0.0523       126.4214        -999.25        -999.25        57.7227       78.78764         0.8451         0.7694        45.0118         2.2614         0.8288       -39.0449         -1.195      0.9742052      0.9963889
      3566.5000         0.8123        13.3503       1203.141         0.0588       125.5455        -999.25        -999.25        56.6877       77.25082          0.844         0.7914        45.6235          2.272         0.8664       -38.6505        -0.8153      0.9415069              1
      3567.0000         0.8174        13.4098       1177.316         0.0617       124.5861        -999.25        -999.25        55.8414       75.99344         0.8527         0.8119        45.9358         2.2742         0.8946       -38.3396         -0.519       0.914754              1
      3567.5000         0.8246        13.5112       1129.377         0.0641       124.0112        -999.25        -999.25        55.4437       75.40045         0.8614         0.8305        45.2797         2.2753         0.9197       -38.0955        -0.2895      0.9021373              1
      3568.0000         0.8319        13.6788           1108         0.0668       123.4365        -999.25        -999.25        55.2822       75.15726         0.8701         0.8454        44.7706         2.2821         0.9351       -38.2371        -0.4458      0.8969629              1
      3568.5000         0.8391        13.7692        1091.73         0.0726       123.7686        -999.25        -999.25        55.8564       76.00351         0.8787         0.8559        45.1031         2.2892         0.9462       -38.5184        -0.7417      0.9149683              1
      3569.0000         0.8463        13.7439        1080.98         0.0801       124.8363        -999.25        -999.25         57.174       77.95088         0.8874         0.8623        47.4333         2.2887          0.947       -38.9545        -1.1925      0.9564018      0.9964352
      3569.5000         0.8536        13.6931       1073.318         0.0899       126.6852        -999.25        -999.25         58.662       80.15063         0.8961         0.8656        49.1641          2.278         0.9472       -39.2733        -1.5259              1      0.9902611
      3570.0000         0.8596         13.649       1068.658         0.0944       128.0586        -999.25        -999.25        59.9833       82.10348         0.9037          0.862        50.6758         2.2553         0.9179       -39.5115        -1.7738              1      0.9856704
      3570.5000         0.8522         13.608       1077.762         0.0859       129.0366        -999.25        -999.25        60.9299        83.5014         0.9098         0.8573        51.8345         2.2349          0.909       -39.5156        -1.7691              1      0.9857574
      3571.0000         0.8449         13.618       1094.512         0.0768       129.3979        -999.25        -999.25         61.652       84.56683         0.9159         0.8519        50.9669         2.2201         0.8994       -39.3812        -1.6258              1      0.9884111
      3571.5000          0.838        13.6386       1110.793         0.0712       129.4875        -999.25        -999.25          62.58       85.93721          0.922          0.848        49.8526         2.2162         0.8895       -39.3954        -1.6312              1      0.9883111
      3572.0000         0.8321        13.6536       1127.391         0.0752       129.5344        -999.25        -999.25        63.6779        87.5592         0.9188         0.8432           49.3          2.217         0.8786       -39.4339        -1.6609              1      0.9877611
      3572.5000         0.8261        13.6617       1145.184         0.0766       129.8035        -999.25        -999.25        64.9247       89.40174         0.9067         0.8389         49.857         2.2149         0.8656       -39.6519        -1.8701              1       0.983887
      3573.0000         0.8202        13.6697       1164.213         0.0677       130.0732        -999.25        -999.25        65.1466       89.72623         0.8945         0.8353        51.3184          2.209          0.849       -39.8264        -2.0358              1      0.9808185
      3573.5000         0.8143        13.6877       1177.781         0.0606       130.3442        -999.25        -999.25        65.0747       89.61574         0.8823         0.8272        52.9568         2.2081         0.8334       -40.0647        -2.2652              1      0.9765704
