#------------------------------------------------------------------------------
# Created by    : vladimir.rabinovich
# Created on    : 09/19/2023 17:20:39
#------------------------------------------------------------------------------
~Version Information Section
VERS.           2.0     :   CWLS log ASCII Standard - VERSION 2.0
WRAP.           NO      :   One line per depth step
~Well Information Section
#MNEM       .UNIT                                         VALUE :DESCRIPTION
#------------------------------------------------------------------------------
STRT        .FT                                             523 :START DEPTH
STOP        .FT                                           11863 :STOP DEPTH
STEP        .FT                                             0.5 :STEP      
NULL        .                                           -999.25 :NULL      
COMP        .                                      SHELL OIL CO :COMPANY   
WELL        .                                OCS 00727 ST00BP00 :WELL      
FLD         .                                           WILDCAT :FIELD     
LOC         .                                                   :LOCATION  
CNTY        .                             GALVESTON LARGE BLOCK :LOCATION  
STAT        .                                             TEXAS :STATE     
CTRY        .                                     UNITED STATES :COUNTRY   
SRVC        .                                                   :SERVICE COMPANY
DATE        .                             9/13/2023 11:19:42 AM :LOG DATE  
API         .                                    42706000240000 :API NUMBER
UWI         .                                    42706000240000 :UNIQUE WELL ID
XCOORD      .                                  977080.798970248 :SURFACE X 
YCOORD      .                                   10388448.113324 :SURFACE Y 
LAT         .                                         28.610486 :LATITUDE  
LON         .                                        -95.067834 :LONGITUDE 
ELEV        .FT                                              76 :ELEVATION VALUE
ELEV_TYPE   .                                                KB :ELEVATION REFERENCE TYPE
~Curve Information Section
#MNEM       .UNIT                                      API CODE :CURVE DESCRIPTION
#------------------------------------------------------------------------------
DEPT        .FT                                                 :DEPTH     
ASN         .OHMM                                               :          
ILD         .OHMM                                               :          
LN          .OHMM                                               :          
SP          .MV                                                 :          
SP_NORM     .MV                                                 :SP Normalized
VSH_SP      .V/V                                                :Volume of Shale from SP
~A        DEPTH            ASN            ILD             LN             SP        SP_NORM         VSH_SP
# ...
      6527.0000         0.9674         0.7772        -999.25       -38.5399      -1.954536      0.9670849
      6527.5000          0.957         0.7641        -999.25       -38.1611      -1.575733      0.9801471
      6528.0000         0.9463         0.7555        -999.25       -37.7823      -1.196934      0.9932092
      6528.5000         0.9355         0.7509        -999.25       -37.4042     -0.8188362              1
      6529.0000         0.9246         0.7463        -999.25       -37.0255      -0.440136              1
      6529.5000         0.9137         0.7417        -999.25       -36.6467    -0.06133652              1
      6530.0000         0.9029         0.7372        -999.25       -36.2679      0.3174667              1
      6530.5000         0.8943         0.7326        -999.25       -36.2635      0.3218651              1
      6531.0000         0.9138          0.728        -999.25       -36.3481      0.2372665              1
      6531.5000         0.9364         0.7234        -999.25       -36.9741     -0.3887329              1
      6532.0000          0.957         0.7188        -999.25       -37.7482      -1.162834       0.994385
      6532.5000         0.9369          0.713        -999.25       -38.5222      -1.936836      0.9676953
      6533.0000         0.9255         0.7069        -999.25       -39.2819      -2.696533      0.9414989
      6533.5000         0.9142         0.7009        -999.25       -40.0394      -3.454033      0.9153782
      6534.0000         0.9029         0.6949        -999.25       -40.8024      -4.217033      0.8890678
      6534.5000         0.8986         0.6889        -999.25       -41.6328      -5.047436      0.8604332
      6535.0000         0.8982         0.6828        -999.25       -41.4961      -4.910736      0.8651471
      6535.5000         0.8978         0.6768        -999.25       -41.1682      -4.582836      0.8764539
      6536.0000         0.8974         0.6737        -999.25       -40.8399      -4.254536      0.8877746
      6536.5000         0.8975          0.673        -999.25       -41.4771      -4.891735      0.8658022
      6537.0000            0.9         0.6722        -999.25       -42.3759      -5.790535      0.8348091
      6537.5000         0.9025         0.6728        -999.25        -43.342      -6.756634      0.8014954
      6538.0000          0.905         0.6819        -999.25       -44.3093      -7.723934      0.7681402
      6538.5000         0.9102         0.6909        -999.25        -44.846      -8.260635      0.7496333
      6539.0000         0.9196            0.7        -999.25       -44.6657      -8.080334      0.7558506
      6539.5000         0.9289         0.7091        -999.25       -44.4855      -7.900135      0.7620643
      6540.0000         0.9373         0.7182        -999.25       -44.1641      -7.578735       0.773147
      6540.5000         0.9305         0.7146        -999.25       -43.7434      -7.158035       0.787654
      6541.0000         0.9236         0.7098        -999.25       -43.3222      -6.736835      0.8021781
      6541.5000         0.9168          0.705        -999.25       -42.9009      -6.315536      0.8167056
      6542.0000           0.91         0.7002        -999.25       -42.4802      -5.894836      0.8312125
      6542.5000         0.9032         0.6953        -999.25        -42.059      -5.473633      0.8457368
      6543.0000         0.8964         0.6896        -999.25       -41.6382      -5.052834      0.8602471
      6543.5000          0.891          0.684        -999.25       -41.2628      -4.677433       0.873192
      6544.0000         0.8857         0.6783        -999.25       -40.9843      -4.398933      0.8827954
      6544.5000         0.8805         0.6726        -999.25       -40.7055      -4.120136      0.8924091
      6545.0000         0.8753          0.667        -999.25       -40.4269      -3.841534      0.9020161
      6545.5000           0.87         0.6613        -999.25       -40.1484      -3.563034      0.9116195
      6546.0000         0.8648         0.6556        -999.25       -39.9444      -3.359035       0.918654
      6546.5000         0.8596           0.65        -999.25       -39.7432      -3.157833      0.9255919
      6547.0000         0.8543         0.6443        -999.25       -39.5416      -2.956234      0.9325436
      6547.5000         0.8491         0.6401        -999.25       -39.4397      -2.854336      0.9360574
      6548.0000         0.8439         0.6371        -999.25       -39.4077      -2.822334      0.9371609
      6548.5000         0.8372         0.6341        -999.25       -39.3757      -2.790337      0.9382643
      6549.0000         0.8288         0.6311        -999.25       -39.3436      -2.758236      0.9393712
      6549.5000         0.8204         0.6281        -999.25       -39.0663      -2.480934      0.9489333
      6550.0000         0.8153         0.6251        -999.25       -38.7809      -2.195534      0.9587747
      6550.5000          0.811         0.6221        -999.25       -38.4954      -1.910034      0.9686195
      6551.0000         0.8067         0.6191        -999.25         -38.21      -1.624634      0.9784609
      6551.5000         0.8024         0.6161        -999.25       -37.9246      -1.339233      0.9883023
      6552.0000         0.7982         0.6131        -999.25       -37.6391      -1.053734      0.9981471
      6552.5000         0.7964         0.6169        -999.25       -37.3537     -0.7683334              1
      6553.0000         0.7949         0.6218        -999.25       -37.1993     -0.6139336              1
      6553.5000         0.7932         0.6267        -999.25       -37.0695     -0.4841347              1
      6554.0000         0.7938         0.6316        -999.25       -36.9396     -0.3542366              1
      6554.5000         0.8042         0.6365        -999.25       -36.8097     -0.2243347              1
      6555.0000         0.8229         0.6414        -999.25       -36.6798    -0.09443283              1
      6555.5000         0.8417         0.6464        -999.25       -36.5499     0.03546524              1
      6556.0000         0.8587         0.6516        -999.25        -36.666    -0.08063507              1
      6556.5000         0.8745         0.6581        -999.25       -37.0818     -0.4964333              1
      6557.0000         0.8889         0.6646        -999.25       -37.4975     -0.9121361              1
      6557.5000         0.8781         0.6711        -999.25       -37.9127      -1.327335      0.9887125
      6558.0000         0.8704         0.6756        -999.25       -38.3179      -1.732536      0.9747401
      6558.5000         0.8628         0.6797        -999.25       -38.7198      -2.134434      0.9608816
      6559.0000         0.8552         0.6837        -999.25       -38.7039      -2.118534      0.9614298
      6559.5000         0.8475         0.6878        -999.25       -38.1219      -1.536533      0.9814988
      6560.0000         0.8399         0.6918        -999.25       -37.5013     -0.9159355              1
      6560.5000         0.8409         0.6957        -999.25       -36.8813     -0.2959366              1
      6561.0000         0.8432         0.6985        -999.25       -36.2614       0.323967              1
      6561.5000         0.8455         0.7014        -999.25       -35.7261      0.8592644              1
      6562.0000         0.8481         0.7043        -999.25       -35.4944       1.090965              1
      6562.5000         0.8563         0.7072        -999.25       -35.9097      0.6756668              1
      6563.0000         0.8644         0.7101        -999.25       -36.1995      0.3858643              1
      6563.5000         0.8726         0.7152        -999.25        -36.488     0.09736633              1
      6564.0000         0.8808         0.7212        -999.25       -36.7767     -0.1913338              1
      6564.5000          0.889         0.7272        -999.25       -37.0655     -0.4801331              1
