#------------------------------------------------------------------------------
# Created by    : vladimir.rabinovich
# Created on    : 09/19/2023 17:21:40
#------------------------------------------------------------------------------
~Version Information Section
VERS.           2.0     :   CWLS log ASCII Standard - VERSION 2.0
WRAP.           NO      :   One line per depth step
~Well Information Section
#MNEM       .UNIT                                         VALUE :DESCRIPTION
#------------------------------------------------------------------------------
STRT        .FT                                             957 :START DEPTH
STOP        .FT                                           10053 :STOP DEPTH
STEP        .FT                                             0.5 :STEP      
NULL        .                                           -999.25 :NULL      
COMP        .                                    EXXON CO U S A :COMPANY   
WELL        .                               OCS G03237 ST00BP00 :WELL      
FLD         .                                           WILDCAT :FIELD     
LOC         .                                                   :LOCATION  
CNTY        .                           HIGH ISLAND LARGE BLOCK :LOCATION  
STAT        .                                             TEXAS :STATE     
CTRY        .                                     UNITED STATES :COUNTRY   
SRVC        .                                                   :SERVICE COMPANY
DATE        .                             9/13/2023 11:20:04 AM :LOG DATE  
API         .                                    42708400420000 :API NUMBER
UWI         .                                    42708400420000 :UNIQUE WELL ID
XCOORD      .                                  1163347.66403634 :SURFACE X 
YCOORD      .                                  10583934.5995257 :SURFACE Y 
LAT         .                                         29.155753 :LATITUDE  
LON         .                                        -94.495054 :LONGITUDE 
ELEV        .FT                                              94 :ELEVATION VALUE
ELEV_TYPE   .                                                KB :ELEVATION REFERENCE TYPE
~Curve Information Section
#MNEM       .UNIT                                      API CODE :CURVE DESCRIPTION
#------------------------------------------------------------------------------
DEPT        .FT                                                 :DEPTH     
CALI        .IN                                                 :          
DRHO        .G/C3                                               :          
DT          .US/F                                               :          
GR          .GAPI                                               :          
GR_1        .GAPI                                               :          
GR_NORM     .GAPI                                               :GammaRay Normalized
ILD         .OHMM                                               :          
NPHI        .%                                                  :          
RHOB        .G/C3                                               :          
SFL         .OHMM                                               :          
SP          .MV                                                 :          
SP_NORM     .MV                                                 :SP Normalized
VSH_GR      .V/V                                                :Volume of Shale from GR
VSH_SP      .V/V                                                :Volume of Shale from SP
~A        DEPTH           CALI           DRHO             DT             GR           GR_1        GR_NORM            ILD           NPHI           RHOB            SFL             SP        SP_NORM         VSH_GR         VSH_SP
# ...
      5853.0000        14.1145         0.0191       120.5948        63.6797        -999.25        67.7302         0.3505        36.8201         2.2486         0.5491       -64.3788      -19.01562      0.7389405      0.7389041
      5853.5000        14.2436         0.0183       120.8596        66.4468        -999.25       71.49711          0.356         37.706         2.2456         0.4962       -62.6486      -17.28689      0.8190874      0.7639581
      5854.0000        14.3673         0.0151       121.4045         69.672        -999.25       75.88817         0.3627        38.0869         2.2444         0.5338       -61.0498      -15.68956      0.9125142      0.7871078
      5854.5000        14.4702         0.0123       121.8898        71.7504        -999.25       78.71665         0.3712        38.6097         2.2531          0.575       -59.9052      -14.54644      0.9726947      0.8036748
      5855.0000        14.6071         0.0168       121.7893        73.4275        -999.25       80.99833         0.3815        39.4189         2.2616         0.5983       -57.6686      -12.31131              1       0.836068
      5855.5000        14.7582         0.0223       121.7678        73.9031        -999.25       81.64288         0.3924         40.874         2.2725          0.511       -53.7338      -8.377979              1      0.8930728
      5856.0000        14.7702         0.0302       121.8595        73.5204        -999.25       81.11793         0.4035        41.9954          2.284         0.4858       -50.9919      -5.637554              1      0.9327891
      5856.5000        14.7837          0.036       121.6489         74.749        -999.25        82.7885         0.4177        42.1169         2.2938         0.5116       -49.7271      -4.374226              1      0.9510982
      5857.0000        14.8587         0.0335       121.0452        75.9591        -999.25       84.43385         0.4343        42.2487          2.288         0.5729       -49.1216      -3.770199              1      0.9598522
      5857.5000        14.9805          0.027       120.2297        77.0676        -999.25       85.94077          0.452        42.5936         2.2816         0.6049       -48.4808      -3.130871              1      0.9691178
      5858.0000        15.1172         0.0408       119.2253        78.1749        -999.25       87.44604         0.4702        42.4979         2.2943         0.6085       -46.4575      -1.109043              1      0.9984196
      5858.5000        15.1605         0.0514       119.1722        79.3356        -999.25       89.02409         0.4886        42.3462         2.3146         0.6023       -44.0967       1.250286              1              1
      5859.0000         15.153         0.0473       119.9977          79.33        -999.25       89.01297         0.5082        42.8305         2.3192         0.5897       -41.1971       4.148411              1              1
      5859.5000        15.2071         0.0498       121.5499        77.3761        -999.25       86.34713         0.5325        43.1257         2.3212         0.5774       -39.3091       6.034939              1              1
      5860.0000        15.2636         0.0519       122.9524         74.889        -999.25       82.95476         0.5659        42.1534           2.32         0.5692       -38.3453       6.997269              1              1
      5860.5000        15.3119         0.0407       124.1515        72.2904        -999.25       79.41047         0.6001         41.454         2.3135         0.5676       -38.4694       6.871696      0.9874568              1
      5861.0000         15.426         0.0296        125.189        69.4045        -999.25       75.47473         0.6337        40.6003         2.3262         0.5755       -39.1229       6.216724      0.9037177              1
      5861.5000        15.6253         0.0207       121.7758         66.526        -999.25       71.54906          0.663        39.8053         2.3445          0.621       -39.7634       5.574749      0.8201927              1
      5862.0000         15.869         0.0136       113.4457        66.0829        -999.25        70.9418         0.6788        38.6134         2.3401         0.7789       -40.9712       4.365479      0.8072723              1
      5862.5000        16.0184         0.0105       106.2986        66.4028        -999.25       71.37418         0.6838        37.6641         2.3288         0.9095        -42.838       2.497204       0.816472              1
      5863.0000         16.056          0.015       102.3457        66.7493        -999.25        71.8428         0.6926         38.787         2.3373         0.9409       -44.7849      0.5488319      0.8264427              1
      5863.5000        16.0493         0.0194       100.6306        64.8291        -999.25       69.22292         0.7125        42.6214         2.3409          0.923       -45.5588     -0.2265396      0.7707003              1
      5864.0000        16.0353         0.0269       103.1543        61.2472        -999.25       64.33879         0.7599         46.656         2.3509         0.8442       -45.2262      0.1045876      0.6667828              1
      5864.5000        15.9688          0.027       107.8807        55.1682        -999.25       56.05221         0.8216        48.2736         2.3673          0.672       -42.0163       3.313015      0.4904725              1
      5865.0000        15.0857         0.0089       108.5845        47.7391        -999.25       45.92599         0.8835        47.3769         2.3916         0.4851       -40.5663       4.761543       0.275021              1
      5865.5000        14.6953        -0.0109        103.274        48.5566        -999.25        47.0364         0.9409        40.2718         2.4256         0.5259       -40.7772       4.549171      0.2986468              1
      5866.0000        14.7257        -0.0251        88.5006        54.0089        -999.25       54.46207         0.9795        31.9415         2.4393         1.5637       -43.9402       1.384697      0.4566398              1
      5866.5000        14.7482        -0.0185        81.5032        59.7113        -999.25       62.22853         0.9832        25.6284          2.407         2.4389       -46.7256      -1.402176      0.6218836      0.9941714
      5867.0000        14.7647        -0.0056         82.182        62.3569        -999.25       65.82987         0.9421        24.0902         2.3329         4.7422       -48.3889      -3.066948      0.6985079      0.9700443
      5867.5000        14.7785         0.0024        96.0371        64.2904        -999.25       68.46091         0.8824        30.0606         2.2641         3.5613       -49.7394      -4.418919      0.7544874      0.9504505
      5868.0000        14.7876          0.003       103.5885        65.0255        -999.25       69.45903         0.7918        34.5432         2.2373          1.412       -51.1842      -5.865192      0.7757241        0.92949
      5868.5000        14.7948         0.0073       110.6508        65.3342        -999.25       69.87616         0.6905         37.679         2.2365         0.7893       -52.4603      -7.142765      0.7845991      0.9109744
      5869.0000        14.8001         0.0114       119.3838        65.2551        -999.25       69.76488         0.6089        37.6547         2.2479         0.6175       -54.0193      -8.703236      0.7822315      0.8883589
      5869.5000        14.8115          0.015        120.123        65.0549        -999.25        69.4886         0.5188        37.4151         2.2517         0.5599         -56.75      -11.43541      0.7763532      0.8487622
      5870.0000        14.8222         0.0133       119.9197        65.0112        -999.25       69.42556         0.4456        36.8757         2.2424         0.5323       -59.0712      -13.75808      0.7750119      0.8151003
      5870.5000        14.8313         0.0109       119.9015        66.2374        -999.25       71.09285         0.3948         36.259          2.233         0.5363       -61.6382      -16.32655      0.8104861       0.777876
