#------------------------------------------------------------------------------
# Created by    : vladimir.rabinovich
# Created on    : 09/19/2023 17:22:39
#------------------------------------------------------------------------------
~Version Information Section
VERS.           2.0     :   CWLS log ASCII Standard - VERSION 2.0
WRAP.           NO      :   One line per depth step
~Well Information Section
#MNEM       .UNIT                                         VALUE :DESCRIPTION
#------------------------------------------------------------------------------
STRT        .FT                                            2600 :START DEPTH
STOP        .FT                                            8208 :STOP DEPTH
STEP        .FT                                             0.5 :STEP      
NULL        .                                           -999.25 :NULL      
COMP        .                          SEAGULL ENERGY E & P INC :COMPANY   
WELL        .                               OCS G09039 ST00BP00 :WELL      
FLD         .                              GALVESTON BLOCK 0273 :FIELD     
LOC         .                                                   :LOCATION  
CNTY        .                             GALVESTON LARGE BLOCK :LOCATION  
STAT        .                                             TEXAS :STATE     
CTRY        .                                     UNITED STATES :COUNTRY   
SRVC        .                                                   :SERVICE COMPANY
DATE        .                             9/13/2023 11:19:54 AM :LOG DATE  
API         .                                    42706403220000 :API NUMBER
UWI         .                                    42706403220000 :UNIQUE WELL ID
XCOORD      .                                  1018306.80056624 :SURFACE X 
YCOORD      .                                  10490966.5196098 :SURFACE Y 
LAT         .                                         28.894284 :LATITUDE  
LON         .                                        -94.944599 :LONGITUDE 
ELEV        .FT                                             103 :ELEVATION VALUE
ELEV_TYPE   .                                                KB :ELEVATION REFERENCE TYPE
~Curve Information Section
#MNEM       .UNIT                                      API CODE :CURVE DESCRIPTION
#------------------------------------------------------------------------------
DEPT        .FT                                                 :DEPTH     
DCAL        .IN                                                 :          
DPHI        .%                                                  :          
DTL         .US/F                                               :          
GR          .GAPI                                               :          
GR_1        .GAPI                                               :          
GR_NORM     .GAPI                                               :GammaRay Normalized
ILD         .OHMM                                               :          
ILM         .OHMM                                               :          
NPHI        .%                                                  :          
SFL         .OHMM                                               :          
SP          .MV                                                 :          
SP_NORM     .MV                                                 :SP Normalized
VSH_GR      .V/V                                                :Volume of Shale from GR
VSH_SP      .V/V                                                :Volume of Shale from SP
~A        DEPTH           DCAL           DPHI            DTL             GR           GR_1        GR_NORM            ILD            ILM           NPHI            SFL             SP        SP_NORM         VSH_GR         VSH_SP
# ...
      4886.0000        -999.25        -999.25        -999.25        30.2302        -999.25       42.78747         0.4829         0.5632        -999.25         0.6786       -63.2934      -26.51076       0.208244      0.4697847
      4886.5000        -999.25        -999.25        -999.25        29.0175        -999.25       41.22793         0.4568         0.5048        -999.25         0.6005       -66.4146      -29.87163      0.1750623      0.4025673
      4887.0000        -999.25        -999.25        -999.25        29.9364        -999.25       42.40964         0.4404         0.4689        -999.25         0.5533       -68.4635      -32.07773      0.2002051      0.3584454
      4887.5000        -999.25        -999.25        -999.25        32.7883        -999.25        46.0772         0.4347         0.4544        -999.25         0.5199       -69.3497      -33.03167      0.2782383      0.3393665
      4888.0000        -999.25        -999.25        -999.25         34.863        -999.25       48.74529         0.4404         0.4702        -999.25         0.5202       -69.7157       -33.4254      0.3350061      0.3314919
      4888.5000        -999.25        -999.25        -999.25        35.6451        -999.25       49.75108         0.4709         0.5029        -999.25         0.5519       -68.6276      -32.25319      0.3564059      0.3549362
      4889.0000        -999.25        -999.25        -999.25        35.6426        -999.25       49.74786         0.5291          0.563        -999.25         0.6512       -66.0939      -29.52417      0.3563375      0.4095166
      4889.5000        -999.25        -999.25        -999.25        34.8801        -999.25       48.76728         0.5757         0.6442        -999.25         0.7906       -62.2849      -25.42175       0.335474       0.491565
      4890.0000        -999.25        -999.25        -999.25        33.5983        -999.25       47.11887         0.6159         0.6909        -999.25         0.8607       -58.3411      -21.17416      0.3004016      0.5765169
      4890.5000        -999.25        -999.25        -999.25          33.12        -999.25       46.50378         0.6383         0.7263        -999.25         0.8614       -55.9959      -18.64814      0.2873144      0.6270372
      4891.0000        -999.25        -999.25        -999.25        34.5594        -999.25       48.35485         0.6535         0.7432        -999.25         0.8843        -55.417      -18.02429       0.326699      0.6395142
      4891.5000        -999.25        -999.25        -999.25        35.9622        -999.25       50.15887         0.6573         0.7368        -999.25         0.9084        -56.324      -19.00064      0.3650824      0.6199872
      4892.0000        -999.25        -999.25        -999.25        35.9049        -999.25       50.08518         0.6558         0.7278        -999.25         0.9083       -58.5051       -21.3491      0.3635144      0.5730181
      4892.5000        -999.25        -999.25        -999.25        34.7075        -999.25       48.54531         0.6486         0.7301        -999.25          0.896          -60.1      -23.06626      0.3307513      0.5386748
      4893.0000        -999.25        -999.25        -999.25        32.5802        -999.25       45.80959         0.6631          0.745        -999.25         0.8959       -60.8992      -23.92652      0.2725444      0.5214697
      4893.5000        -999.25        -999.25        -999.25        31.5056        -999.25       44.42764         0.6849         0.7773        -999.25         0.9198       -61.3038      -24.36182      0.2431413      0.5127636
      4894.0000        -999.25        -999.25        -999.25        31.7234        -999.25       44.70773         0.7316         0.8203        -999.25          1.003       -61.7903      -24.88532      0.2491007      0.5022935
      4894.5000        -999.25        -999.25        -999.25        32.2164        -999.25       45.34174          0.764         0.8517        -999.25         1.1522       -62.4948       -25.6436      0.2625903       0.487128
      4895.0000        -999.25        -999.25        -999.25        32.2521        -999.25       45.38765         0.7527         0.8506        -999.25         1.1607       -63.3987      -26.61661      0.2635671      0.4676678
      4895.5000        -999.25        -999.25        -999.25        31.8422        -999.25       44.86051         0.7006         0.7926        -999.25         0.9899       -64.3876      -27.68116      0.2523513      0.4463768
      4896.0000        -999.25        -999.25        -999.25        31.0441        -999.25       43.83415         0.5749          0.699        -999.25         0.7385       -65.8809       -29.2889      0.2305138      0.4142219
      4896.5000        -999.25        -999.25        -999.25         30.322        -999.25       42.90553         0.5366         0.5783        -999.25         0.5835       -67.5577      -31.09427      0.2107559      0.3781146
      4897.0000        -999.25        -999.25        -999.25        30.6573        -999.25       43.33673          0.517          0.517        -999.25         0.6259       -68.4194      -32.02184      0.2199304      0.3595632
      4897.5000        -999.25        -999.25        -999.25        34.4432        -999.25       48.20542         0.4781         0.5273        -999.25         0.6688       -67.6018      -31.14092      0.3235196      0.3771815
      4898.0000        -999.25        -999.25        -999.25        43.2706        -999.25       59.55753         0.4918         0.5662        -999.25         0.6547       -64.0547      -27.32055      0.5650539       0.453589
      4898.5000        -999.25        -999.25        -999.25        49.8019        -999.25       67.95684         0.5106         0.5893        -999.25         0.6081       -54.8478      -17.40501      0.7437626      0.6518998
      4899.0000        -999.25        -999.25        -999.25        52.1605        -999.25       70.99001         0.5259         0.5962        -999.25         0.6037       -52.3362      -14.69979      0.8082982      0.7060043
      4899.5000        -999.25        -999.25        -999.25        50.8741        -999.25        69.3357         0.5264         0.5888        -999.25         0.6282       -51.1709      -13.44443         0.7731      0.7311114
      4900.0000        -999.25        -999.25        -999.25        45.3416        -999.25       62.22085         0.5168         0.5773        -999.25         0.6957       -51.5381      -13.83946      0.6217203      0.7232108
      4900.5000        -999.25        -999.25        -999.25        40.8569        -999.25       56.45349         0.4902         0.5483        -999.25          0.636       -54.6912      -17.23468      0.4990104      0.6553063
      4901.0000        -999.25        -999.25        -999.25        37.5827        -999.25       52.24284         0.4489         0.4993        -999.25         0.6035       -58.1954      -21.00801      0.4094222      0.5798397
      4901.5000        -999.25        -999.25        -999.25        35.7277        -999.25        49.8573         0.4182         0.4663        -999.25         0.6025       -59.4323      -22.33964      0.3586659      0.5532072
      4902.0000        -999.25        -999.25        -999.25        36.0258        -999.25       50.24066         0.4081         0.4618        -999.25         0.5435       -58.9984      -21.87195      0.3668225       0.562561
      4902.5000        -999.25        -999.25        -999.25        39.1629        -999.25       54.27499         0.4099         0.4765        -999.25         0.5213        -58.096      -20.89971      0.4526594      0.5820057
      4903.0000        -999.25        -999.25        -999.25        41.9263        -999.25       57.82875         0.4198         0.4971        -999.25         0.5848       -58.0598      -20.86031      0.5282713      0.5827938
      4903.5000        -999.25        -999.25        -999.25        39.4175        -999.25       54.60241         0.4457         0.5315        -999.25         0.7764       -58.5828      -21.42312      0.4596257      0.5715377
