#------------------------------------------------------------------------------
# Created by    : vladimir.rabinovich
# Created on    : 09/19/2023 17:21:51
#------------------------------------------------------------------------------
~Version Information Section
VERS.           2.0     :   CWLS log ASCII Standard - VERSION 2.0
WRAP.           NO      :   One line per depth step
~Well Information Section
#MNEM       .UNIT                                         VALUE :DESCRIPTION
#------------------------------------------------------------------------------
STRT        .FT                                             692 :START DEPTH
STOP        .FT                                            6716 :STOP DEPTH
STEP        .FT                                             0.5 :STEP      
NULL        .                                           -999.25 :NULL      
COMP        .                                  FMP OPERATING CO :COMPANY   
WELL        .                                          SL 89457 :WELL      
FLD         .                                           WILDCAT :FIELD     
LOC         .                                                   :LOCATION  
CNTY        .                      MATAGORDA ISLAND LARGE BLOCK :LOCATION  
STAT        .                                             TEXAS :STATE     
CTRY        .                                     UNITED STATES :COUNTRY   
SRVC        .                                                   :SERVICE COMPANY
DATE        .                             9/13/2023 11:12:01 AM :LOG DATE  
API         .                                    42703303600000 :API NUMBER
UWI         .                                    42703303600000 :UNIQUE WELL ID
XCOORD      .                                  499223.886875127 :SURFACE X 
YCOORD      .                                  10221285.9321665 :SURFACE Y 
LAT         .                                        28.1205561 :LATITUDE  
LON         .                                       -96.5403272 :LONGITUDE 
ELEV        .FT                                              81 :ELEVATION VALUE
ELEV_TYPE   .                                                KB :ELEVATION REFERENCE TYPE
~Curve Information Section
#MNEM       .UNIT                                      API CODE :CURVE DESCRIPTION
#------------------------------------------------------------------------------
DEPT        .FT                                                 :DEPTH     
CALI        .IN                                                 :          
CILD        .MMHO                                               :          
DT          .US/F                                               :          
DTL         .US/F                                               :          
GR          .GAPI                                               :          
GR_NORM     .GAPI                                               :GammaRay Normalized
ILD         .OHMM                                               :          
ILM         .OHMM                                               :          
SFLU        .OHMM                                               :          
SP          .MV                                                 :          
SP_NORM     .MV                                                 :SP Normalized
TENS        .LBS                                                :          
VSH_GR      .V/V                                                :Volume of Shale from GR
VSH_SP      .V/V                                                :Volume of Shale from SP
~A        DEPTH           CALI           CILD             DT            DTL             GR        GR_NORM            ILD            ILM           SFLU             SP        SP_NORM           TENS         VSH_GR         VSH_SP
# ...
      3608.0000        -999.25       2932.731       117.7517       117.5142        45.1463       42.35289         0.3347          0.352         0.4763       -35.2967       -24.9359        1805.81      0.1989976     0.08600418
      3608.5000        -999.25       2701.897       109.5937       109.3967        43.6511       39.74047         0.3602         0.3569         0.4447       -35.1982       -24.8413         1805.8      0.1434142     0.08994588
      3609.0000        -999.25       2367.628       100.8389       100.6855        42.6547        37.9984         0.4015         0.3998         0.4268       -35.3981       -25.0451        1805.79       0.106349      0.0814542
      3609.5000        -999.25       2280.061        92.0844        91.9745        41.6593       36.25825         0.4468         0.4479         0.5011       -35.2631        -24.914        1805.78     0.06932441     0.08691669
      3610.0000        -999.25       2256.158        87.3091        86.9111        40.3643       33.99521         0.4489         0.5034         0.7746       -35.1281       -24.7829        1805.77     0.02117465     0.09237918
      3610.5000        -999.25       2252.148        92.2828        92.1719        40.7618       34.68579         0.4478         0.5057          1.087       -34.9931       -24.6518       1795.816     0.03586797     0.09784166
      3611.0000        -999.25       2256.099       103.6227       103.4554        42.6525       37.98251          0.447         0.4783          0.832       -34.8582       -24.5208       1775.908      0.1060108         0.1033
      3611.5000        -999.25       2268.008       114.7634       109.5908        48.6243       48.40163         0.4349         0.4523         0.6368       -34.7073       -24.3738       1775.898      0.3276943       0.109425
      3612.0000        -999.25       2315.727        121.527       118.3019        53.1022       56.21357         0.4098         0.4277          0.468       -35.1064       -24.7768       1775.889      0.4939058     0.09263333
      3612.5000        -999.25       2514.645        122.919       122.1232        52.7037       55.51497          0.386         0.4045         0.4492       -35.4061       -25.0804       1775.879      0.4790419     0.07998332
      3613.0000        -999.25       2641.936       122.7194       121.9236        50.2761       51.27531         0.3635         0.3827         0.4451       -36.0046       -25.6828       1775.869      0.3888365     0.05488332
      3613.5000        -999.25       2988.035       122.3208       121.1272        47.8485       47.03565         0.3423         0.3792         0.4472       -36.3043       -25.9864        1775.86      0.2986308     0.04223331
      3614.0000        -999.25       3099.402       121.3255       120.7287        45.1355       42.29774         0.3202         0.3934         0.4791       -36.1063       -25.7922       1775.849      0.1978243       0.050325
      3614.5000        -999.25       3149.893       121.3249       120.7281        45.0354       42.12007         0.3185         0.3707         0.5109       -35.8088       -25.4986        1775.84       0.194044     0.06255833
      3615.0000        -999.25       3162.983       122.3189       121.3242        45.2336       42.46301         0.3173         0.3725         0.5227       -35.5113        -25.205        1775.83      0.2013406     0.07479167
      3615.5000        -999.25        3147.03        123.114       122.1193        45.2335        42.4597         0.3202         0.3725         0.4994       -35.4129       -25.1105       1775.821      0.2012702     0.07872915
      3616.0000        -999.25       3154.948       123.5112       122.9144        41.6491       36.20116         0.3203         0.3725         0.4706       -35.3144       -25.0159       1775.811     0.06810988     0.08267085
      3616.5000        -999.25       3162.897       123.5105       123.1127        39.7575       32.89695         0.3145         0.3709         0.4621       -35.5146         -25.22       1805.646              0     0.07416669
      3617.0000        -999.25       3250.352       123.5097       122.3162        39.8562       33.06606         0.3058         0.3635          0.475       -36.0133       -25.7226       1795.684    0.001405594     0.05322496
      3617.5000        -999.25       3298.069       122.5145       121.3209        41.0496       35.14584         0.3002         0.3592         0.4861       -36.6114       -26.3246       1795.674     0.04565616     0.02814166
      3618.0000        -999.25       3425.318       121.7179       120.7236        41.0488       35.14147         0.2947         0.3593         0.5089        -36.712       -26.4291       1795.664     0.04556323      0.0237875
      3618.5000        -999.25       3473.024       121.1208       120.1262        41.4448       35.82944         0.2897         0.3496         0.5304       -36.4146       -26.1356       1775.759     0.06020079      0.0360167
      3619.0000        -999.25       3480.929       120.5234       119.9267        41.9025       36.62526         0.2898          0.348         0.5353       -35.8186       -25.5435       1779.287      0.0771331     0.06068746
      3619.5000        -999.25       3393.357        120.125       121.1195        42.3602       37.42109         0.2938         0.3505         0.5137       -35.0238       -24.7526       1782.814     0.09406564     0.09364168
      3620.0000        -999.25       3035.285       120.1243       122.7101        45.6219       43.11031          0.309         0.3545         0.4731       -33.3333       -23.0659       1786.342      0.2151131      0.1639208
      3620.5000        -999.25       2772.695       119.7259       122.7095         48.606       48.31524         0.3514         0.3545         0.4418       -31.7425        -21.479       1789.869      0.3258562      0.2300417
      3621.0000        -999.25       2414.633       114.9517       120.9187         51.789        53.8673         0.4068         0.4204         0.4418       -29.2562       -18.9966       1793.397      0.4439851       0.333475
      3621.5000        -999.25       2064.547       106.3985       106.2174          51.39       53.16799         0.4439         0.4984         0.4977       -26.3721       -16.1164       1796.925      0.4291062      0.4534833
      3622.0000        -999.25       1889.498        103.017        99.2378         50.991       52.46852         0.5375          0.591         0.6173       -24.3836       -14.1318       1800.452      0.4142238       0.536175
      3622.5000        -999.25       1571.232        96.8507        96.4529         51.189       52.81109          0.651         0.7007         1.0359       -20.9028       -10.6549        1803.98      0.4215125      0.6810458
      3623.0000        -999.25       1412.107        111.641       118.9274        53.7746       57.32056         0.7657         0.7871         1.4876       -18.7156        -8.4716       1807.507      0.5174587      0.7720167
      3623.5000        -999.25       1189.334       126.0335       138.8152        58.6493       65.82484         0.8017         0.8487         1.6605       -16.1305        -5.8904       1811.035      0.6984008      0.8795667
      3624.0000        -999.25       1093.854       136.0303       153.5321        60.7373       69.46587         0.8129         0.9151         1.1643       -14.4409        -4.2047       1815.431      0.7758697      0.9498042
      3624.5000        -999.25       1018.289       133.0462       158.1054         60.736       69.46063         0.8235         1.0082         0.8164        -14.343        -4.1107       1820.138      0.7757581      0.9537208
      3625.0000        -999.25       1018.272       130.8578       158.3034        61.2318       70.32278         0.8342         1.0036         0.6832       -14.6431        -4.4147       1824.845      0.7941018      0.9410542
      3625.5000        -999.25       1105.768       136.6243       156.7113        61.3313       70.49347         0.8206         0.9128         0.7105        -15.142        -4.9175       1829.552      0.7977334      0.9201041
