#------------------------------------------------------------------------------
# Created by    : vladimir.rabinovich
# Created on    : 09/19/2023 17:22:38
#------------------------------------------------------------------------------
~Version Information Section
VERS.           2.0     :   CWLS log ASCII Standard - VERSION 2.0
WRAP.           NO      :   One line per depth step
~Well Information Section
#MNEM       .UNIT                                         VALUE :DESCRIPTION
#------------------------------------------------------------------------------
STRT        .FT                                             597 :START DEPTH
STOP        .FT                                            8696 :STOP DEPTH
STEP        .FT                                             0.5 :STEP      
NULL        .                                           -999.25 :NULL      
COMP        .                MURPHY EXPLORATION & PRODUCTION CO :COMPANY   
WELL        .                               OCS G13308 ST00BP00 :WELL      
FLD         .                                           WILDCAT :FIELD     
LOC         .                                                   :LOCATION  
CNTY        .                             GALVESTON LARGE BLOCK :LOCATION  
STAT        .                                             TEXAS :STATE     
CTRY        .                                     UNITED STATES :COUNTRY   
SRVC        .                                                   :SERVICE COMPANY
DATE        .                             9/13/2023 11:19:54 AM :LOG DATE  
API         .                                    42706403460000 :API NUMBER
UWI         .                                    42706403460000 :UNIQUE WELL ID
XCOORD      .                                  1110706.35492259 :SURFACE X 
YCOORD      .                                  10520329.8149831 :SURFACE Y 
LAT         .                                         28.978895 :LATITUDE  
LON         .                                        -94.657168 :LONGITUDE 
ELEV        .FT                                              71 :ELEVATION VALUE
ELEV_TYPE   .                                                KB :ELEVATION REFERENCE TYPE
~Curve Information Section
#MNEM       .UNIT                                      API CODE :CURVE DESCRIPTION
#------------------------------------------------------------------------------
DEPT        .FT                                                 :DEPTH     
DCAL        .IN                                                 :          
DPHI        .%                                                  :          
DRHO        .G/C3                                               :          
DTLN        .US/F                                               :          
GR          .GAPI                                               :          
GR_1        .GAPI                                               :          
GR_NORM     .GAPI                                               :GammaRay Normalized
ILD         .OHMM                                               :          
ILM         .OHMM                                               :          
NPHI        .%                                                  :          
SFL         .OHMM                                               :          
SP          .MV                                                 :          
VSH_GR      .V/V                                                :Volume of Shale from GR
~A        DEPTH           DCAL           DPHI           DRHO           DTLN             GR           GR_1        GR_NORM            ILD            ILM           NPHI            SFL             SP         VSH_GR
# ...
      3352.0000        -999.25        -999.25        -999.25       138.4888       102.1864        -999.25       87.96567         0.9332         0.8657        -999.25         0.7825       -59.2534              1
      3352.5000        -999.25        -999.25        -999.25       134.9182       103.0264        -999.25       88.78831         0.9675          0.918        -999.25         0.8044       -60.7267              1
      3353.0000        -999.25        -999.25        -999.25       131.7112        100.493        -999.25       86.29509          1.003         0.9531        -999.25         0.8259       -63.2704              1
      3353.5000        -999.25        -999.25        -999.25       131.9641        95.7449        -999.25       81.62492         1.0332          0.994        -999.25         0.8756       -65.0067              1
      3354.0000        -999.25        -999.25        -999.25       131.6328        91.7733        -999.25         77.718         1.0546         1.0364        -999.25         0.9701       -66.8008      0.9514468
      3354.5000        -999.25        -999.25        -999.25       130.4202        89.2867        -999.25       75.27076         1.0643         1.0678        -999.25         1.0823       -67.5049      0.8993779
      3355.0000        -999.25        -999.25        -999.25       130.3313        89.4674        -999.25       75.44534         1.0637         1.0817        -999.25         1.1231       -64.8236      0.9030924
      3355.5000        -999.25        -999.25        -999.25       131.2158        89.6831        -999.25       75.65434         1.0541         1.0594        -999.25         1.1003       -62.5675      0.9075392
      3356.0000        -999.25        -999.25        -999.25       132.9917        88.8788        -999.25       74.86075         1.0433         1.0344        -999.25         1.0332       -63.1561      0.8906542
      3356.5000        -999.25        -999.25        -999.25       135.9263        89.2849        -999.25       75.25689         1.0271          0.972        -999.25         0.9384       -63.6679      0.8990828
      3357.0000        -999.25        -999.25        -999.25       139.5105        92.4738        -999.25       78.38838         1.0048         0.9245        -999.25         0.8634       -64.9625      0.9657103
      3357.5000        -999.25        -999.25        -999.25       142.0059        96.4674        -999.25       82.31087         0.9621         0.8919        -999.25          0.811       -66.4524              1
      3358.0000        -999.25        -999.25        -999.25       143.2612       100.3751        -999.25       86.14893         0.9241         0.8722        -999.25         0.7812       -67.8186              1
      3358.5000        -999.25        -999.25        -999.25       143.4731       101.6199        -999.25       87.36948         0.8918         0.8622        -999.25         0.7635       -67.4459              1
      3359.0000        -999.25        -999.25        -999.25       143.5139        102.066        -999.25       87.80495         0.8704         0.8378        -999.25         0.7481       -66.6245              1
      3359.5000        -999.25        -999.25        -999.25       143.2983       102.7163        -999.25       88.44113         0.8579         0.8236        -999.25         0.7325        -66.582              1
      3360.0000        -999.25        -999.25        -999.25       142.1377       103.5024        -999.25       89.21082         0.8511          0.814        -999.25         0.7216        -67.559              1
      3360.5000        -999.25        -999.25        -999.25       139.9336       105.3175        -999.25       90.99194         0.8546         0.8126        -999.25         0.7184       -67.6958              1
      3361.0000        -999.25        -999.25        -999.25       137.8479       105.5245        -999.25       91.19238         0.8596         0.8238        -999.25         0.7262       -66.9741              1
      3361.5000        -999.25        -999.25        -999.25       135.8306       102.1226        -999.25       87.84544         0.8697         0.8454        -999.25         0.7439       -67.1707              1
      3362.0000        -999.25        -999.25        -999.25       133.9121        96.6272        -999.25       82.44071         0.8894         0.8816        -999.25         0.7861       -69.4858              1
      3362.5000        -999.25        -999.25        -999.25       132.7944        93.4501        -999.25       79.31477         0.9147         0.9322        -999.25          0.865       -70.4774      0.9854205
      3363.0000        -999.25        -999.25        -999.25        131.918        93.5465        -999.25       79.40648         0.9493         0.9779        -999.25         0.9353       -70.1075      0.9873719
      3363.5000        -999.25        -999.25        -999.25       131.2798        94.6543        -999.25       80.49236         0.9813         1.0089        -999.25         0.9785       -70.4502              1
      3364.0000        -999.25        -999.25        -999.25       130.6633        94.8245        -999.25       80.65665          1.013         1.0292        -999.25         0.9873       -69.3752              1
      3364.5000        -999.25        -999.25        -999.25       130.1921        92.6765        -999.25       78.54222         1.0424         1.0423        -999.25         0.9726       -67.4048      0.9689834
      3365.0000        -999.25        -999.25        -999.25       129.9292        90.3958        -999.25       76.29738          1.061         1.0543        -999.25         0.9747       -66.1741      0.9212208
      3365.5000        -999.25        -999.25        -999.25        129.905         90.287        -999.25       76.18742         1.0673           1.06        -999.25         0.9761       -65.3766      0.9188814
      3366.0000        -999.25        -999.25        -999.25       129.7019        91.4551        -999.25       77.33257         1.0696         1.0546        -999.25         0.9701       -65.7485      0.9432462
      3366.5000        -999.25        -999.25        -999.25       129.8462        92.1511        -999.25       78.01368         1.0693         1.0442        -999.25         0.9413       -62.8821      0.9577379
      3367.0000        -999.25        -999.25        -999.25       130.6707        91.4952        -999.25       77.36594          1.068         1.0376        -999.25          0.926       -60.2205      0.9439563
      3367.5000        -999.25        -999.25        -999.25       132.3059        91.0381        -999.25        76.9136         1.0641         1.0288        -999.25         0.9217       -59.7056       0.934332
      3368.0000        -999.25        -999.25        -999.25       133.3203        91.3169        -999.25       77.18463         1.0582         1.0232        -999.25         0.9238       -59.6374      0.9400985
      3368.5000        -999.25        -999.25        -999.25       133.9543         95.595        -999.25       81.38676         1.0496         1.0176        -999.25         0.9291       -62.1141              1
      3369.0000        -999.25        -999.25        -999.25       133.4421        99.4916        -999.25        85.2139         1.0394         1.0099        -999.25         0.9316       -63.5131              1
      3369.5000        -999.25        -999.25        -999.25       134.3247       101.6958        -999.25       87.37749         1.0284         0.9957        -999.25         0.9278       -64.5413              1
      3370.0000        -999.25        -999.25        -999.25       136.2698       102.2808        -999.25       87.94949         1.0165         0.9746        -999.25         0.9082        -64.535              1
      3370.5000        -999.25        -999.25        -999.25       139.0854       103.5437        -999.25       89.18784         1.0024         0.9565        -999.25         0.8805        -63.496              1
