#------------------------------------------------------------------------------
# Created by    : vladimir.rabinovich
# Created on    : 09/19/2023 17:22:48
#------------------------------------------------------------------------------
~Version Information Section
VERS.           2.0     :   CWLS log ASCII Standard - VERSION 2.0
WRAP.           NO      :   One line per depth step
~Well Information Section
#MNEM       .UNIT                                         VALUE :DESCRIPTION
#------------------------------------------------------------------------------
STRT        .FT                                             306 :START DEPTH
STOP        .FT                                           13139 :STOP DEPTH
STEP        .FT                                             0.5 :STEP      
NULL        .                                           -999.25 :NULL      
COMP        .                                    CITIES SERVICE :COMPANY   
WELL        .                                          SL 77337 :WELL      
FLD         .                                           WILDCAT :FIELD     
LOC         .                                                   :LOCATION  
CNTY        .                                BRAZOS LARGE BLOCK :LOCATION  
STAT        .                                             TEXAS :STATE     
CTRY        .                                     UNITED STATES :COUNTRY   
SRVC        .                                                   :SERVICE COMPANY
DATE        .                             9/13/2023 11:18:52 AM :LOG DATE  
API         .                                    42704301950000 :API NUMBER
UWI         .                                    42704301950000 :UNIQUE WELL ID
XCOORD      .                                   673900.18951543 :SURFACE X 
YCOORD      .                                   10333530.060148 :SURFACE Y 
LAT         .                                        28.4418955 :LATITUDE  
LON         .                                       -96.0077528 :LONGITUDE 
ELEV        .FT                                              82 :ELEVATION VALUE
ELEV_TYPE   .                                                KB :ELEVATION REFERENCE TYPE
~Curve Information Section
#MNEM       .UNIT                                      API CODE :CURVE DESCRIPTION
#------------------------------------------------------------------------------
DEPT        .FT                                                 :DEPTH     
DT          .US/F                                               :          
SP          .MV                                                 :          
SP_NORM     .MV                                                 :SP Normalized
VSH_SP      .V/V                                                :Volume of Shale from SP
~A        DEPTH             DT             SP        SP_NORM         VSH_SP
# ...
     12231.0000        96.2008       -47.6628      -6.631283       0.834374
     12231.5000        92.7611       -47.1365      -6.105473       0.849839
     12232.0000        89.9563       -47.1756      -6.145061      0.8486747
     12232.5000        86.9015       -47.7241       -6.69405      0.8325279
     12233.0000        91.8511       -48.3754      -7.345844      0.8133575
     12233.5000        98.6606       -49.0216      -7.992531      0.7943373
     12234.0000       105.4302       -49.4412      -8.412621      0.7819818
     12234.5000       109.0149        -48.984      -7.955914      0.7954143
     12235.0000        111.026        -47.619        -6.5914       0.835547
     12235.5000          108.1       -46.4267      -5.399593      0.8706002
     12236.0000       101.2904        -44.999      -3.972382       0.912577
     12236.5000         93.371       -44.4783      -3.452171      0.9278773
     12237.0000        88.8313       -45.6252       -4.59956      0.8941306
     12237.5000        86.8015       -47.5739      -6.548748      0.8368015
     12238.0000        85.3741       -50.4694       -9.44474      0.7516253
     12238.5000        84.2267       -54.4769      -13.45273      0.6337433
     12239.0000        83.1093       -56.7587      -15.73502       0.566617
     12239.5000        84.6816       -57.2004      -16.17721      0.5536114
     12240.0000        88.3763       -57.1702       -16.1475      0.5544853
     12240.5000        90.8312       -56.9513      -15.92909       0.560909
     12241.0000        90.0613       -56.9563      -15.93458      0.5607477
     12241.5000        88.1864       -56.9447      -15.92347      0.5610744
     12242.0000        84.9816       -56.7243      -15.70356      0.5675424
     12242.5000        80.9044       -55.8721      -14.85185      0.5925927
     12243.0000        82.0319       -54.8577      -13.83794      0.6224135
     12243.5000        84.3367       -53.5201      -12.50083      0.6617404
     12244.0000        87.8815       -52.1976      -11.17882      0.7006229
     12244.5000        91.3811       -50.9077      -9.889408      0.7385468
     12245.0000         93.536       -49.6879      -8.670097      0.7744089
     12245.5000        95.0259       -48.5782       -7.56089      0.8070326
     12246.0000        90.7812       -47.4035      -6.386677      0.8415684
     12246.5000        84.2117       -47.3309      -6.314568      0.8436892
     12247.0000         79.312        -48.691      -7.675159      0.8036718
     12247.5000        75.1624       -50.1287      -9.113346      0.7613721
     12248.0000        72.7725       -51.2508      -10.23594      0.7283548
     12248.5000        75.8922       -52.3629      -11.34853      0.6956316
     12249.0000         79.262        -52.944      -11.93012      0.6785259
     12249.5000        83.1818       -53.4537      -12.44031      0.6635203
     12250.0000        90.0463       -53.7708       -12.7579      0.6541795
     12250.5000        90.8612       -53.7606      -12.74819      0.6544651
     12251.0000        87.3915       -53.2245      -12.21257      0.6702184
     12251.5000        84.6117       -52.5545      -11.54307      0.6899098
     12252.0000        83.8591       -51.8983      -10.88736      0.7091954
     12252.5000        84.0811       -51.2934      -10.28294      0.7269722
     12253.0000        84.0892       -51.2959      -10.28593      0.7268843
     12253.5000        83.6167       -51.7355      -10.72602      0.7139404
     12254.0000        82.6268       -52.0766      -11.06762      0.7038937
     12254.5000        81.3844         -52.16       -11.1515      0.7014263
     12255.0000        81.7468       -50.6998      -9.691795       0.744359
     12255.5000        86.7715       -48.9765      -7.968987      0.7950298
     12256.0000        91.4412       -47.1981      -6.191074      0.8473213
     12256.5000        93.4535       -44.8462      -3.839664      0.9164805
     12257.0000        89.7512       -43.3546      -2.348553      0.9603367
     12257.5000        85.6116       -42.7197      -1.714146      0.9789957
     12258.0000        80.7419       -42.5223      -1.517235      0.9847872
     12258.5000        76.2223       -42.5781      -1.573521      0.9831318
     12259.0000        74.2324        -43.188      -2.183914       0.965179
     12259.5000        72.5625        -43.798      -2.794403      0.9472234
     12260.0000        70.4052       -44.3615      -3.358395      0.9306355
     12260.5000        72.4225       -44.7786      -3.775982      0.9183535
     12261.0000        78.6321       -44.7321      -3.729973      0.9197067
     12261.5000        87.6415       -44.6961      -3.694462      0.9207511
     12262.0000        99.0006       -44.6407      -3.639553      0.9223661
     12262.5000       105.2202       -44.5851      -3.584442       0.923987
     12263.0000        107.775       -44.5278      -3.527634      0.9256578
     12263.5000       108.1757       -44.4705      -3.470821      0.9273288
     12264.0000       106.1851       -44.2632      -3.264011      0.9334114
     12264.5000       103.0054       -43.9332      -2.934502      0.9431029
     12265.0000        99.7855       -43.6098      -2.611591      0.9526002
     12265.5000        96.3809        -43.452      -2.454281      0.9572271
     12266.0000        93.1261       -43.2942       -2.29697      0.9618538
     12266.5000        90.9261       -43.1313      -2.134563      0.9666305
     12267.0000        89.3313       -42.9651      -1.968849      0.9715044
     12267.5000        88.0889        -42.776      -1.780243      0.9770517
     12268.0000        89.0513       -42.5068      -1.511532       0.984955
     12268.5000        90.9812       -42.2688      -1.274017      0.9919407
     12269.0000        92.8711       -42.0959      -1.101612      0.9970114
     12269.5000        95.7058       -42.1262      -1.132401      0.9961058
     12270.0000       101.7104       -42.2513      -1.257992       0.992412
     12270.5000       110.5098       -42.8223      -1.829479      0.9756036
     12271.0000       112.7646       -43.3922      -2.399868      0.9588274
     12271.5000       112.1447       -44.2175      -3.225658      0.9345394
     12272.0000       107.4401       -45.2319      -4.240547      0.9046898
     12272.5000        96.9708        -46.324      -5.333141      0.8725547
     12273.0000        85.0516       -47.6715      -6.681129       0.832908
     12273.5000        72.7925        -49.247      -8.257122      0.7865552
     12274.0000        69.3652       -51.2108      -10.22141      0.7287821
     12274.5000        70.3651       -53.9058       -12.9169      0.6495031
     12275.0000        72.2325        -56.095      -15.10659      0.5851003
     12275.5000        75.4623       -57.8107      -16.82278      0.5346242
     12276.0000         80.072        -59.023      -18.03557      0.4989539
     12276.5000        83.9117       -59.6677      -18.68076      0.4799777
     12277.0000        87.3815        -59.539      -18.55255      0.4837486
     12277.5000        91.8911       -58.6974      -17.71144      0.5084872
     12278.0000        94.0535       -57.7707      -16.78522      0.5357287
     12278.5000        88.4114       -57.6893      -16.70432      0.5381083
     12279.0000        83.3717       -58.5271      -17.54261      0.5134528
     12279.5000         78.952       -59.0205       -18.0365      0.4989266
     12280.0000        75.8922        -58.626      -17.64249      0.5105151
     12280.5000        72.7212       -56.2252      -15.24218      0.5811124
     12281.0000        74.0674        -53.475      -12.49247      0.6619863
     12281.5000        76.1073       -51.5864      -10.60435       0.717519
     12282.0000         79.037       -49.5375      -8.555943      0.7777664
     12282.5000        79.4495       -47.3134      -6.332336      0.8431666
     12283.0000        78.2371       -47.1205      -6.139923      0.8488258
     12283.5000        76.7422       -48.5106      -7.530518      0.8079259
