#------------------------------------------------------------------------------
# Created by    : vladimir.rabinovich
# Created on    : 09/19/2023 17:20:18
#------------------------------------------------------------------------------
~Version Information Section
VERS.           2.0     :   CWLS log ASCII Standard - VERSION 2.0
WRAP.           NO      :   One line per depth step
~Well Information Section
#MNEM       .UNIT                                         VALUE :DESCRIPTION
#------------------------------------------------------------------------------
STRT        .FT                                             780 :START DEPTH
STOP        .FT                                            9803 :STOP DEPTH
STEP        .FT                                             0.5 :STEP      
NULL        .                                           -999.25 :NULL      
COMP        .                                  SAMEDAN OIL CORP :COMPANY   
WELL        .                               OCS G04076 ST00BP00 :WELL      
FLD         .                            HIGH ISLAND BLOCK 0105 :FIELD     
LOC         .                                                   :LOCATION  
CNTY        .                           HIGH ISLAND LARGE BLOCK :LOCATION  
STAT        .                                             TEXAS :STATE     
CTRY        .                                     UNITED STATES :COUNTRY   
SRVC        .                                                   :SERVICE COMPANY
DATE        .                             9/13/2023 11:19:59 AM :LOG DATE  
API         .                                    42708401630000 :API NUMBER
UWI         .                                    42708401630000 :UNIQUE WELL ID
XCOORD      .                                  1167393.84075462 :SURFACE X 
YCOORD      .                                  10652000.2522841 :SURFACE Y 
LAT         .                                        29.3430877 :LATITUDE  
LON         .                                       -94.4850788 :LONGITUDE 
ELEV        .FT                                              87 :ELEVATION VALUE
ELEV_TYPE   .                                                KB :ELEVATION REFERENCE TYPE
~Curve Information Section
#MNEM       .UNIT                                      API CODE :CURVE DESCRIPTION
#------------------------------------------------------------------------------
DEPT        .FT                                                 :DEPTH     
ASFL        .OHMM                                               :          
CILD        .MMHO                                               :          
DT          .US/F                                               :          
GR          .GAPI                                               :          
GR_1        .GAPI                                               :          
GR_NORM     .GAPI                                               :GammaRay Normalized
ILD         .OHMM                                               :          
SP          .MV                                                 :          
SP_NORM     .MV                                                 :SP Normalized
VSH_GR      .V/V                                                :Volume of Shale from GR
VSH_SP      .V/V                                                :Volume of Shale from SP
~A        DEPTH           ASFL           CILD             DT             GR           GR_1        GR_NORM            ILD             SP        SP_NORM         VSH_GR         VSH_SP
# ...
      3795.0000         0.6637       1437.736        -999.25        -999.25        54.8062        70.8793         0.6106       -108.698       7.424561      0.8059425              1
      3795.5000         0.6679        1454.67        -999.25        -999.25        54.1021       69.65341         0.6139      -108.4983       7.620117      0.7798598              1
      3796.0000         0.6721       1467.963        -999.25        -999.25        53.2402       68.15275         0.6238      -108.3834       7.730881      0.7479308              1
      3796.5000         0.6765       1461.336        -999.25        -999.25        51.8835       65.79062         0.6338      -108.2688       7.841347      0.6976727              1
      3797.0000         0.6809       1454.707        -999.25        -999.25        50.5269       63.42866         0.6437       -108.411       7.695007      0.6474183              1
      3797.5000         0.6854       1445.971        -999.25        -999.25        49.1904       61.10171         0.6536      -108.5748       7.527069      0.5979087              1
      3798.0000          0.689       1432.479        -999.25        -999.25        47.9792       58.99289         0.6553      -109.3025       6.795235      0.5530403              1
      3798.5000         0.6883       1418.984        -999.25        -999.25        46.7681       56.88427         0.6539      -110.6481       5.445496      0.5081758              1
      3799.0000         0.6875       1405.498        -999.25        -999.25        48.4655       59.83959         0.6525      -112.0422       4.047264      0.5710552              1
      3799.5000         0.6867       1401.617        -999.25        -999.25        50.8657       64.01854          0.645      -113.4861        2.59922      0.6599689              1
      3800.0000         0.6726       1425.529        -999.25        -999.25        53.3851       68.40504          0.632      -114.9299       1.151283      0.7532986              1
      3800.5000         0.6583       1449.441        -999.25        -999.25        59.3863       78.85364         0.6189      -117.6334      -1.556351      0.9756093              1
      3801.0000         0.6454       1518.154        -999.25        -999.25         60.371       80.56807         0.6105      -120.8624      -4.789482              1      0.9473683
      3801.5000         0.6325       1543.535        -999.25        -999.25        57.1297       74.92472         0.6062      -123.3253      -7.256523      0.8920153      0.9008203
      3802.0000         0.6451       1560.408        -999.25        -999.25        53.7448       69.03132         0.6019      -125.1301       -9.06546      0.7666238      0.8666894
      3802.5000         0.6603       1578.578        -999.25        -999.25        52.2604       66.44683         0.5977      -126.2434       -10.1829      0.7116347      0.8456057
      3803.0000         0.6756        1623.99        -999.25        -999.25        50.9824        64.2217         0.6051      -126.6329      -10.57653      0.6642916      0.8381787
      3803.5000         0.6926       1662.264        -999.25        -999.25        50.3439       63.11004         0.6126      -126.9674      -10.91517      0.6406391      0.8317893
      3804.0000         0.7078       1680.605        -999.25        -999.25        51.7607       65.57681         0.6201       -126.375      -10.32691      0.6931235      0.8428885
      3804.5000         0.6885       1693.725        -999.25        -999.25        53.3065       66.97428         0.6275      -125.7827      -9.738747      0.7228571      0.8539859
      3805.0000          0.669       1711.166        -999.25        -999.25        54.8522       69.17281         0.6204      -125.1903      -9.150482      0.7696342      0.8650852
      3805.5000         0.6489       1752.256        -999.25        -999.25        56.5085       71.52866         0.6079      -124.7646       -8.72892      0.8197588      0.8730392
      3806.0000         0.6288       1834.633        -999.25        -999.25         58.317       74.10101         0.5955      -124.5153      -8.483757      0.8744897       0.877665
      3806.5000         0.6149       1871.561        -999.25        -999.25        59.6718       76.02802          0.583      -125.3977      -9.370293      0.9154897      0.8609379
      3807.0000         0.6087       1907.264        -999.25        -999.25        60.9726        77.8782         0.5722      -127.0012      -10.97793      0.9548554      0.8306051
      3807.5000         0.6028       1942.697        -999.25        -999.25        61.7823       79.02991         0.5614      -127.8624      -11.84326      0.9793597      0.8142781
      3808.0000         0.6026       1948.207        -999.25        -999.25        62.1248       79.51706         0.5506       -128.408      -12.39301      0.9897247      0.8039054
      3808.5000         0.6024       1952.422        -999.25        -999.25        61.4496       78.55669         0.5398      -128.0234      -12.01255      0.9692912       0.811084
      3809.0000         0.6022       1949.076        -999.25        -999.25        60.4821       77.18056         0.5358       -127.639      -11.63228      0.9400119      0.8182589
      3809.5000         0.6027        1932.18        -999.25        -999.25        59.1549       75.29279          0.534      -127.4434      -11.44081      0.8998465      0.8218715
      3810.0000         0.6039       1910.031        -999.25        -999.25        57.8271       73.40417         0.5321      -127.3615      -11.36306      0.8596633      0.8233385
      3810.5000         0.6051       1885.469        -999.25        -999.25        55.5336       70.14201         0.5303      -127.2797      -11.28539      0.7902554      0.8248039
      3811.0000         0.6087       1865.021        -999.25        -999.25        53.9241       67.85271         0.5285      -127.7556      -11.76543      0.7415469      0.8157467
      3811.5000          0.624       1846.828        -999.25        -999.25        53.3344       67.01395         0.5267      -128.3616      -12.37556       0.723701      0.8042346
      3812.0000           0.64       1829.963        -999.25        -999.25         52.951       66.46861         0.5278      -128.9673       -12.9854      0.7120981      0.7927282
      3812.5000         0.6607       1817.498        -999.25        -999.25        53.1426       66.74113         0.5295      -128.9482      -12.97044      0.7178965      0.7930107
      3813.0000         0.6803       1805.033        -999.25        -999.25        53.5056       67.25747         0.5313      -128.7905      -12.81687      0.7288823      0.7959081
      3813.5000         0.6884       1792.568        -999.25        -999.25        53.7638        67.6247          0.533      -128.6328      -12.66331      0.7366958      0.7988055
      3814.0000         0.6965       1778.066        -999.25        -999.25        54.0223       67.99239         0.5347      -128.4753      -12.50995      0.7445189      0.8016991
      3814.5000         0.6961       1759.406        -999.25        -999.25        54.2807       68.35993         0.5365      -127.9167      -11.95549       0.752339      0.8121606
      3815.0000         0.6943       1740.748        -999.25        -999.25        54.5391       68.72746         0.5382      -127.3036      -11.34652      0.7601586      0.8236506
      3815.5000         0.6939       1722.076        -999.25        -999.25        54.7198       68.98448         0.5423      -126.6903      -10.73736      0.7656273      0.8351442
      3816.0000         0.6971       1684.523        -999.25        -999.25        54.7712       69.05759           0.55      -126.0979       -10.1491      0.7671829      0.8462434
      3816.5000         0.7002       1640.789        -999.25        -999.25        54.5404       68.72932         0.5577       -125.514      -9.569336      0.7601984      0.8571823
      3817.0000         0.7034       1594.041        -999.25        -999.25        54.2693       68.34371         0.5654      -124.9305      -8.989967      0.7519939      0.8681138
