#------------------------------------------------------------------------------
# Created by    : vladimir.rabinovich
# Created on    : 09/19/2023 17:20:33
#------------------------------------------------------------------------------
~Version Information Section
VERS.           2.0     :   CWLS log ASCII Standard - VERSION 2.0
WRAP.           NO      :   One line per depth step
~Well Information Section
#MNEM       .UNIT                                         VALUE :DESCRIPTION
#------------------------------------------------------------------------------
STRT        .FT                                             510 :START DEPTH
STOP        .FT                                            9509 :STOP DEPTH
STEP        .FT                                             0.5 :STEP      
NULL        .                                           -999.25 :NULL      
COMP        .                       BLUE DOLPHIN EXPLORATION CO :COMPANY   
WELL        .                                OCS 00714 ST00BP00 :WELL      
FLD         .                              GALVESTON BLOCK 0288 :FIELD     
LOC         .                                                   :LOCATION  
CNTY        .                             GALVESTON LARGE BLOCK :LOCATION  
STAT        .                                             TEXAS :STATE     
CTRY        .                                     UNITED STATES :COUNTRY   
SRVC        .                                                   :SERVICE COMPANY
DATE        .                             9/13/2023 11:19:25 AM :LOG DATE  
API         .                                    42706000660000 :API NUMBER
UWI         .                                    42706000660000 :UNIQUE WELL ID
XCOORD      .                                  1093932.46617998 :SURFACE X 
YCOORD      .                                  10479390.8980397 :SURFACE Y 
LAT         .                                         28.865655 :LATITUDE  
LON         .                                       -94.7077791 :LONGITUDE 
ELEV        .FT                                              83 :ELEVATION VALUE
ELEV_TYPE   .                                                KB :ELEVATION REFERENCE TYPE
~Curve Information Section
#MNEM       .UNIT                                      API CODE :CURVE DESCRIPTION
#------------------------------------------------------------------------------
DEPT        .FT                                                 :DEPTH     
ASN         .OHMM                                               :          
CALI        .IN                                                 :          
DT          .US/F                                               :          
IL          .OHMM                                               :          
SP          .MV                                                 :          
SP_NORM     .MV                                                 :SP Normalized
VSH_SP      .V/V                                                :Volume of Shale from SP
~A        DEPTH            ASN           CALI             DT             IL             SP        SP_NORM         VSH_SP
# ...
      2888.5000         1.0509        -999.25        -999.25         0.9341       -50.7949      0.1657448              1
      2889.0000         1.0412        -999.25        -999.25         0.9342       -50.8484      0.1093483              1
      2889.5000         1.0366        -999.25        -999.25         0.9312       -51.1937     -0.2388496              1
      2890.0000         1.0383        -999.25        -999.25         0.9237       -51.4066     -0.4546471              1
      2890.5000         1.0437        -999.25        -999.25         0.9163       -51.3406     -0.3915443              1
      2891.0000         1.0484        -999.25        -999.25          0.911       -51.1832     -0.2370415              1
      2891.5000         1.0501        -999.25        -999.25         0.9074       -51.0952     -0.1519394              1
      2892.0000          1.047        -999.25        -999.25         0.9038        -51.202     -0.2616348              1
      2892.5000         1.0445        -999.25        -999.25         0.9053       -50.9697    -0.03223419              1
      2893.0000         1.0528        -999.25        -999.25         0.9096       -50.6346      0.2999687              1
      2893.5000         1.0556        -999.25        -999.25         0.9132         -50.36      0.5716743              1
      2894.0000         1.0485        -999.25        -999.25         0.9089       -50.7499       0.178875              1
      2894.5000         1.0466        -999.25        -999.25         0.9046       -51.2768     -0.3509178              1
      2895.0000         1.0424        -999.25        -999.25         0.9011       -51.5429     -0.6199188              1
      2895.5000         1.0373        -999.25        -999.25         0.8981       -51.5619     -0.6418152              1
      2896.0000         1.0363        -999.25        -999.25          0.898       -51.4349     -0.5177116              1
      2896.5000         1.0406        -999.25        -999.25         0.9036       -51.0951      -0.180809              1
      2897.0000         1.0448        -999.25        -999.25         0.9092       -50.8245     0.08689117              1
      2897.5000         1.0474        -999.25        -999.25          0.922       -50.6141      0.2943954              1
      2898.0000         1.0525        -999.25        -999.25         0.9379        -50.585      0.3205986              1
      2898.5000         1.0592        -999.25        -999.25         0.9528       -50.6486      0.2541008              1
      2899.0000         1.0736        -999.25        -999.25          0.971       -50.7136       0.186203              1
      2899.5000         1.0926        -999.25        -999.25          0.994        -50.736      0.1609077              1
      2900.0000         1.1167        -999.25        -999.25         1.0169       -50.6459      0.2481079              1
      2900.5000          1.146        -999.25        -999.25         1.0411       -50.5316      0.3595123              1
      2901.0000         1.1744        -999.25        -999.25         1.0659       -50.4081       0.480114              1
      2901.5000         1.1973        -999.25        -999.25         1.0811       -50.3844      0.5009193              1
      2902.0000         1.2093        -999.25        -999.25         1.0944       -50.0911      0.7913246              1
      2902.5000          1.208        -999.25        -999.25         1.0958       -50.1653      0.7142258              1
      2903.0000         1.2009        -999.25        -999.25         1.0972       -50.4449      0.4317284              1
      2903.5000         1.1936        -999.25        -999.25            1.1       -50.9214    -0.04766846              1
      2904.0000         1.1904        -999.25        -999.25         1.1032       -51.0434     -0.1725655              1
      2904.5000         1.2052        -999.25        -999.25         1.1054       -51.0831     -0.2151642              1
      2905.0000         1.2259        -999.25        -999.25         1.1069       -51.1261     -0.2610588              1
      2905.5000         1.2399        -999.25        -999.25         1.1075       -51.3677      -0.505558              1
      2906.0000         1.2252        -999.25        -999.25         1.1073       -51.6151     -0.7558556              1
      2906.5000         1.1994        -999.25        -999.25         1.1001       -51.5441     -0.6877556              1
      2907.0000         1.1757        -999.25        -999.25         1.0872       -51.2379      -0.384449              1
      2907.5000         1.1597        -999.25        -999.25         1.0743       -50.7867      0.0638504              1
      2908.0000         1.1462        -999.25        -999.25         1.0573       -50.8893    -0.04164505              1
      2908.5000         1.1309        -999.25        -999.25         1.0404       -51.1013     -0.2565422              1
      2909.0000         1.1186        -999.25        -999.25         1.0249       -51.5146     -0.6727371              1
      2909.5000         1.1183        -999.25        -999.25         1.0147       -51.7044     -0.8654366              1
      2910.0000         1.1275        -999.25        -999.25         1.0044       -51.9702      -1.134132              1
      2910.5000         1.1344        -999.25        -999.25         0.9934       -52.2675      -1.434334              1
      2911.0000         1.1374        -999.25        -999.25         0.9807       -52.4675      -1.637226              1
      2911.5000         1.1346        -999.25        -999.25          0.968       -52.6113      -1.783924              1
      2912.0000         1.1308        -999.25        -999.25         0.9612       -52.7389      -1.914421              1
      2912.5000         1.1295        -999.25        -999.25         0.9563       -52.6945      -1.872917              1
      2913.0000         1.1366        -999.25        -999.25         0.9514       -52.3851      -1.566418              1
      2913.5000         1.1289        -999.25        -999.25         0.9505       -52.0272      -1.211411              1
      2914.0000         1.1142        -999.25        -999.25         0.9513       -51.6401     -0.8272095              1
      2914.5000          1.108        -999.25        -999.25         0.9522       -51.4355     -0.6255074              1
      2915.0000         1.1144        -999.25        -999.25         0.9514       -51.2426     -0.4355049              1
      2915.5000         1.1138        -999.25        -999.25         0.9445       -51.0536     -0.2494011              1
      2916.0000         1.1066        -999.25        -999.25         0.9376       -50.9016     -0.1002998              1
      2916.5000         1.0983        -999.25        -999.25         0.9335       -50.8163    -0.01789474              1
      2917.0000         1.0966        -999.25        -999.25          0.932       -50.8443    -0.04879379              1
      2917.5000         1.0972        -999.25        -999.25         0.9304       -50.9365     -0.1438904              1
      2918.0000          1.093        -999.25        -999.25         0.9319       -50.8933     -0.1035881              1
      2918.5000         1.0819        -999.25        -999.25         0.9337       -50.6503      0.1365166              1
      2919.0000         1.0626        -999.25        -999.25         0.9356       -50.4813      0.3026161              1
      2919.5000         1.0474        -999.25        -999.25         0.9348        -50.409      0.3720207              1
      2920.0000         1.0406        -999.25        -999.25         0.9278       -50.4705      0.3076248              1
      2920.5000         1.0379        -999.25        -999.25         0.9215       -50.6273      0.1479263              1
      2921.0000         1.0455        -999.25        -999.25         0.9185       -50.8018    -0.02946854              1
      2921.5000         1.0599        -999.25        -999.25         0.9155       -50.6974     0.07203293              1
