#------------------------------------------------------------------------------
# Created by    : vladimir.rabinovich
# Created on    : 09/19/2023 17:22:53
#------------------------------------------------------------------------------
~Version Information Section
VERS.           2.0     :   CWLS log ASCII Standard - VERSION 2.0
WRAP.           NO      :   One line per depth step
~Well Information Section
#MNEM       .UNIT                                         VALUE :DESCRIPTION
#------------------------------------------------------------------------------
STRT        .FT                                             252 :START DEPTH
STOP        .FT                                           11321 :STOP DEPTH
STEP        .FT                                             0.5 :STEP      
NULL        .                                           -999.25 :NULL      
COMP        .                          HUMBLE OIL & REFINING CO :COMPANY   
WELL        .                                OCS 00615 ST00BP00 :WELL      
FLD         .                                           WILDCAT :FIELD     
LOC         .                                                   :LOCATION  
CNTY        .                             GALVESTON LARGE BLOCK :LOCATION  
STAT        .                                             TEXAS :STATE     
CTRY        .                                     UNITED STATES :COUNTRY   
SRVC        .                                                   :SERVICE COMPANY
DATE        .                             9/13/2023 11:19:42 AM :LOG DATE  
API         .                                    42706000270000 :API NUMBER
UWI         .                                    42706000270000 :UNIQUE WELL ID
XCOORD      .                                  1043929.24471964 :SURFACE X 
YCOORD      .                                  10527500.2798036 :SURFACE Y 
LAT         .                                         28.995876 :LATITUDE  
LON         .                                        -94.866344 :LONGITUDE 
ELEV        .FT                                              67 :ELEVATION VALUE
ELEV_TYPE   .                                                KB :ELEVATION REFERENCE TYPE
~Curve Information Section
#MNEM       .UNIT                                      API CODE :CURVE DESCRIPTION
#------------------------------------------------------------------------------
DEPT        .FT                                                 :DEPTH     
LAT         .OHMM                                               :          
LN          .OHMM                                               :          
SN          .OHMM                                               :          
SP          .MV                                                 :          
SP_NORM     .MV                                                 :SP Normalized
VSH_SP      .V/V                                                :Volume of Shale from SP
~A        DEPTH            LAT             LN             SN             SP        SP_NORM         VSH_SP
# ...
      8346.0000         0.4791         0.8553         0.8573       -75.1621      -6.869415       0.905332
      8346.5000          0.481          0.844         0.8478       -75.9717      -7.679016       0.892274
      8347.0000         0.4788         0.8347         0.8384       -76.7813      -8.488617      0.8792158
      8347.5000         0.4648         0.8276          0.829       -82.0859      -13.79321      0.7936578
      8348.0000         0.4508         0.8204         0.8196       -86.6484      -18.35571      0.7200692
      8348.5000         0.4368         0.8132         0.8102       -88.5137      -20.22102      0.6899836
      8349.0000         0.4228         0.8061         0.8002       -90.5312      -22.23851      0.6574434
      8349.5000         0.4012         0.7989         0.7863       -92.6406      -24.34792      0.6234207
      8350.0000         0.3787         0.7917         0.7724       -95.0273      -26.73461      0.5849256
      8350.5000          0.356         0.7845         0.7586       -96.6191      -28.32642      0.5592514
      8351.0000         0.3626         0.7774         0.7447       -99.8516      -31.55891      0.5071143
      8351.5000         0.3826         0.7728         0.7324      -103.3984      -35.10571      0.4499079
      8352.0000         0.4026          0.773         0.7287      -102.2852      -33.99252      0.4678627
      8352.5000         0.4225         0.7732          0.725      -100.5937      -32.30101       0.495145
      8353.0000         0.4425         0.7735         0.7213       -98.4961      -30.20341      0.5289772
      8353.5000         0.4624         0.7737         0.7176       -96.3984      -28.10571      0.5628111
      8354.0000         0.4824         0.7739         0.7139       -94.3008      -26.00811      0.5966434
      8354.5000         0.5023         0.7741         0.7102       -92.2031      -23.91042      0.6304772
      8355.0000         0.5223         0.7743         0.7085       -90.6152      -22.32251      0.6560885
      8355.5000         0.5423         0.7746         0.7156        -89.041      -20.74831      0.6814788
      8356.0000         0.5622         0.7748         0.7226       -87.4648      -19.17211      0.7069014
      8356.5000         0.5822          0.775         0.7296       -85.7539      -17.46121      0.7344966
      8357.0000         0.6021         0.7752         0.7367       -82.4336      -14.14091      0.7880498
      8357.5000         0.6221         0.7763         0.7437        -79.125      -10.83231      0.8414143
      8358.0000         0.6421         0.7788         0.7508       -75.8906      -7.597916       0.893582
      8358.5000          0.662         0.7813         0.7578       -73.7129      -5.420212      0.9287063
      8359.0000          0.682         0.7837         0.7649       -72.7891      -4.496414      0.9436062
      8359.5000         0.7019         0.7862         0.7719       -71.8652       -3.57251      0.9585079
      8360.0000         0.7133         0.7887         0.7789       -70.9414      -2.648712      0.9734079
      8360.5000         0.7125         0.7911          0.786       -70.1514      -1.858711      0.9861498
      8361.0000         0.7117         0.7936          0.793       -69.8931       -1.60041       0.990316
      8361.5000          0.711         0.7961         0.8001       -69.6348      -1.342117       0.994482
      8362.0000         0.7102         0.7985          0.808        -69.377      -1.084312      0.9986401
      8362.5000          0.707          0.801         0.8158       -69.1187     -0.8260117              1
      8363.0000         0.6961         0.8035         0.8237       -68.8604     -0.5677109              1
      8363.5000         0.6853         0.8059         0.8316       -68.6025     -0.3098145              1
      8364.0000         0.6744         0.8084          0.839       -68.3442    -0.05151367              1
      8364.5000         0.6635         0.8115         0.8333       -68.1797      0.1129837              1
      8365.0000         0.6527         0.8164         0.8276       -68.3909     -0.0982132              1
      8365.5000         0.6418         0.8214         0.8219       -68.6021     -0.3094101              1
      8366.0000          0.631         0.8263         0.8162       -68.8135      -0.520813              1
      8366.5000         0.6201         0.8312         0.8105       -69.0247     -0.7320099              1
      8367.0000         0.6093         0.8362         0.8049       -69.2358     -0.9431152              1
      8367.5000         0.5984         0.8411         0.7995       -69.4473      -1.154617      0.9975062
      8368.0000         0.5876         0.8456         0.7941       -69.6584      -1.365715      0.9941013
      8368.5000         0.5767         0.8419         0.7887       -69.8696      -1.576912      0.9906949
      8369.0000         0.5658         0.8382         0.7833       -69.9142      -1.621513      0.9899756
      8369.5000          0.555         0.8345         0.7779       -69.8794      -1.586716      0.9905369
      8370.0000         0.5441         0.8308         0.7724       -69.8447      -1.552017      0.9910965
      8370.5000         0.5333         0.8271         0.7714       -69.8101       -1.51741      0.9916547
      8371.0000         0.5236         0.8234         0.7749       -69.6323      -1.339615      0.9945223
      8371.5000         0.5141         0.8197         0.7784       -69.3918      -1.099113      0.9984014
      8372.0000         0.5046         0.8159          0.782       -69.1511     -0.8584137              1
      8372.5000         0.4951         0.8122         0.7855       -68.9106     -0.6179123              1
      8373.0000         0.4855         0.8085         0.7891       -68.6702     -0.3775101              1
      8373.5000          0.476          0.806         0.7932       -68.4294     -0.1367111              1
      8374.0000         0.4665         0.8134          0.798        -68.189      0.1036835              1
      8374.5000          0.457         0.8209         0.8028       -68.1816       0.111084              1
      8375.0000         0.4472         0.8283         0.8075       -68.7285     -0.4358139              1
      8375.5000         0.4373         0.8358         0.8123       -69.3535      -1.060814      0.9990191
      8376.0000         0.4274         0.8432         0.8171       -70.0107       -1.71801      0.9884192
      8376.5000         0.4175         0.8507         0.8219        -70.668      -2.375313      0.9778175
      8377.0000         0.4103         0.8581         0.8266       -70.6069      -2.314217       0.978803
      8377.5000         0.4158         0.8656         0.8308       -70.3364      -2.043716      0.9831659
      8378.0000         0.4214          0.873         0.8339       -70.0664      -1.773712      0.9875208
      8378.5000         0.4269         0.8844          0.837       -69.7964      -1.503716      0.9918755
      8379.0000         0.4324         0.8994           0.84       -69.5264      -1.233711      0.9962305
      8379.5000         0.4379         0.9144         0.8431       -69.2563     -0.9636154              1
      8380.0000         0.4434         0.9294         0.8657       -69.1869     -0.8942108              1
      8380.5000          0.449         0.9443         0.8952       -69.1228     -0.8301163              1
      8381.0000         0.4545         0.9593         0.9247        -69.333      -1.040314      0.9993498
      8381.5000           0.46         0.9714         0.9542       -69.6206      -1.327911      0.9947111
      8382.0000         0.4655         0.9811         0.9836       -69.9082      -1.615517      0.9900723
      8382.5000          0.471         0.9907         1.0006       -70.1958      -1.903114      0.9854336
      8383.0000         0.4703         1.0004         1.0131       -70.4902       -2.19751      0.9806854
      8383.5000         0.4662           1.01         1.0256        -70.998      -2.705315      0.9724949
