#------------------------------------------------------------------------------
# Created by    : vladimir.rabinovich
# Created on    : 09/19/2023 17:22:29
#------------------------------------------------------------------------------
~Version Information Section
VERS.           2.0     :   CWLS log ASCII Standard - VERSION 2.0
WRAP.           NO      :   One line per depth step
~Well Information Section
#MNEM       .UNIT                                         VALUE :DESCRIPTION
#------------------------------------------------------------------------------
STRT        .FT                                            1202 :START DEPTH
STOP        .FT                                           11047 :STOP DEPTH
STEP        .FT                                             0.5 :STEP      
NULL        .                                           -999.25 :NULL      
COMP        .                                 MESA PETROLEUM CO :COMPANY   
WELL        .                               OCS G03305 ST00BP00 :WELL      
FLD         .                                           WILDCAT :FIELD     
LOC         .                                                   :LOCATION  
CNTY        .                      MATAGORDA ISLAND LARGE BLOCK :LOCATION  
STAT        .                                             TEXAS :STATE     
CTRY        .                                     UNITED STATES :COUNTRY   
SRVC        .                                                   :SERVICE COMPANY
DATE        .                             9/13/2023 11:12:09 AM :LOG DATE  
API         .                                    42703400870000 :API NUMBER
UWI         .                                    42703400870000 :UNIQUE WELL ID
XCOORD      .                                  540264.325087739 :SURFACE X 
YCOORD      .                                   10226560.637492 :SURFACE Y 
LAT         .                                         28.138272 :LATITUDE  
LON         .                                        -96.413655 :LONGITUDE 
ELEV        .FT                                              80 :ELEVATION VALUE
ELEV_TYPE   .                                                KB :ELEVATION REFERENCE TYPE
~Curve Information Section
#MNEM       .UNIT                                      API CODE :CURVE DESCRIPTION
#------------------------------------------------------------------------------
DEPT        .FT                                                 :DEPTH     
CILD        .MMHO                                               :          
DPHI        .%                                                  :          
GR          .GAPI                                               :          
GR_NORM     .GAPI                                               :GammaRay Normalized
ILD         .OHMM                                               :          
ILM         .OHMM                                               :          
SFL         .OHMM                                               :          
SP          .MV                                                 :          
SP_NORM     .MV                                                 :SP Normalized
VSH_GR      .V/V                                                :Volume of Shale from GR
VSH_SP      .V/V                                                :Volume of Shale from SP
~A        DEPTH           CILD           DPHI             GR        GR_NORM            ILD            ILM            SFL             SP        SP_NORM         VSH_GR         VSH_SP
# ...
      3834.5000       3062.512        -999.25        42.7352       41.61203         0.3394        -999.25         0.9546      -131.2871      -40.28843      0.1832347      0.2444533
      3835.0000       3291.813        -999.25        42.4567       41.07181         0.3244        -999.25         1.0277      -132.6392      -41.64529      0.1717407      0.2183599
      3835.5000       3419.406        -999.25        41.9601       40.10853         0.3088        -999.25         0.9968      -135.6238      -44.63463      0.1512453      0.1608725
      3836.0000       3495.809        -999.25        41.4635       39.14524          0.294        -999.25         0.9499      -137.9739      -46.98949      0.1307498      0.1155868
      3836.5000       3556.125        -999.25         41.048       38.33927         0.2865        -999.25         0.9739      -141.6357      -50.65603      0.1136015     0.04507637
      3837.0000       3621.539        -999.25        40.6891       37.64309         0.2795        -999.25         1.0557      -143.2136      -52.23867     0.09878913     0.01464096
      3837.5000        3687.25        -999.25        40.5601       37.39288         0.2784        -999.25         1.1233      -143.6982      -52.72803     0.09346552    0.005230243
      3838.0000       3719.664        -999.25        40.9052       38.06229          0.281        -999.25         1.1573      -143.4819      -52.51648      0.1077083    0.009298472
      3838.5000       3694.066        -999.25        41.2505       38.73207         0.2863        -999.25         1.1594      -143.1792      -52.21852       0.121959     0.01502844
      3839.0000       3626.738        -999.25        42.0751       40.33158         0.2925        -999.25         1.1485      -142.6001      -51.64417      0.1559911      0.0260736
      3839.5000       3475.605        -999.25        42.9576       42.04344         0.3062        -999.25         1.1134      -141.2141      -50.26292      0.1924137     0.05263622
      3840.0000       3229.828        -999.25        43.8396       43.75431         0.3327        -999.25         1.1103      -136.9475      -46.00107      0.2288151      0.1345948
      3840.5000        2969.93        -999.25        45.2182       46.42847         0.3762        -999.25         1.1414      -121.6855      -30.74382      0.2857122      0.4280035
      3841.0000        2511.43        -999.25        46.7621       49.42323         0.4368        -999.25         1.1807      -107.0725      -16.13557      0.3494304      0.7089313
      3841.5000       2142.961        -999.25        49.4295       54.59734         0.4981        -999.25         1.2123       -95.5745      -4.642319      0.4595179      0.9299554
      3842.0000       1887.182        -999.25        52.5444       60.63948         0.5574        -999.25         1.1757       -92.3956       -1.46817       0.588074      0.9909967
      3842.5000       1623.852        -999.25        55.1061       65.60854         0.6234        -999.25         1.0665       -91.5621     -0.6394196      0.6937988              1
      3843.0000        1456.24        -999.25        57.2634       69.79317         0.7129        -999.25         0.9343       -91.6633     -0.7453613      0.7828333              1
      3843.5000       1251.656        -999.25        59.3961       73.93011         0.8046        -999.25         0.8114       -91.8434     -0.9302139      0.8708534              1
      3844.0000       1137.252        -999.25        60.5423       76.15344          0.954        -999.25         0.7582       -91.9021       -0.99366      0.9181584              1
      3844.5000       1057.223        -999.25        60.6938       76.44733         1.0568        -999.25         0.7651       -91.8759     -0.9722137      0.9244112              1
      3845.0000        1010.49        -999.25        60.0903       75.27672         1.1451        -999.25         0.8085       -91.6332     -0.7342606      0.8995047              1
      3845.5000       975.1348        -999.25        59.4956       74.12309         1.1952        -999.25         0.8929       -91.2731     -0.3789139      0.8749594              1
      3846.0000       971.5547        -999.25        58.9169       73.00057         1.1873        -999.25         1.0185       -89.9359      0.9535446       0.851076              1
      3846.5000       993.5049        -999.25        58.3383       71.87823         1.1562        -999.25         1.3649        -88.365       2.519691      0.8271963              1
      3847.0000       1005.256        -999.25         57.986       71.19486          1.123        -999.25         1.5604       -86.8346       4.045341      0.8126566              1
      3847.5000       1011.803        -999.25        58.2902       71.78493         1.0976        -999.25         1.2497       -85.5889       5.286301      0.8252112              1
      3848.0000       1024.453        -999.25        58.6106       72.40645         1.0807        -999.25         0.8586       -84.8983       5.972145      0.8384351              1
      3848.5000       1047.121        -999.25         60.061       75.21986         1.0641        -999.25          0.783       -85.7781       5.087601      0.8982948              1
      3849.0000       1106.406        -999.25        61.2559       77.53767         1.0074        -999.25         0.7666       -86.3594       4.501549      0.9476099              1
      3849.5000       1159.639        -999.25        62.0309       79.04098         0.9421        -999.25         0.7693       -86.5913         4.2649      0.9795952              1
      3850.0000       1219.488        -999.25        62.2325       79.43203          0.867        -999.25         0.7767       -85.9219        4.92955      0.9879155              1
      3850.5000       1247.414        -999.25        61.5238       78.05735         0.8639        -999.25         0.7893        -85.295       5.551704       0.958667              1
      3851.0000       1245.184        -999.25        60.8179       76.68809         0.8959        -999.25         0.8054         -84.74       6.101952      0.9295338              1
      3851.5000       1229.195        -999.25        60.2387       75.56454         0.9342        -999.25         0.8132       -84.3459       6.491302      0.9056284              1
      3852.0000       1197.543        -999.25        59.6594       74.44086         0.9741        -999.25         0.8089       -84.0573       6.775162      0.8817204              1
      3852.5000        1160.25        -999.25        59.0801       73.31711         1.0155        -999.25          0.822       -83.8351       6.992607      0.8578108              1
      3853.0000       1109.105        -999.25        58.5602       72.30866         1.0531        -999.25         0.8383       -83.4807       7.342262      0.8363545              1
      3853.5000       1063.277        -999.25        58.0556       71.32987         1.0811        -999.25         0.8998       -83.3358       7.482407      0.8155292              1
      3854.0000       1022.726        -999.25        57.3789       70.01721         1.1019        -999.25         0.9565       -83.9285       6.884964      0.7876003              1
      3854.5000       1009.644        -999.25        56.4484        68.2123         1.1106        -999.25         0.9843       -84.7333       6.075409       0.749198              1
      3855.0000         1013.5        -999.25        56.1559       67.64488         1.1047        -999.25         0.9566       -85.4232        5.38076      0.7371252              1
      3855.5000       1020.813        -999.25        56.1077        67.5514         1.0792        -999.25         0.8968       -85.8282       4.971008      0.7351362              1
      3856.0000       1029.244        -999.25        56.3497       68.02085         1.0543        -999.25         0.8481       -86.5273       4.267166      0.7451245              1
      3856.5000       1052.441        -999.25        56.8383       68.96863         1.0268        -999.25         0.8159       -87.4911       3.298622        0.76529              1
