#------------------------------------------------------------------------------
# Created by    : vladimir.rabinovich
# Created on    : 09/19/2023 17:20:49
#------------------------------------------------------------------------------
~Version Information Section
VERS.           2.0     :   CWLS log ASCII Standard - VERSION 2.0
WRAP.           NO      :   One line per depth step
~Well Information Section
#MNEM       .UNIT                                         VALUE :DESCRIPTION
#------------------------------------------------------------------------------
STRT        .FT                                             507 :START DEPTH
STOP        .FT                                            6530 :STOP DEPTH
STEP        .FT                                             0.5 :STEP      
NULL        .                                           -999.25 :NULL      
COMP        .                                      SHELL OIL CO :COMPANY   
WELL        .                                ST TR 00692-L SE/4 :WELL      
FLD         .                                           WILDCAT :FIELD     
LOC         .                                                   :LOCATION  
CNTY        .                      MATAGORDA ISLAND LARGE BLOCK :LOCATION  
STAT        .                                             TEXAS :STATE     
CTRY        .                                     UNITED STATES :COUNTRY   
SRVC        .                                                   :SERVICE COMPANY
DATE        .                             9/13/2023 11:12:05 AM :LOG DATE  
API         .                                    42703000180000 :API NUMBER
UWI         .                                    42703000180000 :UNIQUE WELL ID
XCOORD      .                                  399042.886430441 :SURFACE X 
YCOORD      .                                  10159669.4462586 :SURFACE Y 
LAT         .                                        27.9430215 :LATITUDE  
LON         .                                       -96.8445442 :LONGITUDE 
ELEV        .FT                                              84 :ELEVATION VALUE
ELEV_TYPE   .                                                DF :ELEVATION REFERENCE TYPE
~Curve Information Section
#MNEM       .UNIT                                      API CODE :CURVE DESCRIPTION
#------------------------------------------------------------------------------
DEPT        .FT                                                 :DEPTH     
ASN         .OHMM                                               :          
CILD        .MMHO                                               :          
ILD         .OHMM                                               :          
SP          .MV                                                 :          
SP_NORM     .MV                                                 :SP Normalized
VSH_SP      .V/V                                                :Volume of Shale from SP
~A        DEPTH            ASN           CILD            ILD             SP        SP_NORM         VSH_SP
# ...
      5295.0000         0.7741       3192.469         0.2958       -97.2527       -56.0006     0.06895519
      5295.5000         0.7696       3228.906         0.2864       -97.5901       -56.3339     0.06320861
      5296.0000         0.7656       3265.836          0.277       -97.9114       -56.6511     0.05773965
      5296.5000         0.7617       3296.711         0.2675       -98.1826       -56.9182     0.05313446
      5297.0000         0.7571       3343.492         0.2588       -98.4462       -57.1777     0.04866035
      5297.5000         0.7507       3354.492         0.2582       -98.5549       -57.2823     0.04685691
      5298.0000         0.7442       3357.809         0.2576       -98.6637       -57.3869     0.04505342
      5298.5000         0.7379        3343.59         0.2569       -98.5518       -57.2709     0.04705343
      5299.0000         0.7317       3314.285         0.2563       -96.0337       -54.7487     0.09053967
      5299.5000         0.7255       3163.102         0.2557        -90.932       -49.6429      0.1785707
      5300.0000         0.7368       3041.137         0.2623       -88.4692        -47.176      0.2211035
      5300.5000         0.7566       2935.488         0.2831       -87.1083        -45.811      0.2446379
      5301.0000         0.7773        2822.77         0.3039       -85.6154        -44.314      0.2704483
      5301.5000         0.8039       2710.047         0.3247       -85.3706        -44.065      0.2747414
      5302.0000         0.8304        2597.23         0.3455        -85.345       -44.0353      0.2752534
      5302.5000         0.8587       2484.512         0.4091       -85.3193       -44.0055      0.2757672
      5303.0000         0.9249       2371.789         0.4836       -85.1409        -43.823      0.2789138
      5303.5000         0.9508        2259.07         0.5576       -84.3132       -42.9912      0.2932552
      5304.0000         0.9712       2146.352         0.6223       -82.2112       -40.8851      0.3295672
      5304.5000         0.9811        2068.93         0.6868       -71.4476       -30.1174      0.5152172
      5305.0000          0.991         1753.5         0.7514       -67.7986       -26.4642      0.5782034
      5305.5000         0.9879       1419.418         0.7915       -64.1497       -22.8112      0.6411862
      5306.0000         0.9656       1345.977         0.8092       -60.5007       -19.1581      0.7041707
      5306.5000         0.9449       1302.891         0.8269       -56.8542       -15.5075      0.7671121
      5307.0000         0.9242       1277.307         0.8446       -53.2052       -11.8544      0.8300965
      5307.5000         0.9035         1251.6         0.8512       -51.7116       -10.3567      0.8559189
      5308.0000         0.9118       1213.297         0.8574       -51.1731        -9.8141      0.8652741
      5308.5000         0.9213       1199.553         0.8635       -50.4765        -9.1133      0.8773569
      5309.0000         0.9308       1186.191         0.8697        -49.827        -8.4597      0.8886259
      5309.5000         0.9405       1179.684         0.8759       -49.2092        -7.8378      0.8993483
      5310.0000         0.9513       1173.689         0.8821       -48.5912        -7.2157      0.9100741
      5310.5000         0.9621       1168.518         0.8883       -47.9877        -6.6081        0.92055
      5311.0000         0.9729       1163.346         0.8945       -47.4739        -6.0902      0.9294793
      5311.5000         0.9837       1153.154         0.9007       -46.9425        -5.5547      0.9387121
      5312.0000         0.9941       1140.844         0.9069       -46.7733        -5.3813      0.9417017
      5312.5000         1.0023       1130.227         0.9135       -46.6041         -5.208      0.9446896
      5313.0000         1.0105        1120.24         0.9239       -46.4348        -5.0346      0.9476793
      5313.5000         1.0187       1111.096         0.9343       -46.3078        -4.9035      0.9499397
      5314.0000         1.0269       1103.447         0.9446       -46.2266        -4.8182      0.9514104
      5314.5000         1.0354       1099.127          0.955       -46.1454        -4.7329       0.952881
      5315.0000         1.0438       1094.809         0.9637       -46.0693        -4.6527      0.9542638
      5315.5000         1.0523       1087.814         0.9615       -45.9976        -4.5769      0.9555707
      5316.0000         1.0589       1079.361         0.9592       -45.9259         -4.501      0.9568793
      5316.5000         1.0645       1071.037          0.957       -45.8605        -4.4315      0.9580776
      5317.0000           1.07        1062.83         0.9548       -45.8222        -4.3891      0.9588086
      5317.5000         1.0726       1054.617         0.9526       -45.7839        -4.3467      0.9595397
      5318.0000         1.0738       1046.738         0.9359        -45.757        -4.3157      0.9600741
      5318.5000          1.075       1038.945          0.919       -46.0126        -4.5672      0.9557379
      5319.0000         1.0761       1043.141         0.9021       -46.3447        -4.8951      0.9500845
      5319.5000         1.0773       1048.932         0.8853       -46.7194        -5.2657      0.9436948
      5320.0000         1.0246       1054.729         0.8684       -47.0788         -5.621       0.937569
      5320.5000         1.0071       1070.926         0.8515       -47.4358        -5.9739      0.9314845
      5321.0000          0.992       1092.406         0.8346       -47.3463        -5.8803      0.9330983
      5321.5000         0.9812       1114.111         0.8177       -47.0314        -5.5613      0.9385983
      5322.0000         0.9745       1136.457         0.8122       -46.6453        -5.1711      0.9453259
      5322.5000         0.9741       1163.697         0.8131       -46.2592        -4.7808      0.9520552
      5323.0000         0.9744       1193.336          0.814       -45.8969        -4.4144      0.9583724
      5323.5000         0.9748       1205.275         0.8148       -45.6483        -4.1617      0.9627293
      5324.0000         0.9752       1215.299         0.8157       -45.5278        -4.0371      0.9648776
      5324.5000         0.9746       1221.121          0.824       -45.5863        -4.0915      0.9639397
      5325.0000         0.9725        1210.49         0.8332       -45.6448        -4.1459      0.9630017
      5325.5000         0.9703        1199.85         0.8423       -45.7004        -4.1974      0.9621138
      5326.0000         0.9681       1189.221         0.8515       -45.7076        -4.2004      0.9620621
      5326.5000          0.966       1178.479         0.8607       -45.7149        -4.2055      0.9619741
      5327.0000         0.9638       1172.357         0.8699       -45.7222        -4.2128      0.9618483
      5327.5000         0.9615       1177.166          0.879       -45.7294          -4.22      0.9617242
      5328.0000         0.9591       1179.998         0.8882       -45.7366        -4.2272         0.9616
      5328.5000         0.9568        1182.26         0.8974       -45.5783        -4.0689      0.9643293
      5329.0000         0.9645        1184.52         0.9066       -45.4078        -3.8984      0.9672689
      5329.5000         0.9788       1186.781         0.9158       -45.2373        -3.7279      0.9702086
      5330.0000         0.9931       1181.148          0.925       -45.0667        -3.5573        0.97315
      5330.5000         1.0075       1157.172         0.9341       -44.8936        -3.3842      0.9761345
      5331.0000         1.0211       1132.996         0.9433       -44.6451        -3.1357       0.980419
      5331.5000         1.0291       1109.217         0.9268       -44.3963        -2.8869      0.9847086
      5332.0000         1.0239       1083.645         0.8318       -44.1475        -2.6381      0.9889983
      5332.5000         1.0113       1097.957         0.7369       -44.0617        -2.5523      0.9904776
