#------------------------------------------------------------------------------
# Created by    : vladimir.rabinovich
# Created on    : 09/19/2023 17:22:38
#------------------------------------------------------------------------------
~Version Information Section
VERS.           2.0     :   CWLS log ASCII Standard - VERSION 2.0
WRAP.           NO      :   One line per depth step
~Well Information Section
#MNEM       .UNIT                                         VALUE :DESCRIPTION
#------------------------------------------------------------------------------
STRT        .FT                                             890 :START DEPTH
STOP        .FT                                            9058 :STOP DEPTH
STEP        .FT                                             0.5 :STEP      
NULL        .                                           -999.25 :NULL      
COMP        .                            COASTAL OIL & GAS CORP :COMPANY   
WELL        .                               OCS G01773 ST00BP00 :WELL      
FLD         .                                           WILDCAT :FIELD     
LOC         .                                                   :LOCATION  
CNTY        .                             GALVESTON LARGE BLOCK :LOCATION  
STAT        .                                             TEXAS :STATE     
CTRY        .                                     UNITED STATES :COUNTRY   
SRVC        .                                                   :SERVICE COMPANY
DATE        .                             9/13/2023 11:19:54 AM :LOG DATE  
API         .                                    42706403500000 :API NUMBER
UWI         .                                    42706403500000 :UNIQUE WELL ID
XCOORD      .                                  1074939.13305719 :SURFACE X 
YCOORD      .                                   10531967.363633 :SURFACE Y 
LAT         .                                         29.009472 :LATITUDE  
LON         .                                        -94.769566 :LONGITUDE 
ELEV        .FT                                              83 :ELEVATION VALUE
ELEV_TYPE   .                                                KB :ELEVATION REFERENCE TYPE
~Curve Information Section
#MNEM       .UNIT                                      API CODE :CURVE DESCRIPTION
#------------------------------------------------------------------------------
DEPT        .FT                                                 :DEPTH     
DCAL        .IN                                                 :          
DPSS        .V/V                                                :          
DRHO        .G/CM3                                              :          
DTLF        .US/FT                                              :          
DTLN        .US/FT                                              :          
GR          .GAPI                                               :          
GRS         .GAPI                                               :          
NPSS        .V/V                                                :Neutron Porosity Sandstone
SFL         .OHMM                                               :          
SP          .MV                                                 :          
SP_NORM     .MV                                                 :SP Normalized
SPHI_SAN    .V/V                                                :          
TENS        .LB                                                 :          
VSH_SP      .V/V                                                :Volume of Shale from SP
~A        DEPTH           DCAL           DPSS           DRHO           DTLF           DTLN             GR            GRS           NPSS            SFL             SP        SP_NORM       SPHI_SAN           TENS         VSH_SP
# ...
      7802.0000         0.3529         0.2204         -0.006          115.8          116.2        51.8663           56.2          0.366         0.9532            -12      -8.437031          0.324           3180      0.8875062
      7802.5000         0.3529         0.2302         -0.008          118.2          118.6        50.4525             59         0.3936         0.8295          -11.8      -8.228996         0.3264           3160      0.8902801
      7803.0000         0.4706         0.2412          -0.01          118.6          118.8        50.0563           58.4         0.4212         0.6937          -10.6      -7.020963         0.3276           3140      0.9063872
      7803.5000         0.5882         0.2436         -0.008          118.2          118.4        50.6744           56.8         0.4237          0.651        -9.3878      -5.800729         0.3264           3160       0.922657
      7804.0000         0.6667         0.2448         -0.008          118.4          118.6        53.1139           55.8         0.4044            0.7        -8.5714      -4.976294         0.3276           3160      0.9336494
      7804.5000         0.6667         0.2472         -0.006          119.4          119.6        56.7633           55.8         0.3912         0.7254        -7.9592       -4.35606         0.3312           3180      0.9419192
      7805.0000         0.6667         0.2496         -0.004       120.9804       121.1765        59.7979           56.8         0.4068         0.6874         -7.551      -3.939826          0.336           3200       0.947469
      7805.5000         0.6667         0.2616         -0.002       122.1569       122.3529             61           57.8         0.4396         0.6165        -7.1429      -3.523692         0.3384           3200      0.9530174
      7806.0000         0.6667         0.2664              0       121.7647       121.9608        59.5966           58.2         0.4494         0.6278        -6.7347      -3.107459         0.3372           3200      0.9585672
      7806.5000         0.6667         0.2628          0.002       121.7647       121.9608        58.1865           58.6         0.4286         0.6451        -6.3265      -2.691224         0.3372           3220       0.964117
      7807.0000         0.6667         0.2544          0.006       121.5686       121.7647        58.1883           57.6         0.4152          0.669        -6.3265       -2.68319         0.3372           3220      0.9642241
      7807.5000         0.7059         0.2508           0.01       122.3529        122.549        58.5923           56.8         0.4176          0.669        -6.5306      -2.879256         0.3372           3220      0.9616099
      7808.0000         0.7059         0.2472          0.012       122.3529       121.9608        58.5937             57         0.4056         0.6569        -7.1429      -3.483522          0.336           3220       0.953553
      7808.5000         0.7451         0.2436          0.014       121.9608            120         58.796           57.4           0.39         0.6629        -7.1429      -3.475489         0.3336           3220      0.9536601
      7809.0000         0.7451           0.24          0.016            120          118.4        58.5967           59.6         0.3984         0.6751        -7.1429      -3.467455         0.3288           3220      0.9537673
      7809.5000         0.7451         0.2376          0.014          118.2            117        57.1963           61.2         0.3984         0.6874        -6.9388      -3.255321         0.3252           3220      0.9565957
      7810.0000         0.7451         0.2351           0.01          116.6          117.4        56.1988           60.6         0.3924            0.7        -6.9388      -3.247287         0.3264           3220      0.9567028
      7810.5000         0.7451         0.2339          0.008          117.6          118.8           55.2           58.6         0.3996         0.7189        -6.9388      -3.239253         0.3312           3220      0.9568099
      7811.0000         0.7451         0.2351          0.006          119.4       120.3922           54.8           57.8          0.414         0.7063        -6.9388      -3.231219         0.3336           3220      0.9569171
      7811.5000         0.6667         0.2388          0.002          119.8       120.7843             55           57.4         0.4298         0.6451        -6.7347      -3.019085         0.3348           3200      0.9597455
      7812.0000         0.5882         0.2412              0            120       120.1961           55.2           56.8         0.4457         0.6451        -6.7347      -3.011051         0.3348           3180      0.9598526
      7812.5000         0.4706           0.24         -0.002       120.5882       121.1765           55.8           55.8         0.4531         0.6751        -6.5306      -2.798917         0.3348           3180      0.9626811
      7813.0000         0.3137         0.2412         -0.006       121.1765       121.7647           57.4           55.8         0.4384         0.7063        -6.7347      -2.994983          0.336           3180      0.9600669
      7813.5000         0.0784         0.2472          -0.01       121.3725       122.1569           59.4           56.2         0.4224         0.7063        -6.9388      -3.191049         0.3372           3180      0.9574527
      7814.0000         0.0784         0.2556         -0.014       120.9804       121.3725           61.2           56.6         0.4322            0.7        -6.9388      -3.183015         0.3348           3180      0.9575598
      7814.5000         0.5098         0.2436         -0.018          119.8       120.5882           60.2           56.6         0.4445         0.6629        -7.1429      -3.379081         0.3312           3180      0.9549456
      7815.0000         0.7451         0.2314         -0.018            118            119           58.8           55.6         0.4396         0.6335        -6.9388      -3.166947         0.3276           3180       0.957774
      7815.5000         0.7059         0.2216         -0.016          115.8          116.4           58.4           52.6         0.4273         0.6451        -7.3469      -3.567013         0.3228           3200      0.9524398
      7816.0000         0.6667         0.2106         -0.016            114          114.8           60.4           49.4         0.4164         0.7254        -7.3469      -3.558979         0.3192           3200       0.952547
      7816.5000         0.6667         0.1996         -0.014          112.8          113.4           62.4           52.4          0.402          0.822        -7.7551      -3.959145         0.3156           3220      0.9472114
      7817.0000         0.6667         0.1873         -0.014          112.6          113.4           64.2           56.4         0.3936         0.8919        -8.3673      -4.563311         0.3156           3240      0.9391559
      7817.5000         0.6275         0.1788         -0.012          113.6            114           64.6           61.8         0.3888         0.8919        -8.3673      -4.555277          0.318           3240       0.939263
      7818.0000         0.6275         0.1728          -0.01          115.6            115             64           64.2         0.3912         0.8838        -8.5714      -4.751343         0.3192           3260      0.9366488
      7818.5000         0.6275         0.1752          -0.01          117.8          116.6           62.2           63.8         0.3996         0.8759        -8.7755       -4.94741          0.324           3260      0.9340345
      7819.0000         0.6275         0.1812         -0.012       120.3922            119           60.8           63.8         0.4068         0.8601        -9.3878      -5.551675           0.33           3260      0.9259776
      7819.5000         0.7059         0.1971         -0.014       122.7451       121.5686           59.6           67.2         0.4224          0.822        -9.7959      -5.951741         0.3372           3260      0.9206434
