#------------------------------------------------------------------------------
# Created by    : vladimir.rabinovich
# Created on    : 09/19/2023 17:19:55
#------------------------------------------------------------------------------
~Version Information Section
VERS.           2.0     :   CWLS log ASCII Standard - VERSION 2.0
WRAP.           NO      :   One line per depth step
~Well Information Section
#MNEM       .UNIT                                         VALUE :DESCRIPTION
#------------------------------------------------------------------------------
STRT        .FT                                            1601 :START DEPTH
STOP        .FT                                            6340 :STOP DEPTH
STEP        .FT                                             0.5 :STEP      
NULL        .                                           -999.25 :NULL      
COMP        .                 FAIRWAYS OFFSHORE EXPLORATION INC :COMPANY   
WELL        .                                ST TR 00629-L SE/4 :WELL      
FLD         .                                       BLOCK 630-L :FIELD     
LOC         .                                                   :LOCATION  
CNTY        .                      MATAGORDA ISLAND LARGE BLOCK :LOCATION  
STAT        .                                             TEXAS :STATE     
CTRY        .                                     UNITED STATES :COUNTRY   
SRVC        .                                                   :SERVICE COMPANY
DATE        .                             9/13/2023 11:19:05 AM :LOG DATE  
API         .                                    42703302840100 :API NUMBER
UWI         .                                    42703302840100 :UNIQUE WELL ID
XCOORD      .                                  449566.970470722 :SURFACE X 
YCOORD      .                                  10204940.3648147 :SURFACE Y 
LAT         .                                        28.0716107 :LATITUDE  
LON         .                                       -96.6925833 :LONGITUDE 
ELEV        .FT                                              82 :ELEVATION VALUE
ELEV_TYPE   .                                                KB :ELEVATION REFERENCE TYPE
~Curve Information Section
#MNEM       .UNIT                                      API CODE :CURVE DESCRIPTION
#------------------------------------------------------------------------------
DEPT        .FT                                                 :DEPTH     
ASFL        .OHMM                                               :          
CILD        .MMHO                                               :          
GR          .GAPI                                               :          
GR_NORM     .GAPI                                               :GammaRay Normalized
ILD         .OHMM                                               :          
SP          .MV                                                 :          
SP_NORM     .MV                                                 :SP Normalized
VSH_GR      .V/V                                                :Volume of Shale from GR
VSH_SP      .V/V                                                :Volume of Shale from SP
~A        DEPTH           ASFL           CILD             GR        GR_NORM            ILD             SP        SP_NORM         VSH_GR         VSH_SP
# ...
      5390.5000         1.2796       935.1045        65.7639       68.20718         1.0645       -61.3996      -14.69301      0.7490889      0.7791449
      5391.0000         1.2953       949.2217        65.2301       67.36317         1.0613       -59.5373      -12.83071      0.7311314       0.809182
      5391.5000          1.301       964.1045        64.4063       66.06229         1.0505       -58.9401      -12.23351      0.7034531      0.8188143
      5392.0000         1.2735       978.9883        67.7349       71.30367         1.0397       -58.3724      -11.66581      0.8149717      0.8279708
      5392.5000         1.2175       982.8115        69.4507       74.00401         1.0289       -57.8857      -11.17911      0.8724257      0.8358208
      5393.0000         1.1888       984.3398        70.2301       75.22903         1.0284       -57.4158      -10.70921        0.89849      0.8433998
      5393.5000         1.1721       973.3857        69.9563       74.79466         1.0432       -57.0405      -10.33391      0.8892481       0.849453
      5394.0000         1.1555       966.1953        69.6823       74.36001          1.058        -56.665      -9.958412      0.8800002      0.8555095
      5394.5000         1.1395       959.6729        69.3271       73.79741         1.0728       -56.2894      -9.582809        0.86803      0.8615676
      5395.0000         1.1236       953.1504        68.8535       73.04826         1.0927       -55.8772      -9.170612      0.8520905      0.8682159
      5395.5000         1.1109       946.6289        68.0726       71.81496         1.1144        -57.012      -10.30541      0.8258501      0.8499127
      5396.0000         1.2149       921.6494        66.5876       69.47229         1.1287       -59.3237      -12.61711      0.7760062      0.8126273
      5396.5000         1.2775        893.918        63.9656       65.33826         1.1175        -62.892      -16.18541       0.688048       0.755074
      5397.0000         1.3717       868.7852         59.943       58.99753         1.1043       -65.2819      -18.57531      0.5531389      0.7165273
      5397.5000         1.4603       887.2725        58.5574        56.8115         1.0737        -66.593      -19.88641      0.5066277      0.6953804
      5398.0000         1.4917       981.3301        64.5267       66.21341         1.0431       -68.1685      -21.46191      0.7066683      0.6699691
      5398.5000           1.48       1046.012        67.8143       71.39017         1.0126       -70.3585      -23.65191      0.8168122      0.6346467
      5399.0000         1.2836       1125.701        67.3079       70.58936         0.9862       -68.0815      -21.37491      0.7997735      0.6713725
      5399.5000         1.0141        1199.48        69.9517        74.7518         0.9622       -66.2975      -19.59091      0.8883362      0.7001466
      5400.0000         0.9414       1225.594        70.8134       76.10647         0.9383       -64.6785      -17.97191      0.9171589      0.7262595
      5400.5000          0.891       1246.582        72.9047       79.39844         0.9248       -60.1904      -13.48381      0.9872008      0.7986482
      5401.0000         0.8975       1266.418        74.6329        82.1183         0.9209       -55.3781      -8.671513              1      0.8762659
      5401.5000         0.9412       1232.803        72.5658       78.85854         0.9337       -51.5629      -4.856312      0.9757137      0.9378014
      5402.0000          0.974        1160.91        70.4985       75.59845         0.9735       -50.0444      -3.337811        0.90635      0.9622934
      5402.5000         1.0072       1120.748        69.2428       73.61708         1.0134       -49.0173      -2.310711      0.8641932      0.9788595
      5403.0000         1.0529       1080.535        69.2396       73.60908         1.0481       -48.7411      -2.034512      0.8640229      0.9833143
      5403.5000          1.091       1026.348        70.5718       75.70504          1.068       -48.3261      -1.619511      0.9086179      0.9900079
      5404.0000         1.1196       889.0381        74.4591       81.82666         1.0879       -47.7985      -1.091911              1      0.9985176
      5404.5000         1.1486       873.7783        75.8931         84.083         1.1077       -48.7706      -2.064011              1      0.9828385
      5405.0000         1.1834       870.6426        76.7976       85.50513         1.1119       -49.7353      -3.028709              1      0.9672789
      5405.5000         1.1193       867.5098        77.2638       86.73053          1.115       -50.3809      -3.674313              1      0.9568659
      5406.0000         1.0783       873.8428        77.3246       86.80598         1.1071       -50.7068       -4.00021              1      0.9516095
      5406.5000          1.044       880.5732        76.8212       86.15881          1.092       -51.0327      -4.326111              1      0.9463531
      5407.0000         1.0166       914.5391         76.317        85.5106          1.077       -52.0024      -5.295811              1      0.9307128
      5407.5000          0.997       941.0684          75.71       84.73073         1.0619       -53.2377      -6.531113              1      0.9107885
      5408.0000          0.988       966.8877         74.911       84.19302         1.0464       -55.6264      -8.919811              1      0.8722611
      5408.5000          0.988       988.7588        73.7601         82.522         1.0286       -56.9015      -10.19491              1      0.8516949
      5409.0000           0.99       1010.631        72.4316       80.59354         1.0108       -57.9891      -11.28251              1       0.834153
      5409.5000         0.9934       1028.199        70.9325       78.41779          0.993       -58.8923      -12.18571      0.9663359      0.8195853
      5410.0000         0.9968       1044.994        69.9939        77.0545         0.9752       -59.4879      -12.78131      0.9373297      0.8099788
      5410.5000         1.0002       1061.791        69.0696       75.71198         0.9519        -59.965      -13.25841      0.9087654      0.8022837
      5411.0000         1.0002       1078.586         68.201       74.45016         0.9226       -73.3855      -26.67891      0.8819183      0.5858241
      5411.5000         0.9967       1102.162        67.3326       73.18863         0.8782       -83.0546      -36.34801      0.8550772      0.4298707
      5412.0000         0.9933       1164.637        65.9484       71.17944         0.8283       -85.6556      -38.94901      0.8123284      0.3879192
      5412.5000          0.985       1324.406        64.0153       68.37458         0.7756       -87.3516      -40.64501      0.7526506      0.3605643
      5413.0000         0.9766       1439.404        61.5048       64.73277         0.7129       -88.4008      -41.69421      0.6751652      0.3436417
      5413.5000         0.9561         2023.9        59.9753       62.51294         0.6496       -88.7549      -42.04831      0.6279348      0.3379305
      5414.0000          0.921        2112.27        58.9609       61.03978         0.5795       -89.0929      -42.38631      0.5965911      0.3324788
      5414.5000         0.8858       2215.348        55.9179       56.62608         0.5095       -89.6565      -42.94991      0.5026824      0.3233885
      5415.0000         0.8302       2397.969        52.3795       51.49426         0.4691       -90.3468      -43.64021      0.3934949      0.3122546
      5415.5000          0.785       2629.238        52.6923       51.94495           0.43       -90.7646      -44.05801       0.403084      0.3055159
      5416.0000          0.749       2676.512        59.1881        61.3582         0.3955       -89.3232      -42.61661      0.6033659      0.3287644
      5416.5000         0.7163       2724.277        74.2183       83.14248         0.3752       -87.0747      -40.36811              1      0.3650305
