#------------------------------------------------------------------------------
# Created by    : vladimir.rabinovich
# Created on    : 09/19/2023 17:22:21
#------------------------------------------------------------------------------
~Version Information Section
VERS.           2.0     :   CWLS log ASCII Standard - VERSION 2.0
WRAP.           NO      :   One line per depth step
~Well Information Section
#MNEM       .UNIT                                         VALUE :DESCRIPTION
#------------------------------------------------------------------------------
STRT        .FT                                            2180 :START DEPTH
STOP        .FT                                            6738 :STOP DEPTH
STEP        .FT                                             0.5 :STEP      
NULL        .                                           -999.25 :NULL      
COMP        .                          SEAGULL ENERGY E & P INC :COMPANY   
WELL        .                               OCS G08131 ST00BP00 :WELL      
FLD         .                              GALVESTON BLOCK 0384 :FIELD     
LOC         .                                                   :LOCATION  
CNTY        .                             GALVESTON LARGE BLOCK :LOCATION  
STAT        .                                             TEXAS :STATE     
CTRY        .                                     UNITED STATES :COUNTRY   
SRVC        .                                                   :SERVICE COMPANY
DATE        .                             9/13/2023 11:19:36 AM :LOG DATE  
API         .                                    42706401890000 :API NUMBER
UWI         .                                    42706401890000 :UNIQUE WELL ID
XCOORD      .                                  986765.057424596 :SURFACE X 
YCOORD      .                                  10402321.6077632 :SURFACE Y 
LAT         .                                          28.64909 :LATITUDE  
LON         .                                        -95.038398 :LONGITUDE 
ELEV        .FT                                             100 :ELEVATION VALUE
ELEV_TYPE   .                                                KB :ELEVATION REFERENCE TYPE
~Curve Information Section
#MNEM       .UNIT                                      API CODE :CURVE DESCRIPTION
#------------------------------------------------------------------------------
DEPT        .FT                                                 :DEPTH     
CALN        .IN                                                 :          
DRHO        .G/CM3                                              :          
GR          .GAPI                                               :          
GR_NORM     .GAPI                                               :GammaRay Normalized
ILD         .OHMM                                               :          
ILM         .OHMM                                               :          
NPSS        .V/V                                                :Neutron Porosity Sandstone
RHOB        .G/CM3                                              :          
SFL         .OHMM                                               :          
SP          .MV                                                 :          
SP_NORM     .MV                                                 :SP Normalized
TENN        .LB                                                 :          
VSH_GR      .V/V                                                :Volume of Shale from GR
VSH_SP      .V/V                                                :Volume of Shale from SP
~A        DEPTH           CALN           DRHO             GR        GR_NORM            ILD            ILM           NPSS           RHOB            SFL             SP        SP_NORM           TENN         VSH_GR         VSH_SP
# ...
      4628.0000          11.18          0.001       103.0301       85.84635         0.9189         0.9452         0.4482         2.1775         0.9907        -3.1863      -1.244552           2400              1      0.9822207
      4628.5000          11.18          0.001       102.2259       85.12176         0.9186          0.945         0.4512         2.1693          0.963        -3.1894      -1.247652           2440              1      0.9821764
      4629.0000           11.2          0.001       100.6221       83.67752         0.9096         0.9447         0.4627         2.1601         0.9358        -3.1925      -1.250752           2440              1      0.9821321
      4629.5000          11.22              0        99.4244       82.59878         0.9092         0.9355         0.4884          2.152         0.9179        -2.9959      -1.054152           2440              1      0.9849407
      4630.0000          11.18          0.001        98.8269       82.06021         0.9088         0.9264         0.5016           2.15         0.9175        -2.9988      -1.057052           2440              1      0.9848992
      4630.5000          11.12          0.003        99.2157       82.40932            0.9         0.9174         0.5166         2.1481         0.9174           -3.4      -1.458252       2440.926              1      0.9791678
      4631.0000          11.16          0.004        99.6078       82.76139            0.9         0.9174         0.5124         2.1481         0.9087           -3.6      -1.658252       2442.467              1      0.9763107
      4631.5000          11.22          0.005        99.4118       82.58417            0.9         0.9174          0.501           2.15         0.8838           -3.8      -1.858252       2444.006              1      0.9734535
      4632.0000          11.18          0.007        99.2157       82.40686         0.8919         0.9087         0.4962          2.151         0.8919           -3.8      -1.858252       2445.541              1      0.9734535
      4632.5000          11.12          0.004        98.2353       81.52369         0.8919         0.9087          0.504         2.1521         0.9262           -3.8      -1.858252       2447.073              1      0.9734535
      4633.0000           11.1          0.001        97.6471       80.99349         0.8919         0.9087          0.519          2.151         0.9442           -3.8      -1.858252       2448.602              1      0.9734535
      4633.5000          11.08         -0.001        97.8431       81.16908         0.8919         0.9087         0.5178           2.15         0.9624           -3.6      -1.658252       2450.128              1      0.9763107
      4634.0000           11.1          0.003        98.0392       81.34475         0.8919         0.9174         0.5076           2.15         0.9262           -3.4      -1.458252       2451.651              1      0.9791678
      4634.5000          11.06         0.0071        99.0196       82.22629            0.9         0.9262         0.5076           2.15         0.9087           -3.2      -1.258252       2492.833              1       0.982025
      4635.0000          11.02         0.0091        99.6078       82.75485            0.9         0.9262         0.5208         2.1471         0.8919           -3.2      -1.258252       2494.312              1       0.982025
      4635.5000             11         0.0091            100       83.10703            0.9         0.9352         0.5298         2.1442          0.868             -3      -1.058252       2535.658              1      0.9848821
      4636.0000          11.04         0.0091        99.6078       82.75323         0.9087         0.9442         0.5256         2.1462         0.8524           -3.2      -1.258252       2537.091              1       0.982025
      4636.5000          11.12         0.0071        98.2353       81.51716         0.9262         0.9532         0.5076         2.1583         0.8295           -3.6      -1.658252       2538.522              1      0.9763107
      4637.0000          11.12         0.0051        96.2745       79.75162         0.9532              1         0.4673         2.1748         0.8295           -3.8      -1.858252       2539.949      0.9947153      0.9734535
      4637.5000          11.02              0        93.5294       77.28022         0.9905         1.0377         0.4353         2.1904         0.9624             -4      -2.058252       2541.374      0.9421324      0.9705964
      4638.0000          11.02         -0.003             90       74.10294         1.0377         1.0767          0.405         2.1967          1.057           -4.4      -2.458252       2542.796      0.8745306      0.9648821
      4638.5000          11.08         -0.005           86.6       71.04212         1.0968         1.1173         0.3516         2.2008         1.2255           -4.8      -2.858253       2504.869      0.8094069      0.9591678
      4639.0000          11.12         -0.005             84        68.7013         1.1173         1.1594         0.3462         2.2029         1.3947           -5.2      -3.258252       2506.324      0.7596022      0.9534535
      4639.5000          11.12         -0.003           83.6       68.34048         1.1594          1.181         0.3564         2.2019         1.5157           -5.4      -3.458252       2468.507      0.7519252      0.9505964
      4640.0000          11.06         -0.003           85.8       70.31967         1.1701          1.192         0.3802         2.1989         1.5018           -5.6      -3.658252       2469.994      0.7940356      0.9477392
      4640.5000        10.9001         -0.003        88.5941       72.83355         1.1806         1.2027         0.3984         2.1927         1.3688        -5.6026      -3.660852       2470.588      0.8475223      0.9477021
      4641.0000        10.7205        -0.0039        91.3593       75.32141         1.1692         1.1911         0.4014         2.1844         1.2022        -5.6069      -3.665153       2431.373      0.9004555      0.9476407
      4641.5000        10.7207        -0.0039        93.9063        77.6129         1.1473         1.1796         0.4001         2.1782         1.0955        -5.6112      -3.669452       2431.373      0.9492106      0.9475793
      4642.0000        10.7609        -0.0028        97.2454       80.61726         1.1257         1.1682         0.4151         2.1772         1.0359        -5.4163      -3.474552       2392.157              1      0.9503635
      4642.5000        10.8606        -0.0028        99.8031       82.91838         1.1149         1.1463         0.4297         2.1803         1.0259        -5.2217      -3.279953       2392.157              1      0.9531435
      4643.0000        10.9204        -0.0007        99.0141       82.20746         1.0939         1.1352         0.4296         2.1865          1.016        -5.0274      -3.085652       2392.157              1      0.9559193
      4643.5000        10.9603        -0.0007        97.0395        80.4295         1.0934         1.1243         0.4198         2.1928         1.0441        -5.0323      -3.090552       2470.588              1      0.9558492
      4644.0000          11.02         0.0004        96.2464        79.7149          1.093         1.1238          0.412         2.1969          1.073        -4.8397      -2.897953       2470.588       0.993934      0.9586007
      4644.5000           11.1         0.0015        97.2315       80.60067         1.0925         1.1232         0.4283         2.1979         1.1129        -4.8447      -2.902952       2470.588              1      0.9585292
      4645.0000          11.16         0.0035        99.6041        82.7352          1.082         1.1227         0.4526         2.1969         1.1436        -4.6517      -2.709952       2470.588              1      0.9612864
      4645.5000          11.16         0.0067       102.1769        85.0499         1.0715         1.0915         0.4806         2.1959         1.1119        -4.6569      -2.715152       2470.588              1      0.9612121
