#------------------------------------------------------------------------------
# Created by    : vladimir.rabinovich
# Created on    : 09/19/2023 17:22:51
#------------------------------------------------------------------------------
~Version Information Section
VERS.           2.0     :   CWLS log ASCII Standard - VERSION 2.0
WRAP.           NO      :   One line per depth step
~Well Information Section
#MNEM       .UNIT                                         VALUE :DESCRIPTION
#------------------------------------------------------------------------------
STRT        .FT                                            3080 :START DEPTH
STOP        .FT                                           13004 :STOP DEPTH
STEP        .FT                                             0.5 :STEP      
NULL        .                                           -999.25 :NULL      
COMP        .                                     INEXCO OIL CO :COMPANY   
WELL        .                                     ST TR 00006-L :WELL      
FLD         .                                           WILDCAT :FIELD     
LOC         .                                                   :LOCATION  
CNTY        .                           HIGH ISLAND LARGE BLOCK :LOCATION  
STAT        .                                             TEXAS :STATE     
CTRY        .                                     UNITED STATES :COUNTRY   
SRVC        .                                                   :SERVICE COMPANY
DATE        .                             9/13/2023 11:19:15 AM :LOG DATE  
API         .                                    42708302350000 :API NUMBER
UWI         .                                    42708302350000 :UNIQUE WELL ID
XCOORD      .                                  1306008.37969423 :SURFACE X 
YCOORD      .                                  10751503.0860356 :SURFACE Y 
LAT         .                                          29.62091 :LATITUDE  
LON         .                                         -94.05279 :LONGITUDE 
ELEV        .FT                                              84 :ELEVATION VALUE
ELEV_TYPE   .                                                KB :ELEVATION REFERENCE TYPE
~Curve Information Section
#MNEM       .UNIT                                      API CODE :CURVE DESCRIPTION
#------------------------------------------------------------------------------
DEPT        .FT                                                 :DEPTH     
DT          .US/F                                               :          
GR          .GAPI                                               :          
GR_NORM     .GAPI                                               :GammaRay Normalized
ILD         .OHMM                                               :          
SFL         .OHMM                                               :          
SP          .MV                                                 :          
SP_NORM     .MV                                                 :SP Normalized
VSH_GR      .V/V                                                :Volume of Shale from GR
VSH_SP      .V/V                                                :Volume of Shale from SP
~A        DEPTH             DT             GR        GR_NORM            ILD            SFL             SP        SP_NORM         VSH_GR         VSH_SP
# ...
      5730.0000       108.7361        42.6927       70.23362         0.6915         0.9865       -64.6761       -18.3604      0.7922047      0.7554873
      5730.5000       107.2081         40.678        64.4874         0.7126         0.9432       -65.4448      -19.13091      0.6699446       0.744635
      5731.0000       106.6216        39.5036       61.13496         0.7313         0.8863        -61.965      -15.65292      0.5986162      0.7936208
      5731.5000       109.6053        38.6049       58.56795         0.7518         0.8438       -57.7598      -11.44953      0.5439989      0.8528235
      5732.0000       114.5591        38.1383       57.23195         0.7662         0.8146       -53.6978      -7.389343      0.5155733      0.9100093
      5732.5000       119.2717         37.829       56.34402         0.7699         0.7976       -51.4839      -5.177254      0.4966814      0.9411654
      5733.0000       123.2257        37.2566       54.70662         0.7589         0.7902       -51.7195      -5.414669      0.4618429      0.9378216
      5733.5000       123.0598        36.9553        53.8415         0.7161          0.779       -55.9247      -9.621681      0.4434361      0.8785679
      5734.0000       116.3427        36.9265       53.75269         0.6072         0.8055       -66.3925      -20.09129      0.4415466      0.7311085
      5734.5000       111.1276        36.8892       53.63964          0.539         0.8523       -74.6672       -28.3678      0.4391413       0.614538
      5735.0000       106.1688        36.4301       52.32497         0.4886         0.8773       -85.5345      -39.23692      0.4111695      0.4614519
      5735.5000       104.7175         36.283       51.89915         0.4381         0.7877       -90.5612      -44.26543      0.4021095      0.3906277
      5736.0000       106.6913        36.2378       51.76359         0.3884         0.6753       -99.8834      -53.58944      0.3992253      0.2593037
      5736.5000       111.7908        36.1668       51.55459         0.3553         0.6253      -105.3322      -59.04005      0.3947785      0.1825345
      5737.0000       115.9922        36.0608       51.24585         0.3237         0.6244      -110.2721      -63.98177      0.3882095      0.1129329
      5737.5000       116.7141        35.6275       50.00466         0.2876         0.6507      -114.1533      -67.86477      0.3618012     0.05824269
      5738.0000       116.5424        34.7935       47.62201         0.2567         0.6936      -117.3448      -71.05809      0.3111066     0.01326634
      5738.5000       116.1272        34.5027       46.78679         0.2319         0.6927      -120.0768      -73.79189       0.293336              0
      5739.0000        115.905        34.8425       47.74803         0.2145         0.5481      -122.4261      -76.14301      0.3137879              0
      5739.5000       115.6531        33.9086       45.08078         0.2029         0.4283      -123.5975      -77.31622      0.2570379              0
      5740.0000       115.1067        33.0513       42.63175         0.1918         0.3535      -123.5242      -77.24474      0.2049309              0
      5740.5000       114.6564        32.7523       41.77317         0.1823         0.2673      -123.3195      -77.04185      0.1866632              0
      5741.0000       114.1483        32.7958       41.89032         0.1737         0.2451      -123.2137      -76.93785      0.1891557              0
      5741.5000       113.8855        33.4282       43.68514         0.1657         0.3115      -123.2211      -76.94707      0.2273434              0
      5742.0000        113.765        33.4232       43.66412         0.1608         0.4082      -122.8746      -76.60239      0.2268961              0
      5742.5000       113.6334        32.0767       39.82142         0.1599         0.4369      -122.0503      -75.77989      0.1451366              0
      5743.0000       113.3401        30.8464       36.30977         0.1649         0.3712        -120.87      -74.60141     0.07042069              0
      5743.5000       113.0148        29.9716       33.81086         0.1784          0.386      -119.4927      -73.22591     0.01725242              0
      5744.0000       112.8802        29.6762       32.96256         0.1956         0.4179      -117.7029      -71.43793              0    0.007916518
      5744.5000       112.8861        29.6767       32.95722          0.215         0.4549      -114.6582      -68.39503              0     0.05077416
      5745.0000        113.823        29.9829       33.82275         0.2352          0.493      -111.7936      -65.53225      0.0175054     0.09109508
      5745.5000       114.4125         30.837       36.24916         0.2542         0.5353      -112.0045      -65.74496       0.069131     0.08809909
      5746.0000       114.8546        31.7539       38.85445         0.2689         0.5972      -113.3657      -67.10797      0.1245628     0.06890181
      5746.5000       115.2936        32.6959       41.53127         0.2789          0.651      -114.6243      -68.36838      0.1815164     0.05114961
      5747.0000        115.637        33.4822        43.7645         0.2821         0.6884      -115.6653      -69.41119      0.2290318     0.03646206
      5747.5000       115.7019        33.8851       44.90553         0.2799         0.7312      -116.5032       -70.2509      0.2533092     0.02463521
      5748.0000        115.434        34.1246       45.58104          0.256         0.5722      -117.0444      -70.79392      0.2676818     0.01698701
      5748.5000       114.8524        34.1804       45.73325         0.2302         0.3562      -117.4702      -71.22153      0.2709201     0.01096441
      5749.0000       114.1691        34.1764       45.71508         0.2079         0.2933      -117.7324      -71.48554      0.2705335    0.007245883
      5749.5000        113.548        34.0701       45.40547         0.1737         0.2794      -117.7734      -71.52835      0.2639462    0.006642946
      5750.0000       113.3503        34.3174       46.10319         0.1484         0.2896      -117.9056      -71.66237      0.2787913    0.004755369
      5750.5000       113.4214         35.473       49.38852         0.1384          0.297      -117.9436      -71.70218      0.3486919    0.004194662
      5751.0000       113.4639        37.3219        54.6489         0.1367         0.2906      -117.3185      -71.07889      0.4606148     0.01297341
      5751.5000       113.1194        39.4822       60.79641         0.1396         0.2784      -115.1896       -68.9518       0.591413     0.04293243
      5752.0000        112.698        42.1727       68.45437         0.1514         0.2516      -111.9434      -65.70741      0.7543483     0.08862799
      5752.5000       112.3054        44.3909       74.76682         0.1751         0.2337      -108.5614      -62.32722      0.8886558      0.1362363
      5753.0000       112.0396        45.8177       78.82471         0.2145          0.245      -102.4684      -56.23603      0.9749938      0.2220277
      5753.5000       115.1871        46.6134       81.08475         0.2731         0.3055       -81.4121      -35.18155              1      0.5185697
      5754.0000       118.2719        47.5737       83.81367         0.3466          0.458       -64.9757      -18.74696              1      0.7500428
      5754.5000        120.892        48.1451       85.43472         0.4161         0.5688       -59.1351      -12.90817              1      0.8322793
      5755.0000       123.0474        48.6363       86.82729         0.4908         0.6753       -59.7559      -13.53078              1      0.8235101
      5755.5000       123.7595        48.9476       87.70736         0.5902         0.7277       -60.4968      -14.27349              1      0.8130494
      5756.0000       123.8851        48.6042       86.72235         0.6627         0.7541       -60.5086      -14.28711              1      0.8128577
