#------------------------------------------------------------------------------
# Created by    : vladimir.rabinovich
# Created on    : 09/19/2023 17:20:12
#------------------------------------------------------------------------------
~Version Information Section
VERS.           2.0     :   CWLS log ASCII Standard - VERSION 2.0
WRAP.           NO      :   One line per depth step
~Well Information Section
#MNEM       .UNIT                                         VALUE :DESCRIPTION
#------------------------------------------------------------------------------
STRT        .FT                                             970 :START DEPTH
STOP        .FT                                            6500 :STOP DEPTH
STEP        .FT                                             0.5 :STEP      
NULL        .                                           -999.25 :NULL      
COMP        .                                CONTINENTAL OIL CO :COMPANY   
WELL        .                               OCS G03106 ST00BP00 :WELL      
FLD         .                       MATAGORDA ISLAND BLOCK 0687 :FIELD     
LOC         .                                                   :LOCATION  
CNTY        .                      MATAGORDA ISLAND LARGE BLOCK :LOCATION  
STAT        .                                             TEXAS :STATE     
CTRY        .                                     UNITED STATES :COUNTRY   
SRVC        .                                                   :SERVICE COMPANY
DATE        .                             9/13/2023 11:12:09 AM :LOG DATE  
API         .                                    42703400330000 :API NUMBER
UWI         .                                    42703400330000 :UNIQUE WELL ID
XCOORD      .                                  468864.661343862 :SURFACE X 
YCOORD      .                                  10154488.9405743 :SURFACE Y 
LAT         .                                         27.934663 :LATITUDE  
LON         .                                        -96.628194 :LONGITUDE 
ELEV        .FT                                              96 :ELEVATION VALUE
ELEV_TYPE   .                                                KB :ELEVATION REFERENCE TYPE
~Curve Information Section
#MNEM       .UNIT                                      API CODE :CURVE DESCRIPTION
#------------------------------------------------------------------------------
DEPT        .FT                                                 :DEPTH     
ASFL        .OHMM                                               :          
CALI        .IN                                                 :          
CILD        .MMHO                                               :          
DRHO        .G/C3                                               :          
DT          .US/F                                               :          
DTL         .US/F                                               :          
GR          .GAPI                                               :          
GR_1        .GAPI                                               :          
GR_NORM     .GAPI                                               :GammaRay Normalized
ILD         .OHMM                                               :          
ILM         .OHMM                                               :          
NPHI        .%                                                  :          
RHOB        .G/C3                                               :          
SFL         .OHMM                                               :          
SP          .MV                                                 :          
SP_NORM     .MV                                                 :SP Normalized
VSH_GR      .V/V                                                :Volume of Shale from GR
VSH_SP      .V/V                                                :Volume of Shale from SP
~A        DEPTH           ASFL           CALI           CILD           DRHO             DT            DTL             GR           GR_1        GR_NORM            ILD            ILM           NPHI           RHOB            SFL             SP        SP_NORM         VSH_GR         VSH_SP
# ...
      2468.0000         0.6347        -999.25       1579.758        -999.25       147.9683        -999.25        51.1948        -999.25       80.11047         0.6749         0.6234        -999.25        -999.25         0.6335       -48.1913        -3.0832              1         0.9974
      2468.5000         0.6375        -999.25        1570.26        -999.25       147.5325        -999.25         51.329        -999.25       80.30094         0.6757         0.6221        -999.25        -999.25         0.6347       -48.6823        -3.5654              1      0.9823313
      2469.0000         0.6402        -999.25       1562.492        -999.25       146.7178        -999.25        51.0986        -999.25       79.96304         0.6765         0.6224        -999.25        -999.25         0.6368        -49.173        -4.0474      0.9992137      0.9672688
      2469.5000         0.6338        -999.25       1561.928        -999.25       145.1399        -999.25        50.4092        -999.25        78.9598         0.6774         0.6303        -999.25        -999.25         0.6471        -48.934        -3.7997      0.9778681      0.9750094
      2470.0000         0.6274        -999.25       1561.361        -999.25       143.3953        -999.25         50.989        -999.25       79.79635         0.6796         0.6383        -999.25        -999.25         0.6575       -48.5955        -3.4524       0.995667      0.9858625
      2470.5000         0.6211        -999.25       1553.113        -999.25       140.3936        -999.25          56.02        -999.25       81.70087         0.6842         0.6479        -999.25        -999.25         0.6678       -47.8821        -2.7303              1              1
      2471.0000         0.6156        -999.25       1543.396        -999.25       139.6653        -999.25        61.1887        -999.25       85.62596         0.6888         0.6596        -999.25        -999.25         0.6729       -49.1417        -3.9812              1      0.9693375
      2471.5000         0.6171        -999.25       1533.684        -999.25       140.7998        -999.25        65.2695        -999.25       89.55106         0.6935         0.6715        -999.25        -999.25         0.6781       -50.4167        -5.2474              1      0.9297687
      2472.0000          0.628        -999.25       1523.967        -999.25       142.6799        -999.25        66.0181        -999.25       89.79636         0.6981         0.6616        -999.25        -999.25         0.6518       -50.5094        -5.3314              1      0.9271438
      2472.5000          0.639        -999.25       1513.545        -999.25       143.7664        -999.25        65.9609        -999.25       90.04169         0.7027          0.649        -999.25        -999.25         0.6173       -49.8588        -4.6721              1      0.9477469
      2473.0000         0.6499        -999.25       1492.092        -999.25       140.5261        -999.25        66.3279        -999.25         90.287         0.7073         0.6182        -999.25        -999.25         0.5986       -48.5599        -3.3644              1      0.9886125
      2473.5000         0.6591        -999.25       1470.625        -999.25       134.7542        -999.25         66.861        -999.25       90.53233         0.7119         0.6107        -999.25        -999.25         0.5806       -48.4958        -3.2916              1      0.9908875
      2474.0000         0.6677        -999.25       1449.178        -999.25       130.6694        -999.25        68.2426        -999.25       90.53233         0.7158         0.6293        -999.25        -999.25         0.5934       -48.5196        -3.3067              1      0.9904156
      2474.5000         0.6762        -999.25       1436.979        -999.25       129.7231        -999.25        67.1685        -999.25       90.53233         0.7181         0.6556        -999.25        -999.25         0.6224       -49.8914        -4.6697              1      0.9478219
      2475.0000         0.6848        -999.25       1436.801        -999.25       132.8914        -999.25        63.6096        -999.25        87.5885         0.7205         0.6778        -999.25        -999.25         0.7014       -50.5469        -5.3165              1      0.9276094
      2475.5000         0.6812        -999.25       1436.625        -999.25       136.4536        -999.25        59.6501        -999.25       84.64469         0.7228         0.6868        -999.25        -999.25         0.7761       -50.6447        -5.4056              1       0.924825
      2476.0000         0.6793        -999.25       1436.447        -999.25       138.6372        -999.25        56.6431        -999.25       87.94513         0.7251         0.6944        -999.25        -999.25         0.7553       -48.6877        -3.4398              1      0.9862562
      2476.5000         0.6805        -999.25        1436.27        -999.25       138.7908        -999.25        55.3091        -999.25       86.00751         0.7274         0.6901        -999.25        -999.25         0.7049       -46.4056         -1.149              1              1
      2477.0000         0.6816        -999.25       1436.092        -999.25       137.7026        -999.25        56.2037        -999.25       87.30022         0.7286         0.6861        -999.25        -999.25         0.6618       -46.0969        -0.8316              1              1
      2477.5000         0.6828        -999.25       1431.021        -999.25       136.8562        -999.25        57.2072        -999.25       88.75092         0.7258         0.6781        -999.25        -999.25         0.6445        -48.362        -3.0879              1      0.9972531
      2478.0000          0.684        -999.25       1424.064        -999.25       136.5554        -999.25        57.6802        -999.25       89.43266         0.7231         0.6766        -999.25        -999.25         0.6483       -50.5126        -5.2298              1      0.9303188
      2478.5000         0.6823        -999.25       1417.107        -999.25        136.948        -999.25        54.8477        -999.25       85.32288         0.7203         0.6793        -999.25        -999.25         0.6647       -50.9362        -5.6532              1      0.9170875
      2479.0000         0.6741        -999.25       1410.148        -999.25       137.1208        -999.25        53.4666        -999.25       83.31702         0.7176         0.6848        -999.25        -999.25         0.6862       -50.0683        -4.7853              1      0.9442094
      2479.5000         0.6664        -999.25       1419.395        -999.25       137.2087        -999.25        53.5455        -999.25       83.42746         0.7148         0.6929        -999.25        -999.25         0.7144       -48.7921        -3.5091              1      0.9840906
      2480.0000         0.6596        -999.25       1429.361        -999.25       136.7083        -999.25        54.2433        -999.25       84.43505         0.7121         0.7029        -999.25        -999.25         0.7276       -47.7841        -2.5011              1              1
      2480.5000         0.6538        -999.25       1439.182        -999.25        136.821        -999.25        54.4265        -999.25       84.69669         0.7136         0.7129        -999.25        -999.25         0.7138       -47.2004        -1.9174              1              1
      2481.0000         0.6598        -999.25       1438.195        -999.25       138.5803        -999.25        54.5328        -999.25       84.84671         0.7151         0.7074        -999.25        -999.25         0.6882       -47.5018        -2.2188              1              1
      2481.5000         0.6658        -999.25       1410.857        -999.25       140.3186        -999.25        54.8764        -999.25       85.34086         0.7167         0.7004        -999.25        -999.25         0.6596       -48.5648        -3.2818              1      0.9911938
