#------------------------------------------------------------------------------
# Created by    : vladimir.rabinovich
# Created on    : 09/19/2023 17:22:39
#------------------------------------------------------------------------------
~Version Information Section
VERS.           2.0     :   CWLS log ASCII Standard - VERSION 2.0
WRAP.           NO      :   One line per depth step
~Well Information Section
#MNEM       .UNIT                                         VALUE :DESCRIPTION
#------------------------------------------------------------------------------
STRT        .FT                                            3496 :START DEPTH
STOP        .FT                                          7091.5 :STOP DEPTH
STEP        .FT                                             0.5 :STEP      
NULL        .                                           -999.25 :NULL      
COMP        .                          SEAGULL ENERGY E & P INC :COMPANY   
WELL        .                               OCS G07251 ST00BP00 :WELL      
FLD         .                              GALVESTON BLOCK 0349 :FIELD     
LOC         .                                                   :LOCATION  
CNTY        .                             GALVESTON LARGE BLOCK :LOCATION  
STAT        .                                             TEXAS :STATE     
CTRY        .                                     UNITED STATES :COUNTRY   
SRVC        .                                                   :SERVICE COMPANY
DATE        .                             9/13/2023 11:19:36 AM :LOG DATE  
API         .                                    42706402300000 :API NUMBER
UWI         .                                    42706402300000 :UNIQUE WELL ID
XCOORD      .                                  1015542.86720011 :SURFACE X 
YCOORD      .                                  10434819.2372955 :SURFACE Y 
LAT         .                                         28.739771 :LATITUDE  
LON         .                                        -94.950355 :LONGITUDE 
ELEV        .FT                                              93 :ELEVATION VALUE
ELEV_TYPE   .                                                KB :ELEVATION REFERENCE TYPE
~Curve Information Section
#MNEM       .UNIT                                      API CODE :CURVE DESCRIPTION
#------------------------------------------------------------------------------
DEPT        .FT                                                 :DEPTH     
DCAL        .IN                                                 :          
DPHI        .%                                                  :          
DRHO        .G/C3                                               :          
GR          .GAPI                                               :          
GR_NORM     .GAPI                                               :GammaRay Normalized
ILD         .OHMM                                               :          
ILM         .OHMM                                               :          
NPHI        .%                                                  :          
SGRD        .OHMM                                               :          
SP          .MV                                                 :          
SP_NORM     .MV                                                 :SP Normalized
VSH_GR      .V/V                                                :Volume of Shale from GR
VSH_SP      .V/V                                                :Volume of Shale from SP
~A        DEPTH           DCAL           DPHI           DRHO             GR        GR_NORM            ILD            ILM           NPHI           SGRD             SP        SP_NORM         VSH_GR         VSH_SP
# ...
      4940.0000         0.0279         28.093        -0.0147        73.6033       75.39938         0.6122         0.6332        43.7982         0.7301        -37.535      -3.789616      0.9021146      0.9416982
      4940.5000         0.0361        27.7622        -0.0114        74.7762       76.97545         0.6147          0.629          44.05         0.7248       -37.8358      -4.081234      0.9356478      0.9372118
      4941.0000         0.0422        27.1643        -0.0083        77.5824       80.74628         0.6181         0.6287        44.7429         0.7102        -38.155      -4.391254              1      0.9324422
      4941.5000         0.0434        27.1925        -0.0059        79.8907       83.84807          0.622         0.6323        45.1454          0.701       -38.6789      -4.905975              1      0.9245235
      4942.0000         0.0447        27.2026        -0.0026        81.4701       85.97038         0.6238         0.6378        45.2209         0.7114       -39.8025      -6.020393              1      0.9073786
      4942.5000         0.0465         26.998         0.0003        81.1425       85.53017         0.6059         0.6454        44.4758         0.7325       -42.4673       -8.67601              1      0.8665229
      4943.0000         0.0535         26.104         0.0005        77.0497       80.03047         0.5792         0.6532        43.3411         0.7536       -46.1687      -12.36823              1      0.8097196
      4943.5000         0.0726        25.2288         -0.002        74.5912       76.72687          0.548          0.639        42.4703         0.7655       -50.1353      -16.32565      0.9303589      0.7488362
      4944.0000         0.0806        24.9854        -0.0065        68.5989       68.67471         0.5144         0.5948         42.032         0.7644       -54.2119      -20.39306      0.7590364      0.6862606
      4944.5000         0.0877        25.3724        -0.0121        66.7644       66.20959          0.466         0.5599         41.531         0.7499        -57.218      -23.38998      0.7065871      0.6401541
      4945.0000         0.0839        25.8528        -0.0176        65.7871       64.89635         0.4266         0.5225        41.3016         0.7226       -59.3476       -25.5104      0.6786458      0.6075323
      4945.5000         0.0851        26.5352        -0.0218         62.389       60.33016         0.3962         0.4903        41.2994         0.6964       -62.8427      -28.99632      0.5814927      0.5539027
      4946.0000         0.0797        27.5785        -0.0255        57.0244       53.12147          0.373         0.4635         41.272         0.6805       -68.4148      -34.55924      0.4281164      0.4683194
      4946.5000         0.0795        28.3686        -0.0286        53.8757       48.89042         0.3537         0.4384         40.949         0.6873       -77.4608      -43.59606      0.3380939      0.3292914
      4947.0000         0.0671        28.1579         -0.034        49.8241       43.44608         0.3368         0.4171        39.9826         0.7171        -80.297      -46.42307      0.2222569      0.2857989
      4947.5000         0.0607         27.325        -0.0413        45.4999       37.63543         0.3247         0.4074        37.9277         0.7851       -82.1483       -48.2652     0.09862608      0.2574585
      4948.0000         0.0591        25.9352        -0.0476        44.7634       36.64576         0.3294         0.4059        36.1367         0.9078       -82.9186      -49.02632     0.07756935       0.245749
      4948.5000         0.0603         25.258        -0.0543        45.6924        37.8941         0.3571         0.4077        35.5385         0.9702       -83.3169      -49.41544      0.1041298      0.2397625
      4949.0000         0.0575        26.1812        -0.0607        43.8361        35.3997         0.4306         0.4247         35.114         0.9716       -83.1525      -49.24185     0.05105745      0.2424331
      4949.5000         0.0517        27.1195        -0.0705        43.7629       35.30134         0.4899         0.4661        34.4529         0.9629       -82.5078      -48.58797     0.04896464      0.2524928
      4950.0000         0.0451        26.8022        -0.0762        41.8285       32.70198         0.5219         0.5266        32.6342          1.181        -81.485      -47.55599              0      0.2683694
      4950.5000         0.0385        23.7663        -0.0777        40.3735       30.74683         0.5329         0.5923        29.5802         2.2003       -80.2444      -46.30621              0      0.2875968
      4951.0000         0.0327        17.6883         -0.069        39.6745       29.80754          0.532         0.6252        27.9726         2.9943       -78.6326      -44.68523              0       0.312535
      4951.5000         0.0272        14.4888        -0.0592        40.8105       31.33405         0.5246         0.6294        27.3002         3.2659       -76.8606      -42.90405              0      0.3399377
      4952.0000         0.0283        15.7743        -0.0611        43.4241       34.84607         0.5109         0.6014        29.4242         2.6303       -74.6998      -40.73406     0.03927807      0.3733221
      4952.5000         0.0405        23.6103        -0.0759         47.068       39.74257         0.4855           0.54        32.4872         1.8381       -70.6357      -36.66078      0.1434588       0.435988
      4953.0000         0.0866        26.4467         -0.076        50.8545       44.83067          0.446         0.4968        36.3392         0.7987       -68.9688       -34.9847      0.2517164      0.4617738
      4953.5000         0.1531        28.7267        -0.0744        53.5868        48.5022         0.4075         0.4622        40.8241         0.6256       -68.0629      -34.06961      0.3298341      0.4758521
      4954.0000         0.2242        31.8662        -0.0801        56.0865       51.86117         0.3793         0.4283        43.7836         0.6264        -66.963      -32.96053      0.4013015      0.4929149
      4954.5000         0.2782        33.7016        -0.0863        60.3307       57.56432         0.3618         0.4114        45.9541         0.6513       -63.2479      -29.23626       0.522645      0.5502114
      4955.0000         0.3255        32.8326        -0.0794        62.6866       60.73006         0.3585         0.4108        46.7682         0.6545       -55.6199      -21.59908      0.5900012      0.6677065
      4955.5000          0.286        32.4102        -0.0679        65.2413       64.16294         0.3667         0.4153        47.1983         0.6459       -50.4679      -16.43789      0.6630413      0.7471094
      4956.0000         0.2103        31.7597        -0.0601        67.1401       66.71444         0.3826         0.4313        46.6853         0.6403        -48.821      -14.78181      0.7173285      0.7725875
      4956.5000         0.1403        30.2837        -0.0474        67.0552       66.60036         0.4208         0.4519        46.2794         0.6423       -47.8962      -13.84783      0.7149012      0.7869565
      4957.0000         0.0517        28.8479        -0.0292        65.9053       65.05518         0.4865         0.4776        46.2947         0.6475       -46.2913      -12.23375       0.682025      0.8117885
      4957.5000         0.0356        29.3177        -0.0232        63.1843       61.39884         0.5218         0.5092        46.6928         0.6611        -43.824      -9.757267      0.6042307      0.8498882
      4958.0000         0.0571         30.262        -0.0258        61.0309       58.50521         0.5359         0.5385        46.9775         0.6864       -42.7562      -8.680286       0.542664      0.8664571
      4958.5000          0.086        27.9137        -0.0266        63.5869       61.93983         0.5334         0.5691        47.1147         0.7062       -43.3564      -9.271305      0.6157411      0.8573645
