#------------------------------------------------------------------------------
# Created by    : vladimir.rabinovich
# Created on    : 09/19/2023 17:22:21
#------------------------------------------------------------------------------
~Version Information Section
VERS.           2.0     :   CWLS log ASCII Standard - VERSION 2.0
WRAP.           NO      :   One line per depth step
~Well Information Section
#MNEM       .UNIT                                         VALUE :DESCRIPTION
#------------------------------------------------------------------------------
STRT        .FT                                            2180 :START DEPTH
STOP        .FT                                            6738 :STOP DEPTH
STEP        .FT                                             0.5 :STEP      
NULL        .                                           -999.25 :NULL      
COMP        .                          SEAGULL ENERGY E & P INC :COMPANY   
WELL        .                               OCS G08131 ST00BP00 :WELL      
FLD         .                              GALVESTON BLOCK 0384 :FIELD     
LOC         .                                                   :LOCATION  
CNTY        .                             GALVESTON LARGE BLOCK :LOCATION  
STAT        .                                             TEXAS :STATE     
CTRY        .                                     UNITED STATES :COUNTRY   
SRVC        .                                                   :SERVICE COMPANY
DATE        .                             9/13/2023 11:19:36 AM :LOG DATE  
API         .                                    42706401890000 :API NUMBER
UWI         .                                    42706401890000 :UNIQUE WELL ID
XCOORD      .                                  986765.057424596 :SURFACE X 
YCOORD      .                                  10402321.6077632 :SURFACE Y 
LAT         .                                          28.64909 :LATITUDE  
LON         .                                        -95.038398 :LONGITUDE 
ELEV        .FT                                             100 :ELEVATION VALUE
ELEV_TYPE   .                                                KB :ELEVATION REFERENCE TYPE
~Curve Information Section
#MNEM       .UNIT                                      API CODE :CURVE DESCRIPTION
#------------------------------------------------------------------------------
DEPT        .FT                                                 :DEPTH     
CALN        .IN                                                 :          
DRHO        .G/CM3                                              :          
GR          .GAPI                                               :          
GR_NORM     .GAPI                                               :GammaRay Normalized
ILD         .OHMM                                               :          
ILM         .OHMM                                               :          
NPSS        .V/V                                                :Neutron Porosity Sandstone
RHOB        .G/CM3                                              :          
SFL         .OHMM                                               :          
SP          .MV                                                 :          
SP_NORM     .MV                                                 :SP Normalized
TENN        .LB                                                 :          
VSH_GR      .V/V                                                :Volume of Shale from GR
VSH_SP      .V/V                                                :Volume of Shale from SP
~A        DEPTH           CALN           DRHO             GR        GR_NORM            ILD            ILM           NPSS           RHOB            SFL             SP        SP_NORM           TENN         VSH_GR         VSH_SP
# ...
      5222.0000        10.9801         0.0072        94.7059        77.3846         1.0968         1.1173         0.4242         2.2482         1.1701           -5.4      -3.458252       2686.537      0.9443532      0.9505964
      5222.5000        10.9801         0.0102        95.2941       77.91316         1.0867          1.107         0.4223         2.2432          1.181           -5.6      -3.658252       2684.537      0.9555992      0.9477392
      5223.0000        10.9602         0.0063        95.2941       77.91235          1.057         1.0867         0.4327         2.2322         1.1594           -5.6      -3.658252       2682.537      0.9555818      0.9477392
      5223.5000        10.9801         0.0053        95.8824       78.44101         1.0281          1.057          0.455         2.2151          1.057           -5.6      -3.658252       2680.536        0.96683      0.9477392
      5224.0000        10.9404         0.0014         97.451       79.85193         1.0093         1.0377         0.4912            2.2         0.9913           -5.4      -3.458252       2678.536      0.9968495      0.9505964
      5224.5000        10.8215        -0.0025            100       82.14521         0.9913         1.0093         0.5152         2.1888         0.9322             -5      -3.058252       2676.135              1      0.9563107
      5225.0000        10.7028        -0.0054            101        83.0444         0.9655         0.9913         0.5243         2.1878         0.9079           -4.8      -2.858253       2674.135              1      0.9591678
      5225.5000        10.7229        -0.0034          100.8       82.86358          0.957          0.974         0.5073         2.1929         0.8912           -4.6      -2.658252       2672.135              1       0.962025
      5226.0000        10.7825         0.0016          100.8       82.86276         0.9487         0.9655         0.4768          2.199         0.9079           -4.6      -2.658252       2670.134              1       0.962025
      5226.5000         10.842         0.0066          101.4       83.40195         0.9322         0.9655         0.4502         2.2041          0.924           -4.8      -2.858253       2668.134              1      0.9591678
      5227.0000        10.8422         0.0097          103.8       85.56113          0.924          0.957         0.4404         2.2051         0.9487           -4.8      -2.858253       2666.133              1      0.9591678
      5227.5000        10.8226         0.0057          105.4       87.00031         0.9159         0.9487         0.4489          2.203          0.974           -4.4      -2.458252       2664.133              1      0.9648821
      5228.0000        10.7834        -0.0012          105.8        87.3595         0.9159         0.9404         0.4732          2.199          0.974           -4.2      -2.258252       2662.132              1      0.9677393
      5228.5000        10.7246        -0.0051          103.4       85.19868         0.9159         0.9322         0.4891         2.1939          0.974           -3.8      -1.858252       2619.324              1      0.9734535
      5229.0000        10.6856         -0.004          101.2       83.21786         0.9159         0.9322         0.4813         2.1908         0.9487           -3.6      -1.658252       2617.323              1      0.9763107
      5229.5000        10.6859         -0.002          101.2       83.21704         0.9159         0.9322         0.4714         2.1918         0.9322           -3.4      -1.458252       2655.731              1      0.9791678
      5230.0000        10.6469         -0.001          101.6       83.57623         0.9159         0.9322         0.4679         2.1918         0.9159           -3.2      -1.258252       2653.731              1       0.982025
      5230.5000        10.5294          0.001          101.8       83.75542         0.9159         0.9322         0.4667         2.1878            0.9             -3      -1.058252       2693.878              1      0.9848821
      5231.0000        10.4902          0.003        99.0196       81.25224         0.9159         0.9322         0.4685         2.1868         0.8912           -3.2      -1.258252       2693.878              1       0.982025
      5231.5000        10.5098          0.004        97.0588       79.48669         0.9159         0.9322         0.4713         2.1939         0.8912           -3.2      -1.258252       2693.878      0.9890786       0.982025
      5232.0000        10.5686          0.004        95.4902       78.07413         0.9159         0.9322         0.4754         2.2031            0.9           -3.2      -1.258252       2653.061      0.9590241       0.982025
      5232.5000        10.6667          0.004        96.0784       78.60271         0.9159         0.9322         0.4754         2.2102         0.9079           -3.2      -1.258252       2653.061      0.9702703       0.982025
      5233.0000        10.7059          0.004        97.0588       79.48425         0.9159         0.9322         0.4702         2.2112         0.9159           -3.2      -1.258252       2653.061      0.9890265       0.982025
      5233.5000        10.7255          0.003        98.6275       80.89526         0.9159         0.9322         0.4662         2.2082          0.924           -3.2      -1.258252       2653.061              1       0.982025
      5234.0000        10.7451          0.001          101.6       83.56969         0.9159         0.9322         0.4662         2.2041         0.9322           -3.2      -1.258252       2693.878              1       0.982025
      5234.5000        10.7059         -0.001          103.6       85.36888         0.9159         0.9322          0.469            2.2         0.9404             -3      -1.058252       2693.878              1      0.9848821
      5235.0000        10.6275         -0.001          103.6       85.36806         0.9159         0.9322         0.4708          2.198         0.9487             -3      -1.058252       2693.878              1      0.9848821
      5235.5000        10.5686              0            104       85.72725         0.9159         0.9322         0.4737            2.2          0.957             -3      -1.058252       2693.878              1      0.9848821
      5236.0000        10.4902              0          106.6       88.06643         0.9159         0.9322         0.4765          2.201         0.9655             -3      -1.058252       2653.061              1      0.9848821
      5236.5000        10.4706          0.001          108.4       89.68562         0.9159         0.9322         0.4806          2.196         0.9826             -3      -1.058252       2653.061              1      0.9848821
      5237.0000        10.5098         -0.001          107.6        88.9648         0.9159         0.9322         0.4765         2.1889         0.9913             -3      -1.058252       2653.061              1      0.9848821
      5237.5000        10.5098        -0.0039          106.4       87.88398         0.9159         0.9322         0.4685         2.1789         0.9826             -3      -1.058252       2653.061              1      0.9848821
      5238.0000        10.4706        -0.0059            105       86.62316         0.9079         0.9322         0.4754         2.1739         0.9159             -3      -1.058252       2734.694              1      0.9848821
      5238.5000        10.4314        -0.0059          103.8       85.54235         0.9079         0.9322         0.4992         2.1719         0.8825             -3      -1.058252        2775.51              1      0.9848821
      5239.0000        10.3922        -0.0039          102.8       84.64153         0.9079         0.9322         0.5155         2.1739         0.8739           -2.6     -0.6582522        2775.51              1      0.9905964
      5239.5000        10.3922         -0.001          102.4       84.28072         0.9079         0.9322         0.5046           2.18         0.8825           -2.6     -0.6582522       2734.694              1      0.9905964
