#------------------------------------------------------------------------------
# Created by    : vladimir.rabinovich
# Created on    : 09/19/2023 17:20:32
#------------------------------------------------------------------------------
~Version Information Section
VERS.           2.0     :   CWLS log ASCII Standard - VERSION 2.0
WRAP.           NO      :   One line per depth step
~Well Information Section
#MNEM       .UNIT                                         VALUE :DESCRIPTION
#------------------------------------------------------------------------------
STRT        .FT                                             502 :START DEPTH
STOP        .FT                                            9122 :STOP DEPTH
STEP        .FT                                             0.5 :STEP      
NULL        .                                           -999.25 :NULL      
COMP        .                       BLUE DOLPHIN EXPLORATION CO :COMPANY   
WELL        .                                OCS 00714 ST00BP00 :WELL      
FLD         .                              GALVESTON BLOCK 0288 :FIELD     
LOC         .                                                   :LOCATION  
CNTY        .                             GALVESTON LARGE BLOCK :LOCATION  
STAT        .                                             TEXAS :STATE     
CTRY        .                                     UNITED STATES :COUNTRY   
SRVC        .                                                   :SERVICE COMPANY
DATE        .                             9/13/2023 11:19:24 AM :LOG DATE  
API         .                                    42706000680000 :API NUMBER
UWI         .                                    42706000680000 :UNIQUE WELL ID
XCOORD      .                                  1088404.51782723 :SURFACE X 
YCOORD      .                                  10474534.8869196 :SURFACE Y 
LAT         .                                        28.8520809 :LATITUDE  
LON         .                                       -94.7248272 :LONGITUDE 
ELEV        .FT                                              85 :ELEVATION VALUE
ELEV_TYPE   .                                                KB :ELEVATION REFERENCE TYPE
~Curve Information Section
#MNEM       .UNIT                                      API CODE :CURVE DESCRIPTION
#------------------------------------------------------------------------------
DEPT        .FT                                                 :DEPTH     
ASN         .OHMM                                               :          
ASN_1       .OHMM                                               :          
DT          .US/F                                               :          
ILD         .OHMM                                               :          
LAT         .OHMM                                               :          
LN          .OHMM                                               :          
SP          .MV                                                 :          
SP_NORM     .MV                                                 :SP Normalized
VSH_SP      .V/V                                                :Volume of Shale from SP
~A        DEPTH            ASN          ASN_1             DT            ILD            LAT             LN             SP        SP_NORM         VSH_SP
# ...
      8134.0000         1.3344        -999.25        97.6125         0.7566        -999.25        -999.25        -999.25       2.193867              1
      8134.5000         1.3114        -999.25        95.7971         0.7524        -999.25        -999.25        -999.25       2.155945              1
      8135.0000         1.2899        -999.25        94.1149         0.7527        -999.25        -999.25        -999.25       2.207726              1
      8135.5000         1.2648        -999.25        94.8411         0.7462        -999.25        -999.25        -999.25       2.142307              1
      8136.0000         1.2522        -999.25        96.1896         0.7395        -999.25        -999.25        -999.25       1.913189              1
      8136.5000         1.2398        -999.25        97.8505          0.736        -999.25        -999.25        -999.25       1.851269              1
      8137.0000         1.2248        -999.25        96.6271         0.7331        -999.25        -999.25        -999.25       1.974052              1
      8137.5000         1.2117        -999.25         97.175         0.7336        -999.25        -999.25        -999.25       2.506332              1
      8138.0000         1.2005        -999.25        98.1582          0.729        -999.25        -999.25        -999.25       3.166214              1
      8138.5000          1.193        -999.25        89.0275          0.721        -999.25        -999.25        -999.25       3.347195              1
      8139.0000         1.1878        -999.25        77.1162          0.706        -999.25        -999.25        -999.25       2.814873              1
      8139.5000         1.1823        -999.25        77.7251         0.6839        -999.25        -999.25        -999.25       2.357357              1
      8140.0000         1.1774        -999.25        81.1483         0.6535        -999.25        -999.25        -999.25       2.008537              1
      8140.5000         1.1782        -999.25        75.9751         0.6171        -999.25        -999.25        -999.25       1.502918              1
      8141.0000          1.184        -999.25        76.9719         0.5767        -999.25        -999.25        -999.25      0.7207985              1
      8141.5000         1.1938        -999.25        83.2681         0.5313        -999.25        -999.25        -999.25     -0.2053223              1
      8142.0000         1.2175        -999.25        90.9398         0.4871        -999.25        -999.25        -999.25      -4.161541      0.9189348
      8142.5000         1.2492        -999.25        93.1409         0.4589        -999.25        -999.25        -999.25      -8.396458      0.8103473
      8143.0000         1.2943        -999.25        91.9185         0.4306        -999.25        -999.25        -999.25      -14.82528      0.6455057
      8143.5000         1.3488        -999.25        97.0961         0.4159        -999.25        -999.25        -999.25      -22.74979       0.442313
      8144.0000         1.3725        -999.25       100.9026         0.4113        -999.25        -999.25        -999.25      -27.70541      0.3152458
      8144.5000          1.367        -999.25        89.0049         0.4067        -999.25        -999.25        -999.25      -31.20614      0.2254836
      8145.0000          1.315        -999.25        82.9432         0.4102        -999.25        -999.25        -999.25      -32.44386      0.1937473
      8145.5000         1.2348        -999.25        86.4026         0.4165        -999.25        -999.25        -999.25      -31.57378       0.216057
      8146.0000         1.1857        -999.25        88.5105         0.4254        -999.25        -999.25        -999.25      -29.15249      0.2781413
      8146.5000         1.1733        -999.25        94.1194         0.4426        -999.25        -999.25        -999.25      -26.25301      0.3524868
      8147.0000         1.1751        -999.25        99.3467         0.4597        -999.25        -999.25        -999.25      -22.10703       0.458794
      8147.5000          1.165        -999.25        98.7828         0.4702        -999.25        -999.25        -999.25      -18.06535      0.5624269
      8148.0000         1.1421        -999.25       104.2898         0.4796        -999.25        -999.25        -999.25      -12.87907      0.6954085
      8148.5000         1.1358        -999.25        96.9968         0.4868        -999.25        -999.25        -999.25      -12.93259      0.6940362
      8149.0000         1.1181        -999.25        80.1155         0.4912        -999.25        -999.25        -999.25      -16.31091      0.6074127
      8149.5000         1.0917        -999.25        74.8701         0.4955        -999.25        -999.25        -999.25      -18.96622      0.5393276
      8150.0000         1.0691        -999.25        85.8839         0.4917        -999.25        -999.25        -999.25      -20.88914      0.4900219
      8150.5000         1.0595        -999.25        91.4449         0.4828        -999.25        -999.25        -999.25      -20.46487      0.5009009
      8151.0000         1.0635        -999.25        93.8149         0.4739        -999.25        -999.25        -999.25      -18.45148      0.5525261
      8151.5000         1.0803        -999.25        99.0513         0.4578        -999.25        -999.25        -999.25       -15.7401      0.6220487
      8152.0000         1.1105        -999.25        96.4781         0.4399        -999.25        -999.25        -999.25      -14.70802      0.6485122
      8152.5000         1.1262        -999.25         89.943         0.4219        -999.25        -999.25        -999.25      -17.03244      0.5889118
      8153.0000         1.1217        -999.25        91.2239         0.4037        -999.25        -999.25        -999.25      -20.53756      0.4990369
      8153.5000         1.0886        -999.25        90.2791         0.3869        -999.25        -999.25        -999.25      -23.14988      0.4320544
      8154.0000         1.0542        -999.25        87.7375         0.3759        -999.25        -999.25        -999.25       -20.8668      0.4905949
      8154.5000         1.0176        -999.25        87.4264          0.365        -999.25        -999.25        -999.25      -17.79052      0.5694739
      8155.0000         1.0049        -999.25        94.2637         0.3565        -999.25        -999.25        -999.25      -17.19254      0.5848068
      8155.5000         1.0195        -999.25       100.4246         0.3578        -999.25        -999.25        -999.25      -19.60645      0.5229115
      8156.0000         1.0438        -999.25       106.5583         0.3592        -999.25        -999.25        -999.25      -26.28448      0.3516801
      8156.5000         1.0734        -999.25       103.6809         0.3667        -999.25        -999.25        -999.25      -30.66679       0.239313
      8157.0000         1.0918        -999.25        90.1776         0.3764        -999.25        -999.25        -999.25      -31.68861      0.2131125
      8157.5000         1.0944        -999.25        70.4954         0.3895        -999.25        -999.25        -999.25      -31.98343      0.2055531
      8158.0000          1.081        -999.25        75.9617         0.4224        -999.25        -999.25        -999.25      -32.22895      0.1992577
      8158.5000         1.0662        -999.25        92.7123         0.4554        -999.25        -999.25        -999.25      -31.62657      0.2147033
      8159.0000         1.0673        -999.25        96.3024         0.4753        -999.25        -999.25        -999.25      -28.54119      0.2938156
      8159.5000         1.1006        -999.25        86.7137         0.4946        -999.25        -999.25        -999.25       -25.0117      0.3843153
      8160.0000         1.1632        -999.25        76.1962         0.5072        -999.25        -999.25        -999.25      -21.57282      0.4724917
