#------------------------------------------------------------------------------
# Created by    : vladimir.rabinovich
# Created on    : 09/19/2023 17:20:23
#------------------------------------------------------------------------------
~Version Information Section
VERS.           2.0     :   CWLS log ASCII Standard - VERSION 2.0
WRAP.           NO      :   One line per depth step
~Well Information Section
#MNEM       .UNIT                                         VALUE :DESCRIPTION
#------------------------------------------------------------------------------
STRT        .FT                                            3094 :START DEPTH
STOP        .FT                                           15705 :STOP DEPTH
STEP        .FT                                             0.5 :STEP      
NULL        .                                           -999.25 :NULL      
COMP        .                                       MONSANTO CO :COMPANY   
WELL        .                                     ST TR 00011-L :WELL      
FLD         .                                           WILDCAT :FIELD     
LOC         .                                                   :LOCATION  
CNTY        .                           HIGH ISLAND LARGE BLOCK :LOCATION  
STAT        .                                             TEXAS :STATE     
CTRY        .                                     UNITED STATES :COUNTRY   
SRVC        .                                                   :SERVICE COMPANY
DATE        .                             9/13/2023 11:19:15 AM :LOG DATE  
API         .                                    42708300660000 :API NUMBER
UWI         .                                    42708300660000 :UNIQUE WELL ID
XCOORD      .                                  1343190.12128624 :SURFACE X 
YCOORD      .                                   10724936.940093 :SURFACE Y 
LAT         .                                        29.5487141 :LATITUDE  
LON         .                                       -93.9350737 :LONGITUDE 
ELEV        .FT                                              49 :ELEVATION VALUE
ELEV_TYPE   .                                                KB :ELEVATION REFERENCE TYPE
~Curve Information Section
#MNEM       .UNIT                                      API CODE :CURVE DESCRIPTION
#------------------------------------------------------------------------------
DEPT        .FT                                                 :DEPTH     
ASN         .OHMM                                               :          
CILD        .MMHO                                               :          
ILD         .OHMM                                               :          
SP_NORM     .MV                                                 :SP Normalized
VSH_SP      .V/V                                                :Volume of Shale from SP
~A        DEPTH            ASN           CILD            ILD        SP_NORM         VSH_SP
# ...
     14006.0000         0.8172       1588.775         0.6279      0.4301491              1
     14006.5000         0.7968       1587.949         0.6267      0.4350891              1
     14007.0000         0.7962       1587.119         0.6283      0.4401245              1
     14007.5000         0.8398       1587.971         0.6307      0.4450645              1
     14008.0000         0.8579       1590.135          0.633      0.4500084              1
     14008.5000         0.8537       1592.299         0.6354      0.4549446              1
     14009.0000         0.8495       1594.465         0.6377      0.4598846              1
     14009.5000         0.8453         1598.6         0.6401      0.4649239              1
     14010.0000          0.841       1606.215         0.6424      0.4698639              1
     14010.5000         0.8368       1613.852         0.6448      0.4877052              1
     14011.0000          0.832        1621.49         0.6471      0.5124435              1
     14011.5000         0.8255       1620.209         0.6495       0.537281              1
     14012.0000          0.819       1614.213         0.6518      0.5620193              1
     14012.5000         0.8125       1608.217         0.6519      0.5867577              1
     14013.0000         0.8139       1602.221         0.6517       0.611599              1
     14013.5000         0.8176       1596.225         0.6514      0.6126404              1
     14014.0000         0.8212       1591.385         0.6512       0.602478              1
     14014.5000         0.8248       1587.168         0.6509      0.5922165              1
     14015.0000         0.8285       1582.963         0.6506       0.582058              1
     14015.5000         0.8323       1578.758         0.6504      0.5717964              1
     14016.0000         0.8361       1574.553         0.6501      0.5262337              1
     14016.5000         0.8372       1570.262         0.6499      0.4428749              1
     14017.0000         0.8382       1565.646         0.6496      0.3596153              1
     14017.5000         0.8223       1561.031         0.6493      0.2764549              1
     14018.0000         0.8052       1556.416         0.6491      0.2788925              1
     14018.5000         0.7881       1551.801         0.6488      0.3806305              1
     14019.0000         0.7711       1547.186         0.6485      0.4820709              1
     14019.5000         0.7792       1546.027         0.6483      0.5834122              1
     14020.0000         0.8019       1558.145         0.6487      0.6848526              1
     14020.5000         0.8247       1570.262         0.6493        0.78619              1
     14021.0000         0.8303       1625.148         0.6498      0.8550301              1
     14021.5000         0.8292       1642.266         0.6504      0.8599663              1
     14022.0000         0.8262       1656.049         0.6509      0.8650055              1
     14022.5000         0.8225       1668.764         0.6514      0.8699493              1
     14023.0000         0.8188       1678.045          0.652      0.8749886              1
     14023.5000         0.8151       1685.348         0.6525      0.8615265              1
     14024.0000         0.8113       1691.541          0.653      0.8143654              1
     14024.5000         0.8076       1695.908         0.6536      0.7673035              1
     14025.0000         0.8039       1700.275         0.6541      0.7201424              1
     14025.5000         0.8002       1704.641         0.6546      0.6730843              1
     14026.0000         0.7992       1708.996         0.6548      0.6260223              1
     14026.5000         0.7988       1711.066         0.6527      0.5789604              1
     14027.0000         0.7984       1712.951         0.6507      0.5704994              1
     14027.5000         0.7981       1698.496         0.6486       0.594841              1
     14028.0000         0.7977       1681.328         0.6466      0.6190796              1
     14028.5000         0.7973       1662.619         0.6445      0.6434212              1
     14029.0000         0.7964       1647.191         0.6424      0.6676598              1
     14029.5000         0.7949       1631.766         0.6404      0.6918983              1
     14030.0000         0.7935       1614.648         0.6383      0.7161369              1
     14030.5000          0.792        1597.48         0.6363      0.7404747              1
     14031.0000         0.7905       1597.654         0.6355      0.7475128              1
     14031.5000         0.7877       1614.648         0.6347      0.7265549              1
     14032.0000          0.783       1641.021         0.6339      0.7055969              1
     14032.5000         0.7784       1663.066         0.6332      0.6845322              1
     14033.0000         0.7737       1680.881         0.6324      0.6636734              1
     14033.5000          0.769       1697.203         0.6316      0.6426125              1
     14034.0000         0.7644       1714.221         0.6309      0.6216507              1
     14034.5000         0.7644       1732.434         0.6301      0.6006927              1
     14035.0000         0.7648       1748.457         0.6294      0.5927315              1
     14035.5000         0.7651       1763.311         0.6296      0.5883713              1
     14036.0000         0.7668       1769.691         0.6302      0.5839081              1
     14036.5000         0.7686        1763.51         0.6307      0.5794487              1
     14037.0000         0.7703       1752.859         0.6312      0.5848846              1
     14037.5000         0.7741       1738.404         0.6318      0.5969276              1
     14038.0000         0.7792       1723.975         0.6338      0.6089668              1
     14038.5000         0.7843       1709.518         0.6358       0.621006              1
     14039.0000         0.7894       1695.063         0.6378      0.6330452              1
     14039.5000         0.7945       1679.836         0.6398      0.6471825              1
     14040.0000         0.8049        1664.51         0.6419      0.7858238              1
     14040.5000         0.8203       1649.133          0.644      0.9241638              1
     14041.0000         0.8356       1633.408         0.6462       1.062504              1
     14041.5000         0.8815       1617.584         0.6484        1.20084              1
     14042.0000         0.8878       1605.344         0.6506       1.280079              1
     14042.5000         0.8639        1594.67         0.6528       1.351418              1
     14043.0000         0.8383       1583.822          0.655       1.422661              1
     14043.5000         0.8681       1570.535         0.6572         1.2337              1
     14044.0000         0.9037       1557.225         0.6591        1.01984              1
     14044.5000         0.9305       1549.063         0.6607      0.8066788              1
     14045.0000         0.9551       1587.977         0.6623      0.5929146              1
     14045.5000         0.9271       1626.891         0.6638      0.3791542              1
     14046.0000         0.6566       1665.703         0.6593      0.1653976              1
     14046.5000         0.6941       1704.617         0.6523     -0.0472641              1
     14047.0000         0.7698       1753.184         0.6452     -0.2585258              1
     14047.5000         0.8885       1807.125         0.6381     -0.4698868              1
     14048.0000         0.9336        1816.58          0.631     -0.6322479              1
     14048.5000         0.9277       1806.479         0.6317     -0.5071106              1
     14049.0000         0.9219         1796.4         0.6404     -0.3823662              1
     14049.5000         0.9161       1786.299         0.6492     -0.2575264              1
