#------------------------------------------------------------------------------
# Created by    : vladimir.rabinovich
# Created on    : 09/19/2023 17:22:41
#------------------------------------------------------------------------------
~Version Information Section
VERS.           2.0     :   CWLS log ASCII Standard - VERSION 2.0
WRAP.           NO      :   One line per depth step
~Well Information Section
#MNEM       .UNIT                                         VALUE :DESCRIPTION
#------------------------------------------------------------------------------
STRT        .FT                                            2948 :START DEPTH
STOP        .FT                                            8770 :STOP DEPTH
STEP        .FT                                             0.5 :STEP      
NULL        .                                           -999.25 :NULL      
COMP        .                 BROOKLYN UNION EXPLORATION CO INC :COMPANY   
WELL        .                               OCS G07238 ST00BP00 :WELL      
FLD         .                                           WILDCAT :FIELD     
LOC         .                                                   :LOCATION  
CNTY        .                             GALVESTON LARGE BLOCK :LOCATION  
STAT        .                                             TEXAS :STATE     
CTRY        .                                     UNITED STATES :COUNTRY   
SRVC        .                                                   :SERVICE COMPANY
DATE        .                             9/13/2023 11:19:34 AM :LOG DATE  
API         .                                    42706402470000 :API NUMBER
UWI         .                                    42706402470000 :UNIQUE WELL ID
XCOORD      .                                  1057740.92261072 :SURFACE X 
YCOORD      .                                   10547901.298013 :SURFACE Y 
LAT         .                                         29.052568 :LATITUDE  
LON         .                                        -94.824133 :LONGITUDE 
ELEV        .FT                                              85 :ELEVATION VALUE
ELEV_TYPE   .                                                KB :ELEVATION REFERENCE TYPE
~Curve Information Section
#MNEM       .UNIT                                      API CODE :CURVE DESCRIPTION
#------------------------------------------------------------------------------
DEPT        .FT                                                 :DEPTH     
DCAL        .IN                                                 :          
DT          .US/F                                               :          
GR          .GAPI                                               :          
GR_NORM     .GAPI                                               :GammaRay Normalized
ILD         .OHMM                                               :          
ILM         .OHMM                                               :          
SFL         .OHMM                                               :          
SP          .MV                                                 :          
SP_NORM     .MV                                                 :SP Normalized
VSH_GR      .V/V                                                :Volume of Shale from GR
VSH_SP      .V/V                                                :Volume of Shale from SP
~A        DEPTH           DCAL             DT             GR        GR_NORM            ILD            ILM            SFL             SP        SP_NORM         VSH_GR         VSH_SP
# ...
      4545.5000         4.3491       106.0901        46.0781       56.39069         0.6277         0.6873         1.1529       -91.4865       -43.2999      0.4976742       0.278335
      4546.0000         4.2789       105.5094        49.0691       60.23564         0.6156         0.6696         1.1167       -92.3101      -44.12215      0.5794817      0.2646308
      4546.5000         4.3424       105.0173        50.8513       62.52607         0.5944         0.6601         1.0903       -92.8312      -44.64191      0.6282143      0.2559681
      4547.0000         4.4409       105.4291        51.6415       63.54078         0.5622         0.6539         1.0345       -93.1216      -44.93097      0.6498039      0.2511505
      4547.5000         4.5227       106.1469        50.7596       62.40516         0.5141         0.6382         0.9565       -93.2919      -45.09994      0.6256417      0.2483344
      4548.0000          4.531       107.2019         46.306       56.67629         0.4708         0.6028         0.8826       -93.9343        -45.741      0.5037508        0.23765
      4548.5000         4.5373       108.8789        43.0065       52.43161         0.4279         0.5491            0.8       -95.5333      -47.33866      0.4134385      0.2110223
      4549.0000          4.416       110.8671        40.3289       48.98669         0.3859         0.4943         0.6611       -97.6412      -49.44522      0.3401424      0.1759131
      4549.5000         4.2879       112.8528        39.7322       48.21784         0.3536         0.4345         0.5843         -99.52      -51.32268      0.3237839       0.144622
      4550.0000         4.1456       116.9338        40.3152       48.96608         0.3112         0.3809         0.5853      -101.5872      -53.38853      0.3397039      0.1101911
      4550.5000         3.9818       120.5093        39.7518       48.24006         0.2703         0.3449         0.6319      -101.4391       -53.2391      0.3242565      0.1126816
      4551.0000         3.7904       122.8549        36.8536       44.51145         0.2387         0.3185         0.6705      -101.0892      -52.88786      0.2449245      0.1185356
      4551.5000         3.7099       123.7051        33.9778       40.81165         0.2186         0.2929         0.6576       -100.557      -52.35432      0.1662053       0.127428
      4552.0000         3.6785       124.6251        31.3373       37.41446         0.2077          0.279          0.638      -100.9691      -52.76508     0.09392458      0.1205819
      4552.5000         3.6844       123.2582        30.8283       36.75838         0.2071         0.2736         0.6186      -102.1123      -53.90694     0.07996547       0.101551
      4553.0000         3.7105        120.594        32.2935       38.64114         0.2212         0.2765          0.598      -102.9805       -54.7738      0.1200243     0.08710327
      4553.5000         3.6804       117.5139        33.2954       39.92809         0.2415         0.3003         0.5787      -103.4661      -55.25806      0.1474062     0.07903226
      4554.0000         3.6277       112.5665        34.1431       41.01675         0.2636         0.3292         0.5679      -103.2653      -55.05592      0.1705692     0.08240134
      4554.5000         3.5426       105.4553         34.929       42.02592         0.2879         0.3638         0.6499      -101.1537      -52.94299       0.192041      0.1176169
      4555.0000         3.4574        96.2126        33.3945       40.05106         0.3124         0.3963         0.7491       -99.0309      -50.81884      0.1500225      0.1530193
      4555.5000         3.3841        89.3928        31.6556       37.81332         0.3301         0.4098         0.7956       -95.8627      -47.64931       0.102411      0.2058449
      4556.0000         3.3132        85.9156        31.5188       37.63589         0.3387         0.4163         0.8027       -92.8209      -44.60617     0.09863598      0.2565639
      4556.5000          3.295        84.5859        33.3115       39.93982         0.3398         0.4104          0.754       -91.7446      -43.52853      0.1476558      0.2745246
      4557.0000         3.3727        92.5824        35.8251       43.17084         0.3267         0.3958         0.7126       -92.5126      -44.29519      0.2164008      0.2617469
      4557.5000          3.443        98.1573        34.3865       41.31929         0.3008         0.3749         0.6905        -93.517      -45.29824      0.1770061      0.2450293
      4558.0000         3.4549       102.7363        32.8768       39.37631         0.2771         0.3521         0.7187       -94.6062      -46.38611      0.1356661      0.2268982
      4558.5000         3.4668       107.9825        31.6259       37.76614         0.2608         0.3307         0.7565       -95.6956      -47.47417      0.1014072      0.2087638
      4559.0000         3.4295        109.479        31.8265       38.02262         0.2455         0.3107         0.7852       -96.7675      -48.54473      0.1068643      0.1909211
      4559.5000         3.3462       111.5282        33.1628       39.73961         0.2398         0.2981         0.8132       -97.7434      -49.51929       0.143396      0.1746785
      4560.0000         3.2629       114.9618        34.6541       41.65594         0.2413         0.2968         0.7278       -98.0012      -49.77575       0.184169      0.1704042
      4560.5000         3.1926       117.0148         36.144       43.57047         0.2485         0.2973         0.6433       -98.2202      -49.99341      0.2249037      0.1667765
      4561.0000         3.1379       116.7688         37.629        45.4787         0.2533         0.2997         0.5894        -98.403      -50.17487      0.2655043      0.1637522
      4561.5000         3.0833       115.6005        39.0508       47.30566         0.2573         0.3021         0.5986       -98.5267      -50.29723      0.3043757      0.1617128
      4562.0000         3.0959       114.3418        36.7645       44.36396         0.2556         0.3056         0.6183       -98.3812      -50.15039      0.2417863      0.1641601
      4562.5000         3.1234       115.0514        34.2924       41.18332          0.251         0.3016         0.6464       -98.1735      -49.94135      0.1741133      0.1676441
      4563.0000         3.1687         117.87         31.855        38.0473         0.2416         0.2936         0.6327       -98.1686      -49.93512      0.1073894      0.1677481
      4563.5000         3.2295       120.6737        29.4746        34.9846         0.2287         0.2822         0.6066       -98.2552      -50.02038     0.04222545       0.166327
      4564.0000         3.2468       123.2271         28.194       33.33624         0.2166         0.2713         0.5836       -98.3433      -50.10713    0.007153937      0.1648811
      4564.5000         3.2116        122.266        27.2967       32.18081         0.2067         0.2626         0.5805       -98.5046      -50.26709              0      0.1622151
      4565.0000         3.1776       123.3976        27.1814       32.03103         0.1993         0.2554         0.5737       -98.6156      -50.37675              0      0.1603874
      4565.5000         3.1489       125.5588        26.9923       31.78636         0.1943         0.2458         0.5646       -98.6964      -50.45622              0       0.159063
      4566.0000         3.1202       125.5365        27.1988       32.05041         0.1914         0.2347         0.5533       -98.7858      -50.54427              0      0.1575954
      4566.5000         3.1727       123.0864        28.1036       33.21251         0.1896         0.2395         0.5459       -99.0565      -50.81364     0.00452139       0.153106
      4567.0000         3.2311       120.3674        29.0269       34.39838         0.1876         0.2472          0.537       -99.3798       -51.1356     0.02975269      0.1477401
      4567.5000         3.3065       118.1028        29.9521        35.5867         0.1854         0.2494         0.5196       -99.5465      -51.30096     0.05503618      0.1449841
