#------------------------------------------------------------------------------
# Created by    : vladimir.rabinovich
# Created on    : 09/19/2023 17:22:40
#------------------------------------------------------------------------------
~Version Information Section
VERS.           2.0     :   CWLS log ASCII Standard - VERSION 2.0
WRAP.           NO      :   One line per depth step
~Well Information Section
#MNEM       .UNIT                                         VALUE :DESCRIPTION
#------------------------------------------------------------------------------
STRT        .FT                                            3744 :START DEPTH
STOP        .FT                                            9989 :STOP DEPTH
STEP        .FT                                             0.5 :STEP      
NULL        .                                           -999.25 :NULL      
COMP        .                          SEAGULL ENERGY E & P INC :COMPANY   
WELL        .                               OCS G07243 ST00BP00 :WELL      
FLD         .                                           WILDCAT :FIELD     
LOC         .                                                   :LOCATION  
CNTY        .                             GALVESTON LARGE BLOCK :LOCATION  
STAT        .                                             TEXAS :STATE     
CTRY        .                                     UNITED STATES :COUNTRY   
SRVC        .                                                   :SERVICE COMPANY
DATE        .                             9/13/2023 11:19:34 AM :LOG DATE  
API         .                                    42706403030000 :API NUMBER
UWI         .                                    42706403030000 :UNIQUE WELL ID
XCOORD      .                                   1005609.3052046 :SURFACE X 
YCOORD      .                                  10500547.7567395 :SURFACE Y 
LAT         .                                          28.92005 :LATITUDE  
LON         .                                        -94.984771 :LONGITUDE 
ELEV        .FT                                              96 :ELEVATION VALUE
ELEV_TYPE   .                                                KB :ELEVATION REFERENCE TYPE
~Curve Information Section
#MNEM       .UNIT                                      API CODE :CURVE DESCRIPTION
#------------------------------------------------------------------------------
DEPT        .FT                                                 :DEPTH     
DCAL        .IN                                                 :          
DPHI        .%                                                  :          
GR          .GAPI                                               :          
GR_NORM     .GAPI                                               :GammaRay Normalized
ILD         .OHMM                                               :          
ILM         .OHMM                                               :          
NPHI        .%                                                  :          
SFL         .OHMM                                               :          
SP          .MV                                                 :          
SP_NORM     .MV                                                 :SP Normalized
VSH_GR      .V/V                                                :Volume of Shale from GR
VSH_SP      .V/V                                                :Volume of Shale from SP
~A        DEPTH           DCAL           DPHI             GR        GR_NORM            ILD            ILM           NPHI            SFL             SP        SP_NORM         VSH_GR         VSH_SP
# ...
      8336.0000          3.603        26.6071        27.0203       74.57996         0.5708         0.5659        67.4888         0.5252       -42.2722      -4.760118      0.8846799      0.9524118
      8336.5000         3.0391        30.9623        27.1196       74.87644         0.5718         0.5689         69.475         0.5415       -42.4096      -4.934988      0.8909881      0.9493967
      8337.0000         2.6869        29.7187        27.2637       75.23175         0.5729         0.5717        65.6088         0.5624         -42.58      -5.151865      0.8985479      0.9456575
      8337.5000         2.5116        28.0303        27.3069       75.45455         0.5752         0.5741        62.9434         0.5811       -42.8151      -5.451082      0.9032883      0.9404986
      8338.0000         2.4271        28.1541        27.3397        75.6637         0.5775         0.5752        60.2006         0.5857       -42.9832      -5.665026      0.9077382      0.9368099
      8338.5000         2.3677        29.2056         27.255       75.71851         0.5783         0.5752        62.6407         0.5822       -42.9866      -5.669352      0.9089046      0.9367353
      8339.0000         2.4338         28.062         27.342       75.99883         0.5785         0.5745        67.1991         0.5743       -42.8956      -5.553534      0.9148688      0.9387321
      8339.5000         2.8251        28.1605        27.5577       76.44819         0.5787         0.5734         69.623         0.5662       -42.7437      -5.360205      0.9244295      0.9420654
      8340.0000         3.4103        31.3848        27.9409       77.11753         0.5793         0.5711        71.8668         0.5573       -42.6291      -5.214354      0.9386709      0.9445801
      8340.5000         3.9547        33.3162        28.3565       77.82943          0.581         0.5685        74.1718          0.552       -42.5404      -5.101464      0.9538177      0.9465265
      8341.0000         4.4223        30.6033        28.8663       78.66505         0.5834         0.5668        74.6482         0.5531       -42.6217      -5.204935      0.9715969      0.9447425
      8341.5000         3.6857        26.4673        29.4388       79.58302         0.5847         0.5707        70.0577         0.5619       -42.8394      -5.482009       0.991128      0.9399654
      8342.0000         3.3315        22.0074        30.1512       80.68472         0.5859         0.5769        66.6678         0.5722       -43.2159       -5.96119              1      0.9317036
      8342.5000         3.2823        20.5572        30.9202       81.86076         0.5881         0.5856        64.9972         0.5838       -43.8334      -6.747099              1      0.9181535
      8343.0000         2.9983        24.3517        31.7513       83.11837         0.5926         0.5961        63.8576         0.5969       -44.4042      -7.473573              1       0.905628
      8343.5000         2.6064        29.4915        32.6127       84.41576         0.5977         0.6083        60.1298         0.6067       -44.8757      -8.073665              1      0.8952817
      8344.0000         9.1752        34.8518        33.2142       85.37182         0.5118       1612.533         53.201         1.9054       -28.2935       13.03096              1              1
      8344.5000        11.4526         24.177        33.0057       85.26404         1.4251       170.7561        48.7715         3.0732       -35.9497       3.286702              1              1
      8345.0000        13.7933        17.1286        31.9716       84.07195         1.0519         3.8817        45.9772         2.9296       -38.0445      0.6205944              1              1
      8345.5000        17.8594        17.9608        28.5471       79.74037         0.2977         1.0664        44.1214         1.8666        -39.332      -1.018045       0.994476              1
      8346.0000        20.2221         18.357         25.798       76.29585         0.2452         0.3769        48.5204         0.9335       -40.0602      -1.944844      0.9211882              1
      8346.5000        22.5031        18.4339        23.9802       74.07447         0.3003         0.3094        55.0553         0.6738       -40.6122      -2.647392      0.8739249      0.9888381
      8347.0000        22.6674        18.3553         22.665       72.51318         0.3474         0.2864        59.3529         0.6957        -40.975      -3.109133      0.8407061       0.980877
      8347.5000        22.7259         17.964        21.6876       71.39556         0.4004         0.3117        60.2119          0.728       -41.1643      -3.350061      0.8169268      0.9767231
      8348.0000        22.8026        16.4027        20.9686        70.6173         0.4563         0.3621        62.4089         0.6872       -41.2925      -3.513225      0.8003681      0.9739099
      8348.5000        23.0424        14.4696        20.5782       70.27062         0.5029         0.4113        64.7524           0.61       -41.3826      -3.627897      0.7929919      0.9719328
      8349.0000        23.1812        13.4556        20.4716       70.29668         0.5459         0.4645        63.6258         0.5485       -41.4313      -3.689882      0.7935465      0.9708641
      8349.5000        23.1859        13.2588        20.4669       70.45657         0.5622         0.4875          60.97         0.5087       -41.4136      -3.667354      0.7969484      0.9712525
      8350.0000        23.1638        13.9014        20.6946       70.92169         0.5404         0.4498        59.8806          0.497        -41.348      -3.583862      0.8068445       0.972692
      8350.5000        23.1439        14.6056        20.9817       71.46482          0.506         0.4185        58.1554         0.4907        -41.155      -3.338224      0.8184004      0.9769272
      8351.0000        23.1309        15.7879        21.1421       71.84155         0.4923         0.3981        56.5088         0.4859       -41.0519      -3.207006      0.8264158      0.9791896
      8351.5000        23.1323        17.5745        21.3881        72.3307         0.4896         0.3887        55.7659          0.484       -40.9881      -3.125805      0.8368233      0.9805896
      8352.0000        23.1459        19.8086        21.7984       73.03563         0.4892         0.4101        54.9781         0.4845       -40.9308      -3.052882      0.8518219      0.9818469
      8352.5000        23.1623        18.5209        22.1776       73.69973         0.4896         0.4306        53.2494         0.4857       -40.8602      -2.963024      0.8659517      0.9833961
      8353.0000        23.1758         15.482        21.6856       73.21961          0.491         0.4433        51.7428         0.4878       -40.7857       -2.86821      0.8557364      0.9850309
      8353.5000        23.1816        12.9518        21.0906       72.60422         0.4913         0.4405        52.2965         0.4845       -40.6819      -2.736099      0.8426429      0.9873086
      8354.0000        23.1795        11.7494        20.5498       72.06001          0.491         0.4183        54.2473         0.4759       -40.5804      -2.606915      0.8310639      0.9895359
      8354.5000        23.1748        12.5204        20.1493       71.70007         0.4897         0.3957        55.9647         0.4618       -40.4816      -2.481174      0.8234056      0.9917039
      8355.0000        23.1717        15.2792         20.082       71.77548         0.4871         0.3748        57.4053         0.4452       -40.3601      -2.326535      0.8250102      0.9943701
      8355.5000        23.1746        18.7817        20.1051       71.94951          0.477          0.361        59.0439         0.4277       -40.2307      -2.161846      0.8287129      0.9972095
      8356.0000        23.1714        24.1255         20.119       72.11147         0.4653         0.3549        59.6492         0.4111       -40.1559      -2.066643       0.832159       0.998851
