#------------------------------------------------------------------------------
# Created by    : vladimir.rabinovich
# Created on    : 09/19/2023 17:20:37
#------------------------------------------------------------------------------
~Version Information Section
VERS.           2.0     :   CWLS log ASCII Standard - VERSION 2.0
WRAP.           NO      :   One line per depth step
~Well Information Section
#MNEM       .UNIT                                         VALUE :DESCRIPTION
#------------------------------------------------------------------------------
STRT        .FT                                             254 :START DEPTH
STOP        .FT                                            9030 :STOP DEPTH
STEP        .FT                                             0.5 :STEP      
NULL        .                                           -999.25 :NULL      
COMP        .                                    MOBIL OIL CORP :COMPANY   
WELL        .                                OCS 00724 ST00BP00 :WELL      
FLD         .                                           WILDCAT :FIELD     
LOC         .                                                   :LOCATION  
CNTY        .                             GALVESTON LARGE BLOCK :LOCATION  
STAT        .                                             TEXAS :STATE     
CTRY        .                                     UNITED STATES :COUNTRY   
SRVC        .                                                   :SERVICE COMPANY
DATE        .                             9/13/2023 11:19:25 AM :LOG DATE  
API         .                                    42706000340000 :API NUMBER
UWI         .                                    42706000340000 :UNIQUE WELL ID
XCOORD      .                                  1011870.95166473 :SURFACE X 
YCOORD      .                                   10400634.765487 :SURFACE Y 
LAT         .                                         28.645607 :LATITUDE  
LON         .                                        -94.960058 :LONGITUDE 
ELEV        .FT                                              34 :ELEVATION VALUE
ELEV_TYPE   .                                                KB :ELEVATION REFERENCE TYPE
~Curve Information Section
#MNEM       .UNIT                                      API CODE :CURVE DESCRIPTION
#------------------------------------------------------------------------------
DEPT        .FT                                                 :DEPTH     
ASN         .OHMM                                               :          
CALI        .IN                                                 :          
CILD        .MMHO                                               :          
DT          .US/F                                               :          
ILD         .OHMM                                               :          
SP          .MV                                                 :          
SP_NORM     .MV                                                 :SP Normalized
VSH_SP      .V/V                                                :Volume of Shale from SP
~A        DEPTH            ASN           CALI           CILD             DT            ILD             SP        SP_NORM         VSH_SP
# ...
      4915.0000         0.7916         9.7528       1561.564       145.6541         0.6972       -51.5076       -1.41037      0.9879303
      4915.5000         0.7975         9.7516       1547.369       145.4485          0.697       -51.5732      -1.477943      0.9859428
      4916.0000         0.8035         9.7252       1528.486       144.5906         0.6971       -51.6389      -1.545616      0.9839525
      4916.5000         0.8098         9.7034       1508.336       141.9795          0.698       -51.7045      -1.613186      0.9819651
      4917.0000         0.8161         9.6816       1486.057       140.6174         0.6989       -51.6065      -1.517162      0.9847894
      4917.5000         0.8219         9.6598       1458.232       145.2959         0.6998       -51.4822      -1.394836      0.9883872
      4918.0000         0.8276         9.6456       1433.102        146.616         0.7007        -51.358       -1.27261       0.991982
      4918.5000         0.8367         9.6711        1409.85       147.9915         0.7017        -51.184      -1.100582      0.9970417
      4919.0000         0.8479         9.6965       1388.092       149.7288         0.7026       -50.9419     -0.8604546              1
      4919.5000          0.858          9.722       1366.877       144.9036         0.7067       -50.6998      -0.620327              1
      4920.0000         0.8671         9.7476       1356.096       133.5068         0.7113       -50.4581     -0.3806038              1
      4920.5000         0.8762          9.773       1346.604       131.3135          0.716       -50.2245     -0.1489754              1
      4921.0000         0.8853         9.7981       1357.719       132.4795         0.7206       -50.0487     0.02485275              1
      4921.5000         0.8918         9.8229       1375.084       132.9846         0.7252        -49.873      0.1985779              1
      4922.0000         0.8846         9.8477       1397.602       135.9268         0.7275       -49.7208      0.3488045              1
      4922.5000         0.8753         9.8187       1420.309       135.7991         0.7283       -49.8503      0.2173309              1
      4923.0000         0.8652         9.7319       1442.021       135.3176          0.729       -49.9797     0.08596039              1
      4923.5000         0.8521         9.6691       1461.787       134.7068         0.7296        -50.109     -0.0453186              1
      4924.0000          0.839          9.669       1479.967       133.8352         0.7223       -50.2587      -0.196991              1
      4924.5000         0.8282         9.6955       1492.023       133.0464         0.7151       -50.5515     -0.4917603              1
      4925.0000          0.819         9.7219        1504.08       132.3608         0.7116        -50.844     -0.7862358              1
      4925.5000         0.8178         9.7484       1513.209       135.0598         0.7126       -51.1368      -1.081009      0.9976174
      4926.0000           0.82         9.7748       1519.514       140.5361         0.7135       -51.4219      -1.368084       0.989174
      4926.5000         0.8251         9.8016       1514.891       140.3616         0.7145       -51.4916      -1.439754       0.987066
      4927.0000         0.8333         9.8291        1507.82       139.8455         0.7155       -51.5612       -1.51133      0.9849609
      4927.5000         0.8415          9.824       1500.281       140.5825         0.7165        -51.631      -1.583103      0.9828499
      4928.0000         0.8438         9.7611       1492.748       141.9739         0.7181       -51.7006      -1.654675      0.9807448
      4928.5000         0.8442         9.7084       1489.402       143.6841         0.7204       -51.7484      -1.704453      0.9792808
      4929.0000         0.8446         9.6592       1487.861        146.625         0.7227        -51.735      -1.693024      0.9796169
      4929.5000         0.8455         9.6573       1486.318       150.2419          0.725       -51.7216      -1.681595      0.9799531
      4930.0000         0.8474         9.6956       1484.777       141.3533         0.7273       -51.7082      -1.670166      0.9802892
      4930.5000         0.8492         9.7323       1479.934       129.6753         0.7296       -51.6948      -1.658745      0.9806252
      4931.0000         0.8511         9.7622       1473.447       133.6221         0.7319       -51.5936      -1.559517      0.9835436
      4931.5000         0.8563         9.7921       1466.965       137.5691         0.7352       -51.3887      -1.356586      0.9895121
      4932.0000         0.8618         9.8221       1458.549       142.2395         0.7417        -51.184      -1.153862      0.9954746
      4932.5000         0.8673         9.8515       1437.697       148.6323         0.7483       -50.9791     -0.9509354              1
      4933.0000         0.8728         9.8778       1412.656       142.1531         0.7548       -50.7742     -0.7480087              1
      4933.5000         0.8773         9.8638        1381.48       138.2773         0.7614       -50.5626     -0.5383797              1
      4934.0000         0.8817         9.8499       1359.588       138.4661         0.7679       -50.3459      -0.323658              1
      4934.5000         0.8861         9.8359       1340.807        138.501         0.7745        -50.129     -0.1087303              1
      4935.0000         0.8899          9.828       1327.635       139.4658         0.7792       -49.9597     0.05859756              1
      4935.5000         0.8937          9.823       1322.906       140.2751         0.7835       -50.2282     -0.2118759              1
      4936.0000         0.8974         9.8327       1318.311       140.7126         0.7859       -50.6997     -0.6853485              1
      4936.5000         0.9024         9.8579       1315.707        141.136         0.7852       -51.5637      -1.551323      0.9837846
      4937.0000         0.9079         9.8936       1313.105       141.8123         0.7846       -52.4271      -2.416698      0.9583324
      4937.5000         0.9089         9.9303       1309.955       141.5251         0.7839       -52.7668      -2.758369      0.9482833
      4938.0000         0.9056         9.9308       1308.736       139.3894         0.7833       -52.8854      -2.878941       0.944737
      4938.5000          0.898         9.8648       1316.627       139.0359         0.7826       -52.7924      -2.787914      0.9474143
      4939.0000         0.8904         9.7989       1324.518       138.6821          0.782       -52.6993      -2.696789      0.9500945
      4939.5000         0.8838         9.7489       1332.406       138.3286         0.7813       -52.6063      -2.605762      0.9527717
      4940.0000         0.8774         9.7131       1336.105       140.9556         0.7807       -52.5266      -2.528034      0.9550578
      4940.5000         0.8925         9.6889       1336.789       141.9919         0.7791       -52.4514      -2.454811      0.9572114
      4941.0000          0.908         9.6651       1339.068       153.1831         0.7776       -52.3762      -2.381584      0.9593652
      4941.5000         0.9224         9.6414       1347.893        154.645         0.7761       -52.0935      -2.100853       0.967622
      4942.0000         0.9302         9.6487       1360.119       154.8105         0.7746       -51.7931      -1.802429      0.9763991
      4942.5000         0.9254          9.667       1372.844       155.7219         0.7731       -51.4927      -1.504002      0.9851764
      4943.0000           0.92         9.6873       1382.064       155.9431         0.7715       -51.2068      -1.220074      0.9935272
      4943.5000         0.9108         9.7179       1387.248       155.8193         0.7698        -50.973     -0.9882469              1
      4944.0000         0.9039         9.7485       1390.051       155.0774         0.7681       -50.7394     -0.7566223              1
