#------------------------------------------------------------------------------
# Created by    : vladimir.rabinovich
# Created on    : 09/19/2023 17:20:33
#------------------------------------------------------------------------------
~Version Information Section
VERS.           2.0     :   CWLS log ASCII Standard - VERSION 2.0
WRAP.           NO      :   One line per depth step
~Well Information Section
#MNEM       .UNIT                                         VALUE :DESCRIPTION
#------------------------------------------------------------------------------
STRT        .FT                                             242 :START DEPTH
STOP        .FT                                            8116 :STOP DEPTH
STEP        .FT                                             0.5 :STEP      
NULL        .                                           -999.25 :NULL      
COMP        .                                       HUNT OIL CO :COMPANY   
WELL        .                                     ST TR 00005-L :WELL      
FLD         .                                           WILDCAT :FIELD     
LOC         .                                                   :LOCATION  
CNTY        .                           HIGH ISLAND LARGE BLOCK :LOCATION  
STAT        .                                             TEXAS :STATE     
CTRY        .                                     UNITED STATES :COUNTRY   
SRVC        .                                                   :SERVICE COMPANY
DATE        .                             9/13/2023 11:19:33 AM :LOG DATE  
API         .                                    42708000010000 :API NUMBER
UWI         .                                    42708000010000 :UNIQUE WELL ID
XCOORD      .                                  1328371.56215902 :SURFACE X 
YCOORD      .                                  10754892.1390607 :SURFACE Y 
LAT         .                                        29.6307718 :LATITUDE  
LON         .                                       -93.9824852 :LONGITUDE 
ELEV        .FT                                              11 :ELEVATION VALUE
ELEV_TYPE   .                                                KB :ELEVATION REFERENCE TYPE
~Curve Information Section
#MNEM       .UNIT                                      API CODE :CURVE DESCRIPTION
#------------------------------------------------------------------------------
DEPT        .FT                                                 :DEPTH     
ASN         .OHMM                                               :          
LAT         .OHMM                                               :          
LN          .OHMM                                               :          
SN          .OHMM                                               :          
SP          .MV                                                 :          
SP_NORM     .MV                                                 :SP Normalized
VSH_SP      .V/V                                                :Volume of Shale from SP
~A        DEPTH            ASN            LAT             LN             SN             SP        SP_NORM         VSH_SP
# ...
      5468.0000         0.7017         0.6395         0.6268         0.6777       -46.5663      -4.244667       0.957307
      5468.5000         0.7146         0.6202          0.633         0.6851       -50.4763       -8.14925      0.9059309
      5469.0000         0.7291         0.6084         0.6434         0.6925       -55.0763      -12.74384      0.8454759
      5469.5000         0.7541         0.5965         0.6561            0.7       -63.2397      -20.90182       0.738134
      5470.0000         0.7791         0.5847         0.6687         0.7072       -58.9754       -16.6321      0.7943144
      5470.5000         0.7656         0.5728         0.6814         0.7145        -57.713      -15.36429      0.8109962
      5471.0000         0.7514         0.5609          0.694         0.7218       -56.4504      -14.09627      0.8276806
      5471.5000         0.7323          0.562         0.7006          0.729        -55.188      -12.82845      0.8443624
      5472.0000         0.7365         0.5633          0.706         0.7363        -53.933      -11.56804      0.8609468
      5472.5000         0.8001         0.5646         0.7101         0.7412       -52.7226      -10.35222      0.8769444
      5473.0000         0.8209         0.5659           0.71         0.7449       -54.1697      -11.79391      0.8579749
      5473.5000         0.8316         0.5672         0.7099         0.7485       -59.1525      -16.77129       0.792483
      5474.0000         0.8406         0.5664         0.7099         0.7522       -67.7482      -25.36158       0.679453
      5474.5000         0.8323         0.5651         0.7046         0.7559       -68.1293      -25.73726      0.6745097
      5475.0000         0.8131         0.5637         0.6985         0.7595        -64.931      -22.53354      0.7166639
      5475.5000         0.8046         0.5624         0.6925         0.7528       -61.5835      -19.18063      0.7607812
      5476.0000         0.7987         0.5611         0.6864         0.7445       -58.4894      -16.08111      0.8015643
      5476.5000         0.7915         0.5598          0.679         0.7362       -55.9476       -13.5339      0.8350803
      5477.0000         0.7825         0.5654         0.6709         0.7279        -55.023      -12.60388      0.8473174
      5477.5000         0.7697          0.571         0.6628         0.7196       -54.5156      -12.09106       0.854065
      5478.0000         0.7561         0.5767         0.6553         0.7126        -53.745      -11.31505      0.8642757
      5478.5000         0.7421         0.5824         0.6521         0.7055       -52.0561      -9.620731      0.8865693
      5479.0000         0.7295          0.588         0.6489         0.6984       -48.1847      -5.743916        0.93758
      5479.5000         0.7178         0.5959         0.6457         0.6923       -46.5033      -4.057098       0.959775
      5480.0000         0.7084         0.6072         0.6425         0.6869       -45.3214      -2.869785      0.9753976
      5480.5000         0.7011         0.6185         0.6401         0.6815       -44.6394      -2.182369      0.9844425
      5481.0000         0.6945         0.6298         0.6384         0.6784       -44.0623      -1.599854      0.9921072
      5481.5000         0.6936         0.6411         0.6368         0.6907       -43.5024      -1.034534      0.9995456
      5482.0000         0.6961         0.6524         0.6351         0.7031       -43.1443     -0.6710205              1
      5482.5000         0.7029         0.6636         0.6331         0.7124       -43.5137      -1.035004      0.9995394
      5483.0000         0.7103         0.6728         0.6296         0.7189       -43.8911       -1.40699      0.9946449
      5483.5000         0.7177         0.6814         0.6261         0.7213       -44.6893      -2.199772      0.9842135
      5484.0000         0.7247         0.6899         0.6227         0.7152       -45.4876      -2.992657      0.9737808
      5484.5000         0.7315         0.6985         0.6192         0.7016       -46.3388       -3.83844      0.9626521
      5485.0000         0.7283         0.7071         0.6155         0.6815        -47.216      -4.710224      0.9511812
      5485.5000         0.7045         0.7157         0.6119         0.6684       -48.1528      -5.641609      0.9389262
      5486.0000         0.6826         0.7237         0.6082         0.6577       -48.2048      -5.688194      0.9383132
      5486.5000         0.6607         0.7313         0.6046         0.6469       -47.4678      -4.945778      0.9480819
      5487.0000         0.6413         0.7388          0.599         0.6362         -46.73       -4.20256      0.9578611
      5487.5000          0.636         0.7464         0.5934         0.6277       -45.9929      -3.460045       0.967631
      5488.0000         0.6308         0.7516         0.5878         0.6228       -45.2618       -2.72353       0.977322
      5488.5000         0.6255         0.7526         0.5822         0.6179       -44.5315      -1.987816      0.9870024
      5489.0000         0.6211         0.7535         0.5766          0.613       -43.8911      -1.341999         0.9955
      5489.5000         0.6172         0.7545         0.5729         0.6081       -43.3576     -0.8030815              1
      5490.0000         0.6133         0.7434         0.5697         0.6038       -43.1891     -0.6291656              1
      5490.5000         0.6117         0.7319         0.5666         0.6021       -43.4821     -0.9167519              1
      5491.0000         0.6102         0.7203         0.5634         0.6005       -43.7643      -1.193535      0.9974535
      5491.5000         0.6087         0.7088         0.5611         0.5988       -43.8922      -1.316017      0.9958419
      5492.0000         0.6075         0.6988         0.5621         0.5972         -44.02      -1.438404      0.9942315
      5492.5000         0.6064           0.69         0.5632         0.5956       -44.1479      -1.560886      0.9926199
      5493.0000         0.6053         0.6811         0.5642         0.5939       -44.2757       -1.68327      0.9910096
      5493.5000         0.6057         0.6723         0.5652         0.5929       -44.1833      -1.585453      0.9922967
      5494.0000          0.606         0.6635         0.5663         0.5929       -44.0631      -1.459839      0.9939495
      5494.5000         0.6063         0.6546         0.5673         0.5928       -43.9429      -1.334225      0.9956023
      5495.0000         0.6066         0.6458          0.568         0.5928       -43.8226      -1.208508      0.9972565
      5495.5000         0.6064         0.6373         0.5684         0.5927       -43.7025      -1.082989       0.998908
      5496.0000          0.606         0.6302         0.5689         0.5927       -43.5822     -0.9572754              1
      5496.5000         0.6057         0.6231         0.5693         0.5926        -43.462     -0.8316612              1
      5497.0000         0.6053         0.6159         0.5697         0.5926       -43.3417     -0.7059441              1
      5497.5000         0.6052         0.6088         0.5702         0.5937       -43.2215     -0.5803261              1
      5498.0000         0.6052         0.6017         0.5706         0.5955        -42.851     -0.2044144              1
      5498.5000         0.6052         0.5946         0.5734         0.5973       -42.4493      0.2027054              1
      5499.0000         0.6073         0.5874         0.5788         0.5991       -41.9008      0.7566223              1
      5499.5000         0.6104         0.5803         0.5843         0.6009       -41.3405       1.322334              1
      5500.0000         0.6135         0.5733         0.5898         0.6027       -41.5883       1.079952              1
      5500.5000         0.6167         0.5683         0.5953         0.6044       -41.8359      0.8377686              1
      5501.0000         0.6201         0.5632         0.6008         0.6062       -42.0836      0.5954857              1
