#------------------------------------------------------------------------------
# Created by    : vladimir.rabinovich
# Created on    : 09/19/2023 17:19:49
#------------------------------------------------------------------------------
~Version Information Section
VERS.           2.0     :   CWLS log ASCII Standard - VERSION 2.0
WRAP.           NO      :   One line per depth step
~Well Information Section
#MNEM       .UNIT                                         VALUE :DESCRIPTION
#------------------------------------------------------------------------------
STRT        .FT                                             790 :START DEPTH
STOP        .FT                                           12500 :STOP DEPTH
STEP        .FT                                             0.5 :STEP      
NULL        .                                           -999.25 :NULL      
COMP        .                                 CHEVRON U S A INC :COMPANY   
WELL        .                               OCS G04596 ST00BP00 :WELL      
FLD         .                                           WILDCAT :FIELD     
LOC         .                                                   :LOCATION  
CNTY        .                        MUSTANG ISLAND LARGE BLOCK :LOCATION  
STAT        .                                             TEXAS :STATE     
CTRY        .                                     UNITED STATES :COUNTRY   
SRVC        .                                                   :SERVICE COMPANY
DATE        .                             9/13/2023 11:19:13 AM :LOG DATE  
API         .                                    42702401310000 :API NUMBER
UWI         .                                    42702401310000 :UNIQUE WELL ID
XCOORD      .                                  486632.184756912 :SURFACE X 
YCOORD      .                                  10088502.2555927 :SURFACE Y 
LAT         .                                          27.75488 :LATITUDE  
LON         .                                        -96.567316 :LONGITUDE 
ELEV        .FT                                              90 :ELEVATION VALUE
ELEV_TYPE   .                                                KB :ELEVATION REFERENCE TYPE
~Curve Information Section
#MNEM       .UNIT                                      API CODE :CURVE DESCRIPTION
#------------------------------------------------------------------------------
DEPT        .FT                                                 :DEPTH     
ASFL        .OHMM                                               :          
CILD        .MMHO                                               :          
GR          .GAPI                                               :          
GR_NORM     .GAPI                                               :GammaRay Normalized
ILD         .OHMM                                               :          
SP          .MV                                                 :          
SP_NORM     .MV                                                 :SP Normalized
VSH_GR      .V/V                                                :Volume of Shale from GR
VSH_SP      .V/V                                                :Volume of Shale from SP
~A        DEPTH           ASFL           CILD             GR        GR_NORM            ILD             SP        SP_NORM         VSH_GR         VSH_SP
# ...
      7123.5000         0.8911        1260.75        75.3011       85.85751         0.8246       -51.9415      -3.988285              1       0.953308
      7124.0000         0.8837       1281.338        74.0643       83.82683          0.806       -51.8258      -3.872585              1      0.9551159
      7124.5000         0.8758       1301.924        72.1041       80.60941         0.7898       -51.7098      -3.756584              1      0.9569284
      7125.0000         0.8636        1322.51        71.9567       80.36591         0.7735       -51.5941      -3.640884              1      0.9587362
      7125.5000         0.8514       1348.742         73.325       82.60888         0.7572       -51.4782      -3.524982              1      0.9605471
      7126.0000         0.8392       1380.398        74.6932       84.85169          0.741       -51.3624      -3.409184              1      0.9623565
      7126.5000         0.8253       1412.303        76.0615       87.09468         0.7247        -51.358      -3.404785              1      0.9624252
      7127.0000         0.8106       1448.348        76.6927       88.12847         0.7084       -51.4359      -3.482685              1       0.961208
      7127.5000         0.7959       1484.393         75.187       85.65663         0.6966       -51.5138      -3.560585              1      0.9599909
      7128.0000         0.7811       1514.619        73.6836       83.18859           0.69       -51.5917      -3.638485              1      0.9587737
      7128.5000         0.7659       1543.465        72.2343        80.8093         0.6833       -51.6696      -3.716385              1      0.9575565
      7129.0000         0.7512       1560.033        71.2959       79.26814         0.6766       -51.7474      -3.794182      0.9844286      0.9563409
      7129.5000          0.769       1537.547         74.116       83.89282         0.6724       -51.8253      -3.872082              1      0.9551237
      7130.0000         0.7867       1502.488        76.9875       88.60183          0.684       -51.9031      -3.949883              1      0.9539081
      7130.5000         0.8045       1469.846        73.5387       82.94231         0.6955       -52.0192      -4.065983              1       0.952094
      7131.0000         0.8223         1437.5        70.0653        77.2425          0.707       -52.1497      -4.196484      0.9413298      0.9500549
      7131.5000         0.8401       1405.104        68.4869       74.65141         0.7185       -52.2802      -4.326984      0.8862002      0.9480159
      7132.0000         0.8565       1372.756         68.942       75.39629           0.73       -52.4107      -4.457485      0.9020488      0.9459768
      7132.5000         0.8665       1340.359        69.5948       76.46551         0.7415       -52.5412      -4.587982       0.924798      0.9439378
      7133.0000         0.8735       1322.881        70.2471       77.53391         0.7534       -52.6717      -4.718483        0.94753      0.9418987
      7133.5000         0.8604       1314.104        70.8998       78.60294         0.7653       -52.8596      -4.906384      0.9702752      0.9389628
      7134.0000         0.8472       1305.338        72.0304       80.45599         0.7772       -53.0555      -5.102283              1      0.9359018
      7134.5000         0.8341       1300.451        73.1677       82.32001          0.789       -53.2518      -5.298584              1      0.9328346
      7135.0000         0.8259       1306.238        72.1385       80.62988         0.7894       -53.4466      -5.493385              1      0.9297909
      7135.5000          0.822       1312.025        67.3705       72.80626         0.7897       -53.5497      -5.596485      0.8469417      0.9281799
      7136.0000         0.8182       1317.813         67.965       73.77983           0.79       -53.4814      -5.528183       0.867656      0.9292471
      7136.5000         0.8193       1323.602        68.8407       75.21471         0.7903       -53.2011      -5.247883      0.8981853      0.9336268
      7137.0000         0.8278       1323.951        69.7164       76.64958         0.7906       -52.9204      -4.967182      0.9287145      0.9380128
      7137.5000         0.8363         1322.9        70.9127        78.6104         0.7909       -52.6401      -4.686882      0.9704341      0.9423925
      7138.0000         0.8448        1321.85        72.6125       81.39722         0.7892       -52.3597      -4.406483              1      0.9467737
      7138.5000         0.8533       1320.799        70.2679       77.54917         0.7872       -52.0794      -4.126183      0.9478547      0.9511534
      7139.0000         0.8459       1319.748        69.2435       75.86695         0.7852       -51.8596      -3.906384      0.9120628      0.9545878
      7139.5000         0.8328       1326.443        68.6442       74.88208         0.7832       -51.6468      -3.693584      0.8911081      0.9579127
      7140.0000         0.8215       1340.742        69.5924       76.43588         0.7821        -51.434      -3.480782      0.9241677      0.9612378
      7140.5000         0.8152       1356.287        70.5405       77.98956         0.7862       -51.4324      -3.479183      0.9572246      0.9612628
      7141.0000         0.8088       1373.791        71.4888       79.54351         0.7902        -51.714      -3.760784      0.9902875      0.9568627
      7141.5000         0.8025       1352.785        71.6853       79.86417         0.7943       -51.9959      -4.042683      0.9971101      0.9524581
      7142.0000         0.8054       1312.008        70.3035       77.59561         0.8046       -52.1821      -4.228882      0.9488428      0.9495487
      7142.5000         0.8226       1272.461        68.7756       75.08738         0.8194       -52.3365      -4.383282      0.8954762      0.9471362
      7143.0000         0.8398        1238.34        68.3593       74.40272         0.8342       -52.4911      -4.537884      0.8809089      0.9447206
      7143.5000         0.8676       1204.217        69.3074       75.95638          0.849       -52.6456      -4.692383      0.9139656      0.9423065
      7144.0000         0.8967       1170.096        70.2568       77.51214         0.8638       -52.7789      -4.825684      0.9470668      0.9402237
      7144.5000         0.9258       1135.924        71.2051       79.06613         0.8782       -52.6871      -4.733883      0.9801304      0.9416581
      7145.0000         0.9527         1114.4        72.1544       80.62177          0.892       -52.5953      -4.642082              1      0.9430925
      7145.5000         0.9709       1094.086        72.8042       81.68603         0.9057       -52.5035      -4.550285              1      0.9445268
      7146.0000         0.9719        1073.77        73.3821       82.63239         0.9194       -52.4116      -4.458382              1      0.9459628
      7146.5000         0.9532       1108.016        73.9225        83.5172         0.9278       -52.3198      -4.366585              1      0.9473971
      7147.0000          0.939       1141.127        74.3364       84.19449         0.9163       -52.2153      -4.262085              1      0.9490299
      7147.5000         0.9247       1169.652        74.0693       83.75459         0.9049       -52.0756      -4.122383              1      0.9512128
      7148.0000         0.9105       1198.178        72.5266       81.22208         0.8934       -51.9357      -3.982483              1      0.9533987
      7148.5000         0.8963       1226.703         71.318       79.23766          0.882        -51.796      -3.842785      0.9837799      0.9555815
      7149.0000         0.8821       1255.229        70.1107       77.25536         0.8705       -51.6563      -3.703083      0.9416035      0.9577643
      7149.5000         0.8678       1283.754        70.6254       78.09801         0.8591       -51.5166      -3.563385      0.9595321      0.9599471
