#------------------------------------------------------------------------------
# Created by    : vladimir.rabinovich
# Created on    : 09/19/2023 17:22:41
#------------------------------------------------------------------------------
~Version Information Section
VERS.           2.0     :   CWLS log ASCII Standard - VERSION 2.0
WRAP.           NO      :   One line per depth step
~Well Information Section
#MNEM       .UNIT                                         VALUE :DESCRIPTION
#------------------------------------------------------------------------------
STRT        .FT                                            2948 :START DEPTH
STOP        .FT                                            8770 :STOP DEPTH
STEP        .FT                                             0.5 :STEP      
NULL        .                                           -999.25 :NULL      
COMP        .                 BROOKLYN UNION EXPLORATION CO INC :COMPANY   
WELL        .                               OCS G07238 ST00BP00 :WELL      
FLD         .                                           WILDCAT :FIELD     
LOC         .                                                   :LOCATION  
CNTY        .                             GALVESTON LARGE BLOCK :LOCATION  
STAT        .                                             TEXAS :STATE     
CTRY        .                                     UNITED STATES :COUNTRY   
SRVC        .                                                   :SERVICE COMPANY
DATE        .                             9/13/2023 11:19:34 AM :LOG DATE  
API         .                                    42706402470000 :API NUMBER
UWI         .                                    42706402470000 :UNIQUE WELL ID
XCOORD      .                                  1057740.92261072 :SURFACE X 
YCOORD      .                                   10547901.298013 :SURFACE Y 
LAT         .                                         29.052568 :LATITUDE  
LON         .                                        -94.824133 :LONGITUDE 
ELEV        .FT                                              85 :ELEVATION VALUE
ELEV_TYPE   .                                                KB :ELEVATION REFERENCE TYPE
~Curve Information Section
#MNEM       .UNIT                                      API CODE :CURVE DESCRIPTION
#------------------------------------------------------------------------------
DEPT        .FT                                                 :DEPTH     
DCAL        .IN                                                 :          
DT          .US/F                                               :          
GR          .GAPI                                               :          
GR_NORM     .GAPI                                               :GammaRay Normalized
ILD         .OHMM                                               :          
ILM         .OHMM                                               :          
SFL         .OHMM                                               :          
SP          .MV                                                 :          
SP_NORM     .MV                                                 :SP Normalized
VSH_GR      .V/V                                                :Volume of Shale from GR
VSH_SP      .V/V                                                :Volume of Shale from SP
~A        DEPTH           DCAL             DT             GR        GR_NORM            ILD            ILM            SFL             SP        SP_NORM         VSH_GR         VSH_SP
# ...
      7988.0000         1.8257        93.0338        57.3621        53.6217         1.2286         1.2299         1.3538       -46.9374     -0.6097183      0.4387597      0.9889142
      7988.5000         1.7271         93.291        58.8037       55.94677         1.2783         1.2777          1.343        -47.776      -1.448318      0.4882292       0.973667
      7989.0000         1.6043        93.3041        59.9432       57.78458         1.3165         1.3179         1.4638        -48.696      -2.368317      0.5273316      0.9569397
      7989.5000         1.4936        90.7456        60.5398       58.74681         1.3319         1.3319         1.7284       -49.7578      -3.430119      0.5478045      0.9376342
      7990.0000         1.3842        90.2673        59.0936       56.41434         1.2934         1.2936         1.9255       -50.9097      -4.582016      0.4981774      0.9166906
      7990.5000         1.3131        93.8645        57.9935       54.64005         1.2214         1.1884         2.0133       -52.2687      -5.941017      0.4604266      0.8919815
      7991.0000         1.2437        97.6013        58.9061       56.11193         1.1484         1.1068         1.7464       -54.3183      -7.990616      0.4917431      0.8547161
      7991.5000         1.2174       100.3365        62.4134        61.7686         1.0799         1.0538         1.3943       -55.7279      -9.400219      0.6120978      0.8290869
      7992.0000         1.2159       102.4266        64.8724       65.73456          1.031         1.0177         1.1222       -56.6047      -10.27702        0.69648      0.8131452
      7992.5000         1.2591       103.5557        65.4867       66.72533         0.9965         0.9897         0.9469       -56.2051      -9.877419      0.7175603      0.8204105
      7993.0000         1.3529       103.7405        64.4482        65.0504         0.9666         0.9663         0.8919       -53.4673      -7.139618      0.6819234      0.8701888
      7993.5000         1.4508       103.1292         62.184       61.39862         0.9421         0.9424         0.9027       -50.7074      -4.379719       0.604226      0.9203687
      7994.0000         1.5508       102.2299        60.1221       58.07313         0.9226         0.9377         0.9384       -48.3667      -2.039017      0.5334709       0.962927
      7994.5000         1.6348       101.4762        58.7618        55.8792          0.907         0.9486         0.9807       -46.7993     -0.4716187      0.4867915      0.9914251
      7995.0000         1.7152       101.2345        58.3217       55.16938            0.9         0.9495         1.0107       -45.9373      0.3903809       0.471689              1
      7995.5000         1.7727       102.9746        58.4374       55.35599         0.8971         0.9405         1.0256       -45.3878      0.9398842      0.4756593              1
      7996.0000          1.805       104.2053        58.9172       56.12982         0.8968         0.9244         1.0198       -45.0869       1.240784      0.4921239              1
      7996.5000          1.766       104.8511        59.7496       57.47234         0.8953         0.9055         0.9923       -44.9371       1.390583      0.5206882              1
      7997.0000         1.6361       105.3319        61.2936       59.96256         0.8906         0.8913         0.9404       -45.0094       1.318283      0.5736715              1
      7997.5000         1.4968       105.7292        63.1139        62.8984         0.8821         0.8817         0.9033       -45.1198       1.207882      0.6361361              1
      7998.0000         1.4567       106.0942        62.6305       62.11875         0.8799         0.8738          0.882       -45.2386       1.089081      0.6195478              1
      7998.5000         1.4384       106.1677        61.3541       60.06014         0.8788          0.872         0.8917       -45.3587      0.9689827      0.5757476              1
      7999.0000         1.4636       105.8943        61.6981       60.61493         0.8811         0.8719         0.9119       -45.3936       0.934082      0.5875518              1
      7999.5000         1.5149       105.2341        63.3852       63.33596         0.8844          0.878         0.9261       -45.4013       0.926384      0.6454461              1
      8000.0000         1.6017       104.4009         63.862       64.10494         0.8901         0.8849         0.9373       -45.3303      0.9973831      0.6618073              1
      8000.5000         1.7327       104.2539         62.977       62.67759         0.8952         0.8975         0.9394       -45.1849       1.142784       0.631438              1
      8001.0000         1.8513       104.6447        62.1347        61.3191         0.8999         0.9077         0.9334       -45.0936       1.234081      0.6025341              1
      8001.5000         1.8903       104.3491        62.0004       61.10251         0.9035         0.9152         0.9272       -45.0762       1.251484      0.5979257              1
      8002.0000         1.8626       103.6299        62.3845       61.72199         0.9078         0.9189         0.9249       -45.2805       1.047184      0.6111062              1
      8002.5000         1.7465       102.3893        62.5523       61.99264         0.9126         0.9217         0.9407       -45.5984      0.7292824      0.6168646              1
      8003.0000         1.6969       101.1537        62.5232       61.94571          0.916         0.9246         0.9898       -45.8907      0.4369812      0.6158661              1
      8003.5000         1.7281       101.1362        61.5649       60.40012         0.9192         0.9256         1.0649       -46.1697      0.1579819      0.5829813              1
      8004.0000         1.7452       102.0405        60.0728       57.99362         0.9217         0.9265         1.0633       -46.4484     -0.1207161      0.5317791      0.9978052
      8004.5000         1.6229       103.0955        59.1589       56.51964         0.9255         0.9281         0.9852       -46.5386     -0.2109184      0.5004179      0.9961651
      8005.0000         1.3872       104.0383        60.8275       59.21083         0.9309         0.9322         0.9157       -46.6282      -0.300518      0.5576771       0.994536
      8005.5000         1.1538       104.6487        63.4247       63.39967         0.9363          0.938         0.8944       -46.6379     -0.3102188      0.6468015      0.9943597
      8006.0000         1.1091       104.7649        65.3904          66.57         0.9417         0.9429         0.9143       -46.5335     -0.2058182      0.7142553      0.9962578
      8006.5000         1.3568       104.4792        66.9197       69.03651         0.9469         0.9475         0.9325       -46.4326     -0.1049156      0.7667344      0.9980925
      8007.0000         1.5195       104.1479        67.9321       70.66933          0.952         0.9486         0.9389       -46.3522    -0.02451706       0.801475      0.9995542
      8007.5000          1.576       104.8605         68.156       71.03045         0.9575         0.9492          0.937       -46.2717     0.05598068      0.8091585              1
      8008.0000         1.5957       105.5271        68.2913       71.24866         0.9633         0.9491         0.9359       -46.2318     0.09588242      0.8138012              1
      8008.5000          1.592       105.0125        68.4769         71.548         0.9691         0.9488         0.9427       -46.2144      0.1132813      0.8201703              1
      8009.0000         1.5824       103.9998        69.5365       73.25696          0.975         0.9503         0.9628       -46.2018      0.1258812       0.856531              1
      8009.5000         1.5718       104.0682        73.8824       80.26617         0.9775         0.9516         0.9745       -46.2192      0.1084824              1              1
      8010.0000         1.5631       104.5951        77.5723       86.21738         0.9771         0.9521         0.9715       -46.2366     0.09108353              1              1
