#------------------------------------------------------------------------------
# Created by    : vladimir.rabinovich
# Created on    : 09/19/2023 17:20:33
#------------------------------------------------------------------------------
~Version Information Section
VERS.           2.0     :   CWLS log ASCII Standard - VERSION 2.0
WRAP.           NO      :   One line per depth step
~Well Information Section
#MNEM       .UNIT                                         VALUE :DESCRIPTION
#------------------------------------------------------------------------------
STRT        .FT                                             526 :START DEPTH
STOP        .FT                                            9568 :STOP DEPTH
STEP        .FT                                             0.5 :STEP      
NULL        .                                           -999.25 :NULL      
COMP        .                       BLUE DOLPHIN EXPLORATION CO :COMPANY   
WELL        .                                OCS 00713 ST00BP00 :WELL      
FLD         .                              GALVESTON BLOCK 0288 :FIELD     
LOC         .                                                   :LOCATION  
CNTY        .                             GALVESTON LARGE BLOCK :LOCATION  
STAT        .                                             TEXAS :STATE     
CTRY        .                                     UNITED STATES :COUNTRY   
SRVC        .                                                   :SERVICE COMPANY
DATE        .                             9/13/2023 11:19:25 AM :LOG DATE  
API         .                                    42706000630000 :API NUMBER
UWI         .                                    42706000630000 :UNIQUE WELL ID
XCOORD      .                                  1101981.32688909 :SURFACE X 
YCOORD      .                                  10481575.8265757 :SURFACE Y 
LAT         .                                          28.87198 :LATITUDE  
LON         .                                        -94.682732 :LONGITUDE 
ELEV        .FT                                              58 :ELEVATION VALUE
ELEV_TYPE   .                                                KB :ELEVATION REFERENCE TYPE
~Curve Information Section
#MNEM       .UNIT                                      API CODE :CURVE DESCRIPTION
#------------------------------------------------------------------------------
DEPT        .FT                                                 :DEPTH     
ASN         .OHMM                                               :          
CALI        .IN                                                 :          
DT          .US/F                                               :          
ILD         .OHMM                                               :          
SP          .MV                                                 :          
SP_NORM     .MV                                                 :SP Normalized
VSH_SP      .V/V                                                :Volume of Shale from SP
~A        DEPTH            ASN           CALI             DT            ILD             SP        SP_NORM         VSH_SP
# ...
      1732.0000         0.6501        -999.25        -999.25         0.4519       -49.8318      -12.15396     0.07691228
      1732.5000         0.6584        -999.25        -999.25          0.442       -49.6939      -12.01507     0.08953927
      1733.0000         0.6613        -999.25        -999.25         0.4234       -49.5337      -11.85387      0.1041936
      1733.5000         0.6555        -999.25        -999.25         0.4189       -49.9037      -12.22287     0.07064784
      1734.0000         0.6426        -999.25        -999.25         0.4161       -50.3077      -12.62588     0.03401115
      1734.5000         0.6301        -999.25        -999.25         0.4137       -50.4427      -12.75988     0.02182943
      1735.0000         0.6244        -999.25        -999.25         0.4091       -50.3989      -12.71508     0.02590179
      1735.5000         0.6201        -999.25        -999.25         0.4033       -50.4905      -12.80569     0.01766482
      1736.0000         0.6245        -999.25        -999.25         0.4008        -50.645      -12.95919    0.003710313
      1736.5000         0.6303        -999.25        -999.25          0.399       -50.8065      -13.11969              0
      1737.0000         0.6334        -999.25        -999.25         0.3974       -50.6631      -12.97529    0.002246163
      1737.5000          0.634        -999.25        -999.25         0.3974       -50.4815      -12.79269     0.01884599
      1738.0000         0.6328        -999.25        -999.25         0.3981       -50.2855       -12.5957     0.03675495
      1738.5000         0.6314        -999.25        -999.25         0.3989       -50.4694       -12.7786     0.02012738
      1739.0000         0.6305        -999.25        -999.25         0.3997       -50.8882       -13.1964              0
      1739.5000         0.6228        -999.25        -999.25         0.4005       -51.0201       -13.3273              0
      1740.0000         0.6116        -999.25        -999.25         0.4013       -50.7581       -13.0643              0
      1740.5000         0.6019        -999.25        -999.25         0.4021       -50.2724      -12.57761     0.03839909
      1741.0000         0.5977        -999.25        -999.25         0.4022       -49.6431      -11.94731     0.09569896
      1741.5000         0.5995        -999.25        -999.25         0.3975       -49.3636      -11.66682      0.1211985
      1742.0000         0.6041        -999.25        -999.25         0.3973       -49.5301      -11.83232       0.106153
      1742.5000         0.6093        -999.25        -999.25         0.3981       -49.4174      -11.71862      0.1164891
      1743.0000         0.6133        -999.25        -999.25         0.3989       -49.0608      -11.36102      0.1489983
      1743.5000         0.6123        -999.25        -999.25         0.3997       -48.5989      -10.89812      0.1910796
      1744.0000         0.6083        -999.25        -999.25         0.4004       -48.5311      -10.82933      0.1973336
      1744.5000         0.6058        -999.25        -999.25         0.4012       -48.6055      -10.90273       0.190661
      1745.0000         0.6059        -999.25        -999.25          0.402       -48.8265      -11.12273      0.1706605
      1745.5000         0.6111        -999.25        -999.25         0.4028        -48.759      -11.05423      0.1768879
      1746.0000         0.6177        -999.25        -999.25         0.4037       -48.6591      -10.95334      0.1860601
      1746.5000         0.6211        -999.25        -999.25          0.407       -48.4229      -10.71614      0.2076236
      1747.0000         0.6239        -999.25        -999.25         0.3921        -48.905      -11.19724       0.163887
      1747.5000         0.6267        -999.25        -999.25         0.3971       -49.5486      -11.83984      0.1054688
      1748.0000         0.6341        -999.25        -999.25         0.4039       -49.8188      -12.10905     0.08099539
      1748.5000         0.6411        -999.25        -999.25         0.4126       -49.9531      -12.24235     0.06887748
      1749.0000         0.6521        -999.25        -999.25         0.4191       -50.5574      -12.84565      0.0140315
      1749.5000         0.6604        -999.25        -999.25         0.4225       -50.8504      -13.13765              0
      1750.0000         0.6621        -999.25        -999.25         0.4279       -50.9644      -13.25066              0
      1750.5000         0.6687        -999.25        -999.25         0.4284       -51.0541      -13.33936              0
      1751.0000         0.6769        -999.25        -999.25         0.4192       -51.0711      -13.35536              0
      1751.5000         0.6702        -999.25        -999.25         0.4151        -51.064      -13.34727              0
      1752.0000         0.6583        -999.25        -999.25         0.4199       -51.0617      -13.34397              0
      1752.5000         0.6556        -999.25        -999.25         0.4242       -51.0671      -13.34837              0
      1753.0000         0.6519        -999.25        -999.25         0.4281       -51.0941      -13.37437              0
      1753.5000         0.6457        -999.25        -999.25         0.4312         -51.05      -13.32928              0
      1754.0000         0.6404        -999.25        -999.25         0.4284        -50.239      -12.51728     0.04388393
      1754.5000         0.6502        -999.25        -999.25         0.4248       -49.7142      -11.99148     0.09168348
      1755.0000         0.6624        -999.25        -999.25         0.4178       -49.6836      -11.95988     0.09455594
      1755.5000         0.6621        -999.25        -999.25          0.408       -49.7744      -12.04969     0.08639214
      1756.0000         0.6573        -999.25        -999.25          0.405       -49.8357      -12.10999     0.08091008
      1756.5000         0.6572        -999.25        -999.25         0.4022       -49.9368      -12.21009     0.07180994
      1757.0000         0.6603        -999.25        -999.25         0.4037       -49.9542      -12.22649     0.07031874
      1757.5000         0.6669        -999.25        -999.25         0.4119        -50.118       -12.3893     0.05551841
      1758.0000         0.6712        -999.25        -999.25         0.4187       -50.3613       -12.6316     0.03349096
      1758.5000         0.6734        -999.25        -999.25         0.4232       -50.5893       -12.8586     0.01285449
      1759.0000         0.6736        -999.25        -999.25         0.4291       -50.9541       -13.2224              0
      1759.5000         0.6758        -999.25        -999.25         0.4358       -51.3128      -13.58011              0
      1760.0000         0.6738        -999.25        -999.25         0.4421       -51.2838      -13.55011              0
      1760.5000         0.6711        -999.25        -999.25         0.4477       -50.9211      -13.18641              0
      1761.0000         0.6734        -999.25        -999.25         0.4521       -50.6835      -12.94781    0.004744096
      1761.5000          0.682        -999.25        -999.25         0.4519       -50.8121      -13.07542              0
      1762.0000         0.6844        -999.25        -999.25         0.4508       -50.9573      -13.21962              0
      1762.5000         0.6822        -999.25        -999.25         0.4513       -51.0768      -13.33812              0
      1763.0000          0.682        -999.25        -999.25           0.45       -51.3083      -13.56863              0
      1763.5000         0.6721        -999.25        -999.25         0.4487       -51.4945      -13.75383              0
      1764.0000         0.6609        -999.25        -999.25         0.4492       -51.7014      -13.95973              0
      1764.5000         0.6556        -999.25        -999.25          0.448       -51.9137      -14.17103              0
      1765.0000         0.6545        -999.25        -999.25         0.4435       -52.0297      -14.28604              0
