#------------------------------------------------------------------------------
# Created by    : vladimir.rabinovich
# Created on    : 09/19/2023 17:19:48
#------------------------------------------------------------------------------
~Version Information Section
VERS.           2.0     :   CWLS log ASCII Standard - VERSION 2.0
WRAP.           NO      :   One line per depth step
~Well Information Section
#MNEM       .UNIT                                         VALUE :DESCRIPTION
#------------------------------------------------------------------------------
STRT        .FT                                             960 :START DEPTH
STOP        .FT                                            9172 :STOP DEPTH
STEP        .FT                                             0.5 :STEP      
NULL        .                                           -999.25 :NULL      
COMP        .                                ODECO OIL & GAS CO :COMPANY   
WELL        .                               OCS G06101 ST00BP00 :WELL      
FLD         .                                           WILDCAT :FIELD     
LOC         .                                                   :LOCATION  
CNTY        .                             GALVESTON LARGE BLOCK :LOCATION  
STAT        .                                             TEXAS :STATE     
CTRY        .                                     UNITED STATES :COUNTRY   
SRVC        .                                                   :SERVICE COMPANY
DATE        .                             9/13/2023 11:19:27 AM :LOG DATE  
API         .                                    42706401070000 :API NUMBER
UWI         .                                    42706401070000 :UNIQUE WELL ID
XCOORD      .                                  1041316.87817256 :SURFACE X 
YCOORD      .                                  10447909.9182991 :SURFACE Y 
LAT         .                                         28.776905 :LATITUDE  
LON         .                                        -94.870587 :LONGITUDE 
ELEV        .FT                                              92 :ELEVATION VALUE
ELEV_TYPE   .                                                KB :ELEVATION REFERENCE TYPE
~Curve Information Section
#MNEM       .UNIT                                      API CODE :CURVE DESCRIPTION
#------------------------------------------------------------------------------
DEPT        .FT                                                 :DEPTH     
ASFL        .OHMM                                               :          
GR          .GAPI                                               :          
GR_NORM     .GAPI                                               :GammaRay Normalized
ILD         .OHMM                                               :          
SP          .MV                                                 :          
SP_NORM     .MV                                                 :SP Normalized
VSH_GR      .V/V                                                :Volume of Shale from GR
VSH_SP      .V/V                                                :Volume of Shale from SP
~A        DEPTH           ASFL             GR        GR_NORM            ILD             SP        SP_NORM         VSH_GR         VSH_SP
# ...
      3674.0000          0.856         75.175       86.66196         0.9125       -76.7146      -2.079343              1      0.9653443
      3674.5000         0.8514        75.0836       86.52848         0.9068       -76.6877      -2.041681              1       0.965972
      3675.0000         0.8467        74.9922       86.39503         0.9011       -76.6609      -2.004158              1      0.9665974
      3675.5000          0.842        74.6748        85.9294         0.8954        -76.634      -1.966507              1      0.9672249
      3676.0000         0.8373        74.2289       85.27491         0.8897       -76.5889       -1.90336              1      0.9682773
      3676.5000         0.8329        73.7833       84.62089          0.884       -76.5383      -1.832523              1       0.969458
      3677.0000         0.8302        73.3376       83.96669         0.8783       -76.4878      -1.761824              1      0.9706362
      3677.5000         0.8275        72.8918       83.31236         0.8727       -76.4373      -1.691126              1      0.9718146
      3678.0000         0.8249        72.4462       82.65832          0.867       -76.3868      -1.620427              1      0.9729929
      3678.5000         0.8271        72.0006        82.0043         0.8613       -76.3363      -1.549728              1      0.9741712
      3679.0000         0.8312        71.5345       81.32011         0.8573       -76.2859      -1.479158              1      0.9753473
      3679.5000         0.8354        71.0649        80.6308         0.8583       -76.2354      -1.408459              1      0.9765257
      3680.0000         0.8395        70.5948       79.94077         0.8593       -76.1917      -1.347288      0.9987397      0.9775452
      3680.5000         0.8437        70.1252       79.25143         0.8603       -76.1515      -1.290999       0.984073      0.9784834
      3681.0000         0.8494        69.6552       78.56154         0.8613       -76.1113       -1.23472      0.9693944      0.9794213
      3681.5000         0.8555        69.1855       77.87208         0.8623       -76.0712       -1.17858      0.9547251       0.980357
      3682.0000         0.8616        69.0256       77.63794         0.8632        -76.031      -1.122301      0.9497434       0.981295
      3682.5000         0.8677        69.3865       78.16923         0.8642       -75.9907      -1.065883      0.9610474      0.9822353
      3683.0000         0.8738        69.7473       78.70038         0.8652       -75.9506      -1.009743      0.9723485      0.9831709
      3683.5000         0.8798        70.1084       79.23196         0.8662       -75.9104     -0.9534637      0.9836587      0.9841089
      3684.0000         0.8856        70.4738       79.76987          0.869       -75.8712      -0.898584      0.9951037      0.9850236
      3684.5000         0.8878        70.8392       80.30779         0.8745       -75.8335     -0.8458084              1      0.9859032
      3685.0000           0.89        71.2048       80.84599         0.8801       -75.7959      -0.793161              1      0.9867806
      3685.5000         0.8922        71.5703       81.38403         0.8856       -75.7582     -0.7403854              1      0.9876602
      3686.0000         0.8944        71.9357       81.92194         0.8912       -75.7206     -0.6877381              1      0.9885377
      3686.5000         0.8926        72.3013       82.46014         0.8967        -75.683     -0.6351013              1       0.989415
      3687.0000          0.888        72.6667       82.99805         0.9023       -75.6453     -0.5823258              1      0.9902946
      3687.5000         0.8834        73.0321       83.53595         0.9078       -75.6077     -0.5296783              1       0.991172
      3688.0000         0.8788        73.3975       84.07385         0.9134       -75.5699     -0.4767639              1      0.9920539
      3688.5000         0.8742        74.0145       84.98155         0.9189       -75.5392      -0.433783              1      0.9927703
      3689.0000         0.8687        74.9032       86.28856         0.9186       -75.5184     -0.4046661              1      0.9932556
      3689.5000         0.8607         74.798       86.13481         0.9173       -75.4977     -0.3756882              1      0.9937385
      3690.0000         0.8527        74.2881       85.38628         0.9161       -75.4768     -0.3464218              1      0.9942263
      3690.5000         0.8448        73.7784       84.63802         0.9148       -75.4561     -0.3174438              1      0.9947093
      3691.0000         0.8368         73.252       83.86523         0.9135       -75.4353      -0.288327              1      0.9951946
      3691.5000         0.8288        72.6887        83.0382         0.9123       -75.4146     -0.2593384              1      0.9956777
      3692.0000         0.8209         72.125       82.21059          0.911       -75.3937     -0.2300827              1      0.9961653
      3692.5000         0.8129        71.5618       81.38371         0.9097       -75.3729     -0.2009659              1      0.9966506
      3693.0000          0.805         70.998       80.55595         0.9085       -75.3777     -0.2076843              1      0.9965386
      3693.5000         0.7984        70.4348       79.72908         0.9072       -75.3895     -0.2242081      0.9942358      0.9962632
      3694.0000         0.8054        69.8711       78.90146         0.9049       -75.4012     -0.2405823      0.9766268      0.9959903
      3694.5000         0.8123        69.3079       78.07458         0.8999       -75.4131     -0.2572449      0.9590337      0.9957126
      3695.0000         0.8193        68.7441       77.24683         0.8949       -75.4249     -0.2737579      0.9414218      0.9954374
      3695.5000         0.8234        68.2037       76.45345         0.8899       -75.4366     -0.2901428      0.9245415      0.9951643
      3696.0000         0.8259        67.6672       75.66581         0.8849       -75.4485     -0.3068054      0.9077832      0.9948866
      3696.5000         0.8284        67.1311       74.87878         0.8799       -75.4602     -0.3231796      0.8910378      0.9946136
      3697.0000          0.831        66.7898       74.37802         0.8749        -75.472     -0.3397034      0.8803834      0.9943383
      3697.5000         0.8335        68.1024       76.30805         0.8699       -75.4839      -0.356366      0.9214479      0.9940606
      3698.0000         0.8357        69.2163       77.94606         0.8649       -75.4956     -0.3727402      0.9562991      0.9937876
      3698.5000         0.8317        69.8916       78.93942         0.8599       -75.5074     -0.3892639      0.9774345      0.9935123
      3699.0000         0.8276        70.5668       79.93266         0.8549       -75.5193     -0.4059265      0.9985672      0.9932346
      3699.5000         0.8235        71.2418       80.92558           0.85        -75.531     -0.4223007              1      0.9929616
      3700.0000         0.8194         71.917       81.91881         0.8466       -75.5428     -0.4388245              1      0.9926863
      3700.5000         0.8144        72.5923       82.91217         0.8433       -75.5476     -0.4455429              1      0.9925743
      3701.0000         0.8091        73.2676       83.90556           0.84       -75.5442     -0.4407791              1      0.9926537
      3701.5000         0.8039        73.9429       84.89893         0.8367       -75.5409     -0.4361649              1      0.9927306
      3702.0000         0.8001        74.6178       85.89171         0.8334       -75.5375     -0.4314011              1        0.99281
      3702.5000         0.7996         75.293       86.88494           0.83       -75.5341      -0.426648              1      0.9928892
      3703.0000         0.7991        75.9683       87.87831         0.8267       -75.5306     -0.4217453              1      0.9929709
