#------------------------------------------------------------------------------
# Created by    : vladimir.rabinovich
# Created on    : 09/19/2023 17:19:22
#------------------------------------------------------------------------------
~Version Information Section
VERS.           2.0     :   CWLS log ASCII Standard - VERSION 2.0
WRAP.           NO      :   One line per depth step
~Well Information Section
#MNEM       .UNIT                                         VALUE :DESCRIPTION
#------------------------------------------------------------------------------
STRT        .FT                                            2350 :START DEPTH
STOP        .FT                                            7008 :STOP DEPTH
STEP        .FT                                             0.5 :STEP      
NULL        .                                           -999.25 :NULL      
COMP        .                                  W&T OFFSHORE INC :COMPANY   
WELL        .                               OCS G04565 ST00BP00 :WELL      
FLD         .                              GALVESTON BLOCK 0303 :FIELD     
LOC         .                                                   :LOCATION  
CNTY        .                             GALVESTON LARGE BLOCK :LOCATION  
STAT        .                                             TEXAS :STATE     
CTRY        .                                     UNITED STATES :COUNTRY   
SRVC        .                                                   :SERVICE COMPANY
DATE        .                             9/13/2023 11:19:03 AM :LOG DATE  
API         .                                    42706403950000 :API NUMBER
UWI         .                                    42706403950000 :UNIQUE WELL ID
XCOORD      .                                  979190.041446607 :SURFACE X 
YCOORD      .                                   10483081.623763 :SURFACE Y 
LAT         .                                        28.8707847 :LATITUDE  
LON         .                                       -95.0663777 :LONGITUDE 
ELEV        .FT                                              91 :ELEVATION VALUE
ELEV_TYPE   .                                                KB :ELEVATION REFERENCE TYPE
~Curve Information Section
#MNEM       .UNIT                                      API CODE :CURVE DESCRIPTION
#------------------------------------------------------------------------------
DEPT        .FT                                                 :DEPTH     
AF20        .OHMM                                               :          
AFCO        .MMHO                                               :          
AO90        .OHMM                                               :          
AT10        .OHMM                                               :          
AT20        .OHMM                                               :          
AT30        .OHMM                                               :          
AT60        .OHMM                                               :          
AT90        .OHMM                                               :          
DCAL        .IN                                                 :          
DPHI        .%                                                  :          
DRHO        .G/C3                                               :          
GR          .GAPI                                               :          
GR_NORM     .GAPI                                               :GammaRay Normalized
GRN         .GAPI                                               :          
NPOR        .%                                                  :          
RWA         .OHMM                                               :          
SP          .MV                                                 :          
SP_NORM     .MV                                                 :SP Normalized
TENR        .LBF                                                :          
TPHI        .%                                                  :          
VSH_GR      .V/V                                                :Volume of Shale from GR
VSH_SP      .V/V                                                :Volume of Shale from SP
~A        DEPTH           AF20           AFCO           AO90           AT10           AT20           AT30           AT60           AT90           DCAL           DPHI           DRHO             GR        GR_NORM            GRN           NPOR            RWA             SP        SP_NORM           TENR           TPHI         VSH_GR         VSH_SP
# ...
      3406.0000            0.6       1886.793           0.53           0.81           0.63           0.53           0.46           0.47          3.025           34.2          -0.02           46.7        48.3697        -999.25          38.22           0.08          -35.4      -32.72694           1890        -999.25      0.3270148      0.4049647
      3406.5000           0.57       1960.783           0.51           0.77           0.59            0.5           0.44           0.45          1.525        39.9999          -0.03           40.9       43.15424        -999.25         37.452           0.11          -36.1      -33.42547           1890        -999.25      0.2160477      0.3922642
      3407.0000           0.55       2631.578           0.38            0.7           0.54           0.47           0.42           0.43          2.225        44.5999          -0.02           39.4       41.80878        -999.25        38.8201           0.11          -35.4        -32.724           1890        -999.25      0.1874208      0.4050182
      3407.5000           0.53           2500            0.4           0.65           0.51           0.45            0.4           0.41          2.825        45.2999          -0.01           37.9       40.46332        -999.25        41.2887           0.12          -35.2      -32.52253           1890        -999.25      0.1587941      0.4086814
      3408.0000           0.52           2500            0.4           0.64           0.51           0.44            0.4           0.41          3.825           46.2          -0.01           38.4       40.91786        -999.25        43.7829           0.12          -35.1      -32.42105           1960        -999.25      0.1684652      0.4105263
      3408.5000            0.5       2380.949           0.42           0.64           0.51           0.44            0.4           0.41          5.025        48.2999          -0.01           43.2        45.2424        -999.25        45.7222           0.14          -34.6      -31.91958           1960        -999.25      0.2604766      0.4196441
      3409.0000           0.48       2325.578           0.43           0.63            0.5           0.44            0.4           0.41          5.625           50.7          -0.02           46.1       47.85694        -999.25        45.8209           0.16          -33.9      -31.21811           1960        -999.25      0.3161051      0.4323981
      3409.5000           0.46       2439.023           0.41           0.61           0.49           0.43            0.4           0.41          4.725           49.2          -0.03           50.1       51.46148        -999.25         45.462           0.14          -33.3      -30.61663           1960        -999.25      0.3927975       0.443334
      3410.0000           0.45       2325.578           0.43           0.58           0.46           0.41           0.38           0.39          4.525           44.2          -0.03           43.3       45.34602        -999.25        42.9095           0.12          -35.3      -32.61516           1950        -999.25      0.2626813      0.4069971
      3410.5000           0.43       2702.699           0.37           0.53           0.42           0.38           0.35           0.36          3.125           38.2          -0.02             47       48.68056        -999.25        39.8038           0.08          -38.7      -36.01369           1950        -999.25       0.333629      0.3452057
      3411.0000           0.41       3225.805           0.31           0.49           0.39           0.35           0.33           0.34          3.825        36.9999          -0.02           46.5       48.23511        -999.25        41.0771           0.06          -39.6      -36.91221           1950        -999.25      0.3241512      0.3288689
      3411.5000            0.4       3225.805           0.31           0.48           0.38           0.34           0.31           0.32          5.125        38.4999          -0.01           48.2       49.76965        -999.25        45.9727           0.06          -40.4      -37.71074           1950        -999.25       0.356801      0.3143501
      3412.0000            0.4       3448.273           0.29           0.48           0.38           0.33            0.3           0.31          5.825           39.9          -0.01           42.1       44.28418        -999.25        46.6198           0.06          -40.3      -37.60927           1970        -999.25       0.240089      0.3161951
      3412.5000            0.4       3571.426           0.28           0.49           0.38           0.33            0.3           0.31          5.225        40.0999              0           40.9       43.20872        -999.25        45.1436           0.06            -40      -37.30779           1970        -999.25      0.2172069      0.3216765
      3413.0000            0.4       3571.426           0.28           0.51            0.4           0.34           0.31           0.32          5.825           41.7          -0.01             43       45.10327        -999.25        45.6846           0.07          -38.8      -36.10632           1970        -999.25      0.2575163      0.3435215
      3413.5000           0.41       3225.805           0.31           0.55           0.42           0.36           0.32           0.33          5.725           48.1          -0.03             42       44.20781        -999.25        48.8046            0.1          -37.9      -35.20485           1970        -999.25       0.238464      0.3599118
      3414.0000           0.41       3030.301           0.33           0.58           0.43           0.37           0.34           0.34          4.825        51.6999          -0.04           45.4       47.27235        -999.25        49.4997           0.13          -38.6      -35.90337           1925        -999.25      0.3036669      0.3472114
      3414.5000           0.41       2941.176           0.34           0.59           0.44           0.37           0.34           0.34          4.225           49.7          -0.03           42.7       44.84689        -999.25        46.8715           0.12          -40.1       -37.4019           1925        -999.25      0.2520615      0.3199654
      3415.0000           0.41       3225.805           0.31           0.56           0.42           0.36           0.32           0.33          3.425           43.2          -0.01           43.5       45.57143        -999.25        44.4598           0.08          -41.9      -39.20043           1925        -999.25      0.2674772      0.2872649
      3415.5000            0.4           4000           0.25           0.52           0.39           0.34           0.31           0.31          4.025        39.2999           0.01           35.5       38.37597        -999.25        45.6365           0.05          -42.9      -40.19896           1925        -999.25      0.1143823      0.2691098
      3416.0000            0.4       3846.152           0.26           0.51           0.39           0.33            0.3            0.3          4.725           39.6           0.02           34.1       37.12051        -999.25         47.928           0.06          -43.2      -40.49748           1930        -999.25     0.08767035      0.2636821
      3416.5000           0.39       3703.703           0.27           0.52           0.39           0.33           0.29            0.3          5.725        39.4999           0.02           34.6       37.57505        -999.25        47.2676           0.06          -44.4      -41.69601           1930        -999.25      0.0973415      0.2418907
      3417.0000           0.39       3846.152           0.26           0.53           0.39           0.33           0.29            0.3          6.025        40.0999           0.01           33.5       36.58959        -999.25        45.6598           0.06          -44.9      -42.19454           1930        -999.25      0.0763743      0.2328266
      3417.5000           0.38       3846.152           0.26           0.54            0.4           0.34           0.29            0.3          6.325           41.6          -0.01           36.3       39.11413        -999.25        45.3722           0.06          -45.6      -42.89306           1930        -999.25      0.1300878      0.2201261
