#------------------------------------------------------------------------------
# Created by    : vladimir.rabinovich
# Created on    : 09/19/2023 17:22:25
#------------------------------------------------------------------------------
~Version Information Section
VERS.           2.0     :   CWLS log ASCII Standard - VERSION 2.0
WRAP.           NO      :   One line per depth step
~Well Information Section
#MNEM       .UNIT                                         VALUE :DESCRIPTION
#------------------------------------------------------------------------------
STRT        .FT                                            3984 :START DEPTH
STOP        .FT                                           14348 :STOP DEPTH
STEP        .FT                                             0.5 :STEP      
NULL        .                                           -999.25 :NULL      
COMP        .                                  CNG PRODUCING CO :COMPANY   
WELL        .                               OCS G07292 ST00BP00 :WELL      
FLD         .                                           WILDCAT :FIELD     
LOC         .                                                   :LOCATION  
CNTY        .                           HIGH ISLAND LARGE BLOCK :LOCATION  
STAT        .                                             TEXAS :STATE     
CTRY        .                                     UNITED STATES :COUNTRY   
SRVC        .                                                   :SERVICE COMPANY
DATE        .                             9/13/2023 11:19:59 AM :LOG DATE  
API         .                                    42708402890000 :API NUMBER
UWI         .                                    42708402890000 :UNIQUE WELL ID
XCOORD      .                                  1158246.84135722 :SURFACE X 
YCOORD      .                                  10525039.0147689 :SURFACE Y 
LAT         .                                         28.993597 :LATITUDE  
LON         .                                        -94.508673 :LONGITUDE 
ELEV        .FT                                             101 :ELEVATION VALUE
ELEV_TYPE   .                                                KB :ELEVATION REFERENCE TYPE
~Curve Information Section
#MNEM       .UNIT                                      API CODE :CURVE DESCRIPTION
#------------------------------------------------------------------------------
DEPT        .FT                                                 :DEPTH     
CALX        .IN                                                 :          
DTL         .US/F                                               :          
GR          .GAPI                                               :          
GR_NORM     .GAPI                                               :GammaRay Normalized
ILD         .OHMM                                               :          
ILM         .OHMM                                               :          
LL3         .OHMM                                               :          
SP          .MV                                                 :          
SP_NORM     .MV                                                 :SP Normalized
VSH_GR      .V/V                                                :Volume of Shale from GR
VSH_SP      .V/V                                                :Volume of Shale from SP
~A        DEPTH           CALX            DTL             GR        GR_NORM            ILD            ILM            LL3             SP        SP_NORM         VSH_GR         VSH_SP
# ...
      6031.5000        15.0806       105.9573        43.6153       73.00243         1.1688         1.5147          1.373       -62.8446      -26.16344      0.8511156      0.6262366
      6032.0000        -999.25       105.8383        44.5568       74.79578         1.1897         1.5304         1.4506       -64.6224      -27.94277      0.8892719      0.6008176
      6032.5000        -999.25       106.2198        43.3137       72.42798         1.1913         1.5493         1.3837       -64.6183       -27.9402      0.8388932      0.6008543
      6033.0000        -999.25       106.8848        41.8218       69.58625         1.1855         1.5534         1.3481       -63.0818      -26.40523      0.7784309      0.6227824
      6033.5000        -999.25       107.6396        40.9642       67.95273         1.1758         1.5382         1.3726       -62.7335      -26.05846      0.7436751      0.6277362
      6034.0000        -999.25       108.3347        41.1946       68.39157         1.1619         1.5213         1.4028       -62.6818      -26.00829      0.7530121       0.628453
      6034.5000        -999.25        108.902        42.2926       70.48302         1.1499         1.5043          1.384       -61.8602      -25.18822       0.797511      0.6401682
      6035.0000        -999.25       109.2014        43.3868        72.5672         1.1415         1.4926         1.3634       -65.2489      -28.57846      0.8418553      0.5917363
      6035.5000        -999.25       108.4877        44.3184       74.34169         1.1416         1.4924         1.3586       -64.7629      -28.09399      0.8796104      0.5986573
      6036.0000        -999.25       107.0421        43.9308        73.6034         1.1451         1.5088         1.3527       -62.5613      -25.89392      0.8639022      0.6300869
      6036.5000        -999.25       105.9441        43.5301       72.84016         1.1436         1.5157         1.3459       -66.2271      -29.56124       0.847663      0.5776965
      6037.0000        -999.25       105.6052        43.1641       72.14302         1.1399         1.5146         1.3596       -68.5316      -31.86728      0.8328303      0.5447531
      6037.5000        -999.25       105.8741        42.7078       71.27387         1.1411         1.5024         1.3979       -68.2622      -31.59941      0.8143377      0.5485799
      6038.0000        15.0393       106.6449        42.1424       70.19691         1.1388         1.4864          1.443       -68.8472      -32.18594      0.7914236      0.5402008
      6038.5000        15.0397       107.4967        41.5309       69.03216         1.1281         1.4675          1.346       -70.8792      -34.21948      0.7666417      0.5111503
      6039.0000        15.0398       108.2925        40.2227       66.54036          1.102         1.4478         1.3267       -72.0422        -35.384      0.7136247      0.4945143
      6039.5000        15.0368       108.4124        38.6489       63.54263         1.0734         1.4394         1.3342       -73.3782      -36.72153      0.6498433      0.4754066
      6040.0000        15.0332       108.4009        37.0826        60.5592         1.0449         1.4336         1.3328        -75.241      -38.58587      0.5863661      0.4487734
      6040.5000        15.0374       108.9788         35.953       58.40759         1.0153          1.421         1.3378       -75.7657       -39.1121      0.5405869      0.4412557
      6041.0000        15.0505       109.9181        35.8385       58.18949         0.9826         1.4104         1.3179       -76.2255      -39.57343      0.5359466      0.4346652
      6041.5000        14.9419       110.3073        35.6567        57.8432         0.9535         1.3863         1.3097       -78.9288      -42.27826      0.5285788      0.3960248
      6042.0000         14.849        110.578        35.3746       57.30587         0.9323         1.3613         1.4015       -84.5175       -47.8685      0.5171462      0.3161643
      6042.5000        14.8391       110.0983         35.381       57.31806         0.9246         1.3449         1.4772       -82.3138      -45.66632      0.5174056       0.347624
      6043.0000        14.8278       109.2369        35.6375       57.80664         0.9272          1.332         1.4715        -85.507      -48.86106      0.5278008      0.3019849
      6043.5000        14.8175       108.1136        36.2004       58.87883         0.9342         1.3393         1.3786       -80.0824      -43.43798      0.5506134      0.3794574
      6044.0000        14.8374       106.8206        35.3005       57.16473         0.9521         1.3791         1.4059       -78.4189      -41.77602      0.5141432      0.4031998
      6044.5000        14.8483       105.9227        34.4208       55.48911         0.9765         1.3989         1.4518       -79.7228      -43.08145      0.4784917      0.3845507
      6045.0000        14.8557       104.8008        34.5748       55.78244         0.9953         1.4138         1.4312       -77.5229      -40.88308      0.4847328       0.415956
      6045.5000        14.8641       103.5541        36.6876       59.80682         1.0232         1.4254         1.4371       -78.2133      -41.57501       0.570358      0.4060712
      6046.0000        14.8658       102.3868        38.3232       62.92226         1.0453         1.4419          1.421       -76.9196      -40.28284      0.6366438      0.4245308
      6046.5000        14.7329       100.9941        38.6426       63.53063         1.0554         1.4616         1.4128        -77.798      -41.16277      0.6495879      0.4119605
      6047.0000        14.4715       100.1222        37.6121       61.56778         1.0666         1.4674         1.4024        -81.532       -44.8983       0.607825      0.3585957
      6047.5000        14.3266        100.272         37.205       60.79235         1.0669         1.4688         1.4478       -81.6392      -45.00703      0.5913267      0.3570424
      6048.0000        14.2909       102.0267        36.8605       60.13616         1.0703         1.4789         1.5574       -81.5856      -44.95497      0.5773652      0.3577862
      6048.5000        14.2463       105.4089        36.7631       59.95064         1.0794         1.4742         1.5214       -82.3798       -45.7507      0.5734178      0.3464186
      6049.0000        14.1946       109.2697        37.4221       61.20587          1.088          1.463          1.426       -81.3599      -44.73233       0.600125      0.3609667
      6049.5000        14.1561       111.8611        38.5479       63.35026         1.0736         1.4571         1.4075       -82.0741      -45.44806      0.6457502      0.3507421
      6050.0000        14.1209       112.7174        39.8782       65.88416         1.0429          1.454         1.3496       -85.1587      -48.53419       0.699663      0.3066544
      6050.5000        14.1072       112.3213        38.6792       63.60035         0.9824         1.4179         1.2761         -89.33      -52.70702      0.6510712      0.2470425
      6051.0000        14.1211       110.5162        37.1634       60.71311         0.9359          1.384         1.3675       -89.4241      -52.80266      0.5896406      0.2456763
      6051.5000        14.1344       107.2473        36.3159       59.09883         0.8858         1.3334         1.4544       -91.0313      -54.41139      0.5552942      0.2226945
      6052.0000        14.1486       103.8374        36.3676        59.1973         0.8467         1.2931         1.4577       -91.5449      -54.92651      0.5573894      0.2153355
      6052.5000        14.1752       103.1776        36.8327       60.08321         0.8175         1.2649         1.4636       -87.8167      -51.19985      0.5762385      0.2685736
      6053.0000        14.2163       106.0737        37.2268       60.83387         0.8013          1.245         1.4441       -85.2318      -48.61647        0.59221      0.3054789
      6053.5000        14.2482       108.2749        37.2018       60.78625         0.7966         1.2344         1.3374       -83.2384      -46.62461      0.5911969      0.3339341
