#------------------------------------------------------------------------------
# Created by    : vladimir.rabinovich
# Created on    : 09/19/2023 17:20:02
#------------------------------------------------------------------------------
~Version Information Section
VERS.           2.0     :   CWLS log ASCII Standard - VERSION 2.0
WRAP.           NO      :   One line per depth step
~Well Information Section
#MNEM       .UNIT                                         VALUE :DESCRIPTION
#------------------------------------------------------------------------------
STRT        .FT                                             994 :START DEPTH
STOP        .FT                                           14137 :STOP DEPTH
STEP        .FT                                             0.5 :STEP      
NULL        .                                           -999.25 :NULL      
COMP        .                                   MARATHON OIL CO :COMPANY   
WELL        .                                     ST TR 00841-L :WELL      
FLD         .                                           WILDCAT :FIELD     
LOC         .                                                   :LOCATION  
CNTY        .                        MUSTANG ISLAND LARGE BLOCK :LOCATION  
STAT        .                                             TEXAS :STATE     
CTRY        .                                     UNITED STATES :COUNTRY   
SRVC        .                                                   :SERVICE COMPANY
DATE        .                             9/13/2023 11:18:55 AM :LOG DATE  
API         .                                    42702301400000 :API NUMBER
UWI         .                                    42702301400000 :UNIQUE WELL ID
XCOORD      .                                  272565.632686387 :SURFACE X 
YCOORD      .                                  9953986.84876921 :SURFACE Y 
LAT         .                                         27.367086 :LATITUDE  
LON         .                                       -97.2136853 :LONGITUDE 
ELEV        .FT                                              88 :ELEVATION VALUE
ELEV_TYPE   .                                                KB :ELEVATION REFERENCE TYPE
~Curve Information Section
#MNEM       .UNIT                                      API CODE :CURVE DESCRIPTION
#------------------------------------------------------------------------------
DEPT        .FT                                                 :DEPTH     
ASFL        .OHMM                                               :          
CILD        .MMHO                                               :          
GR          .GAPI                                               :          
GR_NORM     .GAPI                                               :GammaRay Normalized
ILD         .OHMM                                               :          
SP          .MV                                                 :          
SP_NORM     .MV                                                 :SP Normalized
VSH_GR      .V/V                                                :Volume of Shale from GR
VSH_SP      .V/V                                                :Volume of Shale from SP
~A        DEPTH           ASFL           CILD             GR        GR_NORM            ILD             SP        SP_NORM         VSH_GR         VSH_SP
# ...
      2743.0000         0.6645       1924.814        36.6932       56.26077         0.5024       -58.9106      -8.910599        0.49491      0.7272207
      2743.5000         0.6632       1845.143        38.4135       59.07571         0.5298       -57.2429      -7.242901      0.5548022      0.7847276
      2744.0000         0.6705       1727.443        39.6954       61.17142          0.556       -57.2615      -7.261501      0.5993919      0.7840862
      2744.5000         0.6814       1612.818        40.9474       63.21812         0.5769       -57.2802      -7.280201      0.6429388      0.7834414
      2745.0000         0.6923       1510.834        42.1741        65.2233         0.5978       -57.5876      -7.587601      0.6856021      0.7728413
      2745.5000         0.7029       1522.635        40.2617       62.07878         0.6186       -58.6047      -8.604698      0.6186975       0.737769
      2746.0000         0.7033       1580.467        37.9167       58.22458         0.6395       -59.6429      -9.642899      0.5366931       0.701969
      2746.5000         0.7035       1638.275        35.7048       54.58871         0.6533       -60.6812       -10.6812      0.4593343      0.6661656
      2747.0000         0.7024       1696.084        33.8235        51.4952         0.6521         -61.72         -11.72       0.393515      0.6303448
      2747.5000         0.6993       1753.918        31.9479       48.41105         0.6508       -62.5754       -12.5754      0.3278946      0.6008483
      2748.0000         0.6961       1811.727        30.1948       45.52785         0.6496       -63.4054       -13.4054      0.2665499      0.5722276
      2748.5000         0.6929       1869.559        28.4422       42.64547         0.6484       -64.2354       -14.2354      0.2052228       0.543607
      2749.0000         0.6897       1927.367        28.5355       42.79131         0.6354       -65.2585       -15.2585      0.2083257      0.5083276
      2749.5000         0.6839       1985.201        33.1185       50.30251         0.5989       -66.3068       -16.3068      0.3681385      0.4721793
      2750.0000         0.6703        2043.01        41.7923       64.52468         0.5625       -65.9108       -15.9108      0.6707379      0.4858346
      2750.5000         0.6567       1740.631        45.4883       70.58075          0.526       -65.2913       -15.2913      0.7995904      0.5071966
      2751.0000         0.6424       1672.387         43.985       68.10738         0.4895       -64.6718       -14.6718      0.7469655      0.5285587
      2751.5000         0.6281       1629.996        42.4774       65.62693         0.4529       -64.4283       -14.4283        0.69419      0.5369552
      2752.0000         0.6142       1630.154        39.5468       60.81202         0.4381       -65.0867       -15.0867      0.5917452      0.5142517
      2752.5000         0.6038       1630.313        36.3314       55.52993         0.4459       -65.7454       -15.7454      0.4793601       0.491538
      2753.0000          0.604       1630.473        33.0067        50.0685         0.4551       -66.4037       -16.4037      0.3631597      0.4688379
      2753.5000         0.6127       1630.631         31.642       47.82249          0.479       -67.4463       -17.4463      0.3153721      0.4328863
      2754.0000         0.6214       1636.975        30.2774       45.57663         0.5029       -68.5168       -18.5168      0.2675878      0.3959724
      2754.5000         0.6301       1654.129        29.2321       43.85459         0.5268        -69.252        -19.252      0.2309487      0.3706207
      2755.0000         0.6388       1671.289        28.3546       42.40782         0.5507       -69.9872       -19.9872      0.2001664       0.345269
      2755.5000         0.6496        1699.68        27.4171       40.86261         0.5744       -70.1797       -20.1797      0.1672897      0.3386309
      2756.0000         0.6682       1730.145        26.3969       39.18174         0.5801       -70.3654       -20.3654      0.1315265      0.3322275
      2756.5000         0.6868        1765.42        25.7601       38.12985         0.5858       -70.5508       -20.5508      0.1091457      0.3258346
      2757.0000         0.6784       1808.453        25.3989       37.53007         0.5915       -70.9269       -20.9269     0.09638441      0.3128654
      2757.5000         0.6646       1857.438        25.0377       36.93029         0.5972       -71.8618       -21.8618     0.08362328      0.2806275
      2758.0000         0.6432       1937.109        24.6766       36.33068         0.6029       -72.6095       -22.6095     0.07086555      0.2548449
      2758.5000         0.6217       2063.086        24.5666         36.143          0.587       -73.2252       -23.2252     0.06687229      0.2336139
      2759.0000         0.6002       2193.379        24.4841       36.00043         0.5656       -73.7991       -23.7991     0.06383888       0.213824
      2759.5000         0.5843       2385.742        24.4016       35.85786         0.5442       -74.2805       -24.2805     0.06080554      0.1972241
      2760.0000         0.5697       2496.328        24.7102       36.35689         0.5228       -74.8099       -24.8099     0.07142314       0.178969
      2760.5000         0.5685       2520.313        25.7969        38.1324         0.5014       -75.4146       -25.4146      0.1092001      0.1581174
      2761.0000         0.5731       2470.078        26.8836        39.9079         0.4643        -76.019        -26.019      0.1469766       0.137276
      2761.5000         0.5777       2405.129        27.8009       41.40551         0.4104       -76.4846       -26.4846      0.1788406      0.1212208
      2762.0000         0.5839       2317.176        28.6489       42.78943         0.3565       -76.5353       -26.5353      0.2082858      0.1194724
      2762.5000         0.5922        2263.73        29.4966       44.17286         0.3142       -76.0909       -26.0909      0.2377205      0.1347967
      2763.0000         0.6005       2216.086        30.3477       45.56187         0.3156       -75.6467       -25.6467      0.2672738      0.1501139
      2763.5000         0.6088       2168.418        31.2519       47.03798         0.3173       -74.3167       -24.3167      0.2986804      0.1959757
      2764.0000         0.6171       2120.773        32.1558        48.5136         0.3412       -66.3864       -16.3864      0.3300766      0.4694345
      2764.5000          0.626       2073.129        33.6855       51.01585         0.3651       -64.9797       -14.9797       0.383316      0.5179414
      2765.0000         0.6364       1764.801         36.268       55.24524          0.389       -64.6184       -14.6184       0.473303         0.5304
      2765.5000         0.6469       1703.943        35.9958       54.79145         0.4129       -64.2571       -14.2571       0.463648      0.5428585
      2766.0000         0.6573       1647.994         35.667       54.24483         0.4368       -63.8959       -13.8959      0.4520176      0.5553138
      2766.5000         0.6677       1627.396        35.9805        54.7519         0.4581       -62.0818       -12.0818      0.4628064       0.617869
      2767.0000         0.6804       1619.746         36.637       55.82167         0.4793        -59.007         -9.007      0.4855675      0.7238966
      2767.5000         0.6806       1612.096        37.3976        57.0622         0.5005       -55.9321      -5.932098      0.5119617      0.8299276
      2768.0000         0.6497       1597.783        38.9021       59.52312         0.5217       -52.8572      -2.857201      0.5643217      0.9359586
      2768.5000         0.6312        1566.76         40.774       62.58675         0.5424       -49.7823       0.217701      0.6295054              1
      2769.0000           0.64       1535.736        43.6885       67.36077          0.563       -51.2644        -1.2644      0.7310802      0.9908828
