#------------------------------------------------------------------------------
# Created by    : vladimir.rabinovich
# Created on    : 09/19/2023 17:21:40
#------------------------------------------------------------------------------
~Version Information Section
VERS.           2.0     :   CWLS log ASCII Standard - VERSION 2.0
WRAP.           NO      :   One line per depth step
~Well Information Section
#MNEM       .UNIT                                         VALUE :DESCRIPTION
#------------------------------------------------------------------------------
STRT        .FT                                             957 :START DEPTH
STOP        .FT                                           10053 :STOP DEPTH
STEP        .FT                                             0.5 :STEP      
NULL        .                                           -999.25 :NULL      
COMP        .                                    EXXON CO U S A :COMPANY   
WELL        .                               OCS G03237 ST00BP00 :WELL      
FLD         .                                           WILDCAT :FIELD     
LOC         .                                                   :LOCATION  
CNTY        .                           HIGH ISLAND LARGE BLOCK :LOCATION  
STAT        .                                             TEXAS :STATE     
CTRY        .                                     UNITED STATES :COUNTRY   
SRVC        .                                                   :SERVICE COMPANY
DATE        .                             9/13/2023 11:20:04 AM :LOG DATE  
API         .                                    42708400420000 :API NUMBER
UWI         .                                    42708400420000 :UNIQUE WELL ID
XCOORD      .                                  1163347.66403634 :SURFACE X 
YCOORD      .                                  10583934.5995257 :SURFACE Y 
LAT         .                                         29.155753 :LATITUDE  
LON         .                                        -94.495054 :LONGITUDE 
ELEV        .FT                                              94 :ELEVATION VALUE
ELEV_TYPE   .                                                KB :ELEVATION REFERENCE TYPE
~Curve Information Section
#MNEM       .UNIT                                      API CODE :CURVE DESCRIPTION
#------------------------------------------------------------------------------
DEPT        .FT                                                 :DEPTH     
CALI        .IN                                                 :          
DRHO        .G/C3                                               :          
DT          .US/F                                               :          
GR          .GAPI                                               :          
GR_1        .GAPI                                               :          
GR_NORM     .GAPI                                               :GammaRay Normalized
ILD         .OHMM                                               :          
NPHI        .%                                                  :          
RHOB        .G/C3                                               :          
SFL         .OHMM                                               :          
SP          .MV                                                 :          
SP_NORM     .MV                                                 :SP Normalized
VSH_GR      .V/V                                                :Volume of Shale from GR
VSH_SP      .V/V                                                :Volume of Shale from SP
~A        DEPTH           CALI           DRHO             DT             GR           GR_1        GR_NORM            ILD           NPHI           RHOB            SFL             SP        SP_NORM         VSH_GR         VSH_SP
# ...
      4071.0000        -999.25        -999.25        -999.25        -999.25        33.8859       33.88627         0.2642        -999.25        -999.25         0.6858       -98.0907      -40.59919     0.01885686     0.03416611
      4071.5000        -999.25        -999.25        -999.25        -999.25        33.1948       33.31762         0.2663        -999.25        -999.25          0.674       -99.2673      -41.78007    0.006757858    0.005364116
      4072.0000        -999.25        -999.25        -999.25        -999.25        33.1535       33.28268         0.2686        -999.25        -999.25         0.6671       -99.7611      -42.27814     0.00601456              0
      4072.5000        -999.25        -999.25        -999.25        -999.25        34.1537       34.10319         0.2686        -999.25        -999.25         0.6759        -99.792      -42.31332     0.02347216              0
      4073.0000        -999.25        -999.25        -999.25        -999.25        36.3567       35.91161         0.2684        -999.25        -999.25         0.7075      -100.6683       -43.1939     0.06194906              0
      4073.5000        -999.25        -999.25        -999.25        -999.25        37.1765       36.58394         0.2698        -999.25        -999.25         0.7462      -101.2306      -43.76048     0.07625401              0
      4074.0000        -999.25        -999.25        -999.25        -999.25        37.5676       36.90416         0.2708        -999.25        -999.25         0.7832      -100.4067      -42.94085     0.08306714              0
      4074.5000        -999.25        -999.25        -999.25        -999.25        37.5889       36.92064          0.272        -999.25        -999.25         0.7575       -98.3578      -40.89623     0.08341777     0.02692116
      4075.0000        -999.25        -999.25        -999.25        -999.25        37.3948       36.76019         0.2736        -999.25        -999.25          0.695       -98.6962       -41.2389      0.0800041     0.01856334
      4075.5000        -999.25        -999.25        -999.25        -999.25        37.0721       36.49413         0.2745        -999.25        -999.25         0.6472       -99.0598      -41.60678     0.07434317    0.009590707
      4076.0000        -999.25        -999.25        -999.25        -999.25        35.5901       35.27587         0.2744        -999.25        -999.25         0.6376       -98.9266      -41.47786     0.04842271     0.01273523
      4076.5000        -999.25        -999.25        -999.25        -999.25        35.1531       34.91591         0.2729        -999.25        -999.25         0.6539       -98.3473      -40.90283     0.04076402     0.02676019
      4077.0000        -999.25        -999.25        -999.25        -999.25        35.1367       34.90143         0.2692        -999.25        -999.25           0.68       -98.2656      -40.82541     0.04045592     0.02864847
      4077.5000        -999.25        -999.25        -999.25        -999.25        35.1063       34.87544         0.2663        -999.25        -999.25         0.7035        -98.661      -41.22509     0.03990303     0.01890015
      4078.0000        -999.25        -999.25        -999.25        -999.25        35.1545       34.91402         0.2618        -999.25        -999.25         0.7198       -98.8468      -41.41517     0.04072384     0.01426418
      4078.5000        -999.25        -999.25        -999.25        -999.25        34.9817       34.77108         0.2575        -999.25        -999.25         0.7344       -98.6667      -41.23935     0.03768247     0.01855255
      4079.0000        -999.25        -999.25        -999.25        -999.25        34.6377       34.48751         0.2546        -999.25        -999.25         0.7546       -98.4359      -41.01282     0.03164908     0.02407762
      4079.5000        -999.25        -999.25        -999.25        -999.25        34.1926       34.12091          0.252        -999.25        -999.25         0.7619       -98.3818      -40.96299     0.02384908     0.02529284
      4080.0000        -999.25        -999.25        -999.25        -999.25        33.8154       33.81008         0.2477        -999.25        -999.25         0.7327       -98.6047      -41.19017     0.01723569     0.01975194
      4080.5000        -999.25        -999.25        -999.25        -999.25        33.8376        33.8273         0.2458        -999.25        -999.25         0.7035       -98.7522      -41.34195     0.01760207     0.01605011
      4081.0000        -999.25        -999.25        -999.25        -999.25        34.1472       34.08057         0.2436        -999.25        -999.25          0.693       -98.8215      -41.41553     0.02299086     0.01425543
      4081.5000        -999.25        -999.25        -999.25        -999.25        34.5442       34.40564         0.2398        -999.25        -999.25          0.695       -98.7422       -41.3405     0.02990714     0.01608528
      4082.0000        -999.25        -999.25        -999.25        -999.25        35.2993       35.02482         0.2356        -999.25        -999.25         0.6993       -98.5403      -41.14288     0.04308132     0.02090538
      4082.5000        -999.25        -999.25        -999.25        -999.25        36.2884       35.83621         0.2342        -999.25        -999.25         0.6946        -98.254      -40.86086     0.06034494     0.02778402
      4083.0000        -999.25        -999.25        -999.25        -999.25        36.9997       36.41941         0.2341        -999.25        -999.25         0.6638       -97.3638      -39.97493      0.0727535     0.04939186
      4083.5000        -999.25        -999.25        -999.25        -999.25        37.2897       36.65659         0.2348        -999.25        -999.25         0.6133       -96.0852      -38.70061     0.07779986     0.08047299
      4084.0000        -999.25        -999.25        -999.25        -999.25        37.2234       36.60112         0.2351        -999.25        -999.25         0.5775       -95.8516      -38.47129     0.07661965     0.08606618
      4084.5000        -999.25        -999.25        -999.25        -999.25        36.7316       36.19617         0.2363        -999.25        -999.25         0.5788       -95.7552      -38.37917     0.06800355     0.08831304
      4085.0000        -999.25        -999.25        -999.25        -999.25        36.3712       35.89913         0.2399        -999.25        -999.25         0.5936       -94.5992      -37.22744     0.06168365       0.116404
      4085.5000        -999.25        -999.25        -999.25        -999.25         36.863       36.30206         0.2461        -999.25        -999.25         0.5943       -94.2606      -36.89311     0.07025658      0.1245582
      4086.0000        -999.25        -999.25        -999.25        -999.25        37.8701       37.12823         0.2518        -999.25        -999.25         0.5668       -94.3271      -36.96389     0.08783478      0.1228319
      4086.5000        -999.25        -999.25        -999.25        -999.25         38.434       37.59037         0.2593        -999.25        -999.25         0.5659       -94.3348      -36.97587     0.09766753      0.1225397
      4087.0000        -999.25        -999.25        -999.25        -999.25        38.0037       37.23592         0.2647        -999.25        -999.25         0.5848       -94.5424      -37.18774     0.09012604      0.1173721
      4087.5000        -999.25        -999.25        -999.25        -999.25        37.3066       36.66234         0.2692        -999.25        -999.25         0.5998       -94.8909      -37.54052     0.07792217      0.1087677
      4088.0000        -999.25        -999.25        -999.25        -999.25        37.4762       36.80063         0.2716        -999.25        -999.25          0.611       -95.5143       -38.1682     0.08086452     0.09345859
      4088.5000        -999.25        -999.25        -999.25        -999.25        38.3348       37.50483         0.2732        -999.25        -999.25         0.6244       -96.9606      -39.61878     0.09584752     0.05807858
