#------------------------------------------------------------------------------
# Created by    : vladimir.rabinovich
# Created on    : 09/19/2023 17:20:09
#------------------------------------------------------------------------------
~Version Information Section
VERS.           2.0     :   CWLS log ASCII Standard - VERSION 2.0
WRAP.           NO      :   One line per depth step
~Well Information Section
#MNEM       .UNIT                                         VALUE :DESCRIPTION
#------------------------------------------------------------------------------
STRT        .FT                                             880 :START DEPTH
STOP        .FT                                           10998 :STOP DEPTH
STEP        .FT                                             0.5 :STEP      
NULL        .                                           -999.25 :NULL      
COMP        .                        HUGHES TEXAS PETROLEUM LTD :COMPANY   
WELL        .                                ST TR 00564-L NE/4 :WELL      
FLD         .                       MATAGORDA ISLAND BLOCK 0565 :FIELD     
LOC         .                                                   :LOCATION  
CNTY        .                      MATAGORDA ISLAND LARGE BLOCK :LOCATION  
STAT        .                                             TEXAS :STATE     
CTRY        .                                     UNITED STATES :COUNTRY   
SRVC        .                                                   :SERVICE COMPANY
DATE        .                             9/13/2023 11:12:01 AM :LOG DATE  
API         .                                    42703303560000 :API NUMBER
UWI         .                                    42703303560000 :UNIQUE WELL ID
XCOORD      .                                  580856.659723482 :SURFACE X 
YCOORD      .                                  10268633.8274002 :SURFACE Y 
LAT         .                                         28.256926 :LATITUDE  
LON         .                                       -96.2914173 :LONGITUDE 
ELEV        .FT                                              25 :ELEVATION VALUE
ELEV_TYPE   .                                                KB :ELEVATION REFERENCE TYPE
~Curve Information Section
#MNEM       .UNIT                                      API CODE :CURVE DESCRIPTION
#------------------------------------------------------------------------------
DEPT        .FT                                                 :DEPTH     
ASFL        .OHMM                                               :          
GR          .GAPI                                               :          
GR_NORM     .GAPI                                               :GammaRay Normalized
ILD         .OHMM                                               :          
SP          .MV                                                 :          
SP_NORM     .MV                                                 :SP Normalized
VSH_GR      .V/V                                                :Volume of Shale from GR
VSH_SP      .V/V                                                :Volume of Shale from SP
~A        DEPTH           ASFL             GR        GR_NORM            ILD             SP        SP_NORM         VSH_GR         VSH_SP
# ...
      4980.5000         1.5334        26.2815       31.80136         0.6319       -80.7102      -35.06637              0              0
      4981.0000         1.5528        26.6928       32.57264         0.6286       -80.3772      -34.71795              0              0
      4981.5000         1.5847        27.5919       34.24961         0.6254       -79.5116      -33.83693     0.02658739              0
      4982.0000         1.6166        28.4916       35.92766         0.6222       -78.3745       -32.6844     0.06229068              0
      4982.5000         1.6263        29.3907       37.60462         0.6202       -77.2386      -31.53308     0.09797068      0.0150619
      4983.0000         1.5514        30.2797       39.26281         0.6579        -75.774      -30.05306      0.1332512     0.06280456
      4983.5000         1.5064        30.9816       40.57364         0.6956       -74.1216      -28.38523      0.1611412      0.1166055
      4984.0000          1.472        29.8242       38.43247         0.7333       -72.4692      -26.71741      0.1155844      0.1704062
      4984.5000         1.4443        28.6656       36.28905         0.7827       -69.2686      -23.50138     0.06997989      0.2741489
      4985.0000         1.4342        27.5758        34.2734         0.9134       -64.4189      -18.63626     0.02709352      0.4310884
      4985.5000         1.5913        26.7047       32.66377         1.0919       -62.4318      -16.63374              0      0.4956858
      4986.0000         1.9853        25.8337       31.05432         1.2668       -61.2027      -15.38921              0      0.5358318
      4986.5000         2.2424        27.7354       34.59271          1.411       -59.9736      -14.14469      0.0338875      0.5759778
      4987.0000         2.4017        29.7082       38.26311          1.555       -58.7457      -12.90137      0.1119812      0.6160849
      4987.5000         2.5545        31.4168       41.44299         1.6801       -57.7114      -11.85164      0.1796381       0.649947
      4988.0000         2.7626        32.1371       42.78798          1.804       -57.4564      -11.58122       0.208255      0.6586704
      4988.5000         2.7131        32.8575       44.13314         1.8944       -57.8875      -11.99689      0.2368754      0.6452615
      4989.0000         2.6048        33.5785       45.47943         1.9603       -58.9764      -13.07037      0.2655197      0.6106333
      4989.5000         2.4827        34.2989        46.8246         1.9227       -61.1238      -15.20234      0.2941405      0.5418599
      4990.0000         2.3072        34.8315       47.82111         1.5502       -63.5151      -17.57822      0.3153428      0.4652187
      4990.5000         2.1532         35.235       48.57792         1.3562       -67.0088       -21.0565      0.3314451      0.3530163
      4991.0000         2.1907        35.5241       49.12235          1.268       -68.6716      -22.70388      0.3430287       0.299875
      4991.5000         2.2282        35.0432       48.23717         1.1798       -69.1669      -23.18375      0.3241952      0.2843952
      4992.0000         2.2604        34.5619       47.35124          1.115       -69.6625      -23.66393      0.3053455      0.2689056
      4992.5000         2.2889        34.1688       46.62909         1.0797       -69.7662       -23.7522      0.2899805       0.266058
      4993.0000         2.3174         33.895       46.12841         1.0444       -69.8629      -23.83348       0.279328      0.2634361
      4993.5000          2.303        33.6634       45.70609         1.0147       -69.8604      -23.81555      0.2703423      0.2640145
      4994.0000          2.287        33.4794       45.37214          1.023       -69.4784      -23.41813       0.263237      0.2768344
      4994.5000         2.2711        33.2953       45.03799         1.0313       -69.0961      -23.02041      0.2561274      0.2896642
      4995.0000         2.2831        33.1113       44.70406         1.0396        -68.714      -22.62288      0.2490225      0.3024876
      4995.5000         2.3016        32.6824       43.91542         1.0479        -68.332      -22.22546       0.232243      0.3153077
      4996.0000         2.3469        32.1575       42.94856          1.066       -65.2583      -19.13634      0.2116715      0.4149569
      4996.5000          2.381        31.9572       42.58434         1.1467       -61.8962      -15.75881      0.2039221      0.5239093
      4997.0000         2.3597        33.8882       46.17714         1.2274       -60.4686      -14.31579      0.2803646      0.5704583
      4997.5000         2.3382        35.2369       48.68882         1.3081       -62.2477      -16.07946      0.3338046      0.5135657
      4998.0000         2.2766        35.7115       49.57764         1.3887       -66.4037      -20.22004      0.3527158      0.3799986
      4998.5000         2.2151        35.6801         49.527         1.4694       -70.5598      -24.36072      0.3516383      0.2464285
      4999.0000         2.1237        36.0535       50.22794         1.5975       -71.7516       -25.5371      0.3665519      0.2084807
      4999.5000         2.0189        36.5198       51.10133         1.7295       -71.9216      -25.69167      0.3851346      0.2034945
      5000.0000         1.9982        37.0721       52.13443         1.7263       -72.0917      -25.84634      0.4071155       0.198505
      5000.5000         1.6875        37.6401       53.19664         0.9242       -72.2618      -26.00103      0.4297158      0.1935153
      5001.0000         1.6533        38.7903        55.3398         0.8731       -72.4319       -26.1557      0.4753149      0.1885258
      5001.5000         1.6187        37.2001       52.39507          0.822       -73.2715      -26.97987       0.412661      0.1619396
      5002.0000         1.5981        35.8753       49.94311         0.7709       -74.6106      -28.30355      0.3604917      0.1192402
      5002.5000         1.5775        34.2397       46.91409         0.7433       -75.9001      -29.57763      0.2960445       0.078141
      5003.0000         1.5605        32.0217       42.80379          0.723       -76.8435       -30.5056      0.2085914     0.04820633
      5003.5000         1.6101        29.7154       38.52956         0.7026       -77.6763      -31.32298      0.1176501     0.02183939
      5004.0000          1.663        27.8268       35.03083         0.7056       -78.3877      -32.01896     0.04320908              0
      5004.5000         1.7828        26.9152         33.346         0.7185       -78.7383      -32.35413    0.007361717              0
      5005.0000         1.8682        26.3975        32.3925         0.7315       -78.8959      -32.49631              0              0
      5005.5000         1.9268        27.3396       34.14929          0.769       -79.0007      -32.58569     0.02445302              0
      5006.0000         2.0439        28.2812       35.90514         0.8128       -79.1021      -32.67166     0.06181149              0
      5006.5000         2.1425        29.2228         37.661         0.8566       -79.3341      -32.88824      0.0991702              0
      5007.0000         2.2576        30.1649       39.41779         0.9004       -79.6399      -33.17861      0.1365488              0
      5007.5000         2.3702        30.9164       40.82069         0.9477       -79.9457      -33.46899      0.1663978              0
      5008.0000         2.4376        30.2349       39.56308         1.0026       -80.1031      -33.61097        0.13964              0
      5008.5000          2.505        29.5534       38.30547         1.0576       -80.2606      -33.75304      0.1128824              0
      5009.0000         2.5435        29.1704       37.60206         1.0931       -80.4183      -33.89531     0.09791613              0
      5009.5000         2.5749        29.3118       37.87225         1.1147       -80.4679       -33.9295       0.103665              0
