#------------------------------------------------------------------------------
# Created by    : vladimir.rabinovich
# Created on    : 09/19/2023 17:19:46
#------------------------------------------------------------------------------
~Version Information Section
VERS.           2.0     :   CWLS log ASCII Standard - VERSION 2.0
WRAP.           NO      :   One line per depth step
~Well Information Section
#MNEM       .UNIT                                         VALUE :DESCRIPTION
#------------------------------------------------------------------------------
STRT        .FT                                             290 :START DEPTH
STOP        .FT                                         11377.5 :STOP DEPTH
STEP        .FT                                             0.5 :STEP      
NULL        .                                           -999.25 :NULL      
COMP        .                         SONAT EXPLORATION GOM INC :COMPANY   
WELL        .                               OCS G04571 ST00BP00 :WELL      
FLD         .                                           WILDCAT :FIELD     
LOC         .                                                   :LOCATION  
CNTY        .                           HIGH ISLAND LARGE BLOCK :LOCATION  
STAT        .                                             TEXAS :STATE     
CTRY        .                                     UNITED STATES :COUNTRY   
SRVC        .                                                   :SERVICE COMPANY
DATE        .                             9/13/2023 11:19:19 AM :LOG DATE  
API         .                                    42708401190000 :API NUMBER
UWI         .                                    42708401190000 :UNIQUE WELL ID
XCOORD      .                                  1324427.25220013 :SURFACE X 
YCOORD      .                                  10679041.7751219 :SURFACE Y 
LAT         .                                         29.422046 :LATITUDE  
LON         .                                        -93.992863 :LONGITUDE 
ELEV        .FT                                             116 :ELEVATION VALUE
ELEV_TYPE   .                                                KB :ELEVATION REFERENCE TYPE
~Curve Information Section
#MNEM       .UNIT                                      API CODE :CURVE DESCRIPTION
#------------------------------------------------------------------------------
DEPT        .FT                                                 :DEPTH     
ASFL        .OHMM                                               :          
CALI        .IN                                                 :          
CILD        .MMHO                                               :          
GR          .GAPI                                               :          
GR_NORM     .GAPI                                               :GammaRay Normalized
ILD         .OHMM                                               :          
RHOB        .G/C3                                               :          
SP          .MV                                                 :          
SP_NORM     .GAPI                                               :SP Normalized
VSH_GR      .V/V                                                :Volume of Shale from GR
VSH_SP      .V/V                                                :Volume of Shale from SP
~A        DEPTH           ASFL           CALI           CILD             GR        GR_NORM            ILD           RHOB             SP        SP_NORM         VSH_GR         VSH_SP
# ...
      6207.5000         0.4857        13.6055       2060.324        76.2716       91.61057         0.4835         2.2874       -43.1804     -0.8818573              1       0.987402
      6208.0000         0.4833        13.6498       2042.791        76.4308       91.84108         0.4826         2.2851       -43.1727     -0.8813232              1      0.9874097
      6208.5000         0.4808        13.6937       2039.686        76.5995       92.08533         0.4818         2.2832       -43.0327     -0.7573115              1      0.9891813
      6209.0000         0.4784        13.7483        2045.51        76.8806       92.49234         0.4809         2.2824       -42.8926     -0.6332072              1      0.9909542
      6209.5000         0.4808        13.8055       2051.336        77.1617       92.89934           0.48         2.2848       -42.7549     -0.5113459              1       0.992695
      6210.0000         0.4836        13.8596        2057.16        77.4429       93.30649         0.4792         2.2887       -42.6277     -0.3992793              1       0.994296
      6210.5000         0.4865        13.8903       2062.977        77.7244       93.71408         0.4783         2.2935       -42.5002     -0.2869314              1       0.995901
      6211.0000         0.4893        13.8813       2062.324        78.0055       94.12108         0.4774         2.2992       -42.3728     -0.1746796              1      0.9975046
      6211.5000         0.4934        13.8286       2061.105        73.5903       87.72834         0.4766         2.3044       -42.2454    -0.06243134              1      0.9991081
      6212.0000         0.4988        13.6892       2059.883        70.9232       83.86665         0.4757         2.3094       -42.1182     0.04963531              1              1
      6212.5000         0.5042        13.5522       2058.664        70.1611       82.76323         0.4748          2.315       -41.9907      0.1619797              1              1
      6213.0000         0.5097        13.7293       2057.441        71.1632       84.21416         0.4744         2.3274       -41.9763      0.1687622              1              1
      6213.5000         0.5151        13.9171       2056.223        72.1417       85.63092         0.4742         2.3378       -42.0783     0.06690674              1              1
      6214.0000         0.5159        14.0317       2066.199        72.8629       86.67515         0.4739         2.3381       -42.1802     -0.0348526              1      0.9995021
      6214.5000         0.5155        14.1106        2079.59        73.5841       87.71935         0.4737         2.3327        -42.409     -0.2550552              1      0.9963564
      6215.0000         0.5151         14.159       2099.148         74.306       88.76458         0.4734         2.3226       -42.9144     -0.7334177              1      0.9895226
      6215.5000         0.5147        14.1273        2136.41        75.0272       89.80881         0.4732         2.3109       -43.4203      -1.212247              1      0.9826822
      6216.0000         0.5145        13.9177       2173.668        75.7175       90.80829          0.473         2.3022       -46.7036      -4.283317              1      0.9388098
      6216.5000         0.5148        13.3433       2200.922        76.1554       91.44234         0.4727         2.2996       -47.6617      -5.184197              1        0.92594
      6217.0000         0.5152        13.0513       2205.785        75.8442       90.99174         0.4725          2.306       -48.1157      -5.614587              1      0.9197916
      6217.5000         0.5156        13.0336       2210.648        73.6299       87.78566         0.4722         2.3063       -48.5691      -6.044414              1      0.9136512
      6218.0000          0.516        13.1494       2215.508          71.95       85.35335         0.4721         2.2992       -49.0231      -6.474804              1      0.9075028
      6218.5000         0.5164        13.2682       2220.371        70.5118         83.271         0.4724         2.2846       -49.4764      -6.904535              1      0.9013638
      6219.0000          0.518        13.3515       2197.613         70.364       83.05699         0.4727         2.2913       -49.9509      -7.354063              1       0.894942
      6219.5000         0.5203        13.4107       2174.688        71.1088        84.1354          0.473         2.3081       -50.4253       -7.80349              1      0.8885216
      6220.0000         0.5227        13.5317       2151.785        71.8535       85.21363         0.4734         2.3125       -49.7332      -7.164184              1      0.8976545
      6220.5000         0.5202        13.6794       2128.855        72.5981       86.29173         0.4737         2.3068       -47.1031      -4.716078              1      0.9326274
      6221.0000         0.5147        13.7886       2109.918        73.3429       87.37014          0.474         2.2998         -45.25      -2.993176              1      0.9572403
      6221.5000         0.5093        13.8208       2093.227        74.5886       89.17377         0.4743         2.2953       -43.8755      -1.716963              1       0.975472
      6222.0000         0.5038        13.8024       2076.535        76.0769       91.32866         0.4746         2.2905        -42.704     -0.6302165              1      0.9909969
      6222.5000         0.4989        13.7637        2059.84        76.5819       92.05986         0.4749         2.2794       -41.5325      0.4565267              1              1
      6223.0000         0.4951        13.7569        2043.15         75.869       91.02764         0.4753         2.2655       -41.2579       0.706163              1              1
      6223.5000         0.4921        13.8149       2033.986        75.0327       89.81678         0.4756         2.2625       -41.0114      0.9295771              1              1
      6224.0000         0.4929         13.918       2031.906        74.1953       88.60429         0.4759         2.2782        -40.765       1.152895              1              1
      6224.5000         0.4937        13.8875       2029.824         73.359       87.39345         0.4762          2.295       -40.5868       1.312561              1              1
      6225.0000         0.4944         13.691       2027.744        73.8309       88.07671         0.4765         2.2967       -40.4851       1.400822              1              1
      6225.5000         0.4957         13.464       2025.662        74.4872       89.02695         0.4783         2.2818       -40.3834       1.489088              1              1
      6226.0000         0.4998        13.2567       2023.053        75.1442       89.97822         0.4804         2.2656       -40.3022        1.55822              1              1
      6226.5000         0.5039        12.9625       2019.445        75.8004       90.92833         0.4826         2.2523       -40.2486       1.601593              1              1
      6227.0000          0.508         12.807       2015.836        76.4567       91.87859         0.4847         2.2589       -40.1949       1.645054              1              1
      6227.5000         0.5121        12.7962       2012.229        77.2583       93.03921         0.4868         2.2706       -40.3793       1.466294              1              1
      6228.0000         0.5199        12.9189       2008.621        77.0887       92.79364         0.4889         2.2871       -41.1589      0.7320114              1              1
      6228.5000         0.5292        13.1053       2003.457        76.0583       91.30173          0.491         2.2989       -42.5037     -0.5297922              1      0.9924315
      6229.0000         0.5355        13.2827       1990.082        74.9585       89.70934         0.4932         2.3097       -43.8483      -1.791407              1      0.9744084
      6229.5000         0.5318         13.401       1976.705        73.8168        88.0563         0.4953         2.3153       -45.0434      -2.913487              1      0.9583787
