#------------------------------------------------------------------------------
# Created by    : vladimir.rabinovich
# Created on    : 09/19/2023 17:20:10
#------------------------------------------------------------------------------
~Version Information Section
VERS.           2.0     :   CWLS log ASCII Standard - VERSION 2.0
WRAP.           NO      :   One line per depth step
~Well Information Section
#MNEM       .UNIT                                         VALUE :DESCRIPTION
#------------------------------------------------------------------------------
STRT        .FT                                            1664 :START DEPTH
STOP        .FT                                            5300 :STOP DEPTH
STEP        .FT                                             0.5 :STEP      
NULL        .                                           -999.25 :NULL      
COMP        .                       CORPUS CHRISTI OIL & GAS CO :COMPANY   
WELL        .                                ST TR 00597-L NE/4 :WELL      
FLD         .                                           WILDCAT :FIELD     
LOC         .                                                   :LOCATION  
CNTY        .                      MATAGORDA ISLAND LARGE BLOCK :LOCATION  
STAT        .                                             TEXAS :STATE     
CTRY        .                                     UNITED STATES :COUNTRY   
SRVC        .                                                   :SERVICE COMPANY
DATE        .                             9/13/2023 11:12:01 AM :LOG DATE  
API         .                                    42703301570000 :API NUMBER
UWI         .                                    42703301570000 :UNIQUE WELL ID
XCOORD      .                                   499677.54355151 :SURFACE X 
YCOORD      .                                  10240770.6634848 :SURFACE Y 
LAT         .                                        28.1741034 :LATITUDE  
LON         .                                       -96.5406837 :LONGITUDE 
ELEV        .FT                                              79 :ELEVATION VALUE
ELEV_TYPE   .                                                KB :ELEVATION REFERENCE TYPE
~Curve Information Section
#MNEM       .UNIT                                      API CODE :CURVE DESCRIPTION
#------------------------------------------------------------------------------
DEPT        .FT                                                 :DEPTH     
ASFL        .OHMM                                               :          
CILD        .MMHO                                               :          
ILD         .OHMM                                               :          
SP          .MV                                                 :          
SP_NORM     .MV                                                 :SP Normalized
VSH_SP      .V/V                                                :Volume of Shale from SP
~A        DEPTH           ASFL           CILD            ILD             SP        SP_NORM         VSH_SP
# ...
      4324.0000         0.5838       3049.256         0.3279      -150.9374       -62.4845              0
      4324.5000         0.5838       3041.292         0.3288      -151.5393      -63.02859              0
      4325.0000         0.5878       3025.344         0.3305      -152.4419      -63.87334              0
      4325.5000         0.5958       3025.363         0.3305      -151.8114      -63.18501              0
      4326.0000         0.6038       3025.383         0.3305      -150.6097      -61.92547              0
      4326.5000         0.6198       3009.435         0.3323      -147.6044      -58.86234     0.01961478
      4327.0000         0.6398       2953.567         0.3386      -147.6052       -58.8053     0.02059831
      4327.5000         0.6558       2857.779         0.3499      -149.1089      -60.25117              0
      4328.0000         0.6718       2674.168         0.3739      -149.7109      -60.79534              0
      4328.5000         0.6878       2658.219         0.3762      -150.3128      -61.33941              0
      4329.0000         0.7078       2570.416          0.389      -150.3135      -61.28228              0
      4329.5000         0.7118       2530.516         0.3952      -150.3143      -61.22523              0
      4330.0000         0.7278       2330.917          0.429       -150.315      -61.16811              0
      4330.5000         0.7518       2171.258         0.4606      -137.3905      -48.18577      0.2036937
      4331.0000         0.7797       2027.566         0.4932      -136.1889      -46.92634       0.225408
      4331.5000         0.7798       1804.055         0.5543      -135.5884      -46.26799      0.2367588
      4332.0000         0.7958        1804.07         0.5543      -134.0861      -44.70787      0.2636574
      4332.5000         0.8118       1804.074         0.5543      -133.4857      -44.04963      0.2750064
      4333.0000         0.7797       1812.078         0.5519      -132.8852      -43.39129      0.2863571
      4333.5000         0.7477       1939.841         0.5155      -134.2707      -44.71897       0.263466
      4334.0000         0.7357       1971.797         0.5072      -135.6561      -46.04652      0.2405772
      4334.5000         0.6997       1987.784         0.5031      -136.7953       -47.1279      0.2219328
      4335.0000         0.6716       1995.788         0.5011      -132.3767      -42.65145      0.2991129
      4335.5000         0.7237       1995.808         0.5011      -127.9581      -38.17503      0.3762926
      4336.0000         0.7236       1979.859         0.5051      -125.0739      -35.23299      0.4270175
      4336.5000         0.7637       1923.999         0.5198      -127.3579      -37.45916      0.2612675
      4337.0000         0.7997        1860.14         0.5376      -129.6418      -39.68522      0.2148913
      4337.5000         0.8477       1764.352         0.5668      -131.9257      -41.91129      0.1685147
      4338.0000         0.8597       1692.516         0.5908       -132.592      -42.51975      0.1558385
      4338.5000         0.8797        1620.68          0.617      -131.6909      -41.56082      0.1758162
      4339.0000         0.8837       1596.748         0.6263      -131.0905      -40.90259      0.1895294
      4339.5000         0.8957       1564.832          0.639      -130.7906      -40.54485      0.1969822
      4340.0000         0.9037       1548.884         0.6456      -131.8664      -41.56281      0.1757747
      4340.5000         0.9116        1540.92          0.649      -132.9422      -42.58078      0.1545671
      4341.0000         0.9276       1532.955         0.6523      -134.0179      -43.59865      0.1333615
      4341.5000         0.9316       1524.991         0.6557      -135.0937      -44.61662      0.1121539
      4342.0000         0.9356       1517.027         0.6592      -136.1695      -45.63457     0.09094635
      4342.5000         0.9396       1517.047         0.6592      -136.8071      -46.21435     0.07886776
      4343.0000         0.9436       1533.034         0.6523      -137.4091      -46.75851     0.06753095
      4343.5000         0.9436       1541.038         0.6489      -138.3116      -47.60318     0.04993375
      4344.0000         0.9202       1549.041         0.6456       -138.613      -47.84675     0.04485941
      4344.5000         0.8968       1573.013         0.6357      -138.9143      -48.09022     0.03978713
      4345.0000         0.8733       1589.001         0.6293      -139.2157      -48.33377     0.03471311
      4345.5000         0.8499       1612.972           0.62      -138.9158      -47.97604     0.04216576
      4346.0000         0.8265       1636.944         0.6109      -137.4135       -46.4159     0.07466873
      4346.5000         0.8031       1700.855         0.5879      -136.5124      -45.45698      0.0946463
      4347.0000         0.7797        1732.81         0.5771       -135.912      -44.79874      0.1083595
      4347.5000         0.7562       1764.766         0.5666      -135.6121      -44.44101      0.1158123
      4348.0000         0.7394       1788.737         0.5591      -135.9135      -44.68457      0.1107381
      4348.5000         0.7314       1836.661         0.5445      -136.5154      -45.22863     0.09940354
      4349.0000         0.7274       1908.536          0.524      -137.1174       -45.7728     0.08806658
      4349.5000         0.7234       1932.508         0.5175      -137.4187      -46.01627     0.08299446
      4350.0000         0.7194       1964.463          0.509      -137.4194      -45.95914     0.08418465
      4350.5000         0.7154       2004.403         0.4989      -137.4202      -45.90209     0.08537308
      4351.0000         0.7113       2052.326         0.4873      -137.1203      -45.54436     0.09282573
      4351.5000         0.7073        2100.25         0.4761      -137.1211      -45.48733     0.09401401
      4352.0000         0.7033       2156.157         0.4638      -136.8212      -45.12959      0.1014668
      4352.5000         0.6953       2188.113          0.457      -136.5213      -44.77187      0.1089195
      4353.0000         0.6913       2228.052         0.4488      -136.5221      -44.71482      0.1101079
      4353.5000         0.6873       2275.975         0.4394      -137.4246       -45.5595     0.09251038
      4354.0000         0.6793       2323.899         0.4303      -139.5244      -47.60146     0.04996967
      4354.5000         0.6713       2363.838          0.423      -141.6241      -49.64333    0.007430712
      4355.0000         0.6592       2395.794         0.4174      -143.7238      -51.68519              0
      4355.5000         0.6512        2427.75         0.4119      -146.4464      -54.34995              0
      4356.0000         0.6392       2467.708         0.4052       -146.447      -54.29273              0
      4356.5000         0.6352       2467.723         0.4052      -146.1466      -53.93449              0
      4357.0000         0.6352       2435.792         0.4105      -144.0915      -51.82156              0
      4357.5000         0.6392       2403.876          0.416      -141.6397      -49.31191     0.01433516
      4358.0000         0.6472        2371.96         0.4216      -141.9403       -49.5547    0.009277184
      4358.5000         0.6552       2363.996          0.423      -142.2417      -49.79825    0.004203161
      4359.0000         0.6672       2419.903         0.4132      -142.2432      -49.74191    0.005376816
      4359.5000         0.6752       2459.843         0.4065       -143.145      -50.58588              0
      4360.0000         0.6711       2491.799         0.4013      -143.7469      -51.12995              0
      4360.5000         0.6591       2547.706         0.3925      -144.9501      -52.27532              0
      4361.0000         0.6511       2595.629         0.3853      -146.1532      -53.42058              0
      4361.5000         0.6391       2659.521          0.376      -147.0558      -54.26535              0
