#------------------------------------------------------------------------------
# Created by    : vladimir.rabinovich
# Created on    : 09/19/2023 17:20:38
#------------------------------------------------------------------------------
~Version Information Section
VERS.           2.0     :   CWLS log ASCII Standard - VERSION 2.0
WRAP.           NO      :   One line per depth step
~Well Information Section
#MNEM       .UNIT                                         VALUE :DESCRIPTION
#------------------------------------------------------------------------------
STRT        .FT                                             510 :START DEPTH
STOP        .FT                                            8711 :STOP DEPTH
STEP        .FT                                             0.5 :STEP      
NULL        .                                           -999.25 :NULL      
COMP        .                                      SHELL OIL CO :COMPANY   
WELL        .                                OCS 00708 ST00BP00 :WELL      
FLD         .                                           WILDCAT :FIELD     
LOC         .                                                   :LOCATION  
CNTY        .                             GALVESTON LARGE BLOCK :LOCATION  
STAT        .                                             TEXAS :STATE     
CTRY        .                                     UNITED STATES :COUNTRY   
SRVC        .                                                   :SERVICE COMPANY
DATE        .                             9/13/2023 11:19:25 AM :LOG DATE  
API         .                                    42706000300000 :API NUMBER
UWI         .                                    42706000300000 :UNIQUE WELL ID
XCOORD      .                                  1082576.09526943 :SURFACE X 
YCOORD      .                                  10493698.2734572 :SURFACE Y 
LAT         .                                         28.904546 :LATITUDE  
LON         .                                        -94.743912 :LONGITUDE 
ELEV        .FT                                              92 :ELEVATION VALUE
ELEV_TYPE   .                                                KB :ELEVATION REFERENCE TYPE
~Curve Information Section
#MNEM       .UNIT                                      API CODE :CURVE DESCRIPTION
#------------------------------------------------------------------------------
DEPT        .FT                                                 :DEPTH     
ASN         .OHMM                                               :          
CILD        .MMHO                                               :          
DT          .US/F                                               :          
ILD         .OHMM                                               :          
SP          .MV                                                 :          
SP_NORM     .MV                                                 :SP Normalized
VSH_SP      .V/V                                                :Volume of Shale from SP
~A        DEPTH            ASN           CILD             DT            ILD             SP        SP_NORM         VSH_SP
# ...
      3793.0000         0.9884       1200.229       156.3018         0.9915       -64.5537      -1.824856              1
      3793.5000         0.9909       1202.977       157.3703         0.9867       -64.9305      -2.207916      0.9951648
      3794.0000         0.9934       1206.248       153.3588          0.982       -65.2218      -2.505493      0.9882444
      3794.5000         0.9856       1209.822       153.4978         0.9772       -65.3788      -2.668758      0.9844475
      3795.0000         0.9814       1213.398       154.6144         0.9762       -65.4459      -2.742126      0.9827412
      3795.5000         0.9772       1216.209       154.8931         0.9789       -65.4885         -2.791      0.9816046
      3796.0000          0.973       1218.258       152.9371         0.9816        -65.531      -2.839764      0.9804706
      3796.5000         0.9788       1220.307       153.0761         0.9843       -65.5736      -2.888634      0.9793341
      3797.0000         0.9883       1218.066       154.6728         0.9879       -65.5262      -2.847504      0.9802906
      3797.5000         0.9977       1213.891       157.2285          0.998       -65.4109      -2.738468      0.9828263
      3798.0000         1.0071       1205.193       158.8003         1.0082       -65.2954      -2.629246      0.9853664
      3798.5000         1.0166       1185.311       154.0763         1.0184       -65.0911      -2.431213      0.9899718
      3799.0000         1.0318       1154.768       150.0049         1.0288       -64.8579      -2.204281      0.9952493
      3799.5000         1.0471       1130.625       143.8898         1.0412       -64.6248      -1.977451              1
      3800.0000         1.0542       1112.529       139.7463         1.0535       -64.3916      -1.750519              1
      3800.5000         1.0594       1106.047       137.5271         1.0638       -63.9529      -1.318085              1
      3801.0000          1.063       1101.506       138.6841         1.0735       -64.3212      -1.692654              1
      3801.5000         1.0441       1109.072       142.0354          1.079       -64.6896      -2.067322      0.9984344
      3802.0000         1.0249       1116.633       144.6186         1.0632         -64.59      -1.973991              1
      3802.5000         1.0114       1124.197       144.1989         1.0474       -64.2045      -1.594761              1
      3803.0000         0.9978       1144.973       143.9887         1.0317       -63.8223       -1.21883              1
      3803.5000         0.9842       1169.271       145.6732         1.0186       -63.4407      -0.843502              1
      3804.0000         0.9755        1215.92       146.1882         1.0065       -63.0588     -0.4678688              1
      3804.5000         0.9684        1241.16       146.9473         0.9943       -62.6771    -0.09243774              1
      3805.0000         0.9613       1253.977       148.8441         0.9821       -62.3037      0.2746925              1
      3805.5000         0.9549       1264.344       151.3815           0.97        -62.074      0.4981232              1
      3806.0000         0.9632       1272.557       153.8974         0.9723       -63.1694     -0.6035461              1
      3806.5000         0.9714       1277.738       154.3031         0.9803       -63.9438      -1.384216              1
      3807.0000          0.983       1281.182       150.8519         0.9933       -64.5438      -1.990482              1
      3807.5000         0.9793       1277.887       143.7321         1.0068       -64.7875      -2.240452      0.9944081
      3808.0000         0.9744       1274.594       140.3872         1.0202       -64.8041      -2.263321      0.9938763
      3808.5000         0.9696       1259.127       138.4456         1.0337       -64.8206      -2.286091      0.9933468
      3809.0000         0.9825       1240.723       135.3686         1.0472       -64.8372      -2.308956       0.992815
      3809.5000         1.0114       1211.996       131.3065         1.0569       -64.8669      -2.344925      0.9919785
      3810.0000         1.0444       1169.563       129.3792         1.0586       -64.9054      -2.389698      0.9909372
      3810.5000         1.1028       1135.557       129.6318         1.0603       -66.1007      -3.591267      0.9629938
      3811.0000         1.1423       1115.898       131.6836          1.062       -67.4707      -4.967537      0.9309875
      3811.5000         1.1342       1104.879       137.2453         1.0637       -68.6014      -6.104507      0.9045463
      3812.0000          1.126       1103.338       143.5343         1.0653       -69.2583      -6.767673      0.8891239
      3812.5000         1.1133       1104.758       147.5509          1.067       -69.9141      -7.429741       0.873727
      3813.0000         1.0848       1106.539       149.4359         1.0667       -70.5112      -8.033112      0.8596951
      3813.5000         1.0774        1108.32       152.8235         1.0661       -70.1667      -7.694881      0.8675609
      3814.0000         1.0703         1110.1       156.8925         1.0655       -69.8091      -7.343544      0.8757315
      3814.5000         1.0631        1104.51       159.2661         1.0649       -69.4137      -6.954414      0.8847811
      3815.0000         1.0517       1098.262        157.416         1.0644       -69.0179      -6.564884      0.8938399
      3815.5000         1.0401       1092.178       155.6347         1.0638       -68.6223      -6.175556       0.902894
      3816.0000          1.027       1086.023       151.9402         1.0616       -68.2269      -5.786423      0.9119437
      3816.5000         1.0251       1079.123       147.4904         1.0586       -67.8312      -5.396992      0.9210002
      3817.0000         1.0339       1072.225       146.1799         1.0556       -67.4183       -4.99036      0.9304568
      3817.5000         1.0353       1067.115       144.3777         1.0526       -66.9684       -4.54673      0.9407737
      3818.0000         1.0214       1072.191       141.5439         1.0496       -66.5183      -4.102901      0.9510953
      3818.5000         1.0074       1099.668       140.4555         1.0467       -66.4907       -4.08157      0.9515914
      3819.0000         0.9934       1112.693       140.9644         1.0437       -66.6088       -4.20594      0.9486991
      3819.5000         0.9816       1124.781       143.0514         1.0403       -66.5454      -4.148811      0.9500276
      3820.0000         0.9701       1134.123        146.734         1.0363       -66.4694      -4.079075      0.9516494
      3820.5000         0.9716        1141.66         151.64         1.0324       -66.3932      -4.009148      0.9532756
      3821.0000         0.9863       1146.025       154.6716         1.0285       -66.3171      -3.939316      0.9548996
      3821.5000         0.9932       1147.275       153.6845         1.0245       -66.2411      -3.869579      0.9565214
      3822.0000         1.0001       1138.869       151.5599         1.0206       -66.1483      -3.783051      0.9585337
      3822.5000          1.007       1134.238       150.6604         1.0167       -65.9537      -3.594719      0.9629135
      3823.0000         1.0139       1130.367       151.9263         1.0128       -65.7595      -3.406788       0.967284
      3823.5000         1.0037        1127.74       152.5144          1.009       -65.5441      -3.197655      0.9721476
      3824.0000         0.9851       1129.223        154.436         1.0058       -65.2123      -2.872131      0.9797179
      3824.5000         0.9665       1130.707       156.0396         1.0026       -64.8807      -2.546795      0.9872838
      3825.0000         0.9527       1142.305        157.299         0.9993       -65.0842      -2.756565      0.9824055
      3825.5000         0.9418       1158.512       158.8226         0.9961       -65.3029      -2.981537      0.9771736
      3826.0000          0.931       1181.477       157.6548         0.9929       -65.4961      -3.181004      0.9725348
