#------------------------------------------------------------------------------
# Created by    : vladimir.rabinovich
# Created on    : 09/19/2023 17:20:36
#------------------------------------------------------------------------------
~Version Information Section
VERS.           2.0     :   CWLS log ASCII Standard - VERSION 2.0
WRAP.           NO      :   One line per depth step
~Well Information Section
#MNEM       .UNIT                                         VALUE :DESCRIPTION
#------------------------------------------------------------------------------
STRT        .FT                                             504 :START DEPTH
STOP        .FT                                            9762 :STOP DEPTH
STEP        .FT                                             0.5 :STEP      
NULL        .                                           -999.25 :NULL      
COMP        .                                      SHELL OIL CO :COMPANY   
WELL        .                                OCS 00703 ST00BP00 :WELL      
FLD         .                                           WILDCAT :FIELD     
LOC         .                                                   :LOCATION  
CNTY        .                             GALVESTON LARGE BLOCK :LOCATION  
STAT        .                                             TEXAS :STATE     
CTRY        .                                     UNITED STATES :COUNTRY   
SRVC        .                                                   :SERVICE COMPANY
DATE        .                             9/13/2023 11:19:25 AM :LOG DATE  
API         .                                    42706000420000 :API NUMBER
UWI         .                                    42706000420000 :UNIQUE WELL ID
XCOORD      .                                  1132503.99790541 :SURFACE X 
YCOORD      .                                  10523078.0194322 :SURFACE Y 
LAT         .                                         28.987276 :LATITUDE  
LON         .                                        -94.589113 :LONGITUDE 
ELEV        .FT                                              83 :ELEVATION VALUE
ELEV_TYPE   .                                                KB :ELEVATION REFERENCE TYPE
~Curve Information Section
#MNEM       .UNIT                                      API CODE :CURVE DESCRIPTION
#------------------------------------------------------------------------------
DEPT        .FT                                                 :DEPTH     
ASN         .OHMM                                               :          
CILD        .MMHO                                               :          
DT          .US/F                                               :          
ILD         .OHMM                                               :          
LAT         .OHMM                                               :          
LN          .OHMM                                               :          
SP          .MV                                                 :          
SP_NORM     .MV                                                 :SP Normalized
VSH_SP      .V/V                                                :Volume of Shale from SP
~A        DEPTH            ASN           CILD             DT            ILD            LAT             LN             SP        SP_NORM         VSH_SP
# ...
      8507.0000         1.4375       833.5566        94.2048          1.205        -999.25          1.205       -40.5566       -1.93441      0.9723656
      8507.5000         1.4286       831.0645        93.8736          1.203        -999.25          1.203       -40.8837      -2.265415      0.9676369
      8508.0000         1.4195       828.6074        93.5489         1.2011        -999.25         1.2011       -41.2101      -2.595715      0.9629183
      8508.5000         1.4099       826.2109        92.9991         1.1992        -999.25         1.1992       -41.5365      -2.926018      0.9581997
      8509.0000         1.4003       823.8115        92.4493         1.1999        -999.25         1.1999        -41.866      -3.259422      0.9534369
      8509.5000         1.3999       821.4541        91.8996         1.2098        -999.25         1.2098       -42.7077      -4.105022      0.9413568
      8510.0000         1.4237       821.9941        91.4507         1.2196        -999.25         1.2196       -43.5494      -4.950626      0.9292768
      8510.5000         1.4478       822.5352        91.1529         1.2262        -999.25         1.2262       -44.8897       -6.29483      0.9100739
      8511.0000         1.4721       825.9121        90.7421         1.1582        -999.25         1.1582       -46.7558      -8.164829      0.8833596
      8511.5000         1.4938       838.0381        90.4397         1.0903        -999.25         1.0903       -48.5132      -9.926132      0.8581981
      8512.0000         1.4993       858.5889        90.1939         1.0224        -999.25         1.0224       -49.8264      -11.24324      0.8393824
      8512.5000         1.4888       890.0703        93.0528         0.9606        -999.25         0.9606       -51.6875      -13.10824      0.8127394
      8513.0000         1.4788       921.9951        93.1336         0.9032        -999.25         0.9032       -53.6918      -15.11644      0.7840509
      8513.5000         1.4691         966.75        93.2918         0.8457        -999.25         0.8457       -55.7528      -17.18134      0.7545522
      8514.0000         1.4594       1131.852        93.6542         0.8087        -999.25         0.8087       -57.7941      -19.22655      0.7253351
      8514.5000         1.4497       1233.252        94.1601          0.774        -999.25          0.774       -60.4821      -21.91845      0.6868793
      8515.0000         1.4527       1271.346        94.6828         0.7477        -999.25         0.7477       -74.0653      -35.50555      0.4927779
      8515.5000         1.5168       1336.627        94.7845         0.7358        -999.25         0.7358       -77.3112      -38.75536      0.4463521
      8516.0000         1.5478         1395.1        94.9737         0.7238        -999.25         0.7238       -76.0498      -37.49785      0.4643164
      8516.5000         1.5217       1409.063        95.2524         0.7118        -999.25         0.7118       -73.2458      -34.69775      0.5043178
      8517.0000         1.4957       1421.264        95.8381         0.6999        -999.25         0.6999       -70.9207      -32.37656      0.5374777
      8517.5000         1.4694       1435.092        96.7874         0.6879        -999.25         0.6879       -66.2209      -27.68066      0.6045619
      8518.0000         1.4398       1451.572        97.7367         0.6875        -999.25         0.6875       -63.8464      -25.31007      0.6384276
      8518.5000         1.4107       1474.098        97.6948         0.6931        -999.25         0.6931       -64.7202      -26.18777      0.6258891
      8519.0000         1.3808       1494.797        96.7433         0.6986        -999.25         0.6986       -66.5863      -28.05777      0.5991747
      8519.5000         1.3474        1506.93        95.7919         0.7084        -999.25         0.7084       -72.8805      -34.35587      0.5092019
      8520.0000         1.3211       1509.723        95.2311         0.7187        -999.25         0.7187       -75.4204      -36.89967      0.4728618
      8520.5000         1.3623       1506.023        95.0829         0.7291        -999.25         0.7291       -77.4025      -38.88567      0.4444904
      8521.0000         1.3923       1502.328        95.0821         0.7395        -999.25         0.7395       -78.5798      -40.06688       0.427616
      8521.5000         1.4224       1482.732         95.355         0.7513        -999.25         0.7513       -79.2327      -40.72367      0.4182332
      8522.0000         1.4492       1438.719        95.8159         0.7631        -999.25         0.7631       -77.2839      -38.77878      0.4460174
      8522.5000         1.4719       1408.225        95.9785         0.7713        -999.25         0.7713       -71.9968      -33.49559      0.5214916
      8523.0000         1.4752       1375.607        96.0847         0.7536        -999.25         0.7536       -70.2517      -31.75439      0.5463659
      8523.5000         1.4463       1327.795        96.3432          0.736        -999.25          0.736       -68.3759      -29.88249      0.5731073
      8524.0000         1.4128       1328.732        96.5989         0.7183        -999.25         0.7183       -64.7251      -26.23559      0.6252059
      8524.5000         1.3801       1365.049        96.8965         0.7007        -999.25         0.7007       -61.0153      -22.52969      0.6781473
      8525.0000         1.3481       1425.643        97.2383          0.683        -999.25          0.683       -61.0178      -22.53609      0.6780558
      8525.5000         1.2963       1463.143        97.6896          0.665        -999.25          0.665       -63.9452       -25.4674        0.63618
      8526.0000         1.2679       1533.408         97.934         0.6461        -999.25         0.6461       -68.7336       -30.2597      0.5677186
      8526.5000         1.2918       1569.035        98.0967         0.6272        -999.25         0.6272       -71.8043       -33.3343      0.5237957
      8527.0000         1.3545       1596.963        98.1144         0.6266        -999.25         0.6266       -82.5366       -44.0705      0.3704214
      8527.5000         1.4125       1619.463        97.4722         0.6448        -999.25         0.6448       -86.2291      -47.76691      0.3176156
      8528.0000         1.4679         1590.4        96.7811         0.6631        -999.25         0.6631       -83.9534      -45.49511      0.3500699
      8528.5000         1.5023       1532.002          96.09         0.7007        -999.25         0.7007       -74.5787      -36.12431      0.4839384
      8529.0000         1.4773       1506.467        95.3989         0.7466        -999.25         0.7466       -71.3501      -32.89961      0.5300055
      8529.5000         1.4194       1446.859        94.7078         0.7926        -999.25         0.7926       -68.0327      -29.58612      0.5773412
      8530.0000         1.3356       1274.258        94.0167         0.8338        -999.25         0.8338       -64.6412      -26.19852      0.6257355
      8530.5000         1.3178       1164.814        93.3256         0.8619        -999.25         0.8619        -63.644      -25.20522      0.6399254
      8531.0000         1.3692       1109.697        92.6345           0.89        -999.25           0.89       -63.2411      -24.80622      0.6456254
      8531.5000         1.4187       1087.049          92.37         0.9181        -999.25         0.9181       -62.7542      -24.32322      0.6525254
      8532.0000         1.4565       1072.295        92.3931         0.9453        -999.25         0.9453       -61.5583      -23.13123      0.6695539
      8532.5000         1.4884       1058.553        93.7505         0.9551        -999.25         0.9551       -60.0107      -21.58753      0.6916068
      8533.0000          1.522       1045.305        95.1078         0.9649        -999.25         0.9649       -57.4239      -19.00463      0.7285053
