#------------------------------------------------------------------------------
# Created by    : vladimir.rabinovich
# Created on    : 09/19/2023 17:21:15
#------------------------------------------------------------------------------
~Version Information Section
VERS.           2.0     :   CWLS log ASCII Standard - VERSION 2.0
WRAP.           NO      :   One line per depth step
~Well Information Section
#MNEM       .UNIT                                         VALUE :DESCRIPTION
#------------------------------------------------------------------------------
STRT        .FT                                            2893 :START DEPTH
STOP        .FT                                           11505 :STOP DEPTH
STEP        .FT                                             0.5 :STEP      
NULL        .                                           -999.25 :NULL      
COMP        .                               SEAGULL ENERGY CORP :COMPANY   
WELL        .                               OCS G06105 ST00BP00 :WELL      
FLD         .                              GALVESTON BLOCK 0343 :FIELD     
LOC         .                                                   :LOCATION  
CNTY        .                             GALVESTON LARGE BLOCK :LOCATION  
STAT        .                                             TEXAS :STATE     
CTRY        .                                     UNITED STATES :COUNTRY   
SRVC        .                                                   :SERVICE COMPANY
DATE        .                             9/13/2023 11:19:54 AM :LOG DATE  
API         .                                    42706403720000 :API NUMBER
UWI         .                                    42706403720000 :UNIQUE WELL ID
XCOORD      .                                  915246.934514234 :SURFACE X 
YCOORD      .                                  10428990.3748243 :SURFACE Y 
LAT         .                                         28.718869 :LATITUDE  
LON         .                                        -95.262866 :LONGITUDE 
ELEV        .FT                                              96 :ELEVATION VALUE
ELEV_TYPE   .                                                KB :ELEVATION REFERENCE TYPE
~Curve Information Section
#MNEM       .UNIT                                      API CODE :CURVE DESCRIPTION
#------------------------------------------------------------------------------
DEPT        .FT                                                 :DEPTH     
CAL         .IN                                                 :          
CNCSS       .%                                                  :          
CORR        .G/CM3                                              :          
DT24        .US/FT                                              :          
GR_NORM     .GAPI                                               :GammaRay Normalized
GRR         .GAPI                                               :          
ILD         .OHMM                                               :          
ILM         .OHMM                                               :          
PORDSS      .%                                                  :          
RFOC        .OHMM                                               :          
SP          .MV                                                 :          
SP_NORM     .MV                                                 :SP Normalized
VSH_GR      .V/V                                                :Volume of Shale from GR
VSH_SP      .V/V                                                :Volume of Shale from SP
~A        DEPTH            CAL          CNCSS           CORR           DT24        GR_NORM            GRR            ILD            ILM         PORDSS           RFOC             SP        SP_NORM         VSH_GR         VSH_SP
# ...
      8059.0000        13.3873        50.5116         0.0168          127.2       70.06073        67.3469         0.4349         0.4269          21.84         0.6569        -1.7341        -4.4511      0.7885262      0.9389986
      8059.5000        13.3088        50.1546         0.0248          128.2       69.79351        67.1429         0.4349         0.4309          21.72         0.6569         -1.747        -4.4231      0.7828407        0.93893
      8060.0000        13.2304        50.0384         0.0246            130       72.57915        68.7755         0.4349         0.4309           22.2         0.6569        -1.4656        -4.1008      0.8421097      0.9430657
      8060.5000        13.1912          49.92         0.0245          130.4       75.33836        70.3922          0.439         0.4349           22.8         0.6569        -1.7647         -4.359      0.9008163        0.93891
      8061.0000        13.0343          49.56         0.0204          130.2       80.29905        73.3333         0.4431          0.439          23.64         0.6569        -1.7647        -4.3181              1      0.9390257
      8061.5000        12.9559          48.96         0.0327          129.4       79.71916        72.9412         0.4472          0.439        24.1176          0.669        -2.0588        -4.5713      0.9940247        0.93494
      8062.0000        12.9559          48.48          0.049          127.8       75.87981        70.5882         0.4514         0.4431        24.2353          0.669        -2.3529        -4.8245      0.9123365      0.9308557
      8062.5000        12.9167          48.24         0.0612            126       70.22479        67.1429         0.4514         0.4431        24.3529         0.6751        -2.6471        -5.0777      0.7920169      0.9267685
      8063.0000        12.9167           47.4         0.0694          124.8       71.31428        67.7551         0.4514         0.4431        24.7059         0.6751        -2.3529        -4.7426      0.8151974      0.9310871
      8063.5000        12.9951          46.44         0.0653          126.2       75.11771             70         0.4514         0.4431        24.8235          0.669        -1.4706        -3.8194      0.8961216      0.9438086
      8064.0000        13.1912          46.08         0.0531            128       78.77487        72.1569         0.4556         0.4472        24.5882         0.6569        -0.8824        -3.1903      0.9739335      0.9523271
      8064.5000        13.3088           46.2         0.0327          129.6       81.12817        73.5294         0.4556         0.4472             24         0.6451        -0.8824        -3.1494              1      0.9524429
      8065.0000        13.4265           46.8         0.0286          129.8       77.94075        71.5686         0.4556         0.4472          23.64         0.6451        -2.0588        -4.2849      0.9561862      0.9357543
      8065.5000         13.348          47.04         0.0245            129       71.67369        67.7551         0.4599         0.4472          23.16         0.6629        -2.6471        -4.8323      0.8228445      0.9274657
      8066.0000         13.348           46.8         0.0245          128.2       69.03164        66.1224         0.4599         0.4514          22.68         0.6812        -2.9412        -5.0855      0.7666306        0.92338
      8066.5000        13.3088           46.2         0.0245            128       68.08591        65.5102         0.4642         0.4514          22.32         0.6751        -2.6471        -4.7505      0.7465087      0.9276986
      8067.0000        13.3088          46.08         0.0245          127.8       67.47926         65.102         0.4642         0.4514           22.2         0.6629        -1.7647        -3.8272      0.7336012        0.94042
      8067.5000        13.3088          45.96         0.0245          127.4       68.22964        65.5102         0.4642         0.4514           22.2         0.6569        -0.8824         -2.904      0.7495669        0.95314
      8068.0000        13.3088          45.96         0.0204          126.6       69.99769        66.5306         0.4685         0.4556           22.2         0.6569        -0.2941        -2.2748      0.7871848      0.9616614
      8068.5000        13.3088          45.96         0.0204          126.6       72.78349        68.1633         0.4685         0.4556          22.08         0.6569        -0.2941        -2.2338      0.8464571      0.9617772
      8069.0000        13.2696           46.2         0.0204          126.6       74.89078        69.3878         0.4642         0.4514          22.08         0.6629        -0.5882         -2.487      0.8912932      0.9576914
      8069.5000        13.2696          46.68         0.0286            127       75.98028             70         0.4642         0.4514           22.2         0.6569        -0.8824        -2.7403       0.914474      0.9536057
      8070.0000        13.2696          47.28         0.0245          127.2       76.05215             70         0.4642         0.4514          22.32         0.6569        -1.1765        -2.9935      0.9160033        0.94952
      8070.5000        13.2696          48.12         0.0163          127.6       74.76716        69.1837         0.4642         0.4514          22.44         0.6451        -1.4706        -3.2467      0.8886629      0.9454343
      8071.0000        13.2696          48.48         0.0082          127.6       71.44675        67.1429         0.4642         0.4514           22.8         0.6451        -1.4706        -3.2058      0.8180161      0.9455515
      8071.5000        13.2696          48.36         0.0082          127.6       71.85773        67.3469         0.4642         0.4514          22.92         0.6451        -0.8824        -2.5767      0.8267603        0.95407
      8072.0000        13.1912          47.64              0          127.8       73.62576        68.3673         0.4642         0.4514          22.92         0.6451        -0.5882        -2.2416      0.8643778      0.9583886
      8072.5000         13.152          47.04         0.0082          127.8       75.05467        69.1837         0.4642         0.4514          23.04         0.6451        -0.5882        -2.2007      0.8947803      0.9585057
      8073.0000         13.152          47.16         0.0041          127.6       75.12654        69.1837         0.4685         0.4514          23.16         0.6451        -0.5882        -2.1598      0.8963094      0.9586214
      8073.5000        13.1127          47.76         0.0041          127.2       74.51991        68.7755         0.4599         0.4514          23.16         0.6451        -0.5882        -2.1189      0.8834022      0.9587371
      8074.0000        13.0735          47.88         0.0082          126.8       75.94866        69.5918         0.4556         0.4514          22.92          0.651        -1.1765        -2.6663      0.9138013        0.95045
      8074.5000        13.0735          47.76         0.0245          126.4       77.35099        70.3922         0.4514         0.4514          22.56         0.6569        -1.7647        -3.2135      0.9436381      0.9421629
      8075.0000         13.152          47.04         0.0286          126.4       76.09242        69.5918         0.4431         0.4514          22.56         0.6569        -2.0588        -3.4667        0.91686      0.9380772
      8075.5000        13.1912          47.16         0.0286          126.8       72.77203         67.551         0.4349         0.4472          23.04         0.6451        -2.9412        -4.3082      0.8462133      0.9255885
      8076.0000        13.2696          47.88         0.0286          128.2       71.48702        66.7347         0.4309          0.439          23.52         0.6393        -3.8235        -5.1496      0.8188728         0.9131
      8076.5000        13.3088          48.48         0.0286          129.2       70.54111        66.1224         0.4229         0.4349          23.76         0.6222        -4.4118         -5.697      0.7987469      0.9048114
