#------------------------------------------------------------------------------
# Created by    : vladimir.rabinovich
# Created on    : 09/19/2023 17:19:48
#------------------------------------------------------------------------------
~Version Information Section
VERS.           2.0     :   CWLS log ASCII Standard - VERSION 2.0
WRAP.           NO      :   One line per depth step
~Well Information Section
#MNEM       .UNIT                                         VALUE :DESCRIPTION
#------------------------------------------------------------------------------
STRT        .FT                                             130 :START DEPTH
STOP        .FT                                            9502 :STOP DEPTH
STEP        .FT                                             0.5 :STEP      
NULL        .                                           -999.25 :NULL      
COMP        .            MOBIL PRODUCING TEXAS & NEW MEXICO INC :COMPANY   
WELL        .                               OCS G07243 ST00BP00 :WELL      
FLD         .                                           WILDCAT :FIELD     
LOC         .                                                   :LOCATION  
CNTY        .                             GALVESTON LARGE BLOCK :LOCATION  
STAT        .                                             TEXAS :STATE     
CTRY        .                                     UNITED STATES :COUNTRY   
SRVC        .                                                   :SERVICE COMPANY
DATE        .                             9/13/2023 11:19:36 AM :LOG DATE  
API         .                                    42706401330000 :API NUMBER
UWI         .                                    42706401330000 :UNIQUE WELL ID
XCOORD      .                                  993943.906145108 :SURFACE X 
YCOORD      .                                  10496155.9223708 :SURFACE Y 
LAT         .                                         28.907432 :LATITUDE  
LON         .                                        -95.020991 :LONGITUDE 
ELEV        .FT                                              92 :ELEVATION VALUE
ELEV_TYPE   .                                                KB :ELEVATION REFERENCE TYPE
~Curve Information Section
#MNEM       .UNIT                                      API CODE :CURVE DESCRIPTION
#------------------------------------------------------------------------------
DEPT        .FT                                                 :DEPTH     
ASFL        .OHMM                                               :          
CILD        .MMHO                                               :          
DT          .US/F                                               :          
GR          .GAPI                                               :          
GR_NORM     .GAPI                                               :GammaRay Normalized
ILD         .OHMM                                               :          
SP          .MV                                                 :          
SP_NORM     .GAPI                                               :SP Normalized
VSH_GR      .V/V                                                :Volume of Shale from GR
VSH_SP      .V/V                                                :Volume of Shale from SP
~A        DEPTH           ASFL           CILD             DT             GR        GR_NORM            ILD             SP        SP_NORM         VSH_GR         VSH_SP
# ...
      1404.0000         0.9037        1199.41        -999.25        48.4937       74.89577          0.869        -999.25        -999.25      0.8913994        -999.25
      1404.5000         0.9769       1283.285        -999.25        49.0643       75.75889         0.9278        -999.25        -999.25      0.9097636        -999.25
      1405.0000         1.0523       1220.736        -999.25        51.3642       79.24008         0.9911        -999.25        -999.25      0.9838315        -999.25
      1405.5000         1.1494       1116.592        -999.25        52.2862       80.63519         1.0574        -999.25        -999.25              1        -999.25
      1406.0000         1.3804       1056.932        -999.25         53.371       82.27678         1.1003        -999.25        -999.25              1        -999.25
      1406.5000         1.4257       998.7236        -999.25        52.4269       80.84666         1.1358        -999.25        -999.25              1        -999.25
      1407.0000         1.4552       947.1689        -999.25        50.7747       78.34451          1.208        -999.25        -999.25      0.9647767        -999.25
      1407.5000         1.4756       895.6006        -999.25        46.7786       72.29375         1.2856        -999.25        -999.25      0.8360372        -999.25
      1408.0000         1.2572       862.9053        -999.25        44.3704       68.64703         1.4302        -999.25        -999.25      0.7584475        -999.25
      1408.5000         1.0832       940.6504        -999.25        40.2101       62.34766         1.2461        -999.25        -999.25      0.6244182        -999.25
      1409.0000         1.0022       1073.203        -999.25        37.7441       58.61341         0.9929        -999.25        -999.25      0.5449663        -999.25
      1409.5000         0.9255       1236.232        -999.25         36.362       56.52019         0.8981        -999.25        -999.25      0.5004296        -999.25
      1410.0000         0.8502       1293.334        -999.25        34.0417       53.00655          0.827        -999.25        -999.25      0.4256712        -999.25
      1410.5000          0.799       1343.598        -999.25        26.0146       40.85296         0.7947        -999.25        -999.25      0.1670842        -999.25
      1411.0000         0.9224       1385.197        -999.25        28.7495       44.99275         0.9283        -999.25        -999.25       0.255165        -999.25
      1411.5000         0.9891       1418.354        -999.25        30.9538       48.32922         1.0444        -999.25        -999.25      0.3261537        -999.25
      1412.0000         1.1408       1325.766        -999.25        32.4277       50.55989         1.1284        -999.25        -999.25      0.3736146        -999.25
      1412.5000         1.2374       1163.721        -999.25        33.8113       52.65384         1.2124        -999.25        -999.25      0.4181669        -999.25
      1413.0000         1.3205        1049.91        -999.25        35.3149       54.92948         1.3024        -999.25        -999.25      0.4665847        -999.25
      1413.5000         1.4869       949.6523        -999.25        38.9491       60.43079         1.3977        -999.25        -999.25      0.5836339        -999.25
      1414.0000         1.5693       854.3145        -999.25         38.535       59.80308          1.513        -999.25        -999.25      0.5702783        -999.25
      1414.5000         1.5954       773.7354        -999.25        37.8433        58.7551         1.6216        -999.25        -999.25      0.5479808        -999.25
      1415.0000         1.3344       726.5332        -999.25        37.1516        57.7071         1.6846        -999.25        -999.25       0.525683        -999.25
      1415.5000         1.2752       992.1562        -999.25        35.4452       55.12288         1.0467        -999.25        -999.25      0.4706996        -999.25
      1416.0000         0.9209       1081.836        -999.25        31.8208       49.63487          0.944        -999.25        -999.25      0.3539334        -999.25
      1416.5000         0.8481       1170.436        -999.25        28.3775       44.42103         0.8786        -999.25        -999.25      0.2430006        -999.25
      1417.0000         0.8174       1258.418        -999.25         27.468       43.04329         0.8366        -999.25        -999.25       0.213687        -999.25
      1417.5000         0.7925       1313.152        -999.25        27.0501       42.40983         0.8222        -999.25        -999.25      0.2002091        -999.25
      1418.0000          0.771       1338.346        -999.25         26.675       41.84116         0.8079        -999.25        -999.25      0.1881099        -999.25
      1418.5000         0.7562       1363.533        -999.25        25.8546       40.59832         0.7942        -999.25        -999.25      0.1616664        -999.25
      1419.0000         0.7443       1381.357        -999.25        24.1843       38.06876         0.7813        -999.25        -999.25      0.1078459        -999.25
      1419.5000         0.7324       1397.598        -999.25        24.3381       38.30083         0.7696        -999.25        -999.25      0.1127836        -999.25
      1420.0000         0.7231       1413.834        -999.25        24.5753       38.65917         0.7607        -999.25        -999.25      0.1204078        -999.25
      1420.5000          0.716       1430.684        -999.25        24.8125       39.01751         0.7517        -999.25        -999.25      0.1280322        -999.25
      1421.0000         0.7089       1448.984        -999.25        25.0497       39.37585         0.7429        -999.25        -999.25      0.1356565        -999.25
      1421.5000         0.7018       1467.289        -999.25        25.2951       39.74661         0.7354        -999.25        -999.25      0.1435449        -999.25
      1422.0000         0.6933       1485.596        -999.25        27.6575       43.32244         0.7279        -999.25        -999.25      0.2196264        -999.25
      1422.5000         0.6828       1517.498        -999.25        28.3729       44.40476         0.7187        -999.25        -999.25      0.2426544        -999.25
      1423.0000         0.6722       1570.775        -999.25        29.0735       45.46468         0.7094        -999.25        -999.25      0.2652059        -999.25
      1423.5000         0.6616        1650.52        -999.25        29.6788       46.38031          0.694        -999.25        -999.25      0.2846875        -999.25
      1424.0000          0.649       1739.512        -999.25        30.1961       47.16271         0.6578        -999.25        -999.25      0.3013342        -999.25
      1424.5000         0.6708       1662.916        -999.25        30.6748       47.88668         0.6595        -999.25        -999.25       0.316738        -999.25
      1425.0000         0.6977       1577.367        -999.25        31.4831       49.10965         0.7018        -999.25        -999.25      0.3427586        -999.25
      1425.5000         0.7246       1508.619        -999.25        32.6434       50.86553          0.758        -999.25        -999.25      0.3801176        -999.25
      1426.0000         0.7512       1442.582        -999.25        32.0836       50.01723         0.7969        -999.25        -999.25      0.3620688        -999.25
      1426.5000         0.7714        1414.02        -999.25        31.5237       49.16879         0.8167        -999.25        -999.25      0.3440168        -999.25
      1427.0000         0.7915       1385.449        -999.25        30.7305       47.96714         0.8121        -999.25        -999.25      0.3184497        -999.25
      1427.5000         0.7865       1364.965        -999.25         29.119       45.52659         0.7921        -999.25        -999.25      0.2665232        -999.25
      1428.0000         0.7722       1360.947        -999.25        27.1808       42.59143         0.7825        -999.25        -999.25      0.2040729        -999.25
