#------------------------------------------------------------------------------
# Created by    : vladimir.rabinovich
# Created on    : 09/19/2023 17:20:12
#------------------------------------------------------------------------------
~Version Information Section
VERS.           2.0     :   CWLS log ASCII Standard - VERSION 2.0
WRAP.           NO      :   One line per depth step
~Well Information Section
#MNEM       .UNIT                                         VALUE :DESCRIPTION
#------------------------------------------------------------------------------
STRT        .FT                                             970 :START DEPTH
STOP        .FT                                            6500 :STOP DEPTH
STEP        .FT                                             0.5 :STEP      
NULL        .                                           -999.25 :NULL      
COMP        .                                CONTINENTAL OIL CO :COMPANY   
WELL        .                               OCS G03106 ST00BP00 :WELL      
FLD         .                       MATAGORDA ISLAND BLOCK 0687 :FIELD     
LOC         .                                                   :LOCATION  
CNTY        .                      MATAGORDA ISLAND LARGE BLOCK :LOCATION  
STAT        .                                             TEXAS :STATE     
CTRY        .                                     UNITED STATES :COUNTRY   
SRVC        .                                                   :SERVICE COMPANY
DATE        .                             9/13/2023 11:12:09 AM :LOG DATE  
API         .                                    42703400330000 :API NUMBER
UWI         .                                    42703400330000 :UNIQUE WELL ID
XCOORD      .                                  468864.661343862 :SURFACE X 
YCOORD      .                                  10154488.9405743 :SURFACE Y 
LAT         .                                         27.934663 :LATITUDE  
LON         .                                        -96.628194 :LONGITUDE 
ELEV        .FT                                              96 :ELEVATION VALUE
ELEV_TYPE   .                                                KB :ELEVATION REFERENCE TYPE
~Curve Information Section
#MNEM       .UNIT                                      API CODE :CURVE DESCRIPTION
#------------------------------------------------------------------------------
DEPT        .FT                                                 :DEPTH     
ASFL        .OHMM                                               :          
CALI        .IN                                                 :          
CILD        .MMHO                                               :          
DRHO        .G/C3                                               :          
DT          .US/F                                               :          
DTL         .US/F                                               :          
GR          .GAPI                                               :          
GR_1        .GAPI                                               :          
GR_NORM     .GAPI                                               :GammaRay Normalized
ILD         .OHMM                                               :          
ILM         .OHMM                                               :          
NPHI        .%                                                  :          
RHOB        .G/C3                                               :          
SFL         .OHMM                                               :          
SP          .MV                                                 :          
SP_NORM     .MV                                                 :SP Normalized
VSH_GR      .V/V                                                :Volume of Shale from GR
VSH_SP      .V/V                                                :Volume of Shale from SP
~A        DEPTH           ASFL           CALI           CILD           DRHO             DT            DTL             GR           GR_1        GR_NORM            ILD            ILM           NPHI           RHOB            SFL             SP        SP_NORM         VSH_GR         VSH_SP
# ...
      6122.0000         0.9957         9.3181       1585.617         0.0484        -999.25       101.1517        49.9172        56.6588       56.99827          0.656        -999.25        33.5681         2.2551         0.8555       -75.8435       -38.1076      0.5106015      0.3774551
      6122.5000         0.9753         9.3471       1579.455         0.0497        -999.25       101.2208        48.6925         55.171       53.90867          0.658        -999.25        33.5237         2.2491         0.8244       -75.7144       -37.9785      0.4448654       0.379681
      6123.0000          0.963         9.3358       1573.287          0.044        -999.25        99.0397        50.1788        54.6281       52.76976         0.6599        -999.25        31.9883         2.2374         0.8688       -75.5853       -37.8494      0.4206332      0.3819069
      6123.5000         0.9523         9.2884       1567.127         0.0338        -999.25        95.2178        51.6824         54.957       53.43056         0.6619        -999.25          30.29          2.231         1.0376       -74.5282       -36.7923      0.4346927      0.4001327
      6124.0000         0.9421         9.2578       1560.959         0.0224        -999.25        92.5568        53.9205        55.7726       55.09631         0.6638        -999.25        28.4449         2.2393         1.2386       -73.2925       -35.5567      0.4701343      0.4214362
      6124.5000         0.9735           9.24       1554.799         0.0229        -999.25        91.5686         56.129        57.4858       58.61487         0.6658        -999.25        26.6135          2.284         1.3581       -71.7841       -34.0483      0.5449973      0.4474431
      6125.0000         1.0048         9.2225       1549.723         0.0363        -999.25        94.0359        57.4999        59.6777       63.12167         0.6628        -999.25        26.7786         2.3168         1.2124       -69.5852       -31.8493      0.6408866      0.4853569
      6125.5000         1.0362         9.1817       1544.752         0.0563        -999.25        96.6167        58.6435        61.6984         67.275         0.6574        -999.25        28.1715         2.3327         1.0872        -67.443       -29.7071      0.7292554      0.5222914
      6126.0000         1.0675         9.1439       1539.787         0.0661        -999.25        98.4401        59.1226        63.1628       70.27995         0.6521        -999.25        29.7986         2.3262         0.9916       -65.6495       -27.9136      0.7931905      0.5532138
      6126.5000         1.0957         9.1277       1550.773         0.0692        -999.25       100.0389        59.5691        63.7344       71.44199         0.6467        -999.25        30.9843         2.3251         0.9687       -64.1411       -26.4052      0.8179146      0.5792207
      6127.0000          1.037         9.1259       1580.154         0.0725        -999.25       101.4169        58.8536        63.6389       71.22668         0.6414        -999.25        31.7404         2.3349         0.9651       -63.2505       -25.5146      0.8133337      0.5945758
      6127.5000         0.9889         9.1166       1606.566          0.076        -999.25       102.3027        57.9741        63.1205       70.13834         0.6347        -999.25        32.1899         2.3445         0.9543       -62.3612       -24.6253      0.7901773      0.6099086
      6128.0000         0.9592         9.0902         1629.1          0.081        -999.25       102.5044         56.274        62.2452       68.31319         0.6267        -999.25        32.3234         2.3419         0.9327       -62.9778       -25.2419      0.7513446      0.5992776
      6128.5000         0.9295         9.0559       1651.609         0.0835        -999.25       102.6724        55.9379        61.9944       67.77728         0.6186        -999.25        32.6059         2.3397         0.8591       -63.6836       -25.9478       0.739942      0.5871069
      6129.0000         0.9058         9.0417       1671.223         0.0863        -999.25       102.4635        55.7975        62.4598       68.72006         0.6106        -999.25        33.3594         2.3398         0.8151       -64.4458       -26.7099      0.7600013      0.5739672
      6129.5000            0.9          9.044       1655.059         0.0922        -999.25       102.2546        56.0652        63.3499       70.53945         0.6037        -999.25        33.4234         2.3416         0.8029       -64.9847       -27.2489      0.7987117      0.5646741
      6130.0000         0.9076         9.0595       1638.906         0.0889        -999.25       102.0457        57.5553        63.4257       70.67773         0.6132        -999.25        32.1904         2.3444         0.8165       -65.2887       -27.5528      0.8016537      0.5594345
      6130.5000         0.9408          9.077       1622.742         0.0863        -999.25       101.6187        58.5566        62.6251       69.00682         0.6227        -999.25        30.8324         2.3477         0.9061        -65.577       -27.8412      0.7661026      0.5544621
      6131.0000          0.974         9.0984        1587.42         0.0877        -999.25       100.7816        59.3859        62.4761       68.68106         0.6321        -999.25         28.647         2.3528         1.0217        -65.796       -28.0601      0.7591715      0.5506879
      6131.5000         1.0072         9.1301       1538.475         0.1009        -999.25        99.0767        59.1401        63.4056       70.58198         0.6416        -999.25        27.8065         2.3613         1.0646       -65.8915       -28.1557      0.7996166      0.5490397
      6132.0000         1.0404         9.1783       1489.529         0.1204        -999.25        96.7253        56.9442        64.6787       73.19199         0.6576        -999.25        27.7891         2.3765         1.0921       -66.4038       -28.6679      0.8551486      0.5402086
      6132.5000          1.072         9.2282       1440.584          0.112        -999.25        93.5671        54.5169        62.3519       68.37037         0.6735        -999.25        28.3576         2.3739         1.1641       -67.4246       -29.6887       0.752561      0.5226086
      6133.0000         1.1026         9.2268       1412.256         0.0866        -999.25        90.5348        52.2737        58.9157       61.25855         0.6911        -999.25        29.1293         2.3413         1.2799       -69.8604       -32.1245      0.6012457      0.4806121
      6133.5000         1.1332         9.1649       1390.164         0.0625        -999.25        89.8044        50.3201        56.4104       56.06845         0.7242        -999.25        29.1959         2.3127         1.4097       -72.1403       -34.4044      0.4908182      0.4413035
      6134.0000         1.1638         9.1135       1368.072         0.0541        -999.25        92.1089        48.3591         53.987       51.04763         0.7573        -999.25        28.3823         2.2856         1.3292       -75.2701       -37.5343      0.3839921      0.3873396
      6134.5000         1.1458         9.0921        1345.98         0.0513        -999.25         95.045        47.3123        52.0579       47.04704         0.7416        -999.25        27.9109          2.256         0.8487       -78.1912       -40.4553      0.2988732      0.3369776
      6135.0000         1.0361         9.1321       1369.227          0.055        -999.25        98.0798        46.9276        51.1777        45.2118         0.7095        -999.25        28.4129         2.2384         0.7274       -77.8976       -40.1617      0.2598254      0.3420396
      6135.5000         0.9934         9.2104       1399.641         0.0708        -999.25        99.8915        47.8167        51.4515       45.75886         0.6775        -999.25        29.4023          2.244         0.6698       -76.2135       -38.4776      0.2714651      0.3710759
