#------------------------------------------------------------------------------
# Created by    : vladimir.rabinovich
# Created on    : 09/19/2023 17:20:03
#------------------------------------------------------------------------------
~Version Information Section
VERS.           2.0     :   CWLS log ASCII Standard - VERSION 2.0
WRAP.           NO      :   One line per depth step
~Well Information Section
#MNEM       .UNIT                                         VALUE :DESCRIPTION
#------------------------------------------------------------------------------
STRT        .FT                                             945 :START DEPTH
STOP        .FT                                           12004 :STOP DEPTH
STEP        .FT                                             0.5 :STEP      
NULL        .                                           -999.25 :NULL      
COMP        .                                    EXXON CO U S A :COMPANY   
WELL        .                                     ST TR 00819-L :WELL      
FLD         .                                           WILDCAT :FIELD     
LOC         .                                                   :LOCATION  
CNTY        .                        MUSTANG ISLAND LARGE BLOCK :LOCATION  
STAT        .                                             TEXAS :STATE     
CTRY        .                                     UNITED STATES :COUNTRY   
SRVC        .                                                   :SERVICE COMPANY
DATE        .                             9/13/2023 11:18:55 AM :LOG DATE  
API         .                                    42702301310000 :API NUMBER
UWI         .                                    42702301310000 :UNIQUE WELL ID
XCOORD      .                                  274042.524369281 :SURFACE X 
YCOORD      .                                  9990401.22532542 :SURFACE Y 
LAT         .                                        27.4671591 :LATITUDE  
LON         .                                       -97.2129423 :LONGITUDE 
ELEV        .FT                                              93 :ELEVATION VALUE
ELEV_TYPE   .                                                KB :ELEVATION REFERENCE TYPE
~Curve Information Section
#MNEM       .UNIT                                      API CODE :CURVE DESCRIPTION
#------------------------------------------------------------------------------
DEPT        .FT                                                 :DEPTH     
ASFL        .OHMM                                               :          
CILD        .MMHO                                               :          
GR          .GAPI                                               :          
GR_NORM     .GAPI                                               :GammaRay Normalized
ILD         .OHMM                                               :          
SP          .MV                                                 :          
SP_NORM     .MV                                                 :SP Normalized
VSH_GR      .V/V                                                :Volume of Shale from GR
VSH_SP      .V/V                                                :Volume of Shale from SP
~A        DEPTH           ASFL           CILD             GR        GR_NORM            ILD             SP        SP_NORM         VSH_GR         VSH_SP
# ...
      9027.5000         1.0387       1023.548        -999.25        -999.25         0.8879        -41.897       -8.06604        -999.25      0.8760344
      9028.0000          1.054       1036.355        -999.25        -999.25         0.9058       -40.6314      -6.799458        -999.25      0.8982551
      9028.5000         1.0642       1049.188        -999.25        -999.25         0.9007       -39.5729      -5.739975        -999.25      0.9168425
      9029.0000         1.0743        1062.02        -999.25        -999.25         0.8739       -39.1254      -5.291492        -999.25      0.9247106
      9029.5000         1.0844       1074.678        -999.25        -999.25         0.8471       -38.8243       -4.98941        -999.25      0.9300103
      9030.0000         1.0866       1087.361        -999.25        -999.25         0.8203       -38.5695      -4.733627        -999.25      0.9344978
      9030.5000         1.0146        1100.02        -999.25        -999.25         0.7929       -38.2764      -4.439548        -999.25       0.939657
      9031.0000         0.9511       1112.977        -999.25        -999.25         0.7656       -37.8568      -4.018963        -999.25      0.9470357
      9031.5000         0.9039       1145.391        -999.25        -999.25         0.7383       -37.4373      -3.598484        -999.25      0.9544126
      9032.0000          0.864       1178.801        -999.25        -999.25          0.711       -37.0214      -3.181599        -999.25      0.9617264
      9032.5000         0.8278       1228.342        -999.25        -999.25         0.6865       -36.6279      -2.787117        -999.25      0.9686471
      9033.0000         0.7949        1288.26        -999.25        -999.25         0.6628       -36.2343      -2.392532        -999.25      0.9755696
      9033.5000         0.7681       1329.164        -999.25        -999.25          0.639       -35.8408      -1.998055        -999.25      0.9824903
      9034.0000         0.7565       1361.629        -999.25        -999.25         0.6153       -35.5737      -1.729969        -999.25      0.9871935
      9034.5000         0.7623       1385.531        -999.25        -999.25         0.6146       -35.7813      -1.936588        -999.25      0.9835686
      9035.0000         0.8116       1397.395        -999.25        -999.25         0.6203        -38.171      -4.325306        -999.25      0.9416613
      9035.5000         0.8666       1400.994        -999.25        -999.25         0.6392        -40.474      -6.627323        -999.25       0.901275
      9036.0000         0.9295        1393.15        -999.25        -999.25         0.6627       -42.6853      -8.837639        -999.25      0.8624976
      9036.5000         0.9995       1378.109        -999.25        -999.25         0.6861       -45.3552      -11.50656        -999.25      0.8156744
      9037.0000         1.0844       1357.906        -999.25        -999.25         0.7096       -49.7181      -15.86848        -999.25      0.7391495
      9037.5000         1.1659       1337.701        -999.25        -999.25          0.733       -59.7679      -25.91729        -999.25      0.5628545
      9038.0000         1.2526       1317.076        -999.25        -999.25         0.7564       -62.3114      -28.45981        -999.25      0.5182489
      9038.5000         1.4212       1295.309        -999.25        -999.25         0.7791       -64.2351      -30.38253        -999.25       0.484517
      9039.0000         1.4834       1273.541        -999.25        -999.25         0.8018       -65.7051      -31.85155        -999.25      0.4587448
      9039.5000         1.5233       1251.748        -999.25        -999.25         0.8246       -67.6362      -33.78167        -999.25      0.4248831
      9040.0000         1.5514       1227.846        -999.25        -999.25         0.8473       -69.8153      -35.95978        -999.25      0.3866705
      9040.5000         1.4559       1202.131        -999.25        -999.25         0.8701       -65.5935        -31.737        -999.25      0.4607544
      9041.0000         1.3083       1178.006        -999.25        -999.25         0.8803       -59.1482      -25.29072        -999.25      0.5738471
      9041.5000         1.2177       1158.906        -999.25        -999.25         0.8837       -55.0579      -21.19944        -999.25      0.6456239
      9042.0000          1.138       1152.254        -999.25        -999.25         0.8683       -52.3756      -18.51615        -999.25      0.6926991
      9042.5000         1.0189       1145.602        -999.25        -999.25         0.8252       -47.5069      -13.64647        -999.25      0.7781321
      9043.0000         0.9575       1136.283        -999.25        -999.25         0.7821        -44.842      -10.98059        -999.25      0.8249019
      9043.5000          0.885       1122.334        -999.25        -999.25          0.739       -42.8216      -8.959209        -999.25      0.8603647
      9044.0000         0.8404       1108.359        -999.25        -999.25          0.713       -40.7244      -6.861027        -999.25       0.897175
      9044.5000         1.0039       1091.879        -999.25        -999.25         0.6911       -39.2271      -5.362743        -999.25      0.9234607
      9045.0000         1.0659       1068.895        -999.25        -999.25         0.7545       -37.8711      -4.005764        -999.25      0.9472673
      9045.5000         1.1233       1045.885        -999.25        -999.25         0.8268       -38.0515      -4.185177        -999.25      0.9441197
      9046.0000         1.1712       1024.193        -999.25        -999.25         0.9142       -38.5534      -4.686096        -999.25      0.9353316
      9046.5000         1.2261       1003.518        -999.25        -999.25         0.9473       -39.0554      -5.187115        -999.25      0.9265419
      9047.0000         1.2314       982.8174        -999.25        -999.25         0.9803       -39.4812      -5.611935        -999.25      0.9190888
      9047.5000          1.177       961.3721        -999.25        -999.25         1.0111       -39.6177      -5.747448        -999.25      0.9167114
      9048.0000         1.1248       937.6934        -999.25        -999.25         1.0094       -39.4843      -5.613068        -999.25       0.919069
      9048.5000         1.0746       914.0635        -999.25        -999.25         0.9456       -39.5115      -5.639286        -999.25       0.918609
      9049.0000         1.0329       895.2744        -999.25        -999.25         0.8865       -39.8363      -5.963104        -999.25       0.912928
      9049.5000         0.9986        926.623        -999.25        -999.25         0.8821       -40.1617      -6.287521        -999.25      0.9072365
      9050.0000         1.0283       976.0654        -999.25        -999.25         0.9322       -41.1805       -7.30534        -999.25        0.88938
      9050.5000         1.0948       1025.012        -999.25        -999.25          0.981       -42.8241      -8.947956        -999.25      0.8605621
      9051.0000         1.1487       1055.678        -999.25        -999.25          1.011       -46.0344      -12.15728        -999.25      0.8042583
      9051.5000         1.1901       1047.846        -999.25        -999.25         1.0411       -47.9543      -14.07619        -999.25      0.7705932
      9052.0000         1.2214       1040.004        -999.25        -999.25         1.0605       -48.3451      -14.46601        -999.25      0.7637542
      9052.5000         1.2422       1032.172        -999.25        -999.25         1.0325       -48.5248      -14.64473        -999.25      0.7606189
      9053.0000         1.2618       1024.328        -999.25        -999.25         1.0044       -48.3677      -14.48664        -999.25      0.7633922
      9053.5000         1.2623       1035.883        -999.25        -999.25         0.9696       -47.8546      -13.97256        -999.25      0.7724112
