#------------------------------------------------------------------------------
# Created by    : vladimir.rabinovich
# Created on    : 09/19/2023 17:21:32
#------------------------------------------------------------------------------
~Version Information Section
VERS.           2.0     :   CWLS log ASCII Standard - VERSION 2.0
WRAP.           NO      :   One line per depth step
~Well Information Section
#MNEM       .UNIT                                         VALUE :DESCRIPTION
#------------------------------------------------------------------------------
STRT        .FT                                            4185 :START DEPTH
STOP        .FT                                            8075 :STOP DEPTH
STEP        .FT                                             0.5 :STEP      
NULL        .                                           -999.25 :NULL      
COMP        .                                         HESS CORP :COMPANY   
WELL        .                               OCS G07236 ST00BP00 :WELL      
FLD         .                              GALVESTON BLOCK 0210 :FIELD     
LOC         .                                                   :LOCATION  
CNTY        .                             GALVESTON LARGE BLOCK :LOCATION  
STAT        .                                             TEXAS :STATE     
CTRY        .                                     UNITED STATES :COUNTRY   
SRVC        .                                                   :SERVICE COMPANY
DATE        .                             9/13/2023 11:19:34 AM :LOG DATE  
API         .                                    42706402930000 :API NUMBER
UWI         .                                    42706402930000 :UNIQUE WELL ID
XCOORD      .                                   1127714.7472722 :SURFACE X 
YCOORD      .                                  10563055.4663979 :SURFACE Y 
LAT         .                                         29.097041 :LATITUDE  
LON         .                                        -94.605794 :LONGITUDE 
ELEV        .FT                                              89 :ELEVATION VALUE
ELEV_TYPE   .                                                KB :ELEVATION REFERENCE TYPE
~Curve Information Section
#MNEM       .UNIT                                      API CODE :CURVE DESCRIPTION
#------------------------------------------------------------------------------
DEPT        .FT                                                 :DEPTH     
CALI        .IN                                                 :          
DRHO        .G/CC                                               :          
DT          .US/F                                               :          
ILD         .OHMM                                               :          
ILM         .OHMM                                               :          
NPHI        .%                                                  :          
RFOC        .OHMM                                               :          
RHOB        .G/CC                                               :          
SP          .MV                                                 :          
SP_NORM     .MV                                                 :SP Normalized
VSH_SP      .V/V                                                :Volume of Shale from SP
~A        DEPTH           CALI           DRHO             DT            ILD            ILM           NPHI           RFOC           RHOB             SP        SP_NORM         VSH_SP
# ...
      6030.0000        13.3938         0.0082       116.2859         0.7144         0.7087        34.7975         0.9102         2.3421       -62.1511      -2.140667      0.9714578
      6030.5000        13.3689         0.0083       113.9027         0.7173          0.712        33.0026         0.9684         2.3482       -63.4605      -3.455257      0.9539299
      6031.0000         13.348         0.0081       110.2936         0.7128         0.7131        33.0934         1.0255         2.3451       -64.8455      -4.845451       0.935394
      6031.5000        13.3517         0.0073       107.0729          0.692         0.6965        33.6636         1.0585         2.3381       -66.3291      -6.334251      0.9155433
      6032.0000        13.3493         0.0054       105.9476         0.6641         0.6652        34.2368         1.0882         2.3282       -69.5437      -9.554043      0.8726128
      6032.5000        13.2828         0.0042       106.9667         0.6226         0.6273        34.8294         1.0976         2.3104       -75.6321      -15.64764      0.7913648
      6033.0000        13.1953         0.0039       110.1305         0.5896          0.592        35.4212         1.0777         2.2912        -82.894      -22.91473      0.6944703
      6033.5000        13.1093         0.0039       113.5972         0.5636         0.5626        36.0247         1.0495         2.2694       -87.4706      -27.49652      0.6333797
      6034.0000         13.032         0.0039       117.7603         0.5435         0.5404        36.5766         1.0159          2.246       -91.1554      -31.18652      0.5841797
      6034.5000         13.001         0.0042       119.1746         0.5286         0.5304        35.9611         0.9798         2.2499       -90.0483      -30.08461      0.5988718
      6035.0000        13.0713         0.0052        119.165         0.5304         0.5278        35.5377         0.9595         2.2628       -84.8159      -24.85741      0.6685678
      6035.5000        13.1631         0.0065       119.1583         0.5338         0.5286        34.5739         0.9778         2.2776       -82.1433      -22.19001      0.7041333
      6036.0000        13.1997         0.0085       119.9143         0.5332         0.5324        33.8142         0.9991          2.291       -79.5782       -19.6301      0.7382654
      6036.5000        13.1816         0.0112       122.9978         0.5397         0.5406        33.6403         0.9398         2.2937       -71.4399      -11.49699      0.8467067
      6037.0000        13.1366          0.014        126.537          0.552         0.5521        34.8301          0.836         2.2803       -66.5841      -6.646385      0.9113815
      6037.5000        13.0791          0.015        129.333         0.5569         0.5571        38.2088         0.7837         2.2473       -64.5277      -4.595181       0.938731
      6038.0000        13.0146         0.0152       132.6057         0.5468         0.5507         41.843         0.7818          2.213       -64.0857      -4.158375       0.944555
      6038.5000        12.9492         0.0128       131.9751         0.5357         0.5416        41.8869         0.8007         2.2043       -66.8737      -6.951569      0.9073124
      6039.0000        12.8937         0.0061       129.7681         0.5229         0.5325        41.4885         0.8327           2.21       -70.4559      -10.53896      0.8594805
      6039.5000        12.8629         0.0041       127.0936         0.5039          0.507        41.0741         0.8589         2.2151       -74.2177      -14.30595      0.8092539
      6040.0000        12.8715         0.0035       125.6555         0.4726          0.475        40.7929         0.8664         2.2173       -78.3688      -18.46225      0.7538367
      6040.5000        12.8946         0.0034       125.1752         0.4427         0.4438        40.6034         0.8766         2.2171        -84.001      -24.09964      0.6786714
      6041.0000         12.914         0.0034       124.9199         0.4164         0.4207        40.1979         0.8941         2.2154       -91.0118      -31.11564      0.5851248
      6041.5000        12.9326         0.0033       125.0011         0.3929         0.4051        39.2993          0.905         2.2095       -98.2635      -38.37253      0.4883663
      6042.0000        12.9492         0.0031       125.4995         0.3682         0.3966        37.6884         0.8969         2.1852      -108.1135      -48.22773      0.3569636
      6042.5000        12.9559         0.0029       125.9344         0.3566         0.3915        37.1805         0.9278         2.1462      -116.1597      -56.27912      0.2496117
      6043.0000        12.9528         0.0033        126.202         0.3527         0.3904         36.817         0.9958         2.1352      -117.1283      -57.25292      0.2366278
      6043.5000        12.9361         0.0043       126.1222         0.3515         0.3926        37.6418         0.9832         2.1523      -108.7695      -48.89931      0.3480092
      6044.0000        12.9069         0.0042       125.8467         0.3519         0.3969        39.3615         0.8077         2.1705       -96.6031      -36.73811      0.5101585
      6044.5000        12.8723         0.0034       125.5872         0.3536         0.4029        39.6923         0.7383         2.1795       -87.7236       -27.8638      0.6284826
      6045.0000        12.8408         0.0028       125.5833         0.3576         0.4098        38.5801         0.8089          2.185        -88.238      -28.38339      0.6215548
      6045.5000        12.8121         0.0029       125.7864         0.3642         0.4168        37.5985         0.9036         2.1979        -88.172      -28.32258      0.6223656
      6046.0000        12.7871         0.0031       126.0765         0.3723         0.4213        37.3079         0.8948          2.209       -88.0728      -28.22858      0.6236189
      6046.5000         12.768         0.0027       126.2867         0.3822         0.4219        36.4729         0.8521         2.2061       -90.4891      -30.65007      0.5913324
      6047.0000        12.7639         0.0023       126.1367         0.3895         0.4188        35.8306         0.8924         2.1931         -94.22      -34.38617      0.5415177
      6047.5000        12.7707         0.0021       125.1467         0.3913         0.4151        36.6345         0.9833         2.1819       -98.3969      -38.56826      0.4857565
      6048.0000        12.7865         0.0028       123.9331         0.3812         0.4095        37.3591         1.0383          2.176      -102.0508      -42.22736      0.4369686
      6048.5000        12.8087         0.0037       123.1027         0.3699         0.4014        37.7929         1.0115         2.1752      -102.6492      -42.83095      0.4289207
      6049.0000        12.8317         0.0036       122.6185         0.3558         0.3896        37.7676         0.9365         2.1716      -102.4086      -42.59555      0.4320594
      6049.5000        12.8464         0.0032       122.7726         0.3394         0.3789        37.6611         0.8813          2.159      -102.6677      -42.85984      0.4285354
      6050.0000        12.8488         0.0025       123.0334         0.3243         0.3695        37.3979         0.9806           2.13      -105.2744      -45.47173      0.3937102
      6050.5000         12.852         0.0019       123.3843         0.3142         0.3615        36.7137         1.0557         2.1037      -116.3954      -56.59793      0.2453609
      6051.0000        12.8582         0.0017       123.7373         0.3089         0.3557        35.8663         1.0772         2.0995      -122.9501      -63.15783      0.1578957
      6051.5000        12.8679         0.0018       123.9684         0.3074         0.3525         35.215         1.0017         2.1069      -123.5715      -63.78442      0.1495411
      6052.0000        12.8817         0.0024       123.9758         0.3083         0.3557        34.9997         0.9261         2.1224      -120.2185      -60.43661      0.1941785
