#------------------------------------------------------------------------------
# Created by    : vladimir.rabinovich
# Created on    : 09/19/2023 17:20:31
#------------------------------------------------------------------------------
~Version Information Section
VERS.           2.0     :   CWLS log ASCII Standard - VERSION 2.0
WRAP.           NO      :   One line per depth step
~Well Information Section
#MNEM       .UNIT                                         VALUE :DESCRIPTION
#------------------------------------------------------------------------------
STRT        .FT                                            2310 :START DEPTH
STOP        .FT                                           12118 :STOP DEPTH
STEP        .FT                                             0.5 :STEP      
NULL        .                                           -999.25 :NULL      
COMP        .                                   FOREST OIL CORP :COMPANY   
WELL        .                               OCS G01793 ST00BP00 :WELL      
FLD         .                                           WILDCAT :FIELD     
LOC         .                                                   :LOCATION  
CNTY        .                             GALVESTON LARGE BLOCK :LOCATION  
STAT        .                                             TEXAS :STATE     
CTRY        .                                     UNITED STATES :COUNTRY   
SRVC        .                                                   :SERVICE COMPANY
DATE        .                             9/13/2023 11:19:24 AM :LOG DATE  
API         .                                    42706001380000 :API NUMBER
UWI         .                                    42706001380000 :UNIQUE WELL ID
XCOORD      .                                  1024149.02927821 :SURFACE X 
YCOORD      .                                  10425384.3690734 :SURFACE Y 
LAT         .                                         28.714212 :LATITUDE  
LON         .                                        -94.923031 :LONGITUDE 
ELEV        .FT                                              60 :ELEVATION VALUE
ELEV_TYPE   .                                                KB :ELEVATION REFERENCE TYPE
~Curve Information Section
#MNEM       .UNIT                                      API CODE :CURVE DESCRIPTION
#------------------------------------------------------------------------------
DEPT        .FT                                                 :DEPTH     
ASN         .OHMM                                               :          
CALI        .IN                                                 :          
CILD        .MMHO                                               :          
DT          .US/F                                               :          
ILD         .OHMM                                               :          
RHOB        .G/C3                                               :          
SP          .MV                                                 :          
SP_NORM     .MV                                                 :SP Normalized
VSH_SP      .V/V                                                :Volume of Shale from SP
~A        DEPTH            ASN           CALI           CILD             DT            ILD           RHOB             SP        SP_NORM         VSH_SP
# ...
      3608.5000         0.7649        13.2166       1332.092       155.9128         0.7636        -999.25       -58.8323      -4.587438      0.9235427
      3609.0000          0.762        13.2359       1349.563       154.4014         0.7635        -999.25       -58.9258       -4.71834       0.921361
      3609.5000         0.7591        13.2552       1360.494       152.4075         0.7675        -999.25       -58.6769      -4.369878      0.9271687
      3610.0000         0.7562        13.2744        1371.42        150.542         0.7757        -999.25       -58.3635      -3.931118      0.9344814
      3610.5000         0.7673        13.2755       1368.826       149.4897         0.7838        -999.25       -58.0612      -3.507899       0.941535
      3611.0000         0.7785        13.2533       1348.871       148.8257          0.792        -999.25       -58.0524      -3.495578      0.9417404
      3611.5000         0.7898        13.2178       1330.883        148.304         0.8001        -999.25       -58.0436      -3.483257      0.9419457
      3612.0000         0.8011        13.1796       1312.896       147.7993         0.8083        -999.25       -58.0349      -3.471081      0.9421486
      3612.5000         0.8124        13.1414       1294.922       148.3396         0.8125        -999.25       -58.0262      -3.458899      0.9423517
      3613.0000         0.8236        13.1075       1276.934       148.8799         0.8152        -999.25       -57.8566      -3.221462       0.946309
      3613.5000          0.834        13.0908       1258.959       149.8984          0.818        -999.25       -57.6573      -2.942439      0.9509594
      3614.0000         0.8445        13.0741       1240.973       152.1511         0.8207        -999.25       -57.4579      -2.663281       0.955612
      3614.5000         0.8549        13.0574       1221.402       153.5742         0.8235        -999.25       -57.9379      -3.335281       0.944412
      3615.0000         0.8654        13.0421       1199.637       154.8711         0.8262        -999.25       -58.5457        -4.1862        0.93023
      3615.5000         0.8782        13.0331       1177.873       156.3552          0.829        -999.25       -59.1218      -4.992739      0.9167877
      3616.0000         0.8915        13.0242       1156.121       157.7063         0.8287        -999.25       -59.2734      -5.204979      0.9132503
      3616.5000         0.8817        13.0153        1118.77       158.7815         0.8276        -999.25       -59.4251      -5.417357      0.9097107
      3617.0000          0.872        13.0064       1129.732       157.0125         0.8265        -999.25       -59.3975      -5.378718      0.9103547
      3617.5000         0.8623        12.9892       1142.385       155.4504         0.8254        -999.25       -59.2856      -5.222058      0.9129657
      3618.0000         0.8535        12.9695       1155.043       155.0625         0.8243        -999.25       -59.1736      -5.065259       0.915579
      3618.5000         0.8446        12.9498       1167.701       154.6748         0.8232        -999.25       -59.0828      -4.938142      0.9176976
      3619.0000         0.8377        12.9301        1179.07       154.2871         0.8221        -999.25       -59.0147      -4.842803      0.9192866
      3619.5000          0.848        12.9112       1171.604       154.3931          0.821        -999.25       -58.9466      -4.747462      0.9208756
      3620.0000         0.8575        12.8925       1164.137        155.158         0.8216        -999.25       -58.8784      -4.651978      0.9224671
      3620.5000         0.8594        12.8738       1156.811       155.9229         0.8225        -999.25       -58.8103      -4.556638      0.9240561
      3621.0000         0.8604        12.8551       1151.096       160.2869         0.8233        -999.25       -58.7422      -4.461298      0.9256451
      3621.5000         0.8604        12.8501       1145.383        161.845         0.8242        -999.25       -58.6713      -4.362039      0.9272994
      3622.0000         0.8603        12.8502       1139.668       162.7415         0.8251        -999.25       -58.5718       -4.22274       0.929621
      3622.5000         0.8603        12.8503       1133.953       157.7454          0.826        -999.25       -58.4724      -4.083581      0.9319403
      3623.0000         0.8603        12.8594       1144.996        151.469         0.8268        -999.25        -58.373      -3.944421      0.9342597
      3623.5000         0.8663        12.8719       1157.947         149.26         0.8277        -999.25       -58.2735      -3.805118      0.9365814
      3624.0000         0.8742        12.8844       1170.906       148.5332         0.8279        -999.25       -58.1689      -3.658679       0.939022
      3624.5000         0.8822        12.8969       1183.863       147.9402         0.8278        -999.25       -58.0618      -3.508737       0.941521
      3625.0000         0.8828        12.9094       1195.736       148.2576         0.8277        -999.25       -57.9742      -3.386101       0.943565
      3625.5000         0.8716        12.9029        1205.49       149.5562         0.8276        -999.25       -58.0808      -3.535339      0.9410777
      3626.0000         0.8607        12.8951       1215.244        152.802         0.8275        -999.25       -58.1874      -3.684581      0.9385903
      3626.5000         0.8498        12.8872       1224.998       160.8098         0.8274        -999.25       -58.2941      -3.833962      0.9361006
      3627.0000         0.8395         12.849       1234.752       160.7578         0.8273        -999.25       -58.4011       -3.98376       0.933604
      3627.5000         0.8319        12.8083       1244.201       159.0471         0.8272        -999.25       -58.5092      -4.135101      0.9310817
      3628.0000         0.8242        12.7646       1252.254       154.2954         0.8261        -999.25       -58.6172      -4.286298      0.9285617
      3628.5000         0.8228        12.6946       1260.299       152.9097         0.8246        -999.25       -58.6146      -4.282661      0.9286223
      3629.0000         0.8228        12.6246       1268.352       152.2009         0.8231        -999.25       -58.3725      -3.943722      0.9342713
      3629.5000         0.8218        12.5707       1276.498       152.7903         0.8216        -999.25       -58.1304      -3.604782      0.9399203
      3630.0000         0.8202        12.5249       1284.998       153.3794         0.8201        -999.25        -57.987      -3.404019      0.9432663
      3630.5000         0.8186        12.4891       1287.303       153.9687         0.8186        -999.25       -57.9377      -3.334998      0.9444167
      3631.0000         0.8167        12.4846         1281.1       155.2725         0.8171        -999.25       -58.0645      -3.512518       0.941458
      3631.5000         0.8102        12.4801       1274.902       157.4829         0.8156        -999.25        -58.208       -3.71342      0.9381096
      3632.0000         0.8036        12.4877       1268.701       158.8892         0.8142        -999.25       -58.3515      -3.914322      0.9347613
      3632.5000          0.807        12.5022       1264.148       159.3159         0.8132        -999.25       -58.4951      -4.115357      0.9314107
      3633.0000         0.8116        12.5168       1261.691       157.9719         0.8121        -999.25       -58.6386      -4.316259      0.9280624
      3633.5000         0.8162        12.5313       1259.236       156.9016         0.8111        -999.25       -58.7822        -4.5173      0.9247116
      3634.0000         0.8209        12.5458       1256.779       155.8313           0.81        -999.25       -58.8481      -4.609558       0.923174
      3634.5000         0.8247        12.5601       1254.324       153.9434          0.809        -999.25       -58.8866      -4.663461      0.9222757
