#------------------------------------------------------------------------------
# Created by    : vladimir.rabinovich
# Created on    : 09/19/2023 17:20:18
#------------------------------------------------------------------------------
~Version Information Section
VERS.           2.0     :   CWLS log ASCII Standard - VERSION 2.0
WRAP.           NO      :   One line per depth step
~Well Information Section
#MNEM       .UNIT                                         VALUE :DESCRIPTION
#------------------------------------------------------------------------------
STRT        .FT                                             780 :START DEPTH
STOP        .FT                                            9803 :STOP DEPTH
STEP        .FT                                             0.5 :STEP      
NULL        .                                           -999.25 :NULL      
COMP        .                                  SAMEDAN OIL CORP :COMPANY   
WELL        .                               OCS G04076 ST00BP00 :WELL      
FLD         .                            HIGH ISLAND BLOCK 0105 :FIELD     
LOC         .                                                   :LOCATION  
CNTY        .                           HIGH ISLAND LARGE BLOCK :LOCATION  
STAT        .                                             TEXAS :STATE     
CTRY        .                                     UNITED STATES :COUNTRY   
SRVC        .                                                   :SERVICE COMPANY
DATE        .                             9/13/2023 11:19:59 AM :LOG DATE  
API         .                                    42708401630000 :API NUMBER
UWI         .                                    42708401630000 :UNIQUE WELL ID
XCOORD      .                                  1167393.84075462 :SURFACE X 
YCOORD      .                                  10652000.2522841 :SURFACE Y 
LAT         .                                        29.3430877 :LATITUDE  
LON         .                                       -94.4850788 :LONGITUDE 
ELEV        .FT                                              87 :ELEVATION VALUE
ELEV_TYPE   .                                                KB :ELEVATION REFERENCE TYPE
~Curve Information Section
#MNEM       .UNIT                                      API CODE :CURVE DESCRIPTION
#------------------------------------------------------------------------------
DEPT        .FT                                                 :DEPTH     
ASFL        .OHMM                                               :          
CILD        .MMHO                                               :          
DT          .US/F                                               :          
GR          .GAPI                                               :          
GR_1        .GAPI                                               :          
GR_NORM     .GAPI                                               :GammaRay Normalized
ILD         .OHMM                                               :          
SP          .MV                                                 :          
SP_NORM     .MV                                                 :SP Normalized
VSH_GR      .V/V                                                :Volume of Shale from GR
VSH_SP      .V/V                                                :Volume of Shale from SP
~A        DEPTH           ASFL           CILD             DT             GR           GR_1        GR_NORM            ILD             SP        SP_NORM         VSH_GR         VSH_SP
# ...
      6180.0000         0.5736       2191.039        -999.25        -999.25        80.9005       83.61408          0.424       -88.4266      -1.915916              1              1
      6180.5000         0.6075       1760.936        -999.25        -999.25        81.2979       84.26869         0.4611       -89.2158      -2.717735              1      0.9880378
      6181.0000         0.6081       1796.613        -999.25        -999.25        80.6953       83.28281         0.4982       -91.0024      -4.516953              1      0.9580508
      6181.5000         0.6087        1956.58        -999.25        -999.25        79.9318       82.03297         0.5304       -93.1863       -6.71347              1      0.9214422
      6182.0000         0.6032       2066.164        -999.25        -999.25        78.9484       80.42236         0.5091       -95.1494      -8.689186              1      0.8885136
      6182.5000         0.5897       2195.742        -999.25        -999.25         77.965       78.81175         0.4808       -97.0194      -10.57181      0.9747182      0.8571365
      6183.0000         0.5761       2366.785        -999.25        -999.25        77.1599       77.49367         0.4526       -98.7498      -12.31483      0.9466738      0.8280862
      6183.5000         0.5626       2437.406        -999.25        -999.25        76.8234       76.94433         0.4273      -100.0806      -13.65824      0.9349857       0.805696
      6184.0000         0.5488       2493.672        -999.25        -999.25        77.2968       77.72363         0.4048      -101.0751      -14.66537      0.9515666      0.7889106
      6184.5000         0.5385       2552.137        -999.25        -999.25        78.1012       79.04591         0.3823      -101.4132      -15.01608      0.9797001      0.7830653
      6185.0000         0.5426       2762.684        -999.25        -999.25          76.73       76.79913         0.3598      -101.7511       -15.3666      0.9318963      0.7772233
      6185.5000         0.5467       2639.766        -999.25        -999.25        72.8402       70.42057         0.3505      -102.0891      -15.71722      0.7961823      0.7713796
      6186.0000         0.5507       2559.098        -999.25        -999.25        71.3682       68.00843         0.3437       -102.427      -16.06774      0.7448602      0.7655376
      6186.5000          0.554        2478.43        -999.25        -999.25        70.3958       66.41588         0.3369      -101.8115      -15.46486      0.7109761      0.7755857
      6187.0000         0.5558       2394.523        -999.25        -999.25        74.5347       73.20843         0.3301      -101.1289      -14.79488      0.8554984       0.786752
      6187.5000         0.5577        2300.82        -999.25        -999.25        76.1021       75.78243         0.3523      -100.4464        -14.125      0.9102646      0.7979167
      6188.0000         0.5596       2197.117        -999.25        -999.25        77.0194       77.28995         0.3851       -99.7638      -13.45502      0.9423393       0.809083
      6188.5000         0.5614       2114.684        -999.25        -999.25        77.7708       78.52528         0.4181       -96.1616      -9.865433      0.9686229      0.8689095
      6189.0000         0.5602       2038.033        -999.25        -999.25        78.3358       79.45486         0.4481       -92.2794      -5.995857      0.9884014      0.9334024
      6189.5000         0.5552       1963.049        -999.25        -999.25        78.5667       79.83633         0.4714       -92.1185      -5.847572      0.9965178      0.9358738
      6190.0000         0.5502        1892.77        -999.25        -999.25        77.6975       78.41308         0.4793       -91.9847      -5.726395      0.9662357      0.9378935
      6190.5000          0.543       1743.684        -999.25        -999.25        76.8142        76.9667         0.4493       -92.8663      -6.620613      0.9354616      0.9229898
      6191.0000         0.5245       2124.387        -999.25        -999.25        74.7679        73.6124         0.4193       -94.3173      -8.084229      0.8640937      0.8985962
      6191.5000         0.5061       2374.527        -999.25        -999.25        70.5704       66.72906          0.384       -97.6615      -11.44105      0.7176397      0.8426492
      6192.0000          0.484       3553.887        -999.25        -999.25         66.886       60.68748         0.3404      -102.7152      -16.50737      0.5890954      0.7582105
      6192.5000         0.4617       3964.141        -999.25        -999.25        60.3284       49.93239         0.2969      -111.1414      -24.94619      0.3602637      0.6175635
      6193.0000         0.4377       4052.016        -999.25        -999.25        56.6244       43.85864         0.2534      -121.1949      -35.01231      0.2310349      0.4497949
      6193.5000         0.4125       4788.133        -999.25        -999.25        54.4157       40.23793         0.2178      -133.7141      -47.54412      0.1539986      0.2409313
      6194.0000         0.3777       5852.117        -999.25        -999.25        58.5154       46.96619         0.1824      -139.5864      -53.42904       0.297153      0.1428494
      6194.5000         0.3526       5940.242        -999.25        -999.25         63.336       54.87706         0.1568      -142.1206      -55.97587      0.4654694      0.1004022
      6195.0000         0.3343       6237.234        -999.25        -999.25        66.2802       59.70971         0.1328      -135.5864      -49.45428      0.5682918      0.2090954
      6195.5000         0.3297       6857.492        -999.25        -999.25         67.691       62.02682         0.1308      -130.2632       -44.1437       0.617592       0.297605
      6196.0000         0.3297       5921.617        -999.25        -999.25        69.0105       64.19414         0.1366      -125.3223      -39.21542      0.6637051       0.379743
      6196.5000         0.3349       5812.133        -999.25        -999.25        70.1771       66.11061         0.1842      -120.4498      -34.35554      0.7044811       0.460741
      6197.0000         0.3483       5629.914        -999.25        -999.25        71.2435       67.86274         0.2447      -115.6437      -29.56206      0.7417604      0.5406324
      6197.5000         0.3618       3942.039        -999.25        -999.25         72.806       70.42871         0.2968      -114.5677      -28.49868      0.7963555      0.5583553
      6198.0000         0.3743       3361.867        -999.25        -999.25        69.3928       64.83202         0.3452      -118.5333       -32.4769      0.6772769      0.4920517
      6198.5000         0.3859       3295.902        -999.25        -999.25        65.2368       58.01675         0.3929       -122.543      -36.49921      0.5322712      0.4250131
      6199.0000         0.3975       3679.742        -999.25        -999.25        62.5908       53.67866         0.4228      -126.7095      -40.67834      0.4399715       0.355361
      6199.5000         0.4091       4063.582        -999.25        -999.25        60.0083       49.44473         0.4527      -131.1797      -45.16116      0.3498879      0.2806474
      6200.0000         0.4207       4447.813        -999.25        -999.25        57.6628       45.59961         0.4482      -135.6404      -49.63447      0.2680768      0.2060922
      6200.5000         0.4341       4608.953        -999.25        -999.25        50.8903       34.49197         0.4364      -140.4392      -54.44588     0.03174413      0.1259019
      6201.0000         0.4478       5113.156        -999.25        -999.25        53.3026       38.45205         0.4245      -144.8362      -58.85551       0.116001     0.05240822
      6201.5000         0.4556       4832.438        -999.25        -999.25        57.2437        44.9201         0.4033      -144.3066      -58.33852      0.2536192      0.0610246
      6202.0000         0.4538       4673.648        -999.25        -999.25        60.6822       50.56365         0.3792      -123.6899      -37.73445      0.3736947      0.4044258
