#------------------------------------------------------------------------------
# Created by    : vladimir.rabinovich
# Created on    : 09/19/2023 17:19:44
#------------------------------------------------------------------------------
~Version Information Section
VERS.           2.0     :   CWLS log ASCII Standard - VERSION 2.0
WRAP.           NO      :   One line per depth step
~Well Information Section
#MNEM       .UNIT                                         VALUE :DESCRIPTION
#------------------------------------------------------------------------------
STRT        .FT                                            3520 :START DEPTH
STOP        .FT                                           13769 :STOP DEPTH
STEP        .FT                                             0.5 :STEP      
NULL        .                                           -999.25 :NULL      
COMP        .                           WILLIAMS EXPLORATION CO :COMPANY   
WELL        .                                          SL 73414 :WELL      
FLD         .                                           WILDCAT :FIELD     
LOC         .                                                   :LOCATION  
CNTY        .                           HIGH ISLAND LARGE BLOCK :LOCATION  
STAT        .                                             TEXAS :STATE     
CTRY        .                                     UNITED STATES :COUNTRY   
SRVC        .                                                   :SERVICE COMPANY
DATE        .                             9/13/2023 11:19:15 AM :LOG DATE  
API         .                                    42708301040000 :API NUMBER
UWI         .                                    42708301040000 :UNIQUE WELL ID
XCOORD      .                                  1272749.25589155 :SURFACE X 
YCOORD      .                                  10699068.0748216 :SURFACE Y 
LAT         .                                        29.4758188 :LATITUDE  
LON         .                                       -94.1558378 :LONGITUDE 
ELEV        .FT                                             106 :ELEVATION VALUE
ELEV_TYPE   .                                                KB :ELEVATION REFERENCE TYPE
~Curve Information Section
#MNEM       .UNIT                                      API CODE :CURVE DESCRIPTION
#------------------------------------------------------------------------------
DEPT        .FT                                                 :DEPTH     
ASFL        .OHMM                                               :          
CILD        .MMHO                                               :          
ILD         .OHMM                                               :          
SP          .MV                                                 :          
SP_NORM     .MV                                                 :SP Normalized
VSH_SP      .V/V                                                :Volume of Shale from SP
~A        DEPTH           ASFL           CILD            ILD             SP        SP_NORM         VSH_SP
# ...
      8308.0000         0.6246       3468.195         0.3027      -122.0817      -41.90772       0.213313
      8308.5000         0.6435        3957.77         0.2752      -122.9144      -42.73997      0.1973083
      8309.0000         0.6618       4374.359         0.2477      -118.7465      -38.57162      0.2774689
      8309.5000         0.6761       4599.125         0.2204      -110.8503      -30.67497      0.4293275
      8310.0000         0.5972       4041.172         0.2089      -108.1189      -27.94312      0.4818632
      8310.5000          0.604       4026.047         0.2192      -107.8739      -27.69767      0.4865833
      8311.0000          0.618       4010.922         0.2432       -108.082      -27.90532        0.48259
      8311.5000         0.6288       3995.797         0.2672      -108.1925      -28.01537      0.4804737
      8312.0000         0.6396       3819.152         0.2912      -107.3662      -27.18862      0.4963727
      8312.5000         0.6504       3463.824         0.3152      -104.1838      -24.00577      0.5575814
      8313.0000         0.6474       3108.891         0.3392       -95.7026      -15.52412      0.7206901
      8313.5000         0.6406       2753.563         0.3632       -90.8098      -10.63087       0.814791
      8314.0000         0.6338       2301.301         0.3873       -87.9219      -7.742523      0.8703361
      8314.5000         0.6269       2261.008          0.411       -86.2935      -6.113678        0.90166
      8315.0000         0.6153       2064.762         0.4347       -84.9296      -4.749329      0.9278975
      8315.5000         0.6082       1699.496         0.4584       -83.5676      -3.386871      0.9540986
      8316.0000         0.6151       1628.152         0.4822       -82.5569      -2.375725      0.9735438
      8316.5000          0.622       1561.676         0.5059       -81.6848      -1.503174      0.9903236
      8317.0000         0.6289       1532.936         0.5296       -81.0137     -0.8316269              1
      8317.5000         0.6358       1511.572         0.5533       -80.8972     -0.7146759              1
      8318.0000         0.6427       1493.139          0.577       -80.7809     -0.5979233              1
      8318.5000         0.6495       1478.135         0.6007       -80.7354     -0.5519714              1
      8319.0000          0.656       1487.525         0.6245        -80.908     -0.7241211              1
      8319.5000         0.6588        1502.58         0.6373       -81.0803     -0.8959732              1
      8320.0000         0.6383       1523.322         0.6446       -80.9275     -0.7427216              1
      8320.5000         0.6191       1544.064         0.6518       -80.3704      -0.185173              1
      8321.0000         0.6033        1549.84         0.6425       -79.8909      0.2947769              1
      8321.5000         0.5875       1547.986          0.631       -79.7108      0.4753189              1
      8322.0000         0.5817       1546.135         0.6195        -79.531       0.655571              1
      8322.5000         0.5816       1542.264          0.608       -79.5255      0.6615219              1
      8323.0000         0.5814       1533.021         0.5965       -79.6421       0.545372              1
      8323.5000         0.5812       1523.793          0.585       -79.7587      0.4292221              1
      8324.0000          0.581       1514.553         0.5734       -78.7103       1.478073              1
      8324.5000         0.5799       1523.123         0.5619       -77.6409        2.54792              1
      8325.0000         0.5788       1549.803         0.5569       -76.5732       3.616074              1
      8325.5000         0.5777       1576.482         0.5525       -76.5648       3.624924              1
      8326.0000          0.575       1603.162          0.548        -77.201       2.989174              1
      8326.5000         0.5707       1648.869         0.5435       -77.8588       2.331818              1
      8327.0000         0.5663       1656.844          0.539       -78.5156       1.675468              1
      8327.5000         0.5623       1664.818         0.5345       -79.0615        1.13002              1
      8328.0000         0.5588       1672.791           0.53       -79.5087      0.6832733              1
      8328.5000         0.5594       1680.766         0.5255       -79.9558       0.236618              1
      8329.0000           0.56        1688.74         0.5272        -80.403     -0.2101364              1
      8329.5000         0.5606       1700.713         0.5289       -80.8502     -0.6568832              1
      8330.0000         0.5612       1621.793         0.5306       -81.2974      -1.103638      0.9980069
      8330.5000         0.5618       1534.451         0.5323        -81.744      -1.549789      0.9894271
      8331.0000         0.5618        1485.91          0.534        -82.098      -1.903336      0.9826282
      8331.5000         0.5613        1437.42         0.5357       -82.4497      -2.254585      0.9758734
      8332.0000         0.5642       1388.881         0.5375        -82.363      -2.167435      0.9775493
      8332.5000         0.5679        1356.91         0.5449       -81.9606      -1.764587      0.9852964
      8333.0000         0.5717       1336.639         0.5534       -81.9323      -1.735832      0.9858494
      8333.5000         0.5755       1316.369          0.562       -81.9196      -1.722687      0.9861022
      8334.0000         0.5792       1295.627         0.5705       -81.9067      -1.709335      0.9863589
      8334.5000         0.5825        1273.17          0.579        -81.894      -1.696182      0.9866119
      8335.0000         0.5762       1254.166         0.5876       -81.7405      -1.542236      0.9895724
      8335.5000           0.57       1257.123         0.5961       -81.5004      -1.301682      0.9941984
      8336.0000         0.5637       1364.438         0.5993       -80.7374     -0.5382309              1
      8336.5000         0.5574       1441.742         0.5908       -79.9745      0.2251053              1
      8337.0000         0.5511       1512.143         0.5823       -79.2124      0.9876556              1
      8337.5000         0.5435       1548.809         0.5739       -78.4495       1.751007              1
      8338.0000         0.5358       1585.523         0.5654       -77.8933       2.307655              1
      8338.5000          0.528       1622.189         0.5576       -77.3762       2.825211              1
      8339.0000         0.5209       1657.912         0.5532       -77.0092       3.192657              1
      8339.5000         0.5277       1688.119         0.5488       -77.2407       2.961609              1
      8340.0000         0.5345       1718.326         0.5445       -77.4724       2.730362              1
      8340.5000         0.5411        1699.67         0.5401       -77.4359       2.767311              1
      8341.0000         0.5463       1677.213         0.5358        -77.223       2.980659              1
      8341.5000         0.5515       1655.379         0.5314        -76.923       3.281113              1
      8342.0000         0.5533       1633.543         0.5322       -76.4838       3.720757              1
      8342.5000         0.5482       1611.732         0.5344       -77.1453       3.059708              1
      8343.0000         0.5431       1598.883         0.5366       -78.1514       2.054062              1
      8343.5000          0.538       1600.615         0.5388       -79.0857       1.120209              1
      8344.0000         0.5361       1602.348          0.541       -79.7509       0.455452              1
      8344.5000         0.5354       1599.162         0.5432       -80.2349    -0.02809906              1
      8345.0000         0.5377       1592.543         0.5454       -80.1023        0.10495              1
      8345.5000         0.5425       1582.717         0.5476       -79.9723       0.235405              1
