#------------------------------------------------------------------------------
# Created by    : vladimir.rabinovich
# Created on    : 09/19/2023 17:22:25
#------------------------------------------------------------------------------
~Version Information Section
VERS.           2.0     :   CWLS log ASCII Standard - VERSION 2.0
WRAP.           NO      :   One line per depth step
~Well Information Section
#MNEM       .UNIT                                         VALUE :DESCRIPTION
#------------------------------------------------------------------------------
STRT        .FT                                            3984 :START DEPTH
STOP        .FT                                           14348 :STOP DEPTH
STEP        .FT                                             0.5 :STEP      
NULL        .                                           -999.25 :NULL      
COMP        .                                  CNG PRODUCING CO :COMPANY   
WELL        .                               OCS G07292 ST00BP00 :WELL      
FLD         .                                           WILDCAT :FIELD     
LOC         .                                                   :LOCATION  
CNTY        .                           HIGH ISLAND LARGE BLOCK :LOCATION  
STAT        .                                             TEXAS :STATE     
CTRY        .                                     UNITED STATES :COUNTRY   
SRVC        .                                                   :SERVICE COMPANY
DATE        .                             9/13/2023 11:19:59 AM :LOG DATE  
API         .                                    42708402890000 :API NUMBER
UWI         .                                    42708402890000 :UNIQUE WELL ID
XCOORD      .                                  1158246.84135722 :SURFACE X 
YCOORD      .                                  10525039.0147689 :SURFACE Y 
LAT         .                                         28.993597 :LATITUDE  
LON         .                                        -94.508673 :LONGITUDE 
ELEV        .FT                                             101 :ELEVATION VALUE
ELEV_TYPE   .                                                KB :ELEVATION REFERENCE TYPE
~Curve Information Section
#MNEM       .UNIT                                      API CODE :CURVE DESCRIPTION
#------------------------------------------------------------------------------
DEPT        .FT                                                 :DEPTH     
CALX        .IN                                                 :          
DTL         .US/F                                               :          
GR          .GAPI                                               :          
GR_NORM     .GAPI                                               :GammaRay Normalized
ILD         .OHMM                                               :          
ILM         .OHMM                                               :          
LL3         .OHMM                                               :          
SP          .MV                                                 :          
SP_NORM     .MV                                                 :SP Normalized
VSH_GR      .V/V                                                :Volume of Shale from GR
VSH_SP      .V/V                                                :Volume of Shale from SP
~A        DEPTH           CALX            DTL             GR        GR_NORM            ILD            ILM            LL3             SP        SP_NORM         VSH_GR         VSH_SP
# ...
      6729.0000        14.8065       112.0764         46.441       78.38474         1.3258         1.5905         1.2959       -54.4188      -16.48132      0.9656327      0.7645525
      6729.5000        14.8095       112.7611        48.4222       82.15844         1.3259         1.5892         1.2757       -52.1455      -14.20117              1      0.7971261
      6730.0000        14.8383       111.7051        47.6304       80.65026           1.33         1.5965         1.4031       -53.6577      -15.70652              1      0.7756211
      6730.5000         14.886       105.1909        46.8146       79.09636         1.3332         1.6152         1.3997       -53.9918      -16.03377      0.9807736      0.7709462
      6731.0000        14.8972       103.5603        46.4011       78.30874          1.339         1.6328         1.3802       -56.3757      -18.41082      0.9640157      0.7369883
      6731.5000        14.8845       103.7245         46.324       78.16189         1.3535         1.6557          1.367       -58.8719      -20.90017      0.9608912      0.7014262
      6732.0000        14.8528       103.6292        46.8831       79.22684         1.3473         1.6695         1.3626       -61.7513      -23.77272      0.9835497      0.6603898
      6732.5000        14.8044       101.1007        47.9865       81.32853         1.3197         1.6741         1.4245       -65.4187      -27.43327              1      0.6080962
      6733.0000        14.7583        98.7649        47.2247       79.87749         1.2784         1.6766         1.5502       -70.7089      -32.71661      0.9973935      0.5326198
      6733.5000        14.7579        98.1272          44.14       74.00188          1.214         1.6188         1.5504       -72.2412      -34.24207      0.8723804      0.5108277
      6734.0000        14.7631        98.7787        40.6107        67.2794         1.1495         1.5285          1.551       -76.1549      -38.14891      0.7293488      0.4550156
      6734.5000         14.762       100.6527        39.9551       66.03063          1.098         1.4415         1.5828       -78.3817      -40.36886      0.7027794       0.423302
      6735.0000        14.7494       108.4783        41.7511       69.45158         1.0578         1.3761           1.51       -78.5258      -40.50611      0.7755654      0.4213413
      6735.5000        14.7396       114.1669         42.537       70.94855           1.01         1.3578         1.2619        -76.406      -38.37946      0.8074159      0.4517221
      6736.0000        14.7527       116.5366        42.6297       71.12511         0.9791         1.3614         1.1526       -76.3031      -38.26971      0.8111727      0.4532899
      6736.5000        14.7677       116.3416         42.825        71.4971         0.9645         1.3813         1.2216        -79.968      -41.92776      0.8190873       0.401032
      6737.0000        14.7701       111.1414        43.1635       72.14188         0.9539         1.4018          1.348       -83.3341        -45.287      0.8328059      0.3530428
      6737.5000        14.6821        106.817        43.4078       72.60721         0.9492         1.4247         1.3463       -87.5894      -49.53545      0.8427066      0.2923506
      6738.0000        14.5147       105.3445        42.3113       70.51862         0.9535         1.4391          1.336       -90.6263       -52.5655      0.7982686      0.2490643
      6738.5000        14.4888       103.2024        39.0306       64.26968         0.9647         1.4304         1.5608       -91.9331      -53.86545      0.6653124      0.2304936
      6739.0000        14.4685         101.36        36.9997        60.4013          0.978         1.4078         1.7805       -92.6949       -54.6204      0.5830063      0.2197086
      6739.5000        14.4542       101.1932        37.5184        61.3893         0.9962         1.3893         1.8221       -92.6636      -54.58224      0.6040276      0.2202536
      6740.0000        14.4727       101.5638        40.7413       67.52817         1.0183         1.3948         1.5941       -92.4719       -54.3837      0.7346418        0.22309
      6740.5000        14.6032       100.7961         42.992       71.81522         1.0434          1.424         1.3632       -90.5435      -52.44845      0.8258557      0.2507364
      6741.0000        14.7417       100.2305        42.3389       70.57121          1.049          1.443         1.4161       -86.0458      -47.94389      0.7993873      0.3150872
      6741.5000        14.7345       100.3978        38.9678       64.15006         1.0264         1.4458         1.5471        -85.502      -47.39324      0.6627673      0.3229537
      6742.0000        14.7095       101.1183        37.0449        60.4874         1.0022         1.4448         1.6046       -87.9812      -49.86559      0.5848382      0.2876344
      6742.5000        14.7289       103.3862        37.2245       60.82949         1.0003          1.409         1.5327       -94.7384      -56.61594      0.5921168      0.1912008
      6743.0000        14.7733         106.16        38.4899       63.23978         0.9809         1.3653         1.5152       -91.1111      -52.98179      0.6433995      0.2431173
      6743.5000        14.8138       106.6533        38.3954       63.05978         0.9127         1.3144          1.494       -88.0365      -49.90034      0.6395697       0.287138
      6744.0000        14.8418       105.0399        38.7305       63.69807         0.8447         1.2513          1.356       -91.8145      -53.67149      0.6531504      0.2332645
      6744.5000        15.0001       104.0231        39.8506       65.83159         0.8207         1.2045         1.3406       -92.3125      -54.16264      0.6985444      0.2262481
      6745.0000        15.1507       103.6461         39.592       65.33901         0.8146          1.153          1.339       -90.1039      -51.94718      0.6880641      0.2578974
      6745.5000        15.1766       105.0902        38.6583       63.56054         0.8226         1.1581         1.2751         -88.26      -50.09644      0.6502243      0.2843366
      6746.0000        15.1591       107.0309        38.3034       62.88454         0.8326         1.2142         1.1918       -84.7559      -46.58548      0.6358412      0.3344932
      6746.5000        15.1495       108.2234         39.047       64.30092         0.8504         1.2469         1.1542        -73.462      -35.28473       0.665977      0.4959324
      6747.0000        15.1398       108.2025        40.6333       67.32244         0.8831         1.2737         1.1851       -72.3926      -34.20848      0.7302647      0.5113074
      6747.5000        15.1387       108.0601        42.5236       70.92302         0.9386         1.3408         1.3433       -72.6592      -34.46823      0.8068727      0.5075967
      6748.0000        15.1443       107.5042        44.2769       74.26263         1.0205         1.4336         1.3663       -70.8094      -32.61158      0.8779284      0.5341203
      6748.5000        15.1674       106.0392        45.0691       75.77159         1.0819         1.5125         1.2884       -67.0389      -28.83423      0.9100339      0.5880824
      6749.0000        15.2298       104.0658        44.4891       74.66683         1.1291         1.5627         1.2765       -69.2218      -31.01028      0.8865283       0.556996
      6749.5000         15.333       101.2593        43.0611       71.94682         1.1788         1.6017         1.4627       -71.1184      -32.90002      0.8286558      0.5299997
      6750.0000        15.5067        99.4658        42.9352       71.70701         1.2357         1.6096          1.524       -68.7571      -30.53188      0.8235534      0.5638304
      6750.5000        15.7524       100.3254        42.5361       70.94682           1.29         1.6203         1.4526       -66.1936      -27.96152      0.8073792      0.6005496
      6751.0000        15.8479         102.46        41.6531       69.26492         1.3231           1.64         1.4284       -70.7692      -32.53027      0.7715941      0.5352818
