#------------------------------------------------------------------------------
# Created by    : vladimir.rabinovich
# Created on    : 09/19/2023 17:21:25
#------------------------------------------------------------------------------
~Version Information Section
VERS.           2.0     :   CWLS log ASCII Standard - VERSION 2.0
WRAP.           NO      :   One line per depth step
~Well Information Section
#MNEM       .UNIT                                         VALUE :DESCRIPTION
#------------------------------------------------------------------------------
STRT        .FT                                            3400 :START DEPTH
STOP        .FT                                            8653 :STOP DEPTH
STEP        .FT                                             0.5 :STEP      
NULL        .                                           -999.25 :NULL      
COMP        .                          KING RANCH OIL & GAS INC :COMPANY   
WELL        .                               OCS G13784 ST00BP00 :WELL      
FLD         .                                           WILDCAT :FIELD     
LOC         .                                                   :LOCATION  
CNTY        .                             GALVESTON LARGE BLOCK :LOCATION  
STAT        .                                             TEXAS :STATE     
CTRY        .                                     UNITED STATES :COUNTRY   
SRVC        .                                                   :SERVICE COMPANY
DATE        .                             9/13/2023 11:19:54 AM :LOG DATE  
API         .                                    42706403430000 :API NUMBER
UWI         .                                    42706403430000 :UNIQUE WELL ID
XCOORD      .                                   967589.17441186 :SURFACE X 
YCOORD      .                                  10424680.8833423 :SURFACE Y 
LAT         .                                         28.709654 :LATITUDE  
LON         .                                        -95.099391 :LONGITUDE 
ELEV        .FT                                             106 :ELEVATION VALUE
ELEV_TYPE   .                                                KB :ELEVATION REFERENCE TYPE
~Curve Information Section
#MNEM       .UNIT                                      API CODE :CURVE DESCRIPTION
#------------------------------------------------------------------------------
DEPT        .FT                                                 :DEPTH     
CALI        .IN                                                 :          
DPHI        .%                                                  :          
DRHO        .G/C3                                               :          
DTLN        .US/F                                               :          
GR          .GAPI                                               :          
GR_1        .GAPI                                               :          
GR_NORM     .GAPI                                               :GammaRay Normalized
ILD         .OHMM                                               :          
ILM         .OHMM                                               :          
NPHI        .%                                                  :          
SFL         .OHMM                                               :          
SP          .MV                                                 :          
SP_NORM     .MV                                                 :SP Normalized
VSH_GR      .V/V                                                :Volume of Shale from GR
VSH_SP      .V/V                                                :Volume of Shale from SP
~A        DEPTH           CALI           DPHI           DRHO           DTLN             GR           GR_1        GR_NORM            ILD            ILM           NPHI            SFL             SP        SP_NORM         VSH_GR         VSH_SP
# ...
      5848.0000        -999.25        -999.25        -999.25       111.8643        -999.25        46.5748       41.40913         0.3925         0.4048        -999.25         0.5834       -89.7662      -39.96339      0.1789177      0.1171305
      5848.5000        -999.25        -999.25        -999.25       111.3727        -999.25        48.4818       44.51357         0.3745         0.3827        -999.25         0.4848       -90.1949      -40.39326      0.2449695      0.1071334
      5849.0000        -999.25        -999.25        -999.25       112.7572        -999.25        50.4066       47.64698         0.3636         0.3706        -999.25         0.4139       -87.8542      -38.05374      0.3116378       0.161541
      5849.5000        -999.25        -999.25        -999.25       113.7086        -999.25        50.9249       48.49092         0.3618          0.368        -999.25         0.4274       -84.4487      -34.64941      0.3295941      0.2407114
      5850.0000        -999.25        -999.25        -999.25        114.058        -999.25        50.4872       47.77872         0.3659         0.3708        -999.25         0.4871       -81.5304      -31.73228      0.3144409      0.3085515
      5850.5000        -999.25        -999.25        -999.25       113.9213        -999.25        49.8326       46.71347         0.3719         0.3849        -999.25         0.5291       -80.3518      -30.55486       0.291776      0.3359336
      5851.0000        -999.25        -999.25        -999.25       112.6648        -999.25        49.3061       45.85672         0.3797         0.4013        -999.25         0.5028       -79.6333      -29.83753      0.2735472      0.3526156
      5851.5000        -999.25        -999.25        -999.25       110.8712        -999.25         51.186       48.91706          0.389         0.4211        -999.25         0.4707       -77.9945       -28.1999      0.3386608         0.3907
      5852.0000        -999.25        -999.25        -999.25       108.8129        -999.25        54.2372       53.88398         0.4002          0.447        -999.25         0.4971       -74.8031      -25.00968      0.4443399      0.4648912
      5852.5000        -999.25        -999.25        -999.25       107.5552        -999.25        57.1063        58.5545         0.4157         0.4741        -999.25         0.6463       -72.1752      -22.38295      0.5437128      0.5259779
      5853.0000        -999.25        -999.25        -999.25       107.5814        -999.25        58.1751       60.29454         0.4316          0.497        -999.25         0.7413       -70.1008      -20.30972      0.5807348      0.5741925
      5853.5000        -999.25        -999.25        -999.25       108.5269        -999.25        57.0472       58.45885         0.4451         0.5112        -999.25         0.7033       -69.0735       -19.2836      0.5416778      0.5980559
      5854.0000        -999.25        -999.25        -999.25       109.3987        -999.25        53.7303       53.05998          0.456         0.5176        -999.25         0.6691       -69.3639      -19.57517      0.4268081      0.5912752
      5854.5000        -999.25        -999.25        -999.25       110.1689        -999.25        50.1747       47.27257         0.4646         0.5142        -999.25         0.6676       -71.8282      -22.04064      0.3036717      0.5339386
      5855.0000        -999.25        -999.25        -999.25       110.4204        -999.25          47.93       43.61898         0.4723         0.5074        -999.25         0.6518       -75.2411      -25.45471      0.2259358      0.4545416
      5855.5000        -999.25        -999.25        -999.25       110.0432        -999.25        48.5494       44.62751         0.4797         0.4961        -999.25         0.6109       -78.5851      -28.79989      0.2473939      0.3767468
      5856.0000        -999.25        -999.25        -999.25        109.004        -999.25        51.0236       48.65521         0.4865         0.4983        -999.25         0.5659        -81.026      -31.24196      0.3330896      0.3199544
      5856.5000        -999.25        -999.25        -999.25       107.7675        -999.25        55.3346       55.67281          0.493          0.508        -999.25         0.5672       -77.9232      -28.14034      0.4824003      0.3920851
      5857.0000        -999.25        -999.25        -999.25       106.5759        -999.25        59.9213       63.13918         0.4993          0.532        -999.25         0.6357       -73.2479      -23.46621      0.6412592      0.5007858
      5857.5000        -999.25        -999.25        -999.25       105.5205        -999.25        63.4695       68.91512         0.5028           0.57        -999.25         0.6473       -68.5728      -18.79228      0.7641514      0.6094818
      5858.0000        -999.25        -999.25        -999.25       104.6793        -999.25          65.54       72.28569         0.5027         0.5974        -999.25         0.6458       -63.2332      -13.45385      0.8358657      0.7336313
      5858.5000        -999.25        -999.25        -999.25       105.4506        -999.25        64.1854       70.08101         0.4944         0.6153        -999.25         0.6617       -60.5524      -10.77423      0.7889577      0.7959482
      5859.0000        -999.25        -999.25        -999.25        107.369        -999.25        61.5797       65.83979         0.4815         0.6224        -999.25         0.7044        -61.437         -11.66       0.698719      0.7753487
      5859.5000        -999.25        -999.25        -999.25       109.7996        -999.25        58.4793       60.79334         0.4552         0.6016        -999.25         0.6901       -65.4034      -15.62757      0.5913477      0.6830797
      5860.0000        -999.25        -999.25        -999.25       112.1427        -999.25         54.439       54.21693          0.434         0.5613        -999.25         0.6231       -70.2706      -20.49595       0.451424      0.5698617
      5860.5000        -999.25        -999.25        -999.25       113.3318        -999.25        49.5571       46.27059         0.4138         0.5012        -999.25         0.5424       -75.0197      -25.24622      0.2823529      0.4593903
      5861.0000        -999.25        -999.25        -999.25       109.7122        -999.25         45.059       38.94901         0.3944         0.4463        -999.25         0.5614       -79.2469       -29.4746      0.1265746      0.3610559
      5861.5000        -999.25        -999.25        -999.25       101.6586        -999.25        38.3021        27.9506         0.3793         0.4111        -999.25         0.6216       -83.4744      -33.70327              0      0.2627147
      5862.0000        -999.25        -999.25        -999.25        91.7065        -999.25        35.3641        23.1685         0.3662         0.3874        -999.25         0.6766       -87.7017      -37.93174              0      0.1643782
      5862.5000        -999.25        -999.25        -999.25        89.2651        -999.25        35.7677       23.82574         0.3553         0.3688        -999.25          0.718       -91.4271      -41.65832              0     0.07771354
      5863.0000        -999.25        -999.25        -999.25        91.2319        -999.25          39.22       29.44557         0.3605         0.3659        -999.25         0.6625       -94.3442      -44.57659              0    0.009846798
      5863.5000        -999.25        -999.25        -999.25        94.9465        -999.25        42.4729       34.74082         0.3755         0.3842        -999.25         0.5784       -94.6542      -44.88776     0.03703876    0.002610229
      5864.0000        -999.25        -999.25        -999.25        97.1372        -999.25        45.6644       39.93613         0.3898         0.4197        -999.25         0.5019       -92.9526      -43.18733      0.1475773     0.04215506
      5864.5000        -999.25        -999.25        -999.25        97.9016        -999.25         48.873       45.15928         0.3975         0.4562        -999.25         0.5445       -89.5767      -39.81261       0.258708      0.1206371
