#------------------------------------------------------------------------------
# Created by    : vladimir.rabinovich
# Created on    : 09/19/2023 17:19:22
#------------------------------------------------------------------------------
~Version Information Section
VERS.           2.0     :   CWLS log ASCII Standard - VERSION 2.0
WRAP.           NO      :   One line per depth step
~Well Information Section
#MNEM       .UNIT                                         VALUE :DESCRIPTION
#------------------------------------------------------------------------------
STRT        .FT                                            2350 :START DEPTH
STOP        .FT                                            7008 :STOP DEPTH
STEP        .FT                                             0.5 :STEP      
NULL        .                                           -999.25 :NULL      
COMP        .                                  W&T OFFSHORE INC :COMPANY   
WELL        .                               OCS G04565 ST00BP00 :WELL      
FLD         .                              GALVESTON BLOCK 0303 :FIELD     
LOC         .                                                   :LOCATION  
CNTY        .                             GALVESTON LARGE BLOCK :LOCATION  
STAT        .                                             TEXAS :STATE     
CTRY        .                                     UNITED STATES :COUNTRY   
SRVC        .                                                   :SERVICE COMPANY
DATE        .                             9/13/2023 11:19:03 AM :LOG DATE  
API         .                                    42706403950000 :API NUMBER
UWI         .                                    42706403950000 :UNIQUE WELL ID
XCOORD      .                                  979190.041446607 :SURFACE X 
YCOORD      .                                   10483081.623763 :SURFACE Y 
LAT         .                                        28.8707847 :LATITUDE  
LON         .                                       -95.0663777 :LONGITUDE 
ELEV        .FT                                              91 :ELEVATION VALUE
ELEV_TYPE   .                                                KB :ELEVATION REFERENCE TYPE
~Curve Information Section
#MNEM       .UNIT                                      API CODE :CURVE DESCRIPTION
#------------------------------------------------------------------------------
DEPT        .FT                                                 :DEPTH     
AF20        .OHMM                                               :          
AFCO        .MMHO                                               :          
AO90        .OHMM                                               :          
AT10        .OHMM                                               :          
AT20        .OHMM                                               :          
AT30        .OHMM                                               :          
AT60        .OHMM                                               :          
AT90        .OHMM                                               :          
DCAL        .IN                                                 :          
DPHI        .%                                                  :          
DRHO        .G/C3                                               :          
GR          .GAPI                                               :          
GR_NORM     .GAPI                                               :GammaRay Normalized
GRN         .GAPI                                               :          
NPOR        .%                                                  :          
RWA         .OHMM                                               :          
SP          .MV                                                 :          
SP_NORM     .MV                                                 :SP Normalized
TENR        .LBF                                                :          
TPHI        .%                                                  :          
VSH_GR      .V/V                                                :Volume of Shale from GR
VSH_SP      .V/V                                                :Volume of Shale from SP
~A        DEPTH           AF20           AFCO           AO90           AT10           AT20           AT30           AT60           AT90           DCAL           DPHI           DRHO             GR        GR_NORM            GRN           NPOR            RWA             SP        SP_NORM           TENR           TPHI         VSH_GR         VSH_SP
# ...
      5494.0000           0.37       4761.898           0.21            0.5           0.36           0.31           0.29           0.29          7.725           36.9          -0.02           43.9       44.51001         30.562        46.5724           0.04          -46.1      -32.19283           2605        43.7999      0.2448937      0.4634529
      5494.5000            0.4        4347.82           0.23           0.51           0.39           0.34           0.31           0.31          5.425           33.1          -0.02           58.5       57.65001         35.625        46.3313           0.03          -33.7      -19.79631           2605        44.4999      0.5244682      0.6700615
      5495.0000           0.43       4166.664           0.24           0.53           0.42           0.38           0.35           0.34          2.225           28.2          -0.03        81.3999       78.25992         44.188        49.1747           0.03            -24      -10.09978           2605           42.9       0.962977      0.8316703
      5495.5000           0.47       3448.273           0.29           0.57           0.47           0.44           0.41           0.39          1.725           24.4          -0.02        87.3999       83.65992         49.844          51.54           0.02            -22      -8.103263           2760        38.9999              1      0.8649456
      5496.0000           0.52       2272.727           0.44           0.66           0.56           0.54           0.51           0.48          1.625           22.2          -0.02           81.5       78.35001        51.0309        47.9792           0.03          -25.3      -11.40674           2760        45.7999      0.9648938      0.8098876
      5496.5000           0.56       1724.137           0.58           0.75           0.67           0.63           0.58           0.54          1.625           20.8          -0.02           66.2          64.58         47.375        40.7534           0.03          -26.4      -12.51022           2760        48.9999      0.6719149      0.7914963
      5497.0000            0.6           2000            0.5           0.77           0.71           0.67            0.6           0.56          1.525           20.6          -0.01           64.2          62.78         41.688        39.8629           0.03          -23.1      -9.213702           2760        49.0999      0.6336171      0.8464383
      5497.5000           0.61       2127.656           0.47           0.74           0.68           0.67           0.62           0.58          1.525           21.2          -0.01        69.7999       67.81991         44.344        42.7669           0.03          -21.2      -7.317182           2760           44.7      0.7408491       0.878047
      5498.0000           0.61       1666.666            0.6           0.72           0.65           0.66           0.64           0.59          1.525           21.4          -0.02        78.7999       75.91991        46.0309        44.4478           0.04          -23.3      -9.420659           2625           40.9      0.9131896       0.842989
      5498.5000           0.59       1234.566           0.81           0.71           0.64           0.62            0.6           0.56          1.525             22          -0.02           78.6       75.74001         49.375          43.56           0.05          -30.5      -16.62414           2625           43.1      0.9093618       0.722931
      5499.0000           0.56       1694.914           0.59           0.69           0.61           0.56           0.51           0.49          1.425           22.4          -0.02           70.2          68.18         43.844         39.072           0.04          -40.9      -27.02762           2625           44.8      0.7485107      0.5495397
      5499.5000           0.52       2272.727           0.44           0.65           0.55            0.5           0.43           0.43          1.525        26.8999          -0.03           60.8       59.72001           37.5         36.357           0.04          -49.9       -36.0311           2625           47.4      0.5685108      0.3994817
      5500.0000           0.49       2777.777           0.36           0.59            0.5           0.45           0.39           0.39          1.925           36.3          -0.03           49.8          49.82         32.594        39.7407           0.07            -56      -42.13458           2695           44.8      0.3578724       0.297757
      5500.5000           0.45       2941.176           0.34           0.54           0.45           0.41           0.37           0.37          3.325           46.1          -0.03           43.2          43.88         29.812        47.6549            0.1          -59.8      -45.93806           2695        41.2999      0.2314895      0.2343657
      5501.0000           0.42           3125           0.32           0.51           0.41           0.37           0.35           0.35          5.425        50.9999          -0.03           35.6          37.04         27.797         54.218           0.12          -61.6      -47.74154           2695           38.8     0.08595755      0.2043077
      5501.5000            0.4       3448.273           0.29           0.48           0.39           0.34           0.32           0.33          7.425        51.6999          -0.01           33.6          35.24         26.688        55.7634           0.12          -63.9      -50.04502           2695           38.7     0.04765961      0.1659164
      5502.0000           0.37       3703.703           0.27           0.47           0.37           0.32            0.3           0.31          7.025           50.2          -0.01           31.6       33.44001         27.688        51.2388            0.1          -65.5      -51.64849           2615        40.9999    0.009361835      0.1391918
      5502.5000           0.36       3571.426           0.28           0.47           0.36           0.31           0.29           0.29          7.625        51.4999          -0.01           32.1          33.89         27.688        47.7266           0.11          -67.7      -53.85197           2615           41.9     0.01893624      0.1024672
      5503.0000           0.34       3703.703           0.27           0.47           0.35            0.3           0.27           0.28          9.425        51.9999          -0.01             31       32.90001         26.016        48.5418            0.1       -69.3999      -55.55536           2615           40.9              0     0.07407741
      5503.5000           0.32        4347.82           0.23           0.46           0.33           0.28           0.25           0.26         10.425        55.9999          -0.01           33.1          34.79         23.766        50.2682           0.11       -69.8999      -56.05884           2615           37.5     0.03808521     0.06568603
      5504.0000           0.31           5000            0.2           0.44           0.31           0.26           0.23           0.24          9.525           55.4          -0.02           32.8          34.52         24.438         50.676           0.09          -70.6      -56.76241           2595        38.0999     0.03234052     0.05395978
      5504.5000            0.3       5263.156           0.19           0.42           0.29           0.24           0.22           0.23          7.925        51.1999          -0.02           34.1          35.69         26.219        48.4249           0.07       -70.8999       -57.0658           2595           38.3     0.05723409      0.0489034
      5505.0000           0.28       5555.555           0.18            0.4           0.28           0.23           0.21           0.22          5.525           41.9          -0.01           33.2          34.88         26.219        42.1864           0.05       -71.7999      -57.96927           2595        40.9999      0.0400001     0.03384552
      5505.5000           0.28       5555.555           0.18           0.39           0.27           0.23           0.21           0.21          4.625           36.2              0           33.2          34.88         25.891         40.212           0.03       -71.7999      -57.97275           2595           41.6      0.0400001     0.03378754
