#------------------------------------------------------------------------------
# Created by    : vladimir.rabinovich
# Created on    : 09/19/2023 17:19:20
#------------------------------------------------------------------------------
~Version Information Section
VERS.           2.0     :   CWLS log ASCII Standard - VERSION 2.0
WRAP.           NO      :   One line per depth step
~Well Information Section
#MNEM       .UNIT                                         VALUE :DESCRIPTION
#------------------------------------------------------------------------------
STRT        .FT                                            4783 :START DEPTH
STOP        .FT                                            9473 :STOP DEPTH
STEP        .FT                                             0.5 :STEP      
NULL        .                                           -999.25 :NULL      
COMP        .                                   FOREST OIL CORP :COMPANY   
WELL        .                               OCS G20658 ST00BP00 :WELL      
FLD         .                            HIGH ISLAND BLOCK 0052 :FIELD     
LOC         .                                                   :LOCATION  
CNTY        .                           HIGH ISLAND LARGE BLOCK :LOCATION  
STAT        .                                             TEXAS :STATE     
CTRY        .                                     UNITED STATES :COUNTRY   
SRVC        .                                                   :SERVICE COMPANY
DATE        .                             9/13/2023 11:19:51 AM :LOG DATE  
API         .                                    42708405710000 :API NUMBER
UWI         .                                    42708405710000 :UNIQUE WELL ID
XCOORD      .                                  1254974.65209524 :SURFACE X 
YCOORD      .                                  10682885.5467737 :SURFACE Y 
LAT         .                                         29.430813 :LATITUDE  
LON         .                                        -94.211177 :LONGITUDE 
ELEV        .FT                                             108 :ELEVATION VALUE
ELEV_TYPE   .                                                KB :ELEVATION REFERENCE TYPE
~Curve Information Section
#MNEM       .UNIT                                      API CODE :CURVE DESCRIPTION
#------------------------------------------------------------------------------
DEPT        .FT                                                 :DEPTH     
A28H_COND   .MMHO                                               :          
A28H_UNC    .OHMM                                               :          
AHT10       .OHMM                                               :          
AHT20       .OHMM                                               :          
AHT30       .OHMM                                               :          
AHT60       .OHMM                                               :          
AHT90       .OHMM                                               :          
DCAL        .IN                                                 :          
DPHZ        .V/V                                                :          
DRHO        .G/CC                                               :          
DTCO        .US/F                                               :          
DTSM        .US/F                                               :          
GR          .GAPI                                               :          
GR_ARC_FIL  .GAPI                                               :          
GR_NORM     .GAPI                                               :GammaRay Normalized
GR1         .GAPI                                               :          
GRM1        .GAPI                                               :          
NPOR        .V/V                                                :          
P28H_UNC    .OHMM                                               :          
ROP5        .F/HR                                               :          
ROP5_RM     .F/HR                                               :          
SP          .MV                                                 :          
TENS        .LB                                                 :          
VSH_GR      .V/V                                                :Volume of Shale from GR
~A        DEPTH      A28H_COND       A28H_UNC          AHT10          AHT20          AHT30          AHT60          AHT90           DCAL           DPHZ           DRHO           DTCO           DTSM             GR     GR_ARC_FIL        GR_NORM            GR1           GRM1           NPOR       P28H_UNC           ROP5        ROP5_RM             SP           TENS         VSH_GR
# ...
      8402.0000       1545.286          0.647         0.5723         0.6202         0.6551         0.6616          0.643        -0.3659        -999.25        -999.25       125.7533       341.3885        37.0108         96.337       85.62346           73.5        -999.25         0.5166          0.633        -999.25         37.756        13.6909        -999.25              1
      8402.5000         1562.9           0.64         0.5723         0.6202         0.6551         0.6616          0.643        -0.3736        -999.25        -999.25       125.3592       343.1754        36.8853         96.148       79.79785           77.1        -999.25         0.5076          0.609        -999.25         36.751        12.7226        -999.25       0.995699
      8403.0000       1594.623          0.627         0.5723         0.6202         0.6551         0.6616          0.643        -0.3736        -999.25        -999.25       125.1633        343.177        35.4862         95.796       81.15465             78        -999.25          0.504          0.618        -999.25          36.53        11.0667        -999.25              1
      8403.5000       1600.609          0.625         0.5723         0.6202         0.6551         0.6616          0.643        -0.3736        -999.25        -999.25       125.1658       342.3839        35.1604         95.146       83.81168           76.4        -999.25         0.5076          0.619        -999.25         37.758         9.7651        -999.25              1
      8404.0000        1594.21          0.627         0.5723         0.6202         0.6551         0.6616          0.643        -0.3736        -999.25        -999.25       125.1684        340.795        35.3379         95.146       84.39223             74        -999.25         0.5136          0.622        -999.25         37.366         8.3801        -999.25              1
      8404.5000       1624.039          0.616         0.5723         0.6202         0.6551         0.6616          0.643        -0.3736        -999.25        -999.25       124.9721       337.8098        35.2778         93.062       81.10496             71        -999.25         0.5064          0.588        -999.25         36.527         6.8492        -999.25              1
      8405.0000       1669.966          0.599         0.5723         0.6202         0.6551         0.6616          0.643        -0.3736        -999.25        -999.25       124.5766       335.8208        34.7112         97.041       79.96448           68.1        -999.25         0.4944           0.59        -999.25         36.306         4.5475        -999.25      0.9992442
      8405.5000       1658.074          0.603         0.5723         0.6202         0.6551         0.6616          0.643        -0.3736        -999.25        -999.25       124.3798       334.0327        35.5599         98.124       82.61502           65.8        -999.25         0.4932           0.58        -999.25         37.596         1.7667        -999.25              1
      8406.0000       1616.233          0.619         0.5723         0.6202         0.6551         0.6616          0.643        -0.3736        -999.25        -999.25       124.7804       332.2464        37.5396        101.913        85.0095           68.9        -999.25         0.5178          0.591        -999.25         36.306        -0.5975        -999.25              1
      8406.5000       1604.714          0.623         0.5723         0.6202         0.6551         0.6616          0.643        -0.3774        -999.25        -999.25        124.982       330.8592        39.5064        100.912       84.11777           74.9        -999.25          0.552           0.61        -999.25         38.151        -1.8159        -999.25              1
      8407.0000       1611.054          0.621         0.5723         0.6202         0.6551         0.6616          0.643        -0.3774        -999.25        -999.25       125.1839       329.8707        40.4593        102.455       83.85827             78        -999.25          0.573           0.63        -999.25         38.316        -0.8675        -999.25              1
      8407.5000       1550.352          0.645         0.5723         0.6202         0.6551         0.6616          0.643        -0.3774        -999.25        -999.25       125.5855       328.6847        40.2812        103.375        81.4781           77.9        -999.25         0.5676          0.641        -999.25         41.026         1.2058        -999.25              1
      8408.0000       1585.794          0.631         0.5723         0.6202         0.6551         0.6616          0.643        -0.3736        -999.25        -999.25       125.7879       327.6982        39.3881         101.67       84.21809           76.3        -999.25         0.5508          0.614        -999.25         42.582         3.1958        -999.25              1
      8408.5000       1609.306          0.621         0.5723         0.6202         0.6551         0.6616          0.643        -0.3659        -999.25        -999.25       125.7908       326.9111        39.1949        101.047       79.98318           76.4        -999.25         0.5358          0.597        -999.25         43.088         5.0608        -999.25      0.9996423
      8409.0000       1655.432          0.604         0.5723         0.6202         0.6551         0.6616          0.643         -0.362        -999.25        -999.25       125.9935       326.9176        38.3796         98.882        80.2472           78.3        -999.25         0.5292          0.618        -999.25         39.757         6.0716        -999.25              1
      8409.5000       1627.578          0.614         0.5723         0.6202         0.6551         0.6616          0.643        -0.3659        -999.25        -999.25       125.9965       327.7166        38.8593         99.071       84.94073           79.8        -999.25         0.5268          0.603        -999.25         42.182         5.9366        -999.25              1
      8410.0000       1630.143          0.613         0.5723         0.6202         0.6551         0.6616          0.643        -0.3736        -999.25        -999.25            126       329.3069        38.0996         98.773       81.96454           79.2        -999.25         0.5226          0.599        -999.25         41.023         6.0933        -999.25              1
      8410.5000       1642.466          0.609         0.5723         0.6202         0.6551         0.6616          0.643        -0.3736        -999.25        -999.25            126        330.099         39.549         99.937       82.16063           77.6        -999.25         0.5274          0.594        -999.25         41.691         6.4374        -999.25              1
      8411.0000       1630.067          0.614         0.5723         0.6202         0.6551         0.6616          0.643        -0.3736        -999.25        -999.25            126       331.6832        40.7127        103.619       79.70523             76        -999.25         0.5484          0.596        -999.25         41.211         6.1149        -999.25      0.9937283
      8411.5000       1631.636          0.613         0.5723         0.6202         0.6551         0.6616          0.643        -0.3697        -999.25        -999.25            126       333.6634        43.1512        100.831        80.3999           76.5        -999.25         0.5634          0.606        -999.25         40.747         4.3132        -999.25              1
      8412.0000       1604.463          0.623         0.5723         0.6202         0.6551         0.6616          0.643        -0.3736        -999.25        -999.25          126.2       335.8416        43.3769        102.996       81.61195           79.3        -999.25         0.5682          0.619        -999.25         42.679          2.449        -999.25              1
      8412.5000       1587.865           0.63         0.5723         0.6202         0.6551         0.6616          0.643        -0.3736        -999.25        -999.25          126.4       338.0198        42.1859        101.724       83.57455           80.5        -999.25         0.5418          0.631        -999.25         40.379         1.6474        -999.25              1
