#------------------------------------------------------------------------------
# Created by    : vladimir.rabinovich
# Created on    : 09/19/2023 17:22:43
#------------------------------------------------------------------------------
~Version Information Section
VERS.           2.0     :   CWLS log ASCII Standard - VERSION 2.0
WRAP.           NO      :   One line per depth step
~Well Information Section
#MNEM       .UNIT                                         VALUE :DESCRIPTION
#------------------------------------------------------------------------------
STRT        .FT                                            3600 :START DEPTH
STOP        .FT                                            7940 :STOP DEPTH
STEP        .FT                                             0.5 :STEP      
NULL        .                                           -999.25 :NULL      
COMP        .                          SEAGULL ENERGY E & P INC :COMPANY   
WELL        .                               OCS G09015 ST00BP00 :WELL      
FLD         .                                 BRAZOS BLOCK 0431 :FIELD     
LOC         .                                                   :LOCATION  
CNTY        .                                BRAZOS LARGE BLOCK :LOCATION  
STAT        .                                             TEXAS :STATE     
CTRY        .                                     UNITED STATES :COUNTRY   
SRVC        .                                                   :SERVICE COMPANY
DATE        .                             9/13/2023 11:09:51 AM :LOG DATE  
API         .                                    42704402370000 :API NUMBER
UWI         .                                    42704402370000 :UNIQUE WELL ID
XCOORD      .                                  876086.487249857 :SURFACE X 
YCOORD      .                                  10366258.6106956 :SURFACE Y 
LAT         .                                        28.5443209 :LATITUDE  
LON         .                                       -95.3810825 :LONGITUDE 
ELEV        .FT                                              90 :ELEVATION VALUE
ELEV_TYPE   .                                                KB :ELEVATION REFERENCE TYPE
~Curve Information Section
#MNEM       .UNIT                                      API CODE :CURVE DESCRIPTION
#------------------------------------------------------------------------------
DEPT        .FT                                                 :DEPTH     
DCAL        .IN                                                 :          
DPHI        .%                                                  :          
GR          .GAPI                                               :          
GR_NORM     .GAPI                                               :GammaRay Normalized
ILD         .OHMM                                               :          
ILM         .OHMM                                               :          
NPHI        .%                                                  :          
SGRD        .OHMM                                               :          
SP          .MV                                                 :          
SP_NORM     .MV                                                 :SP Normalized
VSH_GR      .V/V                                                :Volume of Shale from GR
VSH_SP      .V/V                                                :Volume of Shale from SP
~A        DEPTH           DCAL           DPHI             GR        GR_NORM            ILD            ILM           NPHI           SGRD             SP        SP_NORM         VSH_GR         VSH_SP
# ...
      5035.0000         1.4723        22.1995         68.031       69.56927         0.5704         0.6736        34.7906         0.9063       -56.1179      -5.900105      0.7780695      0.8227225
      5035.5000         1.5779        21.6513          67.36       68.46663         0.6048         0.7019        34.8831         0.9404       -55.8406       -5.62706      0.7546091      0.8351336
      5036.0000          1.629        22.3267        67.4438       68.60225         0.6396         0.7213         35.079         0.9567       -55.5516      -5.342323      0.7574947      0.8480762
      5036.5000         1.6612        22.9479        65.6693       65.68932         0.6622         0.7321        35.8533         0.9565       -55.1093      -4.904282      0.6955175      0.8679872
      5037.0000         1.6272        22.7534        64.0194       62.98081         0.6806         0.7414        37.2249         0.9427       -54.7109      -4.510139      0.6378896      0.8859028
      5037.5000          1.607        22.6839        64.5249       63.80825         0.6973         0.7462        38.5389          0.913       -54.4576      -4.261101      0.6554947      0.8972227
      5038.0000         1.5833        22.8297        66.2029       66.55916         0.7049         0.7469        39.3503         0.9063       -53.9572      -3.764961      0.7140247      0.9197745
      5038.5000         1.5555        23.2446        67.9749       69.46426         0.7074         0.7499        39.8233         0.9047       -53.6052      -3.417221      0.7758354      0.9355808
      5039.0000         1.5765        23.6591         69.679       72.25798         0.7098         0.7578        40.3651         0.9039       -53.3398      -3.156082      0.8352762      0.9474508
      5039.5000         1.6862        23.6027         69.726       72.33324         0.7123         0.7686        40.5615         0.9083       -53.0653      -2.885841      0.8368774      0.9597345
      5040.0000         1.8591        23.0397        68.8392       70.87659         0.7014         0.7766        40.9332         0.9152       -52.7737      -2.598499       0.805885      0.9727955
      5040.5000         2.0848        22.1458        68.3425       70.05988         0.7021          0.782        41.4062         0.9166       -52.4727      -2.301758      0.7885082      0.9862837
      5041.0000          2.034        22.0005        68.2985       69.98588         0.7043         0.7887        42.2601         0.9059       -52.2513      -2.084621      0.7869336      0.9961536
      5041.5000         2.0024        22.2963        70.6783       73.88808         0.7097         0.7932        42.9039         0.8937       -52.2476      -2.085178      0.8699591      0.9961283
      5042.0000         1.9147        22.8568        73.0127       77.71584         0.7141         0.7891        43.5225         0.8854       -52.4139      -2.255737      0.9514008      0.9883756
      5042.5000         1.7871        23.2828        73.2423       78.09063         0.7039         0.7718        44.1703         0.8892       -52.8282      -2.674301      0.9593751      0.9693499
      5043.0000         1.6578        23.4698        71.6597       75.49252         0.6892         0.7519        44.6664         0.8896       -53.5374      -3.387756      0.9040961      0.9369202
      5043.5000         1.6068        24.3793        68.7421       70.70434         0.6741         0.7324        45.0598         0.8752       -54.7808      -4.635418        0.80222      0.8802083
      5044.0000         1.6824        26.0486        64.9529       64.48628         0.6573         0.7186        45.6035         0.8473       -56.4979      -6.356777      0.6699209      0.8019647
      5044.5000         1.6928        27.6051        61.3204       58.52529         0.6422         0.7167        45.1522         0.8565       -58.8987      -8.761837      0.5430912      0.6926438
      5045.0000         1.6475        28.1861        58.8074       54.40085         0.6285         0.7236        43.4412         0.8659        -59.788      -9.655396      0.4553372      0.6520275
      5045.5000         1.6022        28.9799        58.3735       53.68718         0.6197         0.7204        40.7204         0.8859       -59.9487      -9.820358      0.4401527      0.6445292
      5046.0000         1.4651        29.6258        61.8364       59.36621         0.6133          0.708        39.1767         0.9029       -59.3359      -9.211815      0.5609833      0.6721902
      5046.5000          1.279        28.6831        62.6982       60.77816          0.609         0.6949         38.759         0.9035       -57.1843      -7.064476      0.5910247      0.7697966
      5047.0000         1.1606        27.3307        62.2025       59.96311         0.6091         0.6848        39.8673         0.8957       -55.5468      -5.431236      0.5736831      0.8440347
      5047.5000         1.2861        26.0359           66.1       66.35512         0.6117         0.6788        41.2822         0.8862        -54.559      -4.447693      0.7096834      0.8887413
      5048.0000         1.5103        25.1718        65.9446       66.09835          0.613         0.6736        42.8674         0.8699       -53.9719      -3.864857      0.7042202      0.9152338
      5048.5000         1.5883        24.9678        66.9336       67.71895         0.6143         0.6725        43.5849         0.8368       -54.0481      -3.945316       0.738701      0.9115765
      5049.0000         1.6157        25.0883        68.2985       69.95621         0.6171         0.6737        43.6025         0.8263       -54.0884       -3.98988      0.7863024      0.9095509
      5049.5000         1.6432        25.4541        69.3005       71.59812         0.6192          0.675        43.2923          0.833       -54.1063      -4.012035      0.8212366      0.9085438
      5050.0000         1.6134         25.539        70.6758       73.85245         0.6193         0.6764        43.3118         0.8404       -54.1733      -4.083298       0.869201      0.9053047
      5050.5000         1.5216         25.381        73.4602       78.41842         0.6212         0.6778        43.4742         0.8479       -54.2876      -4.201859      0.9663494      0.8999155
      5051.0000         1.3964        25.2227        74.1786        79.5951         0.6221         0.6831        44.0526         0.8539       -54.4252      -4.343716      0.9913851      0.8934675
      5051.5000         1.3168        25.1127        74.7578       80.54343         0.6222         0.6896        44.8409         0.8396       -54.7485      -4.671276              1      0.8785784
      5052.0000         1.2871        25.2276        75.0742       81.06064         0.6224         0.6944        45.1517         0.8145       -55.9447      -5.871735              1       0.824012
      5052.5000         1.3279        25.6585        72.5599       76.93405         0.6239         0.6963        44.9435         0.8191       -57.2423      -7.173592      0.9347671      0.7648367
      5053.0000         1.3651        26.1431        68.6116       70.45502         0.6268         0.6965        44.6178         0.8367       -57.6312      -7.566753      0.7969152      0.7469658
      5053.5000         1.3627        26.6276        67.2468       68.21421         0.6336         0.6989        44.0826         0.8564       -57.7047      -7.644516      0.7492386      0.7434311
      5054.0000         1.3473        26.8617        66.9752       67.76678         0.6405         0.7024        44.2031         0.8623       -57.5031      -7.447174      0.7397187      0.7524012
      5054.5000         1.3311        26.1639        67.3368       68.35814         0.6491         0.7061        45.3322         0.8343       -57.6284      -7.576733      0.7523009      0.7465122
      5055.0000         1.3149        24.7979        67.6614        68.8888          0.664         0.7083        45.3624         0.8131        -57.768      -7.720596      0.7635915      0.7399729
