#------------------------------------------------------------------------------
# Created by    : vladimir.rabinovich
# Created on    : 09/19/2023 17:20:06
#------------------------------------------------------------------------------
~Version Information Section
VERS.           2.0     :   CWLS log ASCII Standard - VERSION 2.0
WRAP.           NO      :   One line per depth step
~Well Information Section
#MNEM       .UNIT                                         VALUE :DESCRIPTION
#------------------------------------------------------------------------------
STRT        .FT                                             325 :START DEPTH
STOP        .FT                                           10896 :STOP DEPTH
STEP        .FT                                             0.5 :STEP      
NULL        .                                           -999.25 :NULL      
COMP        .                                      GETTY OIL CO :COMPANY   
WELL        .                               OCS G03737 ST00BP00 :WELL      
FLD         .                                           WILDCAT :FIELD     
LOC         .                                                   :LOCATION  
CNTY        .                             GALVESTON LARGE BLOCK :LOCATION  
STAT        .                                             TEXAS :STATE     
CTRY        .                                     UNITED STATES :COUNTRY   
SRVC        .                                                   :SERVICE COMPANY
DATE        .                             9/13/2023 11:10:15 AM :LOG DATE  
API         .                                    42706400540000 :API NUMBER
UWI         .                                    42706400540000 :UNIQUE WELL ID
XCOORD      .                                  1098214.74516992 :SURFACE X 
YCOORD      .                                   10573216.961531 :SURFACE Y 
LAT         .                                         29.123847 :LATITUDE  
LON         .                                        -94.698615 :LONGITUDE 
ELEV        .FT                                              99 :ELEVATION VALUE
ELEV_TYPE   .                                                KB :ELEVATION REFERENCE TYPE
~Curve Information Section
#MNEM       .UNIT                                      API CODE :CURVE DESCRIPTION
#------------------------------------------------------------------------------
DEPT        .FT                                                 :DEPTH     
ASFL        .OHMM                                               :          
DT          .US/F                                               :          
DTL         .US/F                                               :          
GR          .GAPI                                               :          
GR_1        .GAPI                                               :          
GR_NORM     .GAPI                                               :GammaRay Normalized
ILD         .OHMM                                               :          
RHOB        .G/CC                                               :          
SP          .MV                                                 :          
SP_NORM     .MV                                                 :SP Normalized
VSH_GR      .V/V                                                :Volume of Shale from GR
VSH_SP      .V/V                                                :Volume of Shale from SP
~A        DEPTH           ASFL             DT            DTL             GR           GR_1        GR_NORM            ILD           RHOB             SP        SP_NORM         VSH_GR         VSH_SP
# ...
      3851.0000         0.4894       126.1023       124.4361        32.2864        33.3525        41.6426         0.1621         1.8617        -82.042       -34.5197         0.1839         0.0941
      3851.5000         0.5032       126.8934       125.4282        31.8606        32.9293         40.946         0.1624         1.8698       -81.8458       -34.3247         0.1691         0.0993
      3852.0000         0.5167       125.9215       124.9603         31.503        32.9983        40.3613         0.1626         1.8477       -81.4313       -33.9114         0.1566         0.1105
      3852.5000         0.5178        120.522       123.6636        31.2352        33.3788        39.9239         0.1629         1.8247       -80.9054       -33.3867         0.1473         0.1247
      3853.0000         0.5163       118.7683       122.3152         32.236        33.7594        41.5676         0.1631         1.7927       -80.3798       -32.8623         0.1823         0.1389
      3853.5000         0.5147       120.2688       121.1052        33.6464        34.2128        43.8833         0.1633         1.7795       -79.6754       -32.1591         0.2316         0.1579
      3854.0000         0.5131       123.4819       120.7158        34.1508        34.7744        44.7127         0.1636         1.7766       -78.9059       -31.3908         0.2492         0.1786
      3854.5000         0.5113       124.5118       121.1149        33.0422        35.3363         42.896         0.1638         1.7953       -78.1357       -30.6219         0.2106         0.1994
      3855.0000         0.5096       125.6267       124.2286        32.8826        35.8979        42.6361         0.1641         1.8315       -77.3656        -29.853          0.205         0.2202
      3855.5000         0.5079       127.1536       127.4858        35.0904        36.4592        46.2599         0.1643         1.8606       -76.7208       -29.2094         0.2821         0.2376
      3856.0000         0.5062        129.335       127.6746        39.4675        36.9936        53.4425         0.1646         1.8817       -77.8292        -30.319         0.4349         0.2076
      3856.5000         0.5053       129.1038       126.7101         40.663        37.5276        55.4057         0.1648         1.8879       -79.3684       -31.8594         0.4767          0.166
      3857.0000         0.5061       127.3551        124.867        39.4388        37.5925        53.3993         0.1651         1.8907       -80.8905       -33.3827          0.434         0.1248
      3857.5000         0.5099       124.7429        122.636        37.8601        37.0492        50.8114         0.1653         1.8884       -81.9231       -34.4165          0.379         0.0969
      3858.0000         0.5138       124.2095       122.4681        37.1153        36.3528        49.5915         0.1655         1.8839       -82.6654         -35.16          0.353         0.0768
      3858.5000         0.5204       124.3311       124.2164        36.1205        35.6688        47.9614         0.1658         1.8825       -82.9423       -35.4381         0.3183         0.0692
      3859.0000         0.5291        125.306       124.4412        35.1606        35.0401        46.3886         0.1672         1.8882       -83.0129         -35.51         0.2849         0.0673
      3859.5000         0.5378       125.8992       122.9695        34.3989        34.4114         45.141         0.1704         1.9106       -82.9613       -35.4596         0.2583         0.0687
      3860.0000         0.5465       122.2228       119.4678        33.4269        33.7827        43.5484         0.1735         1.9422       -82.9095        -35.409         0.2244           0.07
      3860.5000         0.5585       114.6639        115.754        32.8221        33.5192        42.5581         0.1767         1.9715       -82.8579       -35.3586         0.2034         0.0714
      3861.0000         0.5744       109.5416       115.0521        32.6099        33.2938        42.2119         0.1798          1.973       -82.8063       -35.3082          0.196         0.0728
      3861.5000         0.5904       100.4886       116.2331        32.4701        33.0683        41.9845         0.1829         1.9632       -82.7341       -35.2372         0.1912         0.0747
      3862.0000         0.6106        96.3199       120.1868        31.4279        32.8428        40.2767         0.1861         1.9515       -82.6536       -35.1579         0.1548         0.0768
      3862.5000         0.6308       101.0278       125.3677        30.2607         32.828        38.3639         0.1887         1.9327        -82.573       -35.0785         0.1141          0.079
      3863.0000         0.6331       111.2574       128.7188        30.2384        32.8848        38.3292         0.1905         1.8941       -82.4924       -34.9991         0.1134         0.0811
      3863.5000         0.6264       127.4484       129.9455        30.8377        32.9764        39.3143         0.1924         1.8469       -82.3435       -34.8515         0.1343         0.0851
      3864.0000         0.6197       134.7495       129.7643        31.2791        33.2998        40.0404         0.1942         1.8502       -82.1926       -34.7018         0.1498         0.0891
      3864.5000         0.6097       133.4487        127.441        31.3521        33.6234         40.162         0.1961         1.9034       -82.0417       -34.5521         0.1524         0.0932
      3865.0000         0.5979       130.6785       125.6131        31.8961        33.9468        41.0564          0.198         1.9895       -81.6798       -34.1914         0.1714         0.1029
      3865.5000          0.586       127.7609       124.9908         32.674        34.3391        42.3345         0.2001          2.013       -81.0459       -33.5587         0.1986           0.12
      3866.0000         0.5741       125.0901       125.0758        33.2146        34.7481        43.2233         0.2022         2.0145       -80.4117       -32.9257         0.2175         0.1371
      3866.5000         0.5665       124.5481       125.0266        33.8496         35.157        44.2669         0.2044         1.9766       -78.0493       -30.5645         0.2397          0.201
      3867.0000         0.5599       124.4432       124.3786          35.27         35.566         46.599         0.2066          1.914        -75.271       -27.7874         0.2893          0.276
      3867.5000         0.5533       124.1036       123.3821        40.2681        36.3486        54.8004         0.2088         1.8716       -73.4453       -25.9629         0.4638         0.3253
      3868.0000         0.5468       122.9509       120.3045        43.9968        37.4089        60.9193         0.2116         1.8542       -72.0549       -24.5738          0.594         0.3629
      3868.5000         0.5432       119.0027       117.9196        46.4135        38.6566        64.8858         0.2145         1.8594       -71.0979        -23.618         0.6784         0.3887
      3869.0000         0.5414        114.314       115.9948        47.0031        40.4871         65.855         0.2174         1.8843       -70.2776       -22.7989          0.699         0.4108
      3869.5000         0.5396       115.4778        114.658        45.7937        42.5123        63.8729         0.2202         1.9432       -70.1718       -22.6943         0.6569         0.4137
      3870.0000         0.5379        116.536       113.2557         43.241        41.8642        59.6871         0.2231         1.9778       -71.0997       -23.6234         0.5678         0.3886
      3870.5000         0.5386       116.4327       112.8675        39.3278        38.9601        53.2694          0.226         2.0073       -72.8662       -25.3911         0.4313         0.3408
      3871.0000         0.5393        116.832       113.4225        36.5258         36.276        48.6747         0.2289         1.9991       -74.5781       -27.1042         0.3335         0.2945
