#------------------------------------------------------------------------------
# Created by    : vladimir.rabinovich
# Created on    : 09/19/2023 17:22:15
#------------------------------------------------------------------------------
~Version Information Section
VERS.           2.0     :   CWLS log ASCII Standard - VERSION 2.0
WRAP.           NO      :   One line per depth step
~Well Information Section
#MNEM       .UNIT                                         VALUE :DESCRIPTION
#------------------------------------------------------------------------------
STRT        .FT                                              41 :START DEPTH
STOP        .FT                                            7991 :STOP DEPTH
STEP        .FT                                             0.5 :STEP      
NULL        .                                           -999.25 :NULL      
COMP        .                           ENERGY DEVELOPMENT CORP :COMPANY   
WELL        .                               OCS G11200 ST00BP00 :WELL      
FLD         .                                           WILDCAT :FIELD     
LOC         .                                                   :LOCATION  
CNTY        .                    NORTH PADRE ISLAND LARGE BLOCK :LOCATION  
STAT        .                                             TEXAS :STATE     
CTRY        .                                     UNITED STATES :COUNTRY   
SRVC        .                                                   :SERVICE COMPANY
DATE        .                             9/13/2023 11:18:55 AM :LOG DATE  
API         .                                    42701400410000 :API NUMBER
UWI         .                                    42701400410000 :UNIQUE WELL ID
XCOORD      .                                   309944.09600436 :SURFACE X 
YCOORD      .                                  9740515.29665267 :SURFACE Y 
LAT         .                                          26.78454 :LATITUDE  
LON         .                                        -97.077486 :LONGITUDE 
ELEV        .FT                                              91 :ELEVATION VALUE
ELEV_TYPE   .                                                KB :ELEVATION REFERENCE TYPE
~Curve Information Section
#MNEM       .UNIT                                      API CODE :CURVE DESCRIPTION
#------------------------------------------------------------------------------
DEPT        .FT                                                 :DEPTH     
CALI        .IN                                                 :          
DRHO        .G/C3                                               :          
DT          .US/F                                               :          
GR          .GAPI                                               :          
GR_NORM     .GAPI                                               :GammaRay Normalized
ILD         .OHMM                                               :          
ILM         .OHMM                                               :          
NPHI        .%                                                  :          
RFOC        .OHMM                                               :          
RHOB        .G/C3                                               :          
SP          .MV                                                 :          
SP_NORM     .MV                                                 :SP Normalized
VSH_GR      .V/V                                                :Volume of Shale from GR
VSH_SP      .V/V                                                :Volume of Shale from SP
~A        DEPTH           CALI           DRHO             DT             GR        GR_NORM            ILD            ILM           NPHI           RFOC           RHOB             SP        SP_NORM         VSH_GR         VSH_SP
# ...
      5639.0000        12.1611         0.0528       102.5182         72.621       78.99986         1.1107         1.0184         39.403         0.9926         2.3708          -44.4       1.383133      0.9787205              1
      5639.5000        12.1062         0.0628       102.9343        73.2903       79.99143         1.1397         1.0381        39.5833         0.9922         2.3734       -44.6091       1.174034      0.9998177              1
      5640.0000        12.0412         0.0591       102.6617        75.1177       82.68492         1.1564         1.0703        38.9724         0.9998         2.3801       -45.1522      0.6309357              1              1
      5640.5000        12.0661         0.0486       101.5443        75.2023       82.81725         1.1568         1.1081        36.3021          1.007         2.3912       -45.8345     -0.0513649              1              1
      5641.0000         12.119          0.054        99.1963        73.7238        80.6525         1.1531          1.157        35.5031         1.0243         2.4088       -46.4384     -0.6552658              1              1
      5641.5000        12.1145         0.0618        95.7655         71.521       77.42335         1.1447         1.1778        33.1778         1.0637         2.4244       -47.0505      -1.267365      0.9451776      0.9945436
      5642.0000        12.0451         0.0383        89.1476        69.8984       75.04684         1.1249         1.1448        32.1862          1.148         2.4412       -47.6049      -1.821766      0.8946136      0.9832293
      5642.5000        12.1099         0.0206        84.6652        68.5859       73.12602         1.0993         1.1288        33.8021         1.2143         2.4435       -48.0867      -2.303566      0.8537452      0.9733966
      5643.0000        12.1456         0.0397        86.2513        68.6041       73.16077         1.0606         1.0985          35.86         1.1397         2.4006       -48.8391      -3.055965      0.8544846      0.9580415
      5643.5000         12.105         0.0711        89.0779        69.8508       75.00089         1.0133         1.0687        38.3197         1.0446         2.3404       -49.7043      -3.921165       0.893636      0.9403844
      5644.0000        11.9305         0.1151        96.5361        68.0103       72.30415          0.928          1.043        39.1493         0.9726         2.2672        -51.981      -6.197865      0.8362584      0.8939211
      5644.5000         11.945         0.1603       100.1957        65.0807       68.00692         0.8234          1.003        38.2839         0.9462         2.1997       -55.8526      -10.06947      0.7448281      0.8149089
      5645.0000        12.4814         0.1919       102.3535        60.4874       61.26477          0.736         0.9451        37.5394         0.9738         2.1574       -62.5635      -16.78036      0.6013781      0.6779518
      5645.5000        12.1931           0.17       104.1025        54.6585       52.70682         0.6897         0.8566        37.4852         1.0778         2.1499       -68.2821      -22.49896       0.419294      0.5612457
      5646.0000        11.2869         0.0759       103.9067        52.2252       49.13894         0.6646         0.7793        37.1455         1.2638         2.1865       -71.0813      -25.29816      0.3433816      0.5041191
      5646.5000        10.4808          0.026       103.4102        51.8242       48.55764         0.6681          0.746        37.3564         1.2093         2.2076       -67.8661      -22.08296      0.3310136      0.5697355
      5647.0000        10.5264         0.0163       102.6742        55.0895       53.36422         0.7075         0.7903        38.5482          1.042         2.2212       -63.5208      -17.73767      0.4332813       0.658415
      5647.5000        10.8005         0.0591       101.6923        58.8008       58.82621         0.7583         0.8663        38.4213         1.0204         2.2356       -58.0729      -12.28976      0.5494939      0.7695966
      5648.0000        10.9883         0.0856        98.5449        60.8005        61.7729          0.816         0.9558        36.2274         1.2055         2.2777       -52.9031      -7.119965      0.6121893      0.8751028
      5648.5000        10.9031         0.0805        92.8418        62.0618       63.63446         0.8957         1.0616        34.1306          1.465         2.3541        -50.312      -4.528866      0.6517971      0.9279823
      5649.0000        11.0108         0.0923        87.8698        61.7722       63.21687           0.99         1.1922        32.7708         1.3785         2.3461       -48.6718      -2.888664      0.6429122      0.9614558
      5649.5000        11.3285         0.1459        82.1816        61.1359       62.28979         1.1162         1.3079        32.3098         1.3311         2.2977       -47.3493      -1.566166      0.6231871      0.9884456
      5650.0000        11.3243         0.1797        84.9486        61.0186       62.12543         1.2692         1.3389        33.2659         1.3381         2.2795       -46.6526     -0.8694649      0.6196899              1
      5650.5000         11.176         0.1248        86.7858        61.0173        62.1315         1.3599         1.3348        34.5249         1.3372         2.2994       -46.2858     -0.5026665      0.6198192              1
      5651.0000        11.0999         0.0917        88.2029        61.1887        62.3914         1.4065         1.3288        35.8376         1.2734         2.3216       -46.1931     -0.4099655      0.6253489              1
      5651.5000         11.227         0.0974        91.6584        61.6175       63.02954          1.434         1.3293        37.3549         1.1735          2.315       -46.0814     -0.2982674      0.6389265              1
      5652.0000        11.4003         0.1168        95.1638        62.8217       64.80721         1.4623          1.348        38.4664         1.1047         2.2911       -45.7458     0.03733444      0.6767491              1
      5652.5000         11.403         0.1004        96.5852          63.45       65.73852         1.4913          1.373        37.4371         1.1009         2.2823       -45.2869      0.4962349      0.6965642              1
      5653.0000        11.3447         0.0842        96.8839        61.8117       63.33894         1.5441         1.4223        36.3379         1.1321         2.3054       -44.7945       0.988636      0.6455094              1
      5653.5000        11.2924         0.0753        95.1141        59.0089       59.22805         1.6435         1.5225        35.3194         1.1679          2.333       -44.4405       1.342636      0.5580436              1
      5654.0000        11.2432         0.0764        93.0183        56.8506       56.06429         1.6886         1.6347        34.1971           1.21         2.3608       -44.1736       1.609535      0.4907295              1
      5654.5000        11.1417         0.0849        89.8064        56.8563       56.08067         1.6947         1.6665         33.472          1.268         2.3937       -43.8948       1.888336      0.4910781              1
      5655.0000        11.0137         0.0913        85.6472         57.811       57.49167         1.6908         1.6011        32.7858         1.4276          2.429        -43.886       1.897133      0.5210993              1
      5655.5000         10.881         0.0719        80.3245        58.9725       59.20656         1.6712         1.4548        33.4884          1.614         2.4615       -44.3071       1.476036      0.5575864              1
      5656.0000        10.7485         0.0238        79.0505         59.755        60.3645         1.5501         1.2962        35.8361         1.5444         2.4859       -44.9448      0.8383331      0.5822235              1
      5656.5000        10.7342         0.0246        83.4396        60.8231       61.94215         1.4315         1.2231        37.9344         1.1624         2.4367       -45.8176    -0.03446579      0.6157904              1
