#------------------------------------------------------------------------------
# Created by    : vladimir.rabinovich
# Created on    : 09/19/2023 17:19:48
#------------------------------------------------------------------------------
~Version Information Section
VERS.           2.0     :   CWLS log ASCII Standard - VERSION 2.0
WRAP.           NO      :   One line per depth step
~Well Information Section
#MNEM       .UNIT                                         VALUE :DESCRIPTION
#------------------------------------------------------------------------------
STRT        .FT                                             960 :START DEPTH
STOP        .FT                                            9172 :STOP DEPTH
STEP        .FT                                             0.5 :STEP      
NULL        .                                           -999.25 :NULL      
COMP        .                                ODECO OIL & GAS CO :COMPANY   
WELL        .                               OCS G06101 ST00BP00 :WELL      
FLD         .                                           WILDCAT :FIELD     
LOC         .                                                   :LOCATION  
CNTY        .                             GALVESTON LARGE BLOCK :LOCATION  
STAT        .                                             TEXAS :STATE     
CTRY        .                                     UNITED STATES :COUNTRY   
SRVC        .                                                   :SERVICE COMPANY
DATE        .                             9/13/2023 11:19:27 AM :LOG DATE  
API         .                                    42706401070000 :API NUMBER
UWI         .                                    42706401070000 :UNIQUE WELL ID
XCOORD      .                                  1041316.87817256 :SURFACE X 
YCOORD      .                                  10447909.9182991 :SURFACE Y 
LAT         .                                         28.776905 :LATITUDE  
LON         .                                        -94.870587 :LONGITUDE 
ELEV        .FT                                              92 :ELEVATION VALUE
ELEV_TYPE   .                                                KB :ELEVATION REFERENCE TYPE
~Curve Information Section
#MNEM       .UNIT                                      API CODE :CURVE DESCRIPTION
#------------------------------------------------------------------------------
DEPT        .FT                                                 :DEPTH     
ASFL        .OHMM                                               :          
GR          .GAPI                                               :          
GR_NORM     .GAPI                                               :GammaRay Normalized
ILD         .OHMM                                               :          
SP          .MV                                                 :          
SP_NORM     .MV                                                 :SP Normalized
VSH_GR      .V/V                                                :Volume of Shale from GR
VSH_SP      .V/V                                                :Volume of Shale from SP
~A        DEPTH           ASFL             GR        GR_NORM            ILD             SP        SP_NORM         VSH_GR         VSH_SP
# ...
      4765.5000          0.764        82.6891       88.32829         0.8098        -76.609      -1.931505              1      0.9678082
      4766.0000         0.7629        83.4803       89.37622         0.8127       -76.6304      -1.961465              1      0.9673089
      4766.5000         0.7619        84.1787       90.30141         0.8157       -76.6691       -2.01564              1       0.966406
      4767.0000         0.7608        84.5355       90.77474         0.8186       -77.4154       -3.06046              1      0.9489923
      4767.5000         0.7598        84.8925       91.24834         0.8215       -78.7745      -4.963201              1        0.91728
      4768.0000         0.7587        85.2181        91.6804         0.8245       -65.1335        14.1342              1              1
      4768.5000         0.7577        84.8162       91.15015         0.8274       -69.2607       8.356122              1              1
      4769.0000         0.7566        84.4146       90.62032         0.8303       -75.6241     -0.5526428              1      0.9907893
      4769.5000         0.7556        84.0128       90.09021         0.8333       -76.7371      -2.110841              1      0.9648193
      4770.0000         0.7545        83.6108       89.55984         0.8362       -77.1241      -2.652643              1      0.9557893
      4770.5000         0.7542        83.2091       89.02986         0.8392       -77.4968      -3.174428              1      0.9470929
      4771.0000         0.7564        82.8071       88.49948         0.8421       -77.4629      -3.126961              1       0.947884
      4771.5000         0.7585        81.8352       87.21528          0.845       -77.4288      -3.079227              1      0.9486796
      4772.0000         0.7628        80.8135        85.8652          0.848       -77.3949       -3.03176              1      0.9494707
      4772.5000         0.7728        79.7917         84.515         0.8509        -77.361      -2.984303              1      0.9502616
      4773.0000         0.7828        78.5406       82.86148         0.8538       -77.3269      -2.936558              1      0.9510574
      4773.5000         0.7928        77.1327       81.00054         0.8568        -77.293      -2.889102              1      0.9518483
      4774.0000         0.8108        75.7273       79.14292         0.8597       -77.2589      -2.841368      0.9817643      0.9526439
      4774.5000         0.8376         74.522       77.54999         0.8629        -77.225      -2.793901      0.9478721       0.953435
      4775.0000         0.8643        73.3167       75.95705         0.8668       -77.1909      -2.746167      0.9139799      0.9542305
      4775.5000         0.8911        71.9637       74.16875         0.8707       -77.1472      -2.684985      0.8759308      0.9552503
      4776.0000          0.906        70.5083       72.24498         0.8746       -77.1018      -2.621422      0.8349996      0.9563096
      4776.5000         0.8873        72.1284       74.38934         0.8785       -77.0563      -2.557719      0.8806244      0.9573714
      4777.0000         0.8686        74.1987       77.12921         0.8824       -77.0107      -2.493878      0.9389194      0.9584354
      4777.5000           0.85        76.2703       79.87081         0.8863       -76.9653      -2.430325      0.9972513      0.9594946
      4778.0000         0.8334        77.2401       81.15497         0.8901       -76.9198      -2.366623              1      0.9605563
      4778.5000          0.823        77.9653       82.11562          0.894       -76.8743      -2.302921              1       0.961618
      4779.0000         0.8125        78.6913        83.0773         0.8979       -76.8325      -2.244399              1      0.9625934
      4779.5000         0.8021        79.4165       84.03793         0.9018       -76.8169      -2.222566              1      0.9629572
      4780.0000         0.7917        80.1425       84.99963         0.9057       -76.8014      -2.200862              1      0.9633189
      4780.5000         0.7889        80.7544        85.8104         0.9096       -76.7858      -2.179019              1       0.963683
      4781.0000         0.7913         80.496       85.46997         0.9135       -76.7703      -2.157326              1      0.9640446
      4781.5000         0.7919        80.2374       85.12927         0.9087       -76.7546      -2.135344              1       0.964411
      4782.0000         0.7925        80.0339       84.86147         0.9017       -76.7391       -2.11364              1      0.9647726
      4782.5000         0.7931        79.9141       84.70438         0.8946       -76.7235      -2.091808              1      0.9651365
      4783.0000         0.7938        79.7942       84.54716         0.8876       -76.7173      -2.083124              1      0.9652812
      4783.5000         0.7944        79.6744       84.39008         0.8806       -76.7173      -2.083124              1      0.9652812
      4784.0000         0.7954        79.5546       84.23299         0.8754       -76.7173      -2.083124              1      0.9652812
      4784.5000         0.7965        79.6067       84.30326         0.8752       -76.7173      -2.083124              1      0.9652812
      4785.0000         0.7976        79.6926       84.41827         0.8749       -76.7173      -2.083124              1      0.9652812
      4785.5000         0.7986        79.7784       84.53313         0.8747       -76.7173      -2.083124              1      0.9652812
      4786.0000         0.7997        79.8644       84.64827         0.8745       -76.7173      -2.083124              1      0.9652812
      4786.5000         0.8006        79.9503       84.76327         0.8743       -76.7173      -2.083124              1      0.9652812
      4787.0000         0.8187        80.0363        84.8784         0.8741       -76.7173      -2.083124              1      0.9652812
      4787.5000         0.8416        80.1157        84.9848         0.8739       -76.7173      -2.083124              1      0.9652812
      4788.0000         0.8649        79.8738       84.66621         0.8736       -76.7173      -2.083124              1      0.9652812
      4788.5000         0.8884        78.7163       83.13649         0.8734       -76.7173      -2.083124              1      0.9652812
      4789.0000         0.9101        77.2511       81.19977         0.8732       -76.7252      -2.094179              1       0.965097
      4789.5000         0.9039        76.3953       80.06913          0.873       -76.7346      -2.107338              1      0.9648777
      4790.0000         0.8978        75.5394       78.93836         0.8728        -76.744      -2.120508       0.977412      0.9646582
      4790.5000         0.8916        74.6836       77.80772         0.8765       -76.7534      -2.133667      0.9533558      0.9644389
      4791.0000         0.8854        74.7062       77.83899         0.8819       -76.7628      -2.146826       0.954021      0.9642196
      4791.5000         0.8793         75.587       79.00544         0.8873       -76.7722      -2.159985      0.9788392      0.9640002
      4792.0000         0.8731        76.4722       80.17771         0.8927       -76.7815      -2.173006              1      0.9637833
      4792.5000         0.8669        77.3572       81.34973         0.8981       -76.7909      -2.186165              1      0.9635639
      4793.0000         0.8615        78.2423       82.52188         0.9036       -76.8003      -2.199324              1      0.9633446
      4793.5000         0.8571        79.1274       83.69402          0.909       -76.8097      -2.212483              1      0.9631253
      4794.0000         0.8527        80.0125       84.86616         0.9144       -76.8191      -2.225642              1      0.9629059
      4794.5000         0.8483        80.2891        85.2334         0.9198       -76.8285      -2.238801              1      0.9626867
