#------------------------------------------------------------------------------
# Created by    : vladimir.rabinovich
# Created on    : 09/19/2023 17:21:26
#------------------------------------------------------------------------------
~Version Information Section
VERS.           2.0     :   CWLS log ASCII Standard - VERSION 2.0
WRAP.           NO      :   One line per depth step
~Well Information Section
#MNEM       .UNIT                                         VALUE :DESCRIPTION
#------------------------------------------------------------------------------
STRT        .FT                                            3102 :START DEPTH
STOP        .FT                                            8740 :STOP DEPTH
STEP        .FT                                             0.5 :STEP      
NULL        .                                           -999.25 :NULL      
COMP        .                          SEAGULL ENERGY E & P INC :COMPANY   
WELL        .                               OCS G13314 ST00BP00 :WELL      
FLD         .                              GALVESTON BLOCK 0330 :FIELD     
LOC         .                                                   :LOCATION  
CNTY        .                             GALVESTON LARGE BLOCK :LOCATION  
STAT        .                                             TEXAS :STATE     
CTRY        .                                     UNITED STATES :COUNTRY   
SRVC        .                                                   :SERVICE COMPANY
DATE        .                             9/13/2023 11:19:54 AM :LOG DATE  
API         .                                    42706403240000 :API NUMBER
UWI         .                                    42706403240000 :UNIQUE WELL ID
XCOORD      .                                  980373.867630971 :SURFACE X 
YCOORD      .                                  10452895.3513713 :SURFACE Y 
LAT         .                                         28.787844 :LATITUDE  
LON         .                                        -95.061044 :LONGITUDE 
ELEV        .FT                                              95 :ELEVATION VALUE
ELEV_TYPE   .                                                KB :ELEVATION REFERENCE TYPE
~Curve Information Section
#MNEM       .UNIT                                      API CODE :CURVE DESCRIPTION
#------------------------------------------------------------------------------
DEPT        .FT                                                 :DEPTH     
CALI        .IN                                                 :          
DRHO        .G/C3                                               :          
DT          .US/F                                               :          
GR          .GAPI                                               :          
GR_1        .GAPI                                               :          
GR_NORM     .GAPI                                               :GammaRay Normalized
ILD         .OHMM                                               :          
ILM         .OHMM                                               :          
NPHI        .%                                                  :          
RFOC        .OHMM                                               :          
RHOB        .G/C3                                               :          
SP          .MV                                                 :          
SP_NORM     .MV                                                 :SP Normalized
VSH_GR      .V/V                                                :Volume of Shale from GR
VSH_SP      .V/V                                                :Volume of Shale from SP
~A        DEPTH           CALI           DRHO             DT             GR           GR_1        GR_NORM            ILD            ILM           NPHI           RFOC           RHOB             SP        SP_NORM         VSH_GR         VSH_SP
# ...
      3918.0000        -999.25        -999.25       134.1643        53.5466        -999.25       63.07728         0.5584         0.7129        -999.25         1.3096        -999.25       -58.6539      -27.44492      0.6399421      0.6569385
      3918.5000        -999.25        -999.25       132.6301        55.9238        -999.25       65.65273         0.5621         0.7147        -999.25         1.2282        -999.25       -57.1347      -25.92599      0.6947388      0.6759251
      3919.0000        -999.25        -999.25       131.5725        57.7264        -999.25       67.60565         0.5681         0.7174        -999.25         1.1763        -999.25       -54.7204      -23.51196      0.7362905      0.7061005
      3919.5000        -999.25        -999.25       132.0808        59.1744        -999.25       69.17442         0.5765          0.721        -999.25         1.1408        -999.25       -51.9347      -20.72652      0.7696684      0.7409185
      3920.0000        -999.25        -999.25        132.936        58.8153        -999.25       68.78538         0.5855         0.7255        -999.25         1.1094        -999.25       -48.4543      -17.24639       0.761391      0.7844201
      3920.5000        -999.25        -999.25       132.6321        57.0207        -999.25        66.8411         0.5975         0.7344        -999.25           1.12        -999.25       -45.6389      -14.43126      0.7200235      0.8196093
      3921.0000        -999.25        -999.25       131.7947        58.3393        -999.25       68.26968         0.6101         0.7452        -999.25         1.1849        -999.25       -43.1856      -11.97823      0.7504188      0.8502722
      3921.5000        -999.25        -999.25       131.1387        59.8795        -999.25       69.93832         0.6256         0.7562        -999.25         1.2509        -999.25       -41.6915      -10.48439      0.7859216      0.8689451
      3922.0000        -999.25        -999.25       130.6365         60.423        -999.25       70.52714         0.6409         0.7718        -999.25         1.2292        -999.25       -40.3878      -9.180958      0.7984498      0.8852381
      3922.5000        -999.25        -999.25       130.3779        60.0931        -999.25       70.16973         0.6561         0.7942        -999.25          1.177        -999.25       -39.2735      -8.066927      0.7908453      0.8991634
      3923.0000        -999.25        -999.25       130.3079        59.2295        -999.25       69.23411         0.6698         0.8059        -999.25         1.1622        -999.25        -38.637      -7.430696      0.7709385      0.9071163
      3923.5000        -999.25        -999.25       130.6626        57.1296        -999.25       66.95909         0.6821         0.8112        -999.25         1.1272        -999.25        -38.636      -7.429964      0.7225339      0.9071255
      3924.0000        -999.25        -999.25       131.5352        55.3364        -999.25       65.01634          0.692         0.8117        -999.25         1.0694        -999.25       -40.1306      -8.924829      0.6811988      0.8884397
      3924.5000        -999.25        -999.25       132.2993           55.6        -999.25       65.30193         0.6988         0.8072        -999.25         1.1432        -999.25       -42.9925        -11.787       0.687275      0.8526626
      3925.0000        -999.25        -999.25        132.157        57.1296        -999.25       66.95909         0.6951         0.8015        -999.25           1.19        -999.25       -45.3455      -14.14026      0.7225339      0.8232467
      3925.5000        -999.25        -999.25       130.1697        57.2374        -999.25       67.07588         0.6784         0.7955        -999.25         1.1336        -999.25       -46.0394      -14.83443      0.7250187      0.8145696
      3926.0000        -999.25        -999.25       129.0588        55.7999        -999.25       65.51849         0.6618         0.7894        -999.25         1.1408        -999.25       -46.6144       -15.4097      0.6918828      0.8073788
      3926.5000        -999.25        -999.25       128.8752         55.145        -999.25       64.80899         0.6464          0.782        -999.25         1.1953        -999.25       -47.2335      -16.02907       0.676787      0.7996367
      3927.0000        -999.25        -999.25       129.3804        57.6298        -999.25       67.50101         0.6342         0.7737        -999.25         1.1864        -999.25       -47.3178      -16.11363      0.7340642      0.7985796
      3927.5000        -999.25        -999.25        130.531        59.6876        -999.25       69.73042         0.6256         0.7679        -999.25         1.1393        -999.25       -45.3845       -14.1806      0.7814982      0.8227425
      3928.0000        -999.25        -999.25       132.8862        61.2996        -999.25       71.47684         0.6215         0.7647        -999.25         1.1059        -999.25       -43.3342      -12.13057      0.8186563      0.8483679
      3928.5000        -999.25        -999.25       135.5386        63.2261        -999.25       73.56401         0.6208         0.7691        -999.25         1.1001        -999.25        -42.921      -11.71764      0.8630641      0.8535295
      3929.0000        -999.25        -999.25       135.7976        63.7721        -999.25       74.15556         0.6211         0.7801        -999.25         1.1099        -999.25       -43.6517       -12.4486      0.8756501      0.8443925
      3929.5000        -999.25        -999.25       133.5854        61.8035        -999.25       72.02278         0.6223         0.7948        -999.25         1.1508        -999.25       -44.6546      -13.45177       0.830272      0.8318529
      3930.0000        -999.25        -999.25       131.1755        59.2642        -999.25        69.2717         0.6237         0.7968        -999.25         1.2408        -999.25       -45.9992      -14.79664      0.7717382       0.815042
      3930.5000        -999.25        -999.25       129.0039        58.4934        -999.25       68.43663         0.6228         0.7861        -999.25         1.3794        -999.25       -47.4274       -16.2251      0.7539709      0.7971862
      3931.0000        -999.25        -999.25       128.4834        60.0677        -999.25        70.1422         0.6212         0.7753        -999.25         1.3766        -999.25       -48.7441      -17.54207      0.7902597      0.7807241
      3931.5000        -999.25        -999.25       129.5632        61.7738        -999.25       71.99059         0.6156         0.7683        -999.25         1.2636        -999.25       -49.8737      -18.67194      0.8295869      0.7666007
      3932.0000        -999.25        -999.25       131.3315        63.5505        -999.25       73.91547         0.6097         0.7668        -999.25         1.1724        -999.25       -49.7978      -18.59631      0.8705418      0.7675462
      3932.5000        -999.25        -999.25        132.689        64.9285        -999.25       75.40839          0.603         0.7691        -999.25         1.1537        -999.25        -49.467      -18.26577      0.9023061      0.7716779
      3933.0000        -999.25        -999.25       132.6089        65.1222        -999.25       75.61824         0.5964         0.7864        -999.25         1.1622        -999.25       -49.5845      -18.38354      0.9067711      0.7702057
      3933.5000        -999.25        -999.25       130.9331        60.2621        -999.25       70.35283          0.589         0.7998        -999.25         1.1812        -999.25       -50.5539      -19.35321       0.794741      0.7580848
      3934.0000        -999.25        -999.25       129.4053        56.2556        -999.25        66.0122         0.5817          0.801        -999.25         1.2105        -999.25       -52.8149      -21.61448      0.7023872      0.7298191
      3934.5000        -999.25        -999.25       128.2708         54.473        -999.25       64.08094         0.5754         0.7989        -999.25         1.2719        -999.25       -56.5144      -25.31425      0.6612966      0.6835719
