#------------------------------------------------------------------------------
# Created by    : vladimir.rabinovich
# Created on    : 09/19/2023 17:21:34
#------------------------------------------------------------------------------
~Version Information Section
VERS.           2.0     :   CWLS log ASCII Standard - VERSION 2.0
WRAP.           NO      :   One line per depth step
~Well Information Section
#MNEM       .UNIT                                         VALUE :DESCRIPTION
#------------------------------------------------------------------------------
STRT        .FT                                            4495 :START DEPTH
STOP        .FT                                            9058 :STOP DEPTH
STEP        .FT                                             0.5 :STEP      
NULL        .                                           -999.25 :NULL      
COMP        .                          SEAGULL ENERGY E & P INC :COMPANY   
WELL        .                               OCS G11322 ST00BP00 :WELL      
FLD         .                                           WILDCAT :FIELD     
LOC         .                                                   :LOCATION  
CNTY        .                             GALVESTON LARGE BLOCK :LOCATION  
STAT        .                                             TEXAS :STATE     
CTRY        .                                     UNITED STATES :COUNTRY   
SRVC        .                                                   :SERVICE COMPANY
DATE        .                             9/13/2023 11:19:34 AM :LOG DATE  
API         .                                    42706402570000 :API NUMBER
UWI         .                                    42706402570000 :UNIQUE WELL ID
XCOORD      .                                  1032943.49501878 :SURFACE X 
YCOORD      .                                  10418025.6284813 :SURFACE Y 
LAT         .                                         28.694364 :LATITUDE  
LON         .                                        -94.895236 :LONGITUDE 
ELEV        .FT                                              97 :ELEVATION VALUE
ELEV_TYPE   .                                                KB :ELEVATION REFERENCE TYPE
~Curve Information Section
#MNEM       .UNIT                                      API CODE :CURVE DESCRIPTION
#------------------------------------------------------------------------------
DEPT        .FT                                                 :DEPTH     
CALI        .IN                                                 :          
DCAL        .IN                                                 :          
DPHI        .%                                                  :          
DRHO        .G/C3                                               :          
GR          .GAPI                                               :          
GR_1        .GAPI                                               :          
GR_NORM     .GAPI                                               :GammaRay Normalized
ILD         .OHMM                                               :          
ILM         .OHMM                                               :          
NPHI        .%                                                  :          
SGRD        .OHMM                                               :          
SP          .MV                                                 :          
SP_NORM     .MV                                                 :SP Normalized
VSH_GR      .V/V                                                :Volume of Shale from GR
VSH_SP      .V/V                                                :Volume of Shale from SP
~A        DEPTH           CALI           DCAL           DPHI           DRHO             GR           GR_1        GR_NORM            ILD            ILM           NPHI           SGRD             SP        SP_NORM         VSH_GR         VSH_SP
# ...
      6314.0000        -999.25         1.3545        22.1708         0.0005        -999.25        70.7777       76.78635         0.6392         0.6753        39.6696         0.8259       -52.7495      -10.52728      0.9316244      0.8245454
      6314.5000        -999.25         1.3532        22.0824         0.0028        -999.25        70.4084       76.32196         0.6423         0.6808        39.6649         0.8216        -52.568      -10.34578      0.9217438      0.8275704
      6315.0000        -999.25         1.3481        21.7898         0.0047        -999.25        67.3165       72.43394         0.6453         0.6837        39.4949         0.8184       -52.4239      -10.20168      0.8390201      0.8299721
      6315.5000        -999.25         1.3402          21.46         0.0061        -999.25        67.6344       72.83369         0.6478         0.6849        39.5332          0.815       -52.3207      -10.09848      0.8475254       0.831692
      6316.0000        -999.25         1.3298         21.128         0.0072        -999.25        69.2688       74.88893           0.65         0.6865        39.9294         0.8114       -52.5154      -10.29317      0.8912538      0.8284471
      6316.5000        -999.25         1.3027        21.0002         0.0081        -999.25        68.6567       74.11923         0.6519         0.6882        40.3603         0.8084       -53.2587      -11.03648      0.8748773      0.8160588
      6317.0000        -999.25         1.2401        21.0074         0.0079        -999.25        69.1764       74.77274         0.6512         0.6926         40.574         0.8079       -54.2137      -11.99147      0.8887816      0.8001421
      6317.5000        -999.25         1.1602        21.2168         0.0083        -999.25        69.8782       75.65523         0.6442         0.6961        40.4555         0.8119       -55.2662      -13.04398       0.907558      0.7826004
      6318.0000        -999.25          1.089        21.9203        -0.0001        -999.25        66.8892       71.89662         0.6324         0.6958        40.2148          0.831       -56.7396      -14.51738      0.8275877      0.7580437
      6318.5000        -999.25         1.0202        22.9196        -0.0112        -999.25        64.7484       69.20461         0.6174         0.6923        39.9778         0.8636       -58.4465      -16.22427      0.7703108      0.7295954
      6319.0000        -999.25          0.956        23.6049        -0.0211        -999.25        63.4254       67.54095         0.6001         0.6827        39.9951         0.8993       -59.7048      -17.48257      0.7349139      0.7086238
      6319.5000        -999.25         0.8912        24.0917        -0.0282        -999.25        61.3387       64.91697         0.5859         0.6702        40.1703          0.926       -60.7515      -18.52927      0.6790845      0.6911787
      6320.0000        -999.25          0.819        24.2884        -0.0315        -999.25        59.4881       62.58987         0.5754          0.658        40.3399         0.9421       -61.0581      -18.83588      0.6295717      0.6860687
      6320.5000        -999.25         0.7846         24.203        -0.0328        -999.25        58.5859       61.45537         0.5667         0.6466        40.5025         0.9339       -61.0579      -18.83567      0.6054335      0.6860721
      6321.0000        -999.25         0.7484        24.0455        -0.0337        -999.25         57.925       60.62431         0.5607         0.6365        40.5856         0.9199       -60.8297      -18.60748      0.5877513      0.6898754
      6321.5000        -999.25         0.7208        23.8399        -0.0304        -999.25        57.6517       60.28064         0.5594         0.6284        40.7362         0.9103       -60.4897      -18.26748      0.5804392      0.6955421
      6322.0000        -999.25         0.7045         23.725        -0.0267        -999.25        57.7535       60.40865          0.559         0.6216        41.2134         0.9039       -59.9225      -17.70028      0.5831627      0.7049954
      6322.5000        -999.25         0.6958        23.6617        -0.0218        -999.25        57.2035       59.71703         0.5614         0.6175        41.8047         0.9016       -59.2115      -16.98927      0.5684474      0.7168455
      6323.0000        -999.25         0.6875        23.6354        -0.0193        -999.25        56.4141       58.72438         0.5669         0.6222        42.1241         0.9015       -58.2579      -16.03568      0.5473272      0.7327387
      6323.5000        -999.25         0.6946        23.5779         -0.018        -999.25         55.925       58.10934          0.575         0.6321        42.0255         0.9052       -57.3055      -15.08327      0.5342413      0.7486121
      6324.0000        -999.25         0.7039        23.0447        -0.0161        -999.25        55.5234       57.60434         0.5844         0.6424         40.912         0.9137       -56.3769      -14.15467      0.5234965      0.7640887
      6324.5000        -999.25         0.7138        21.8551        -0.0146        -999.25        54.1763       55.91038         0.5909         0.6509        39.6097         0.9334        -55.478      -13.25578      0.4874549      0.7790704
      6325.0000        -999.25         0.7233        21.0214        -0.0135        -999.25        55.2448         57.254         0.5972         0.6537        38.7798         0.9489       -54.6991      -12.47688      0.5160425      0.7920521
      6325.5000        -999.25         0.7359        20.6515        -0.0129        -999.25        56.1707        58.4183         0.6029         0.6551        38.1384         0.9496       -53.9472      -11.72498      0.5408149      0.8045837
      6326.0000        -999.25         0.7525        21.2894        -0.0119        -999.25         57.925       60.62431         0.6067         0.6549        37.6897         0.9219       -53.3827      -11.16048      0.5877513      0.8139921
      6326.5000        -999.25         0.7842        22.0027        -0.0105        -999.25        60.9773       64.46251         0.6096         0.6526         37.749         0.8862       -52.7805      -10.55827      0.6694151      0.8240288
      6327.0000        -999.25         0.8304        22.5742        -0.0093        -999.25        64.1245       68.42007         0.6109         0.6497        38.1136         0.8535       -52.2067      -9.984474      0.7536184      0.8335921
      6327.5000        -999.25         0.8943        22.8546        -0.0091        -999.25        63.0034       67.01031         0.6117         0.6483        38.5704         0.8332       -51.7395      -9.517273      0.7236236      0.8413788
      6328.0000        -999.25          0.974        22.7871        -0.0083        -999.25        62.6076        66.5126         0.6114         0.6485        39.0662         0.8316       -51.4674      -9.245174       0.713034      0.8459138
      6328.5000        -999.25         1.0608        22.5507        -0.0073        -999.25        64.4463       68.82471          0.611          0.649        39.5503         0.8361       -51.1756      -8.953373       0.762228      0.8507771
      6329.0000        -999.25         1.1432        22.3902         -0.006        -999.25        65.7091       70.41267         0.6141         0.6487        39.6947          0.836       -50.8478      -8.625576      0.7960142      0.8562404
      6329.5000        -999.25         1.2216         22.272        -0.0047        -999.25        66.1307       70.94282         0.6222         0.6498        39.5436         0.8303       -50.4036      -8.181374       0.807294      0.8636438
      6330.0000        -999.25         1.2753        22.1667        -0.0029        -999.25        67.4814        72.6413         0.6294         0.6519        39.2643         0.8203       -50.1019      -7.879673       0.843432      0.8686721
      6330.5000        -999.25         1.2972        21.9697        -0.0013        -999.25        67.5454       72.72179         0.6331          0.655         38.985         0.8133       -50.1382      -7.915974      0.8451444      0.8680671
