#------------------------------------------------------------------------------
# Created by    : vladimir.rabinovich
# Created on    : 09/19/2023 17:20:05
#------------------------------------------------------------------------------
~Version Information Section
VERS.           2.0     :   CWLS log ASCII Standard - VERSION 2.0
WRAP.           NO      :   One line per depth step
~Well Information Section
#MNEM       .UNIT                                         VALUE :DESCRIPTION
#------------------------------------------------------------------------------
STRT        .FT                                             712 :START DEPTH
STOP        .FT                                            9469 :STOP DEPTH
STEP        .FT                                             0.5 :STEP      
NULL        .                                           -999.25 :NULL      
COMP        .                                 MESA PETROLEUM CO :COMPANY   
WELL        .                                ST TR 00279-L SW/4 :WELL      
FLD         .                                           WILDCAT :FIELD     
LOC         .                                                   :LOCATION  
CNTY        .                             GALVESTON LARGE BLOCK :LOCATION  
STAT        .                                             TEXAS :STATE     
CTRY        .                                     UNITED STATES :COUNTRY   
SRVC        .                                                   :SERVICE COMPANY
DATE        .                             9/13/2023 11:18:53 AM :LOG DATE  
API         .                                    42706300950000 :API NUMBER
UWI         .                                    42706300950000 :UNIQUE WELL ID
XCOORD      .                                  947289.050530544 :SURFACE X 
YCOORD      .                                  10490529.0152507 :SURFACE Y 
LAT         .                                         28.889695 :LATITUDE  
LON         .                                        -95.166438 :LONGITUDE 
ELEV        .FT                                              84 :ELEVATION VALUE
ELEV_TYPE   .                                                KB :ELEVATION REFERENCE TYPE
~Curve Information Section
#MNEM       .UNIT                                      API CODE :CURVE DESCRIPTION
#------------------------------------------------------------------------------
DEPT        .FT                                                 :DEPTH     
ASFL        .OHMM                                               :          
CILD        .MMHO                                               :          
GR          .GAPI                                               :          
GR_NORM     .GAPI                                               :GammaRay Normalized
ILD         .OHMM                                               :          
SP          .MV                                                 :          
SP_NORM     .MV                                                 :SP Normalized
VSH_GR      .V/V                                                :Volume of Shale from GR
VSH_SP      .V/V                                                :Volume of Shale from SP
~A        DEPTH           ASFL           CILD             GR        GR_NORM            ILD             SP        SP_NORM         VSH_GR         VSH_SP
# ...
      1878.0000         0.8491       1272.715        51.6613       73.71409         0.8171       -50.2264      -6.060547      0.8662572      0.8653212
      1878.5000         0.8437       1282.604        52.3623       74.50091         0.8168       -50.2736      -6.091621       0.882998      0.8646306
      1879.0000         0.8383       1292.492        54.0829       76.44637         0.8165       -50.3207      -6.122597      0.9243907      0.8639423
      1879.5000         0.8329       1302.383         56.184        78.8242         0.8162        -50.368      -6.153767       0.974983      0.8632497
      1880.0000         0.8275       1312.271        55.1417          77.63         0.8159        -50.566      -6.335644      0.9495744      0.8592079
      1880.5000         0.8221       1319.279        53.9567       76.27353         0.8153       -50.8547      -6.608215      0.9207134      0.8531508
      1881.0000         0.8213       1318.221         53.119       75.31181         0.8148       -50.9193      -6.656689      0.9002513      0.8520736
      1881.5000         0.8216       1317.164        52.4744       74.56954         0.8143       -50.6907      -6.411964      0.8844584      0.8575119
      1882.0000          0.822       1316.107        51.8495       73.84966         0.8137       -50.4623      -6.167435      0.8691416      0.8629459
      1882.5000         0.8224       1315.051        52.2944       74.34546         0.8132       -50.2339      -5.922909      0.8796906      0.8683798
      1883.0000         0.8228       1313.994        52.7391       74.84102         0.8127       -50.0743      -5.747185      0.8902344      0.8722848
      1883.5000         0.8232       1312.938         53.184       75.33682         0.8121       -49.9768      -5.633556      0.9007835      0.8748099
      1884.0000         0.8248       1311.881        53.4398       75.61773         0.8116       -49.8793      -5.519932      0.9067602      0.8773348
      1884.5000         0.8277       1310.824        53.3209       75.47284         0.8111       -49.7818      -5.406307      0.9036774      0.8798599
      1885.0000         0.8307       1309.768         53.202       75.32796         0.8105       -49.6843      -5.292679      0.9005948      0.8823849
      1885.5000         0.8336       1308.711        53.0831       75.18307           0.81       -49.5869      -5.179153      0.8975121      0.8849077
      1886.0000         0.8366       1307.941        52.9642       75.03818         0.8095       -49.4805      -5.056625      0.8944293      0.8876305
      1886.5000         0.8395       1307.449        52.8453        74.8933         0.8089       -49.3465      -4.906502      0.8913469      0.8909667
      1887.0000         0.8425       1306.957        52.7264       74.74841         0.8103       -49.2125      -4.756378      0.8882641      0.8943027
      1887.5000         0.8475       1306.465        52.3644       74.32728          0.812       -49.0785      -4.606247      0.8793038       0.897639
      1888.0000         0.8531       1305.975        51.8441       73.72614         0.8138       -48.9445      -4.456123      0.8665135       0.900975
      1888.5000         0.8587       1305.482        51.3237         73.125         0.8156       -48.8931      -4.388596      0.8537234      0.9024757
      1889.0000         0.8667        1304.99        50.8035       72.52409         0.8174        -48.848       -4.32737      0.8409382      0.9038363
      1889.5000         0.8752         1304.5        50.2831       71.92295         0.8192       -48.8029      -4.266144      0.8281479      0.9051968
      1890.0000         0.8837       1304.008        49.7627       71.32182         0.8209       -48.7578      -4.204918      0.8153578      0.9065574
      1890.5000         0.8899       1303.516        49.4708       70.98034         0.8227       -48.8362      -4.267193      0.8080923      0.9051735
      1891.0000          0.895       1303.285        51.1932       72.92784         0.8245       -48.9459      -4.360764      0.8495286      0.9030942
      1891.5000         0.8955       1304.537        52.9156       74.87534         0.8263       -49.0555      -4.454239      0.8909647      0.9010169
      1892.0000         0.8915       1305.787        53.8684        75.9483         0.8281       -49.1653      -4.547913      0.9137935      0.8989353
      1892.5000         0.8806       1307.039        54.5811       76.74841         0.8298       -49.2758      -4.642284      0.9308173      0.8968381
      1893.0000         0.8634       1308.289        54.7731       76.95682         0.8316       -49.4019      -4.752262      0.9352514      0.8943942
      1893.5000         0.8462       1309.541        54.3511       76.46751         0.8334        -49.528      -4.862236      0.9248406      0.8919503
      1894.0000          0.829       1310.793        53.9293       75.97841         0.8352       -49.6541      -4.972206      0.9144343      0.8895065
      1894.5000         0.8247       1309.766        54.1826       76.25648          0.837       -49.7802      -5.082184      0.9203507      0.8870626
      1895.0000         0.8477       1297.949        54.7908       76.93784         0.8384       -49.9064      -5.192253      0.9348476      0.8846166
      1895.5000         0.8629       1286.131        55.3989       77.61909         0.8398       -50.0325      -5.302231      0.9493424      0.8821726
      1896.0000         0.8723       1274.316        55.6562       77.90171         0.8412       -50.1586      -5.412205      0.9553555      0.8797288
      1896.5000         0.8816       1262.498        55.3416       77.53432         0.8426       -50.2847      -5.522175      0.9475387       0.877285
      1897.0000          0.891       1252.287        55.0269       77.16693          0.844       -50.4109      -5.632252      0.9397219      0.8748388
      1897.5000         0.9004       1242.467        54.7122       76.79955         0.8454        -50.462      -5.667225      0.9319052      0.8740616
      1898.0000         0.9074       1232.645        54.3798       76.41204         0.8468       -50.4506      -5.639698      0.9236605      0.8746734
      1898.5000         0.9075        1222.82        54.0472       76.02432         0.8482       -50.4391      -5.612072      0.9154111      0.8752873
      1899.0000         0.9047       1213.383        53.7146        75.6366         0.8496       -50.4277      -5.584545      0.9071617       0.875899
      1899.5000         0.9019       1213.939        53.3821       75.24898         0.8509       -50.4164      -5.557121      0.8989144      0.8765084
      1900.0000          0.899       1214.498        53.0494       74.86114         0.8523        -50.405      -5.529594      0.8906625      0.8771201
      1900.5000         0.8962       1215.055        52.7169       74.47353         0.8537       -50.3936      -5.502068      0.8824155      0.8777319
      1901.0000         0.8933       1215.613        52.3843        74.0858         0.8551       -50.3821      -5.474442       0.874166      0.8783457
      1901.5000         0.8894       1216.172        52.0482       73.69409         0.8565       -50.3707      -5.446915      0.8658317      0.8789575
      1902.0000         0.8849       1216.729        52.3142       73.98659         0.8579       -50.3593      -5.419388      0.8720551      0.8795692
      1902.5000         0.8804       1217.285        52.6727        74.3842         0.8566       -50.3479      -5.391865      0.8805149      0.8801808
      1903.0000         0.8759       1217.844        52.8964       74.62864          0.855       -50.2384      -5.266235      0.8857157      0.8829725
      1903.5000          0.877         1218.4        52.9507       74.68057         0.8535       -50.1064      -5.118111      0.8868207      0.8862642
      1904.0000         0.8815       1219.508        53.0051       74.73261          0.852       -49.9744      -4.969982      0.8879279      0.8895559
