#------------------------------------------------------------------------------
# Created by    : vladimir.rabinovich
# Created on    : 09/19/2023 17:22:53
#------------------------------------------------------------------------------
~Version Information Section
VERS.           2.0     :   CWLS log ASCII Standard - VERSION 2.0
WRAP.           NO      :   One line per depth step
~Well Information Section
#MNEM       .UNIT                                         VALUE :DESCRIPTION
#------------------------------------------------------------------------------
STRT        .FT                                             394 :START DEPTH
STOP        .FT                                            7700 :STOP DEPTH
STEP        .FT                                             0.5 :STEP      
NULL        .                                           -999.25 :NULL      
COMP        .                                   MARATHON OIL CO :COMPANY   
WELL        .                                     ST TR 00248-L :WELL      
FLD         .                                           WILDCAT :FIELD     
LOC         .                                                   :LOCATION  
CNTY        .                             GALVESTON LARGE BLOCK :LOCATION  
STAT        .                                             TEXAS :STATE     
CTRY        .                                     UNITED STATES :COUNTRY   
SRVC        .                                                   :SERVICE COMPANY
DATE        .                             9/13/2023 11:19:42 AM :LOG DATE  
API         .                                    42706000210000 :API NUMBER
UWI         .                                    42706000210000 :UNIQUE WELL ID
XCOORD      .                                  969160.596945075 :SURFACE X 
YCOORD      .                                  10521676.5956168 :SURFACE Y 
LAT         .                                        28.9764138 :LATITUDE  
LON         .                                       -95.0998408 :LONGITUDE 
ELEV        .FT                                              10 :ELEVATION VALUE
ELEV_TYPE   .                                                KB :ELEVATION REFERENCE TYPE
~Curve Information Section
#MNEM       .UNIT                                      API CODE :CURVE DESCRIPTION
#------------------------------------------------------------------------------
DEPT        .FT                                                 :DEPTH     
LAT         .OHMM                                               :          
LN          .OHMM                                               :          
SN          .OHMM                                               :          
SP          .MV                                                 :          
SP_NORM     .MV                                                 :SP Normalized
VSH_SP      .V/V                                                :Volume of Shale from SP
~A        DEPTH            LAT             LN             SN             SP        SP_NORM         VSH_SP
# ...
      3282.0000         0.7885         0.6544         0.5843        -64.001       5.745972              1
      3282.5000         0.7912         0.6588         0.5888       -64.1395       5.587196              1
      3283.0000         0.7938         0.6632         0.5933        -64.278       5.428421              1
      3283.5000         0.7964         0.6676         0.5978       -64.4165       5.269646              1
      3284.0000         0.7991          0.672         0.6023       -64.5549       5.110962              1
      3284.5000         0.8017         0.6764         0.6068       -64.7904       4.855194              1
      3285.0000         0.8043         0.6808         0.6113       -65.0935       4.531815              1
      3285.5000          0.807         0.6852         0.6157       -65.3966       4.208435              1
      3286.0000         0.8096         0.6896         0.6193       -65.6997       3.885056              1
      3286.5000         0.8123          0.694         0.6228       -66.0027       3.561783              1
      3287.0000         0.8117         0.6984         0.6263       -66.3058       3.238403              1
      3287.5000          0.809         0.7028         0.6298       -66.6089       2.915024              1
      3288.0000         0.8063         0.7033         0.6334       -66.9119       2.591743              1
      3288.5000         0.8037         0.7033         0.6369       -67.3947       2.088676              1
      3289.0000          0.801         0.7033         0.6404       -67.9294       1.533699              1
      3289.5000         0.7983         0.7033          0.644       -68.8551      0.5877151              1
      3290.0000         0.7956         0.7033         0.6475       -70.6918      -1.269264      0.9951917
      3290.5000         0.7929         0.7033          0.651       -72.4601      -3.057831       0.963253
      3291.0000         0.7902         0.7033         0.6546       -74.0101      -4.628113      0.9352123
      3291.5000         0.7876         0.7033         0.6581       -74.2797      -4.917992      0.9300359
      3292.0000         0.7849         0.7033         0.6619       -73.4454      -4.103958      0.9445722
      3292.5000         0.7902         0.7033         0.6658       -72.3993       -3.07814      0.9628903
      3293.0000         0.7993         0.7033         0.6698       -71.3013       -2.00042      0.9821354
      3293.5000         0.8085         0.7033         0.6738       -70.2032     -0.9225998              1
      3294.0000         0.8176         0.7033         0.6777       -69.1053      0.1550293              1
      3294.5000         0.8267         0.7033         0.6817       -68.0073        1.23275              1
      3295.0000         0.8359         0.7033         0.6856       -67.5035        1.71627              1
      3295.5000          0.845         0.7005         0.6896         -67.92       1.279495              1
      3296.0000         0.8541         0.6967         0.6935       -68.3368      0.8424225              1
      3296.5000         0.8633         0.6929         0.6975       -68.2766      0.8823395              1
      3297.0000         0.8724         0.6892         0.7014       -68.1731      0.9655609              1
      3297.5000         0.8815         0.6854         0.7046       -68.0696       1.048782              1
      3298.0000         0.8906         0.6816          0.707       -67.9661       1.132011              1
      3298.5000         0.8998         0.6778         0.7094       -67.8624       1.215439              1
      3299.0000         0.9027          0.674         0.7117       -67.7589       1.298653              1
      3299.5000         0.9045         0.6703         0.7141       -67.5444       1.492874              1
      3300.0000         0.9063         0.6665         0.7165       -66.9315       2.085503              1
      3300.5000         0.9081         0.6627         0.7189       -67.3273       1.669426              1
      3301.0000         0.9099         0.6589         0.7213        -67.969       1.007446              1
      3301.5000         0.9117         0.6552         0.7237        -68.611      0.3451691              1
      3302.0000         0.9135         0.6514         0.7261       -69.2528     -0.3169022              1
      3302.5000         0.9153         0.6476         0.7285       -69.6914     -0.7757797              1
      3303.0000         0.9171         0.6527         0.7309       -69.6414     -0.7460632              1
      3303.5000         0.9131         0.6652         0.7333       -69.5913     -0.7162399              1
      3304.0000         0.9088         0.6776         0.7319       -69.4712     -0.6164093              1
      3304.5000         0.9045         0.6901         0.7281       -68.9725     -0.1379929              1
      3305.0000         0.9002         0.7025         0.7243       -68.4739       0.340332              1
      3305.5000         0.8959          0.715         0.7204       -67.9755      0.8184509              1
      3306.0000         0.8916         0.7274         0.7166       -67.4768       1.296883              1
      3306.5000         0.8873         0.7399         0.7127       -66.9781       1.775299              1
      3307.0000         0.8831         0.7523         0.7089       -66.7174       2.015724              1
      3307.5000         0.8788         0.7648         0.7051       -67.0847       1.628143              1
      3308.0000         0.8761         0.7772         0.7012       -67.4524       1.240173              1
      3308.5000         0.8793         0.7896         0.6974       -67.8197      0.8525925              1
      3309.0000         0.8826         0.8021         0.6935       -68.1873      0.4647141              1
      3309.5000         0.8859         0.8145         0.6897       -68.5549     0.07683563              1
      3310.0000         0.8891          0.827         0.6859       -68.9222     -0.3107376              1
      3310.5000         0.8924         0.8394          0.682       -69.2898      -0.698616              1
      3311.0000         0.8957         0.8519         0.6783       -69.6575      -1.086594      0.9984537
      3311.5000         0.8989         0.8494         0.6755       -70.0248      -1.474167      0.9915327
      3312.0000         0.9022         0.8426         0.6726       -70.0594      -1.529045      0.9905528
      3312.5000         0.9055         0.8357         0.6697       -69.7183      -1.208221      0.9962817
      3313.0000         0.9087         0.8289         0.6669       -69.6947      -1.204903       0.996341
      3313.5000          0.912          0.822          0.664       -70.3656      -1.896072      0.9839987
      3314.0000         0.9153         0.8152         0.6611        -71.233      -2.783752      0.9681473
      3314.5000         0.9185         0.8083         0.6583       -73.1606      -4.731628      0.9333638
      3315.0000         0.9218         0.8015         0.6554       -74.4536      -6.044907      0.9099124
      3315.5000         0.9248         0.7946         0.6525        -73.151      -4.762581      0.9328111
      3316.0000         0.9278         0.7878         0.6497       -71.8483      -3.480156      0.9557115
      3316.5000         0.9308          0.781         0.6468       -70.5461      -2.198235      0.9786029
      3317.0000         0.9338         0.7741          0.644       -69.2435     -0.9159164              1
      3317.5000         0.9368         0.7673         0.6411       -67.9408      0.3665085              1
      3318.0000         0.9398         0.7604         0.6382       -66.6382       1.654488              1
      3318.5000         0.9429         0.7536          0.631       -66.6343       1.658386              1
      3319.0000         0.9459         0.7467         0.6234       -66.7419       1.550789              1
      3319.5000         0.9489         0.7388         0.6158       -66.8496       1.443085              1
