#------------------------------------------------------------------------------
# Created by    : vladimir.rabinovich
# Created on    : 09/19/2023 17:22:46
#------------------------------------------------------------------------------
~Version Information Section
VERS.           2.0     :   CWLS log ASCII Standard - VERSION 2.0
WRAP.           NO      :   One line per depth step
~Well Information Section
#MNEM       .UNIT                                         VALUE :DESCRIPTION
#------------------------------------------------------------------------------
STRT        .FT                                             862 :START DEPTH
STOP        .FT                                           11792 :STOP DEPTH
STEP        .FT                                             0.5 :STEP      
NULL        .                                           -999.25 :NULL      
COMP        .                     FREEPORT-MCMORAN OIL & GAS CO :COMPANY   
WELL        .                               OCS G08155 ST00BP00 :WELL      
FLD         .                            HIGH ISLAND BLOCK 0262 :FIELD     
LOC         .                                                   :LOCATION  
CNTY        .                           HIGH ISLAND LARGE BLOCK :LOCATION  
STAT        .                                             TEXAS :STATE     
CTRY        .                                     UNITED STATES :COUNTRY   
SRVC        .                                                   :SERVICE COMPANY
DATE        .                             9/13/2023 11:19:59 AM :LOG DATE  
API         .                                    42708403380000 :API NUMBER
UWI         .                                    42708403380000 :UNIQUE WELL ID
XCOORD      .                                  1194111.75057656 :SURFACE X 
YCOORD      .                                  10524686.1808471 :SURFACE Y 
LAT         .                                         28.993839 :LATITUDE  
LON         .                                         -94.39647 :LONGITUDE 
ELEV        .FT                                              98 :ELEVATION VALUE
ELEV_TYPE   .                                                KB :ELEVATION REFERENCE TYPE
~Curve Information Section
#MNEM       .UNIT                                      API CODE :CURVE DESCRIPTION
#------------------------------------------------------------------------------
DEPT        .FT                                                 :DEPTH     
DT          .US/F                                               :          
GR          .GAPI                                               :          
GR_NORM     .GAPI                                               :GammaRay Normalized
ILD         .OHMM                                               :          
ILM         .OHMM                                               :          
SFL         .OHMM                                               :          
SP          .MV                                                 :          
SP_NORM     .MV                                                 :SP Normalized
VSH_GR      .V/V                                                :Volume of Shale from GR
VSH_SP      .V/V                                                :Volume of Shale from SP
~A        DEPTH             DT             GR        GR_NORM            ILD            ILM            SFL             SP        SP_NORM         VSH_GR         VSH_SP
# ...
      5247.5000       130.7466        83.1428       74.44671         0.7995         0.6932         0.6937       -63.5814      -2.040936      0.8818449      0.9452139
      5248.0000       127.9583        81.6105       72.55209         0.8028         0.7038         0.7094       -63.5131      -1.974705      0.8415337      0.9486998
      5248.5000       127.0293        82.2891       73.38698         0.8062         0.7184         0.7194       -63.4679       -1.93158      0.8592974      0.9509695
      5249.0000        128.333          84.28       75.84198         0.8098         0.7267         0.7238       -63.5469      -2.012653      0.9115315      0.9467025
      5249.5000       130.5081         85.605       77.47489         0.8133         0.7221         0.7235       -63.6259      -2.093727      0.9462743      0.9424354
      5250.0000       132.2048        85.2324       77.01199         0.8168         0.7187         0.7203       -63.7123      -2.182198      0.9364254      0.9377791
      5250.5000       133.5334        82.8759       74.09984         0.8179         0.7256         0.7367       -63.8565      -2.328468      0.8744646      0.9300806
      5251.0000        133.656        81.4814       72.37534         0.8191         0.7354         0.7407       -63.8567      -2.330746      0.8377731      0.9299607
      5251.5000       132.8325        81.4149       72.29034         0.8202         0.7326         0.7293       -63.6782      -2.154316      0.8359648      0.9392465
      5252.0000       132.5217        82.5511       73.69017         0.8176         0.7206         0.7155       -63.5233      -2.001492      0.8657483      0.9472899
      5252.5000       133.3054        84.4795       76.06801         0.8142          0.706         0.7015       -63.3917      -1.871964      0.9163406      0.9541072
      5253.0000       134.4705         86.267       78.27191         0.8109         0.6978         0.6878       -63.2599      -1.742237      0.9632322      0.9609349
      5253.5000       135.4832         88.121       80.55791         0.8053         0.6897         0.6811       -63.1456      -1.630009              1      0.9668416
      5254.0000        136.061        88.1346       80.57179         0.7984         0.6813          0.675       -63.1184      -1.604885              1       0.968164
      5254.5000       135.9431        84.8843       76.55618         0.7915         0.6731          0.669       -63.1284      -1.616955      0.9267273      0.9675287
      5255.0000       134.8884        81.5029       72.37872         0.7845         0.6671         0.6638       -63.3684      -1.859032      0.8378451      0.9547878
      5255.5000       134.1733        82.9951       74.21805         0.7775         0.6718         0.6639       -63.4561      -1.948803      0.8769798       0.950063
      5256.0000       134.3118        86.2391       78.22009         0.7705         0.6771          0.664       -63.4495      -1.944275      0.9621295      0.9503013
      5256.5000       135.6731         86.088       78.03065         0.7649          0.685         0.6641       -63.4427      -1.939548      0.9580991      0.9505501
      5257.0000       137.4028        85.5282       77.33665         0.7603         0.6892          0.664       -63.3201      -1.819019      0.9433329      0.9568937
      5257.5000       138.5093        85.1967        76.9245         0.7556         0.6858         0.6634       -63.1973      -1.698296      0.9345638      0.9632476
      5258.0000       139.2183        85.2646       77.00544         0.7525         0.6793         0.6627       -63.0948      -1.597866       0.936286      0.9685333
      5258.5000       139.5159         86.324       78.31042         0.7508         0.6686         0.6621       -63.1352      -1.640343      0.9640516      0.9662977
      5259.0000       138.3645        86.1897       78.14173          0.749         0.6626         0.6623       -63.1756      -1.682812      0.9604624      0.9640625
      5259.5000       136.8865        84.6809       76.27612          0.748         0.6594         0.6628        -63.269       -1.77829      0.9207686      0.9590374
      5260.0000        135.478        83.4596       74.76546         0.7481         0.6612         0.6633       -63.4238      -1.935162      0.8886268       0.950781
      5260.5000       133.9619        82.4948       73.57145         0.7482         0.6656         0.6644       -63.5563      -2.069733      0.8632223      0.9436983
      5261.0000       133.8145        82.1061       73.08868         0.7483         0.6677          0.666       -63.5496      -2.065105      0.8529508      0.9439418
      5261.5000       135.0979        83.4518       74.74715         0.7485         0.6635         0.6677       -63.5429      -2.060478      0.8882372      0.9441854
      5262.0000       136.9417        84.8872       76.51634         0.7486         0.6666         0.6694       -63.5363      -2.055954      0.9258796      0.9444235
      5262.5000       138.3369        84.6643       76.23827         0.7487         0.6734          0.672       -63.5295      -2.051224      0.9199631      0.9446724
      5263.0000        137.957        83.7422       75.09698         0.7493         0.6807         0.6746       -63.5229        -2.0467      0.8956805      0.9449105
      5263.5000       136.7725        83.7305       75.07964         0.7498         0.6883         0.6774       -63.5162      -2.042072      0.8953114      0.9451541
      5264.0000       135.6345        88.5845       81.06934         0.7504         0.6961         0.6847       -63.4992      -2.027145              1      0.9459397
      5264.5000       134.9675        93.6301       87.29558         0.7527         0.6956         0.6921       -63.4814      -2.011417              1      0.9467675
      5265.0000       134.6675        94.6813       88.59045         0.7552         0.6911         0.6887       -63.4637      -1.995789              1      0.9475901
      5265.5000       134.7334        92.6132       86.03435         0.7577         0.6791          0.683       -63.4478      -1.981964              1      0.9483177
      5266.0000       135.0615        89.6797       82.40987         0.7615         0.6673         0.6762       -63.4411      -1.977337              1      0.9485612
      5266.5000       135.0999        86.7441       78.78276         0.7654         0.6662          0.669       -63.4344       -1.97271      0.9741013      0.9488047
      5267.0000       134.6406        85.0417       76.67815         0.7694         0.6652         0.6681       -63.4278      -1.968182      0.9293222      0.9490431
      5267.5000       134.1365        84.1744       75.60451         0.7738          0.672         0.6714       -63.4879      -2.030357      0.9064789      0.9457707
      5268.0000        133.624        83.4082       74.65569         0.7783          0.681          0.678       -63.5479       -2.09243      0.8862912      0.9425037
      5268.5000       133.6873         83.929       75.29575         0.7829         0.6893         0.6867       -63.6079      -2.154503      0.8999095      0.9392367
      5269.0000       133.8325        85.8074       77.61188         0.7879         0.6968          0.692       -63.7385      -2.287174      0.9491889       0.932254
      5269.5000       133.6475        88.5571       81.00366         0.7929         0.7042         0.6936       -63.8793       -2.43005              1      0.9247342
      5270.0000       132.4629        92.3354       85.66534          0.798         0.7091         0.6922       -64.0201      -2.572926              1      0.9172145
      5270.5000       130.4451        93.3534       86.91924         0.8078         0.7141          0.691       -64.1637       -2.71859              1      0.9095479
      5271.0000       128.0789        92.1967       85.48831         0.8183         0.7208         0.6897       -64.2947      -2.851669              1      0.9025437
      5271.5000       125.0469        89.7031       82.40691         0.8324         0.7334         0.6931       -64.3134       -2.87244              1      0.9014505
