#------------------------------------------------------------------------------
# Created by    : vladimir.rabinovich
# Created on    : 09/19/2023 17:21:44
#------------------------------------------------------------------------------
~Version Information Section
VERS.           2.0     :   CWLS log ASCII Standard - VERSION 2.0
WRAP.           NO      :   One line per depth step
~Well Information Section
#MNEM       .UNIT                                         VALUE :DESCRIPTION
#------------------------------------------------------------------------------
STRT        .FT                                            3434 :START DEPTH
STOP        .FT                                            9802 :STOP DEPTH
STEP        .FT                                             0.5 :STEP      
NULL        .                                           -999.25 :NULL      
COMP        .                                  UMC PETROLEUM CO :COMPANY   
WELL        .                               OCS G11352 ST00BP00 :WELL      
FLD         .                            HIGH ISLAND BLOCK 0093 :FIELD     
LOC         .                                                   :LOCATION  
CNTY        .                           HIGH ISLAND LARGE BLOCK :LOCATION  
STAT        .                                             TEXAS :STATE     
CTRY        .                                     UNITED STATES :COUNTRY   
SRVC        .                                                   :SERVICE COMPANY
DATE        .                             9/13/2023 11:19:57 AM :LOG DATE  
API         .                                    42708403880000 :API NUMBER
UWI         .                                    42708403880000 :UNIQUE WELL ID
XCOORD      .                                  1243413.75648782 :SURFACE X 
YCOORD      .                                  10663707.7269925 :SURFACE Y 
LAT         .                                         29.377731 :LATITUDE  
LON         .                                        -94.246854 :LONGITUDE 
ELEV        .FT                                              85 :ELEVATION VALUE
ELEV_TYPE   .                                                KB :ELEVATION REFERENCE TYPE
~Curve Information Section
#MNEM       .UNIT                                      API CODE :CURVE DESCRIPTION
#------------------------------------------------------------------------------
DEPT        .FT                                                 :DEPTH     
CALI        .IN                                                 :          
CALI_1      .IN                                                 :          
DPHI        .%                                                  :          
DRHO        .G/C3                                               :          
DT          .US/F                                               :          
GR          .GAPI                                               :          
GR_1        .GAPI                                               :          
GR_NORM     .GAPI                                               :GammaRay Normalized
ILD         .OHMM                                               :          
ILM         .OHMM                                               :          
NPHI        .%                                                  :          
RFOC        .OHMM                                               :          
SP          .MV                                                 :          
SP_NORM     .MV                                                 :SP Normalized
VSH_GR      .V/V                                                :Volume of Shale from GR
VSH_SP      .V/V                                                :Volume of Shale from SP
~A        DEPTH           CALI         CALI_1           DPHI           DRHO             DT             GR           GR_1        GR_NORM            ILD            ILM           NPHI           RFOC             SP        SP_NORM         VSH_GR         VSH_SP
# ...
      7658.0000        -999.25        12.3346        -999.25        -999.25       111.7902        43.4485        -999.25       56.04469          0.359         0.3045        -999.25         0.5556       -74.8063      -32.34016      0.4903125      0.5244095
      7658.5000        -999.25        12.3675        -999.25        -999.25       108.4766        38.5737        -999.25       48.58891         0.3249         0.2911        -999.25         0.4862       -85.6479      -43.18616      0.3316788      0.3649094
      7659.0000        -999.25        12.4187        -999.25        -999.25       105.4932         35.064        -999.25       43.22071         0.2961         0.2799        -999.25         0.4595        -94.782      -52.32465      0.2174619      0.2305198
      7659.5000        -999.25        12.4276        -999.25        -999.25        103.093        32.2742        -999.25       38.95343         0.2711         0.2692        -999.25          0.504       -99.9149      -57.46196      0.1266687      0.1549712
      7660.0000        -999.25        12.4235        -999.25        -999.25       101.4087        29.8194        -999.25       35.19844         0.2531         0.2541        -999.25         0.5663      -102.6477      -60.19915     0.04677541      0.1147184
      7660.5000        -999.25        12.4144        -999.25        -999.25       100.7629        28.3326        -999.25       32.92378         0.2274         0.2372        -999.25         0.6069      -105.1696      -62.72545              0     0.07756688
      7661.0000        -999.25        12.4313        -999.25        -999.25       100.9293        27.0283        -999.25       30.92821         0.2126         0.2214        -999.25         0.5443      -106.6625      -64.22275              0     0.05554783
      7661.5000        -999.25        12.4469        -999.25        -999.25       102.0657        26.3705        -999.25        29.9213         0.2082        -999.25        -999.25         0.4702       -107.679      -65.24365              0     0.04053453
      7662.0000        -999.25        12.4315        -999.25        -999.25       103.4335        26.5399        -999.25       30.17939         0.2051        -999.25        -999.25         0.4282      -108.2994      -65.86845              0     0.03134627
      7662.5000        -999.25        12.3336        -999.25        -999.25        104.865        27.2095        -999.25       31.20241        -999.25        -999.25        -999.25         0.4287      -108.4371      -66.01055              0      0.0292566
      7663.0000        -999.25        12.2462        -999.25        -999.25       106.3141        28.1055        -999.25       32.57165        -999.25        -999.25        -999.25          0.435       -108.365      -65.94284              0     0.03025234
      7663.5000        -999.25        12.1703        -999.25        -999.25       107.6857        28.9612        -999.25       33.87928        -999.25        -999.25        -999.25         0.4464      -108.2142      -65.79645     0.01870801     0.03240518
      7664.0000        -999.25         12.116        -999.25        -999.25       108.9358        29.1596        -999.25       34.18171        -999.25        -999.25        -999.25         0.4595      -108.0485      -65.63515     0.02514283     0.03477725
      7664.5000        -999.25        12.1047        -999.25        -999.25       110.0758        28.8551        -999.25       33.71508        -999.25        -999.25        -999.25         0.4594      -107.7676      -65.35864     0.01521455     0.03884349
      7665.0000        -999.25        12.1181        -999.25        -999.25       109.8206        28.3575        -999.25       32.95317        -999.25        -999.25        -999.25         0.4484      -106.5892      -64.18465              0     0.05610814
      7665.5000        -999.25        12.1297        -999.25        -999.25       109.3562        28.1903        -999.25       32.69651        -999.25        -999.25        -999.25         0.4207      -104.7302      -62.33004              0     0.08338171
      7666.0000        -999.25        12.1436        -999.25        -999.25       108.8649        28.8303        -999.25       33.67427        -999.25        -999.25        -999.25         0.4106      -102.9183      -60.52254      0.0143461      0.1099627
      7666.5000        -999.25        12.1721        -999.25        -999.25       109.0415        30.8073        -999.25       36.69664         0.2052        -999.25        -999.25         0.4444      -101.3514      -58.96004     0.07865191      0.1329406
      7667.0000        -999.25        12.1866        -999.25        -999.25       109.6078        32.1792        -999.25       38.79365         0.2116        -999.25        -999.25         0.4604      -101.2289      -58.84193      0.1232692      0.1346774
      7667.5000        -999.25        12.1787        -999.25        -999.25       110.0758        31.6934        -999.25       38.04978         0.2176          0.204        -999.25         0.4688      -101.5792      -59.19664      0.1074421      0.1294612
      7668.0000        -999.25        12.1841        -999.25        -999.25       109.9725        30.0825        -999.25       35.58533         0.2228         0.2162        -999.25         0.4678      -102.2468      -59.86864     0.05500712      0.1195789
      7668.5000        -999.25        12.1998        -999.25        -999.25       109.4176        28.4964        -999.25       33.15882         0.2285         0.2224        -999.25          0.482      -103.0151      -60.64133    0.003379254      0.1082157
      7669.0000        -999.25         12.224        -999.25        -999.25       108.8219        27.0618        -999.25       30.96398         0.2339         0.2251        -999.25         0.4996      -103.7238      -61.35443              0     0.09772895
      7669.5000        -999.25        12.2666        -999.25        -999.25       108.2181        29.0524        -999.25       34.00715         0.2387         0.2272        -999.25         0.5115      -104.1044      -61.73943      0.0214287     0.09206716
      7670.0000        -999.25        12.2816        -999.25        -999.25       107.6406        30.7872        -999.25       36.65914         0.2424         0.2289        -999.25         0.5084      -104.1981      -61.83753     0.07785399     0.09062459
      7670.5000        -999.25        12.2772        -999.25        -999.25       107.1326        30.9385        -999.25       36.88955         0.2458         0.2304        -999.25         0.5088      -103.8254      -61.46923     0.08275629     0.09604073
      7671.0000        -999.25        12.2729        -999.25        -999.25       106.9088        31.7393        -999.25       38.11321         0.2491         0.2316        -999.25         0.5143      -102.7656      -60.41383      0.1087918      0.1115613
      7671.5000        -999.25        12.2686        -999.25        -999.25         107.12        34.0215        -999.25       41.60231         0.2523         0.2333        -999.25         0.5028      -100.9276      -58.58022      0.1830279      0.1385261
      7672.0000        -999.25        12.2642        -999.25        -999.25       107.5792         36.665        -999.25       45.64393         0.2553         0.2369        -999.25         0.4688       -98.9346      -56.59163      0.2690198      0.1677702
      7672.5000        -999.25        12.2599        -999.25        -999.25       108.1831        39.0999        -999.25       49.36655         0.2585         0.2431        -999.25         0.4367       -97.2169      -54.87833      0.3482244      0.1929658
      7673.0000        -999.25        12.2556        -999.25        -999.25       108.2626        41.6514        -999.25       53.26748         0.2564         0.2481        -999.25         0.4213       -94.6604      -52.32622      0.4312229      0.2304967
      7673.5000        -999.25        12.2513        -999.25        -999.25       107.9269        43.9846        -999.25       56.83457         0.2519         0.2467        -999.25         0.4877       -92.8745      -50.54472      0.5071185      0.2566953
