#------------------------------------------------------------------------------
# Created by    : vladimir.rabinovich
# Created on    : 09/19/2023 17:19:44
#------------------------------------------------------------------------------
~Version Information Section
VERS.           2.0     :   CWLS log ASCII Standard - VERSION 2.0
WRAP.           NO      :   One line per depth step
~Well Information Section
#MNEM       .UNIT                                         VALUE :DESCRIPTION
#------------------------------------------------------------------------------
STRT        .FT                                            2932 :START DEPTH
STOP        .FT                                           14530 :STOP DEPTH
STEP        .FT                                             0.5 :STEP      
NULL        .                                           -999.25 :NULL      
COMP        .                                 MESA PETROLEUM CO :COMPANY   
WELL        .                                 ST TR 00022-L W/2 :WELL      
FLD         .                                           WILDCAT :FIELD     
LOC         .                                                   :LOCATION  
CNTY        .                           HIGH ISLAND LARGE BLOCK :LOCATION  
STAT        .                                             TEXAS :STATE     
CTRY        .                                     UNITED STATES :COUNTRY   
SRVC        .                                                   :SERVICE COMPANY
DATE        .                             9/13/2023 11:19:15 AM :LOG DATE  
API         .                                    42708300770000 :API NUMBER
UWI         .                                    42708300770000 :UNIQUE WELL ID
XCOORD      .                                  1307803.37781852 :SURFACE X 
YCOORD      .                                  10713200.3443699 :SURFACE Y 
LAT         .                                         29.515602 :LATITUDE  
LON         .                                       -94.0460534 :LONGITUDE 
ELEV        .FT                                              85 :ELEVATION VALUE
ELEV_TYPE   .                                                KB :ELEVATION REFERENCE TYPE
~Curve Information Section
#MNEM       .UNIT                                      API CODE :CURVE DESCRIPTION
#------------------------------------------------------------------------------
DEPT        .FT                                                 :DEPTH     
ASFL        .OHMM                                               :          
CILD        .MMHO                                               :          
ILD         .OHMM                                               :          
SP          .MV                                                 :          
SP_NORM     .MV                                                 :SP Normalized
VSH_SP      .V/V                                                :Volume of Shale from SP
~A        DEPTH           ASFL           CILD            ILD             SP        SP_NORM         VSH_SP
# ...
      6770.0000         0.6525       2848.125         0.3226      -122.1094      -71.87938     0.04217055
      6770.5000         0.6876           3215         0.3167      -123.4473      -73.21826     0.02407754
      6771.0000          0.644         3718.5         0.3097      -124.3184      -74.09035      0.0122926
      6771.5000         0.6005       3831.938         0.2997      -125.0615      -74.83443    0.002237475
      6772.0000         0.5569       3876.375         0.2898      -125.6187      -75.39261              0
      6772.5000         0.5134       3924.438         0.2798      -125.9473      -75.72221              0
      6773.0000         0.4698       3977.625         0.2699      -125.3828      -75.15868              0
      6773.5000         0.4394       4030.813         0.2599      -124.2461      -74.02297     0.01320308
      6774.0000         0.4163           4078           0.25      -123.0576      -72.83546     0.02925058
      6774.5000         0.3993       4110.469           0.24      -121.8691      -71.64794     0.04529809
      6775.0000         0.3845       4082.281         0.2301      -120.7051      -70.48492     0.06101454
      6775.5000          0.375       4054.094         0.2201      -119.6738      -69.45461     0.07493777
      6776.0000         0.3747       4041.594         0.2162      -118.6426      -68.42439     0.08885956
      6776.5000         0.3797       4053.844          0.215      -117.8662      -67.64899     0.09933802
      6777.0000         0.3872       4066.078         0.2139      -118.5234      -68.30716     0.09044379
      6777.5000         0.3947       4078.313         0.2127      -119.4854      -69.27014     0.07743052
      6778.0000         0.4021       4090.563         0.2116      -120.4463      -70.23203     0.06443209
      6778.5000         0.4096       4102.797         0.2105      -121.5234      -71.31012     0.04986325
      6779.0000         0.4171       4115.031         0.2093      -123.1406       -72.9283     0.02799596
      6779.5000         0.4245       4113.266         0.2082      -124.7578      -74.54648    0.006128672
      6780.0000          0.432       4100.422          0.207      -126.1426      -75.93227              0
      6780.5000         0.4395       4087.563         0.2059       -126.274      -76.06465              0
      6781.0000         0.4469       4074.719          0.205      -126.3223      -76.11395              0
      6781.5000         0.4594       4061.875         0.2041      -126.3705      -76.16312              0
      6782.0000         0.4615       4055.977         0.2033      -126.4961      -76.28971              0
      6782.5000         0.4459       4055.539         0.2025      -127.0781       -76.8727              0
      6783.0000         0.4303       4055.102         0.2016      -127.6602      -77.45578              0
      6783.5000         0.4148       4054.664         0.2008      -128.2427      -78.03927              0
      6784.0000         0.3992       4048.914            0.2      -129.3047      -79.10225              0
      6784.5000         0.3842       4042.906         0.1991      -127.9219      -77.72043              0
      6785.0000          0.373       4036.898         0.1983      -121.6953      -71.49481     0.04736741
      6785.5000         0.3619       4030.891         0.1994      -117.2344       -67.0349      0.1076365
      6786.0000         0.3507       4024.875         0.2012      -114.8789      -64.68039      0.1394542
      6786.5000         0.3582       4022.859          0.203      -113.9028      -63.70527      0.1526314
      6787.0000         0.3672       4028.313         0.2048      -114.4883      -64.29175      0.1447061
      6787.5000         0.3763       4033.766         0.2093      -115.9727      -65.77715      0.1246332
      6788.0000         0.3853       4039.219         0.2287      -117.4551      -67.26053      0.1045875
      6788.5000         0.3943        4044.68         0.2482      -118.9395      -68.74591     0.08451472
      6789.0000         0.4034       4050.836         0.2676      -114.7812      -64.58859      0.1406947
      6789.5000         0.4124        4058.43         0.2871      -106.2344      -56.04278      0.2561787
      6790.0000         0.4221       4066.016         0.3066          -97.5      -47.30936      0.3741978
      6790.5000          0.433       4073.609         0.3376       -88.7656      -38.57595      0.4922169
      6791.0000         0.4438       4018.375         0.3878       -79.8906      -29.70193       0.612136
      6791.5000         0.4546           3783         0.4379       -70.0391      -19.85142      0.7452511
      6792.0000         0.4654           2869         0.4879       -62.8047        -12.618          0.843
      6792.5000         0.4778           2546          0.538       -55.2656      -5.079884      0.9448664
      6793.0000         0.4923           2223         0.5901        -51.582       -1.39727      0.9946315
      6793.5000         0.5067         1678.5          0.645       -49.4766      0.7071419              1
      6794.0000         0.5212       1377.813         0.6998       -47.6328       2.549957              1
      6794.5000         0.5385       1322.938         0.7546       -47.6309       2.550873              1
      6795.0000         0.5629       1278.375         0.8069       -48.9121       1.268688              1
      6795.5000         0.5874       1236.688         0.8527       -50.1953     -0.0154953              1
      6796.0000          0.616       1193.688         0.8984       -51.1021     -0.9232788              1
      6796.5000         0.6705       1148.781         0.9196       -51.5229      -1.345062       0.995337
      6797.0000         0.7023       1117.563         0.8803       -51.9438      -1.766949      0.9896358
      6797.5000         0.7213        1155.75         0.8411       -52.4727      -2.296829      0.9824753
      6798.0000         0.6918        1354.25         0.8018       -53.1416      -2.966721      0.9734227
      6798.5000         0.6589           1560         0.7625       -53.8115      -3.637604      0.9643567
      6799.0000         0.6208        1757.25         0.7233       -54.5547      -4.381786      0.9543002
      6799.5000         0.5826       1864.656          0.684       -59.9063      -9.734371       0.881968
      6800.0000         0.5441       1897.406         0.6299       -67.9297      -17.75876      0.7735303
      6800.5000         0.5232       1855.625         0.6499       -71.5625      -21.39254      0.7244251
      6801.0000         0.5679        1728.25         0.7488       -75.3789      -25.20992      0.6728389
      6801.5000         0.6127       1592.375         0.8478       -79.2305      -29.06251       0.620777
      6802.0000          0.689       1456.625         0.9774       -81.8809      -31.71389      0.5849474
      6802.5000         0.7758       1320.875         1.1216       -84.4258      -34.25978      0.5505435
      6803.0000         0.8667       1185.125         1.0977       -86.5195      -36.35447      0.5222369
      6803.5000         0.9576       1049.375         1.0219       -87.2021      -37.03805      0.5129993
      6804.0000         1.0112         919.75         0.9462       -88.2207      -38.05764      0.4992211
      6804.5000         0.9852        883.625         0.8702       -89.6602      -39.49812      0.4797551
      6805.0000         0.9371        962.875         0.7894       -102.375       -52.2139      0.3079202
      6805.5000         0.8085           2057         0.7085      -107.9844      -57.82428      0.2321043
      6806.0000          0.576           2729         0.6277      -110.5605      -60.40137      0.1972788
      6806.5000            0.5           3401         0.5452      -112.5098      -62.35166      0.1709235
      6807.0000         0.4477       3820.375         0.4547      -113.7158      -63.55864       0.154613
      6807.5000         0.4117       3958.188         0.3643      -114.5059      -64.34972      0.1439227
