#------------------------------------------------------------------------------
# Created by    : vladimir.rabinovich
# Created on    : 09/19/2023 17:22:39
#------------------------------------------------------------------------------
~Version Information Section
VERS.           2.0     :   CWLS log ASCII Standard - VERSION 2.0
WRAP.           NO      :   One line per depth step
~Well Information Section
#MNEM       .UNIT                                         VALUE :DESCRIPTION
#------------------------------------------------------------------------------
STRT        .FT                                            3493 :START DEPTH
STOP        .FT                                            8566 :STOP DEPTH
STEP        .FT                                             0.5 :STEP      
NULL        .                                           -999.25 :NULL      
COMP        .                          SEAGULL ENERGY E & P INC :COMPANY   
WELL        .                               OCS G09038 ST00BP00 :WELL      
FLD         .                                           WILDCAT :FIELD     
LOC         .                                                   :LOCATION  
CNTY        .                             GALVESTON LARGE BLOCK :LOCATION  
STAT        .                                             TEXAS :STATE     
CTRY        .                                     UNITED STATES :COUNTRY   
SRVC        .                                                   :SERVICE COMPANY
DATE        .                             9/13/2023 11:19:36 AM :LOG DATE  
API         .                                    42706402070000 :API NUMBER
UWI         .                                    42706402070000 :UNIQUE WELL ID
XCOORD      .                                  986976.405819811 :SURFACE X 
YCOORD      .                                  10491452.3738699 :SURFACE Y 
LAT         .                                         28.894171 :LATITUDE  
LON         .                                        -95.042508 :LONGITUDE 
ELEV        .FT                                              93 :ELEVATION VALUE
ELEV_TYPE   .                                                KB :ELEVATION REFERENCE TYPE
~Curve Information Section
#MNEM       .UNIT                                      API CODE :CURVE DESCRIPTION
#------------------------------------------------------------------------------
DEPT        .FT                                                 :DEPTH     
DCAL        .IN                                                 :          
DPHI        .%                                                  :          
DRHO        .G/C3                                               :          
GR          .GAPI                                               :          
GR_NORM     .GAPI                                               :GammaRay Normalized
ILD         .OHMM                                               :          
ILM         .OHMM                                               :          
NPHI        .%                                                  :          
SGRD        .OHMM                                               :          
SP          .MV                                                 :          
SP_NORM     .MV                                                 :SP Normalized
VSH_GR      .V/V                                                :Volume of Shale from GR
VSH_SP      .V/V                                                :Volume of Shale from SP
~A        DEPTH           DCAL           DPHI           DRHO             GR        GR_NORM            ILD            ILM           NPHI           SGRD             SP        SP_NORM         VSH_GR         VSH_SP
# ...
      4500.0000          0.734        14.9016          0.082        40.3798       40.13173         0.3902         0.5635        20.7866         2.8698      -125.4282      -69.10378       0.151739              0
      4500.5000         0.8409        15.5868         0.0998        42.4049       43.20368         0.3349         0.4597         21.971         2.5673      -125.7074      -69.38483      0.2170996              0
      4501.0000         0.9994        20.6864          0.091        43.6914       45.15587         0.2983         0.3827        26.2132         1.6976      -125.8962      -69.57549      0.2586355              0
      4501.5000         1.1637        29.1176         0.0798        44.3362        46.1352         0.2709         0.3434        30.1203         1.3302      -126.0529      -69.73405      0.2794724              0
      4502.0000         1.3128         32.475         0.0712        44.8076       46.85163         0.2507          0.323        34.2617         1.1815      -126.1382       -69.8212      0.2947156              0
      4502.5000         1.4519        33.3464         0.0665        45.0972       47.29247         0.2382         0.3103        36.8307         1.1297      -126.1517      -69.83656      0.3040951              0
      4503.0000          1.605        33.9342         0.0637        44.0669       45.73225         0.2332         0.3012        38.5918         1.1206      -125.6533      -69.34001      0.2708988              0
      4503.5000         1.7689        34.2367         0.0556         43.647       45.09742         0.2307         0.2938        38.2656          1.126      -125.1611      -68.84967      0.2573918              0
      4504.0000         1.9364        34.1257          0.045         44.537       46.44849         0.2292         0.2882         37.875         1.1374      -124.7352      -68.42563      0.2861382              0
      4504.5000         2.0293        33.8949         0.0352        44.1625        45.8825         0.2291         0.2842         38.423         1.1197      -124.3855      -68.07779      0.2740957              0
      4505.0000         2.0755        33.6545         0.0252        44.0967       45.78452         0.2292         0.2808        39.1454         1.0857      -123.9244      -67.61855       0.272011              0
      4505.5000         2.1555         33.553          0.021        44.7319       46.74929         0.2302         0.2786        39.9316         1.0596       -122.905        -66.601      0.2925382    0.005955255
      4506.0000         2.2606        33.6061          0.027        43.7213       45.21893         0.2332         0.2788        40.6547         1.0398      -120.7679      -64.46576      0.2599772     0.03782449
      4506.5000         2.3729        33.8519         0.0341        43.4118       44.75148         0.2432         0.2813        41.3823         1.0319       -117.896      -61.59571      0.2500315     0.08066098
      4507.0000         2.5722          34.44         0.0419        44.7288       46.74993         0.2619         0.2914        42.1669         1.0166      -113.7612      -57.46277      0.2925516      0.1423467
      4507.5000          2.782        34.9847         0.0476        46.9681       50.14661         0.2875         0.3069        42.9182         0.9819      -105.8853      -49.58873      0.3648214      0.2598698
      4508.0000         2.9509        35.3493         0.0525        50.9559       56.19411          0.327         0.3313        43.7719         0.9353       -87.9116      -31.61688      0.4934918      0.5281063
      4508.5000         2.5766        34.1993          0.058        57.1281       65.55334         0.3653         0.3648        43.5171         0.8937       -73.3652      -17.07233      0.6926243       0.745189
      4509.0000         1.8378        32.2518         0.0645        62.9417       74.36887          0.409         0.4005        43.2078         0.8709       -68.1394      -11.84839      0.8801888      0.8231583
      4509.5000         1.2017        29.0938         0.0691        66.2793       79.43066         0.4489         0.4403        43.4552         0.8821       -64.5638      -8.274647      0.9878865      0.8764978
      4510.0000         1.0669        26.6152         0.0741        67.0684       80.62875         0.4796         0.4825        44.1857         0.9073       -64.3572      -8.069908              1      0.8795536
      4510.5000         1.0453        25.3463         0.0732        66.1062       79.17178         0.5079         0.5241        45.0408         0.9193       -65.1293      -8.843868      0.9823784      0.8680019
      4511.0000         1.0307        25.0066         0.0687        64.8895       77.32896         0.5251         0.5559        45.8804         0.9062       -65.6505      -9.366917      0.9431695      0.8716861
      4511.5000          1.019        25.3403         0.0717        62.8818       74.28693         0.5229         0.5764        46.6346         0.9178       -66.9065      -10.62478      0.8784454      0.8544551
      4512.0000         1.0124        26.7072         0.0739         64.288        76.4206         0.5129         0.5829        47.3715         0.9532       -68.6277      -12.34784      0.9238425      0.8308516
      4512.5000         1.0164        28.2676         0.0724        65.5234        78.2953          0.503         0.5861        46.7292         0.9975       -70.5742      -14.29619      0.9637299      0.8041617
      4513.0000         1.0267        29.5944         0.0684        66.6381       79.98705         0.4932         0.5889        46.2293          1.036        -72.882      -16.60585      0.9997244      0.7725226
      4513.5000         1.0349        30.7826         0.0607         67.681       81.56992          0.494         0.5941        45.7417         1.0647       -74.0851       -17.8108              1      0.7560164
      4514.0000         1.0517        32.1183         0.0505        68.7284       83.15961         0.4988         0.5979        45.2211         1.0742       -73.0215      -16.74906              1      0.7705609
      4514.5000         1.0878        32.9207         0.0413        69.6257       84.52176         0.5044         0.5985        44.5751         1.0521       -70.4708      -14.20022              1      0.8054765
      4515.0000          1.125        31.0651          0.035        70.1028       85.24682         0.5096          0.597        43.9977         1.0115       -67.8256      -11.55687              1      0.8416867
      4515.5000         1.1692        29.4135         0.0323        68.5135       82.83912         0.5129         0.5948        43.5004         0.9683       -68.3026      -12.03572              1      0.8351271
      4516.0000         1.1978        28.0555         0.0342        66.0925       79.17052         0.5014         0.5942        43.3602         0.9501       -72.1273      -15.86228      0.9823516      0.7827085
      4516.5000         1.2168        26.8333         0.0514        63.8434       75.76252         0.4703         0.5945        44.4586         0.9584       -75.5571      -19.29394      0.9098408      0.7356994
      4517.0000         1.2319        30.9598         0.0614        61.5343       72.26356         0.4342          0.595        45.7454         0.9811       -78.5934       -22.3321      0.8353949      0.6940809
      4517.5000         1.1779        33.2834         0.0493        58.3312       67.40923         0.3993         0.5653        47.5565         1.0138       -81.9934      -25.73396      0.7321113      0.6474801
      4518.0000         1.0434        34.2631         0.0449        54.6821       61.87874         0.3684         0.5158        46.5019         1.0577       -88.2703      -32.01271      0.6144412      0.5614697
      4518.5000         0.8858        34.1482         0.0618        51.5163       57.08097         0.3444         0.4724        45.3642         1.1059       -99.3195      -43.06377      0.5123612      0.4100854
