#------------------------------------------------------------------------------
# Created by    : vladimir.rabinovich
# Created on    : 09/19/2023 17:22:53
#------------------------------------------------------------------------------
~Version Information Section
VERS.           2.0     :   CWLS log ASCII Standard - VERSION 2.0
WRAP.           NO      :   One line per depth step
~Well Information Section
#MNEM       .UNIT                                         VALUE :DESCRIPTION
#------------------------------------------------------------------------------
STRT        .FT                                             394 :START DEPTH
STOP        .FT                                            7700 :STOP DEPTH
STEP        .FT                                             0.5 :STEP      
NULL        .                                           -999.25 :NULL      
COMP        .                                   MARATHON OIL CO :COMPANY   
WELL        .                                     ST TR 00248-L :WELL      
FLD         .                                           WILDCAT :FIELD     
LOC         .                                                   :LOCATION  
CNTY        .                             GALVESTON LARGE BLOCK :LOCATION  
STAT        .                                             TEXAS :STATE     
CTRY        .                                     UNITED STATES :COUNTRY   
SRVC        .                                                   :SERVICE COMPANY
DATE        .                             9/13/2023 11:19:42 AM :LOG DATE  
API         .                                    42706000210000 :API NUMBER
UWI         .                                    42706000210000 :UNIQUE WELL ID
XCOORD      .                                  969160.596945075 :SURFACE X 
YCOORD      .                                  10521676.5956168 :SURFACE Y 
LAT         .                                        28.9764138 :LATITUDE  
LON         .                                       -95.0998408 :LONGITUDE 
ELEV        .FT                                              10 :ELEVATION VALUE
ELEV_TYPE   .                                                KB :ELEVATION REFERENCE TYPE
~Curve Information Section
#MNEM       .UNIT                                      API CODE :CURVE DESCRIPTION
#------------------------------------------------------------------------------
DEPT        .FT                                                 :DEPTH     
LAT         .OHMM                                               :          
LN          .OHMM                                               :          
SN          .OHMM                                               :          
SP          .MV                                                 :          
SP_NORM     .MV                                                 :SP Normalized
VSH_SP      .V/V                                                :Volume of Shale from SP
~A        DEPTH            LAT             LN             SN             SP        SP_NORM         VSH_SP
# ...
      4270.0000         0.3772         0.4602         0.4794      -132.2102      -56.60045     0.05761952
      4270.5000         0.3701         0.4641         0.4477       -132.428      -56.81824     0.05392818
      4271.0000          0.363         0.4683         0.4161      -132.6458      -57.03604     0.05023659
      4271.5000         0.3558         0.4726         0.3844      -132.8635      -57.25374     0.04654681
      4272.0000         0.3487         0.4768         0.3869      -133.0813      -57.47154     0.04285521
      4272.5000         0.3416          0.481          0.403      -133.2991      -57.68935     0.03916362
      4273.0000         0.3344         0.4853         0.4191      -133.5168      -57.90704     0.03547384
      4273.5000         0.3273         0.4895         0.4352      -133.8142      -58.20444     0.03043327
      4274.0000         0.3129         0.4937         0.4513      -134.3259      -58.71614     0.02176033
      4274.5000         0.2983          0.498         0.4674      -134.8376      -59.22784     0.01308739
      4275.0000         0.2838         0.5022         0.4835      -135.3491      -59.73935    0.004417807
      4275.5000         0.2693         0.5064         0.4995      -135.8608      -60.25104              0
      4276.0000         0.2547         0.5107         0.5156      -135.5525      -59.94275   0.0009703555
      4276.5000         0.2402         0.5124         0.5246      -134.3853      -58.77554      0.0207535
      4277.0000         0.2256         0.5129         0.5177       -133.218      -57.60825     0.04053821
      4277.5000         0.2111         0.5135         0.5107      -132.0505      -56.44075     0.06032627
      4278.0000         0.2042         0.5141         0.5037      -130.8833      -55.27354     0.08010942
      4278.5000         0.2148         0.5147         0.4967      -129.7173      -54.10754     0.09987213
      4279.0000         0.2254         0.5153         0.4898      -128.4619      -52.85214      0.1211501
      4279.5000         0.2361         0.5159         0.4828      -127.1667      -51.55695      0.1431026
      4280.0000         0.2467         0.5164         0.4758      -122.5272      -46.91744      0.2217383
      4280.5000         0.2573          0.517         0.4688      -116.8073      -41.19754      0.3186858
      4281.0000          0.268         0.5176         0.4619      -110.7263      -35.11655      0.4217534
      4281.5000           0.28         0.5182         0.4616      -104.1658      -28.55605      0.5329484
      4282.0000         0.3243         0.5188          0.465       -97.9821      -22.37234      0.6377569
      4282.5000         0.3686         0.5199         0.4683       -94.3705      -18.76074      0.6989705
      4283.0000         0.4128         0.5255         0.4716       -95.9055      -20.29575      0.6729535
      4283.5000         0.4571          0.531          0.475       -98.8113      -23.20155      0.6237026
      4284.0000         0.4666         0.5365          0.483        -101.95      -26.34024      0.5705044
      4284.5000         0.4164         0.5421         0.4996      -105.0863      -29.47655      0.5173467
      4285.0000         0.3662         0.5476         0.5163      -108.3804      -32.77065      0.4615145
      4285.5000         0.3606         0.5531         0.5329        -112.17      -36.56024       0.397284
      4286.0000         0.3674         0.5587         0.5495      -110.4111      -34.80135      0.4270958
      4286.5000         0.3742         0.5642         0.5662      -108.1953      -32.58554      0.4646519
      4287.0000         0.3809         0.5684         0.5828      -101.6804      -26.07064      0.5750739
      4287.5000         0.3882          0.569         0.5995       -95.1609      -19.55114      0.6855739
      4288.0000         0.4017         0.5695         0.6161       -88.6459      -13.03614      0.7959976
      4288.5000         0.4152         0.5701         0.6328       -82.1263      -6.516541      0.9064993
      4289.0000         0.4287         0.5707         0.6387       -77.0597      -1.449944      0.9923738
      4289.5000         0.4423         0.5713         0.6254       -72.3129        3.29686              1
      4290.0000         0.4212         0.5719         0.6121       -75.3511      0.2586594              1
      4290.5000         0.3728         0.5725         0.5988       -78.6177      -3.007942      0.9659671
      4291.0000         0.3245          0.573         0.5856       -82.3182      -6.708443      0.9032468
      4291.5000         0.2761         0.5736         0.5723       -86.0052      -10.39545      0.8407552
      4292.0000         0.2278         0.5742          0.559       -81.4365      -5.826744      0.9181908
      4292.5000         0.1863         0.5712         0.5457       -76.8678      -1.258041      0.9956264
      4293.0000         0.1739         0.5663         0.5324       -72.2992       3.310555              1
      4293.5000         0.1614         0.5614         0.5191       -67.7305       7.879257              1
      4294.0000         0.1489         0.5565         0.5058       -66.0703       9.539459              1
      4294.5000         0.1364         0.5516         0.4926       -65.1298       10.47996              1
      4295.0000          0.124         0.5467         0.4793       -64.1897       11.42006              1
      4295.5000         0.1115         0.5418         0.4744       -63.2498       12.35995              1
      4296.0000         0.1151         0.5369         0.4726       -63.6113       11.99846              1
      4296.5000         0.1354          0.532         0.4707       -64.4673       11.14246              1
      4297.0000         0.1557         0.5271         0.4689       -65.3234       10.28635              1
      4297.5000          0.176         0.5222         0.4671       -66.1799       9.429855              1
      4298.0000         0.1963         0.5173         0.4652        -67.036       8.573753              1
      4298.5000         0.2166         0.5124         0.4634       -67.8921       7.717659              1
      4299.0000         0.2369         0.5075         0.4616       -68.7487       6.861053              1
      4299.5000         0.2385         0.5026         0.4597       -69.6047       6.005058              1
      4300.0000         0.2363         0.4977         0.4579       -70.4614       5.148354              1
      4300.5000         0.2341         0.4918         0.4561       -72.3082       3.301559              1
      4301.0000         0.2319         0.4853         0.4542       -74.4739       1.135857              1
      4301.5000         0.2297         0.4789         0.4473       -73.0964       2.513359              1
      4302.0000         0.2347         0.4725         0.4357       -70.4762        5.13356              1
      4302.5000         0.2671         0.4661         0.4239       -67.8561       7.753654              1
      4303.0000         0.2995         0.4596         0.4122       -70.7549       4.854858              1
      4303.5000         0.3319         0.4532         0.4005       -81.4457      -5.835945      0.9180349
      4304.0000         0.3591         0.4468         0.3888       -89.5687      -13.95895      0.7803568
      4304.5000         0.3394         0.4404         0.3771        -96.271      -20.66125      0.6667585
      4305.0000         0.3197         0.4339         0.3654      -101.1412      -25.53144      0.5842128
      4305.5000         0.3056         0.4278         0.3537      -106.0115      -30.40174      0.5016654
      4306.0000         0.2919         0.4266          0.342      -108.9275      -33.31774      0.4522417
      4306.5000         0.2782         0.4254         0.3303      -110.9274      -35.31764       0.418345
      4307.0000         0.2646         0.4243         0.3186      -112.9274      -37.31764      0.3844467
      4307.5000         0.2707         0.4231         0.3159      -113.5863      -37.97655      0.3732789
