#------------------------------------------------------------------------------
# Created by    : vladimir.rabinovich
# Created on    : 09/19/2023 17:22:21
#------------------------------------------------------------------------------
~Version Information Section
VERS.           2.0     :   CWLS log ASCII Standard - VERSION 2.0
WRAP.           NO      :   One line per depth step
~Well Information Section
#MNEM       .UNIT                                         VALUE :DESCRIPTION
#------------------------------------------------------------------------------
STRT        .FT                                            2180 :START DEPTH
STOP        .FT                                            6738 :STOP DEPTH
STEP        .FT                                             0.5 :STEP      
NULL        .                                           -999.25 :NULL      
COMP        .                          SEAGULL ENERGY E & P INC :COMPANY   
WELL        .                               OCS G08131 ST00BP00 :WELL      
FLD         .                              GALVESTON BLOCK 0384 :FIELD     
LOC         .                                                   :LOCATION  
CNTY        .                             GALVESTON LARGE BLOCK :LOCATION  
STAT        .                                             TEXAS :STATE     
CTRY        .                                     UNITED STATES :COUNTRY   
SRVC        .                                                   :SERVICE COMPANY
DATE        .                             9/13/2023 11:19:36 AM :LOG DATE  
API         .                                    42706401890000 :API NUMBER
UWI         .                                    42706401890000 :UNIQUE WELL ID
XCOORD      .                                  986765.057424596 :SURFACE X 
YCOORD      .                                  10402321.6077632 :SURFACE Y 
LAT         .                                          28.64909 :LATITUDE  
LON         .                                        -95.038398 :LONGITUDE 
ELEV        .FT                                             100 :ELEVATION VALUE
ELEV_TYPE   .                                                KB :ELEVATION REFERENCE TYPE
~Curve Information Section
#MNEM       .UNIT                                      API CODE :CURVE DESCRIPTION
#------------------------------------------------------------------------------
DEPT        .FT                                                 :DEPTH     
CALN        .IN                                                 :          
DRHO        .G/CM3                                              :          
GR          .GAPI                                               :          
GR_NORM     .GAPI                                               :GammaRay Normalized
ILD         .OHMM                                               :          
ILM         .OHMM                                               :          
NPSS        .V/V                                                :Neutron Porosity Sandstone
RHOB        .G/CM3                                              :          
SFL         .OHMM                                               :          
SP          .MV                                                 :          
SP_NORM     .MV                                                 :SP Normalized
TENN        .LB                                                 :          
VSH_GR      .V/V                                                :Volume of Shale from GR
VSH_SP      .V/V                                                :Volume of Shale from SP
~A        DEPTH           CALN           DRHO             GR        GR_NORM            ILD            ILM           NPSS           RHOB            SFL             SP        SP_NORM           TENN         VSH_GR         VSH_SP
# ...
      5816.0000          11.22          0.001        90.3922       76.68268          1.057         1.0867         0.3666          2.274         1.0187           -7.8      -5.858253           2920      0.9294187      0.9163107
      5816.5000           11.2          0.001        90.5882       76.86441         1.0473         1.0867          0.357          2.265         1.0473             -8      -6.058252           2880      0.9332854      0.9134535
      5817.0000          11.18          0.002        90.3922       76.69334         1.0473         1.0767         0.3648          2.258         1.0668           -7.8      -5.858253           2840      0.9296455      0.9163107
      5817.5000          11.22          0.002           89.8       76.16569         1.0473         1.0767         0.3768          2.259         1.0377           -7.4      -5.458252           2840      0.9184189       0.922025
      5818.0000          11.26          0.004           88.8       75.27102         1.0377         1.0668          0.396          2.265         1.0093           -6.8      -4.858253           2920      0.8993834      0.9305964
      5818.5000          11.18          0.004           86.8       73.47635         1.0377         1.0668          0.399          2.263         0.9717           -6.4      -4.458252           2960      0.8611989      0.9363107
      5819.0000          11.02          0.002           84.8       71.68167         1.0377          1.057         0.3942          2.256         0.9532           -6.4      -4.458252           2960      0.8230143      0.9363107
      5819.5000          11.02              0           83.2       70.24699         1.0281         1.0473         0.3852          2.249         0.9717           -6.2      -4.258252           2920      0.7924892      0.9391678
      5820.0000          11.14         -0.002           83.2       70.25233         1.0281         1.0473         0.3822         2.2439         1.0093           -6.2      -4.258252           2880      0.7926027      0.9391678
      5820.5000          11.14         -0.002             85       71.87766         1.0278         1.0374          0.381         2.2367         1.0278           -6.2      -4.258252           2880      0.8271841      0.9391678
      5821.0000          11.12        -0.0059           84.6       71.52298         1.0274         1.0369         0.3768         2.2235         1.0086           -6.4      -4.458252           2880      0.8196379      0.9363107
      5821.5000          11.08        -0.0098           81.2       68.46831         1.0175         1.0364          0.369         2.2061         0.9612           -7.4      -5.458252           2880      0.7546448       0.922025
      5822.0000          11.04        -0.0118           83.2       70.27364          1.017          1.036         0.3666          2.199          1.017           -8.6      -6.658253           2880      0.7930561      0.9048821
      5822.5000          10.98        -0.0108           86.8       73.51897         1.0165          1.026         0.3798         2.2102         1.1047            -10      -8.058252           2880      0.8621058      0.8848821
      5823.0000          10.98        -0.0078        91.9608       78.16902         1.0066         1.0254         0.3996         2.2367         1.1999       -10.1961      -8.254353           2880       0.961043      0.8820807
      5823.5000          11.04        -0.0059         94.902       80.82143         0.9969         1.0155          0.431          2.252         1.1774           -9.6      -7.658253           2920              1      0.8905964
      5824.0000           11.1        -0.0039         94.902       80.82676         0.9965         1.0151         0.4335          2.258         1.0533           -8.2      -6.258252           2920              1      0.9105964
      5824.5000             11        -0.0039        93.1373       79.24386          0.996         1.0146          0.411          2.258         0.9584           -7.2      -5.258252           2920      0.9839119      0.9248821
      5825.0000             11        -0.0029        92.3529       78.54323         0.9859         1.0048         0.3918          2.257          0.922           -6.6      -4.658252           2920      0.9690049      0.9334536
      5825.5000          10.98         -0.002        92.1569       78.37215         0.9855         1.0044         0.3918          2.256         0.9394           -6.4      -4.458252           2880       0.965365      0.9363107
      5826.0000          10.96          0.002        94.5098        80.4951          0.985         1.0039         0.4074          2.255          0.948           -6.2      -4.258252           2880              1      0.9391678
      5826.5000          10.94          0.002        99.4118       84.91222         0.9751          0.994          0.417          2.252         0.9659             -6      -4.058252           2880              1      0.9420249
      5827.0000          10.98          0.002            101       86.34693         0.9747         0.9935         0.4182         2.2469         0.9471             -6      -4.058252           2880              1      0.9420249
      5827.5000          11.04              0        98.6275       84.21701         0.9742         0.9931         0.4074         2.2439         0.9111           -5.8      -3.858253           2880              1      0.9448821
      5828.0000          11.08         -0.002        94.7059        80.6929         0.9644         0.9831         0.4134         2.2429         0.9282           -5.8      -3.858253           2880              1      0.9448821
      5828.5000          11.14        -0.0039        90.9804       77.34528         0.9548         0.9826         0.4188         2.2418         0.9366           -6.4      -4.458252           2840      0.9435165      0.9363107
      5829.0000          11.14        -0.0039             88       74.66824         0.9543         0.9728         0.4176         2.2378         0.9273           -7.2      -5.258252           2880      0.8865584      0.9248821
      5829.5000          11.06        -0.0039           86.4       73.23357         0.9448         0.9723         0.4092         2.2337         0.9723             -8      -6.058252           2960      0.8560335      0.9134535
      5830.0000          11.02         -0.002           86.8       73.59891         0.9353         0.9719         0.4068         2.2367          1.067           -7.8      -5.858253           2960      0.8638065      0.9163107
      5830.5000          11.02              0           89.4       75.94423         0.9262         0.9624         0.4104         2.2439         1.0767           -7.6      -5.658252           2920       0.913707      0.9191678
      5831.0000          11.02          0.004        91.3725       77.72481         0.9174         0.9624         0.4176          2.248         1.0093           -6.6      -4.658252           2880      0.9515917      0.9334536
      5831.5000             11          0.008        91.1765       77.55373         0.9174         0.9532         0.4237          2.248         0.9352           -5.6      -3.658252           2880      0.9479518      0.9477392
      5832.0000          10.96          0.008             90       76.50021         0.9087         0.9532          0.428          2.248         0.8919             -5      -3.058252           2880      0.9255365      0.9563107
      5832.5000          10.88          0.011           89.2       75.78554            0.9         0.9442         0.4316          2.251         0.8759           -4.8      -2.858253           2840      0.9103306      0.9591678
      5833.0000          10.76          0.015        90.9804       77.39323            0.9         0.9442         0.4469          2.257            0.9           -4.6      -2.658252           2840      0.9445369       0.962025
      5833.5000          10.64          0.021        94.1176       80.22204            0.9         0.9442         0.4731          2.262         0.9262           -4.4      -2.458252           2840              1      0.9648821
