#------------------------------------------------------------------------------
# Created by    : vladimir.rabinovich
# Created on    : 09/19/2023 17:21:46
#------------------------------------------------------------------------------
~Version Information Section
VERS.           2.0     :   CWLS log ASCII Standard - VERSION 2.0
WRAP.           NO      :   One line per depth step
~Well Information Section
#MNEM       .UNIT                                         VALUE :DESCRIPTION
#------------------------------------------------------------------------------
STRT        .FT                                            2869 :START DEPTH
STOP        .FT                                           10002 :STOP DEPTH
STEP        .FT                                             0.5 :STEP      
NULL        .                                           -999.25 :NULL      
COMP        .                          SEAGULL ENERGY E & P INC :COMPANY   
WELL        .                               OCS G06145 ST00BP00 :WELL      
FLD         .                                           WILDCAT :FIELD     
LOC         .                                                   :LOCATION  
CNTY        .                           HIGH ISLAND LARGE BLOCK :LOCATION  
STAT        .                                             TEXAS :STATE     
CTRY        .                                     UNITED STATES :COUNTRY   
SRVC        .                                                   :SERVICE COMPANY
DATE        .                             9/13/2023 11:19:59 AM :LOG DATE  
API         .                                    42708402850000 :API NUMBER
UWI         .                                    42708402850000 :UNIQUE WELL ID
XCOORD      .                                  1277324.30822617 :SURFACE X 
YCOORD      .                                   10672684.104362 :SURFACE Y 
LAT         .                                         29.403374 :LATITUDE  
LON         .                                        -94.140646 :LONGITUDE 
ELEV        .FT                                              88 :ELEVATION VALUE
ELEV_TYPE   .                                                KB :ELEVATION REFERENCE TYPE
~Curve Information Section
#MNEM       .UNIT                                      API CODE :CURVE DESCRIPTION
#------------------------------------------------------------------------------
DEPT        .FT                                                 :DEPTH     
CALI        .IN                                                 :          
DPHI        .%                                                  :          
DRHO        .G/C3                                               :          
GR          .GAPI                                               :          
GR_NORM     .GAPI                                               :GammaRay Normalized
ILD         .OHMM                                               :          
ILM         .OHMM                                               :          
NPHI        .%                                                  :          
SFL         .OHMM                                               :          
SP          .MV                                                 :          
SP_NORM     .MV                                                 :SP Normalized
VSH_GR      .V/V                                                :Volume of Shale from GR
VSH_SP      .V/V                                                :Volume of Shale from SP
~A        DEPTH           CALI           DPHI           DRHO             GR        GR_NORM            ILD            ILM           NPHI            SFL             SP        SP_NORM         VSH_GR         VSH_SP
# ...
      7657.0000         9.8613        29.0133        -0.0013        51.8892       48.12976         0.1629         0.2272        28.0152         0.6819       -103.297      -71.16899      0.3219099              0
      7657.5000         9.7994        28.9395        -0.0008        52.5082       48.81844         0.1363         0.2096        28.2968         0.7993       -104.886      -72.47966      0.3365625              0
      7658.0000         9.7748        28.8112        -0.0003         52.295       48.58242         0.1245         0.1899        28.8227         0.8407      -105.8525      -73.27766      0.3315409              0
      7658.5000         9.7593          28.74         0.0003        51.2402       47.41131         0.1241          0.174        29.2231         0.7412      -106.5607      -73.86295      0.3066236              0
      7659.0000         9.7479        28.7572         0.0012        49.3966       45.36375         0.1251         0.1649        28.5367         0.6092      -107.1844      -74.37866      0.2630585              0
      7659.5000         9.7448         28.846         0.0024        47.3996       43.14575         0.1255         0.1595        27.4491         0.5316      -107.6714      -74.78179       0.215867              0
      7660.0000         9.7605        28.9963         0.0035        45.3064       40.82086         0.1252         0.1561        26.3265         0.5183      -108.2489      -75.25945      0.1664013              0
      7660.5000         9.7659        29.1119         0.0042        44.2132       39.60707          0.125          0.154        25.7883         0.5475      -109.0427      -75.91524       0.140576              0
      7661.0000          9.813        29.1128         0.0047         44.895       40.36552          0.125          0.152        26.1783         0.5964      -109.9562      -76.66959      0.1567132              0
      7661.5000         9.8779        28.9966         0.0048        45.9592       41.54885         0.1253         0.1503        27.2942         0.6266       -111.046      -77.56915      0.1818904              0
      7662.0000         9.9394        28.9303         0.0045        47.3552       43.10085         0.1259         0.1483        27.9973         0.6228      -112.2281      -78.54471      0.2149117              0
      7662.5000         9.9853        28.9976          0.004         47.836       43.63595         0.1274         0.1457        28.0718         0.5845      -112.9481      -79.13972      0.2262968              0
      7663.0000         9.9896        29.3955         0.0033        47.5438       43.31217         0.1302         0.1436        27.9119          0.551      -113.1403      -79.30006      0.2194079              0
      7663.5000         9.9631        29.6349         0.0023        47.0092       42.71906         0.1345         0.1423         27.981         0.5284        -112.99      -79.17837      0.2067885              0
      7664.0000         9.9256         29.689         0.0016        48.2206       44.06595         0.1394         0.1426        28.8466          0.512      -112.4821      -78.76216      0.2354457              0
      7664.5000         9.8848        29.8106         0.0011        49.7091       45.72071         0.1447         0.1463        29.3314         0.5084       -111.364      -77.84344      0.2706535              0
      7665.0000         9.8405        29.9579         0.0005        50.5107       46.61227         0.1477         0.1523        29.1274         0.5233      -109.5396      -76.34306      0.2896228              0
      7665.5000         9.7984        30.1026        -0.0001         48.779       44.68904         0.1434         0.1618        28.4182         0.5554      -107.4464      -74.62133      0.2487031              0
      7666.0000         9.7816        30.2749        -0.0009         45.998       41.59994         0.1327         0.1689        28.0219          0.572      -105.6294      -73.12704      0.1829774              0
      7666.5000         9.8069        30.5159         -0.002        43.2021       38.49426         0.1248         0.1603        28.4242         0.4809      -104.2104      -71.96052      0.1168991              0
      7667.0000         9.8617        30.8142         -0.003        41.2625       36.34004         0.1241          0.151        29.7777         0.3215      -102.8458      -70.83881     0.07106473              0
      7667.5000         9.9111        30.7837        -0.0037        40.7933       35.81959         0.1269         0.1486        30.5978         0.2704      -100.8586      -69.20435     0.05999123     0.01136649
      7668.0000         9.9388        30.3267         -0.004        41.2402       36.31703         0.1358         0.1561        31.0396          0.274       -96.0363      -65.23511     0.07057515      0.0680699
      7668.5000         9.9422        28.7467         -0.003        43.8568       39.22525         0.1502          0.169        31.9349         0.2516       -85.3855      -56.46594      0.1324521      0.1933437
      7669.0000          9.932        27.4052        -0.0002        48.3278       44.19392         0.1745         0.1874        32.8995         0.2441       -67.6737      -41.88182      0.2381684      0.4016883
      7669.5000         9.9305        27.0428         0.0074        55.8204       52.51991         0.2036         0.2413        33.6512         0.2952       -54.7744      -31.26093      0.4153172      0.5534152
      7670.0000          9.951        27.1588         0.0143        62.8099       60.28691         0.2417         0.2945        34.0222         0.4353       -42.9797      -21.54972      0.5805725      0.6921469
      7670.5000        10.0043        26.9977         0.0171        70.9089       69.28668         0.2924         0.3701        34.3227         0.5695       -32.2501      -12.71565      0.7720571      0.8183479
      7671.0000        10.1077        26.2185         0.0171        78.2905       77.48935         0.3475         0.4379        34.7194         0.6038       -25.3862      -7.065095      0.9465819      0.8990701
      7671.5000        10.2454        25.4729         0.0162        82.1366       81.76367         0.4816          0.495        35.2505         0.5695       -22.6767      -4.835812              1       0.930917
      7672.0000        10.3398        24.7004         0.0144        83.0831       82.81623         0.5978         0.5352        35.9991         0.5661       -21.1074      -3.545517              1      0.9493498
      7672.5000        10.3602         24.024         0.0115        83.0646       82.79655          0.673          0.568        36.9407         0.6068        -19.993      -2.629844              1      0.9624308
      7673.0000        10.3557        23.2501         0.0087        83.0576       82.78967           0.68         0.5928         37.851         0.6373       -19.1542      -1.941136              1      0.9722695
      7673.5000        10.3589        22.7856         0.0071        83.7915         83.606         0.6586            0.6        37.9776         0.6525       -18.5735      -1.464981              1      0.9790717
      7674.0000         10.383        22.5435           0.01        85.6776       85.70255         0.6431         0.5922        37.3146         0.6559       -18.2755       -1.22164              1       0.982548
      7674.5000        10.4091        22.8366         0.0142        86.9026       87.06455         0.6312         0.5867        36.3194         0.6543       -18.0966      -1.076379              1      0.9846231
      7675.0000        10.4156        22.9805          0.019        86.1454        86.2241         0.6219         0.5827        34.7879         0.6501       -17.9233     -0.9357303              1      0.9866324
      7675.5000        10.4162        22.5175         0.0225        84.6089       84.51776         0.6141         0.5848         34.295         0.6454       -17.7325     -0.7806713              1      0.9888476
