#------------------------------------------------------------------------------
# Created by    : vladimir.rabinovich
# Created on    : 09/19/2023 17:22:38
#------------------------------------------------------------------------------
~Version Information Section
VERS.           2.0     :   CWLS log ASCII Standard - VERSION 2.0
WRAP.           NO      :   One line per depth step
~Well Information Section
#MNEM       .UNIT                                         VALUE :DESCRIPTION
#------------------------------------------------------------------------------
STRT        .FT                                             597 :START DEPTH
STOP        .FT                                            8696 :STOP DEPTH
STEP        .FT                                             0.5 :STEP      
NULL        .                                           -999.25 :NULL      
COMP        .                MURPHY EXPLORATION & PRODUCTION CO :COMPANY   
WELL        .                               OCS G13308 ST00BP00 :WELL      
FLD         .                                           WILDCAT :FIELD     
LOC         .                                                   :LOCATION  
CNTY        .                             GALVESTON LARGE BLOCK :LOCATION  
STAT        .                                             TEXAS :STATE     
CTRY        .                                     UNITED STATES :COUNTRY   
SRVC        .                                                   :SERVICE COMPANY
DATE        .                             9/13/2023 11:19:54 AM :LOG DATE  
API         .                                    42706403460000 :API NUMBER
UWI         .                                    42706403460000 :UNIQUE WELL ID
XCOORD      .                                  1110706.35492259 :SURFACE X 
YCOORD      .                                  10520329.8149831 :SURFACE Y 
LAT         .                                         28.978895 :LATITUDE  
LON         .                                        -94.657168 :LONGITUDE 
ELEV        .FT                                              71 :ELEVATION VALUE
ELEV_TYPE   .                                                KB :ELEVATION REFERENCE TYPE
~Curve Information Section
#MNEM       .UNIT                                      API CODE :CURVE DESCRIPTION
#------------------------------------------------------------------------------
DEPT        .FT                                                 :DEPTH     
DCAL        .IN                                                 :          
DPHI        .%                                                  :          
DRHO        .G/C3                                               :          
DTLN        .US/F                                               :          
GR          .GAPI                                               :          
GR_1        .GAPI                                               :          
GR_NORM     .GAPI                                               :GammaRay Normalized
ILD         .OHMM                                               :          
ILM         .OHMM                                               :          
NPHI        .%                                                  :          
SFL         .OHMM                                               :          
SP          .MV                                                 :          
VSH_GR      .V/V                                                :Volume of Shale from GR
~A        DEPTH           DCAL           DPHI           DRHO           DTLN             GR           GR_1        GR_NORM            ILD            ILM           NPHI            SFL             SP         VSH_GR
# ...
      7608.0000         0.1902        -0.2387        -0.0067        -999.25        -999.25        37.0697       38.11231         1.3766         2.9205         6.2721          43.95       -57.0103      0.1087726
      7608.5000         0.2306         0.3755        -0.0086        -999.25        -999.25        37.3403       38.48048         1.2303         2.1286         8.2576        11.0158       -59.0909       0.116606
      7609.0000         0.2896         3.3829         -0.009        -999.25        -999.25        37.5286       38.73667          1.075         1.5971        11.7917         4.0142       -60.6325      0.1220568
      7609.5000         0.3497         7.8596        -0.0078        -999.25        -999.25        38.8343       40.51313         0.9724         1.2431        16.7591         1.5151       -60.9223      0.1598539
      7610.0000          0.411        12.5637        -0.0056        -999.25        -999.25        43.2531       46.52511         0.8987         0.9197        23.2288         0.9327       -60.0443      0.2877683
      7610.5000         0.4645        16.5586        -0.0034        -999.25        -999.25        47.5297       52.34361         0.8295         0.8467        28.4775         0.7317       -59.4409      0.4115662
      7611.0000         0.4844        19.8174        -0.0016        -999.25        -999.25        48.4095       53.54062         0.7681         0.8012        30.4765         0.7419       -59.8507      0.4370344
      7611.5000         0.4553        21.6967        -0.0001        -999.25        -999.25         47.064          51.71         0.7172         0.7669        30.6815         0.8607       -60.6901      0.3980851
      7612.0000         0.3885        22.9625         0.0005        -999.25        -999.25        44.2823       47.92538         0.6848         0.7532        30.4152         0.9354       -61.0013      0.3175612
      7612.5000         0.3487        23.6477        -0.0003        -999.25        -999.25        42.2507        45.1613         0.7053          0.749        30.3216          0.959       -61.4504      0.2587511
      7613.0000         0.3863         24.024        -0.0028        -999.25        -999.25        42.3168       45.25123         0.7596         0.7477        30.8311         0.9249       -62.0668      0.2606644
      7613.5000         0.4385        24.0388         -0.006        -999.25        -999.25          44.65       48.42565          0.804         0.7631        31.2416         0.8603       -62.6998      0.3282053
      7614.0000         0.5118        23.5355        -0.0082        -999.25        -999.25        48.2232       53.28716           0.84          0.799        31.3249          0.805       -62.2084      0.4316416
      7614.5000         0.5932        22.5899        -0.0098        -999.25        -999.25        51.4644       57.69695         0.8714         0.8743        29.6595         0.8997       -61.0148      0.5254669
      7615.0000          0.684        21.2792        -0.0114        -999.25        -999.25        50.5147       56.40483         0.8984         0.9774        26.5893         1.3804       -60.8365      0.4979752
      7615.5000         0.7806        19.9266        -0.0122        -999.25        -999.25        47.6547       52.51368         0.9156         1.0887        24.3435         1.6832       -61.7623      0.4151847
      7616.0000         0.8016        18.9474        -0.0128        -999.25        -999.25        45.6174       49.74184         0.9246         1.1678        23.3163         1.6901       -63.8333      0.3562095
      7616.5000         0.6596        18.8538        -0.0134        -999.25        -999.25        46.0641       50.34959         0.9265         1.1959        23.8273         1.3554       -68.2446      0.3691403
      7617.0000         0.5005        19.8593         -0.014        -999.25        -999.25        49.1888       54.60089         0.9212         1.0941        26.4277           1.09       -71.7089      0.4595934
      7617.5000          0.401        21.0548        -0.0145        -999.25        -999.25        52.7572       59.45585         0.9026         1.0034        29.4471         0.9706       -67.6515      0.5628905
      7618.0000         0.3774        21.9525         -0.015        -999.25        -999.25        56.9774       65.19762          0.865         0.9237        32.5114         0.9179       -62.4485      0.6850559
      7618.5000         0.4081         22.334        -0.0157        -999.25        -999.25        61.8055       71.76646         0.8281         0.8417        33.5752         0.9023       -61.1248      0.8248184
      7619.0000         0.4078        21.0353        -0.0137        -999.25        -999.25        64.1704       74.98402         0.8047          0.817        33.2475         0.8978       -61.5847      0.8932769
      7619.5000         0.4043        18.6593        -0.0069        -999.25        -999.25        64.1588       74.96823         0.8453          0.834        31.6076         0.9014       -62.7843      0.8929411
      7620.0000         0.3706        16.0469        -0.0005        -999.25        -999.25        59.9086       69.18565         0.8873         0.8901        28.6242         0.9303       -63.8057      0.7699074
      7620.5000         0.3059        13.4375         0.0051        -999.25        -999.25        52.8601       59.59585          0.929         1.0029        24.6592          1.206       -62.8309      0.5658692
      7621.0000         0.3068        11.3697         0.0105        -999.25        -999.25         46.689        51.1998         0.9655         1.1227        20.3141         1.5808       -61.2943      0.3872298
      7621.5000         0.2937        10.0815         0.0113        -999.25        -999.25        43.5717       46.95858         1.0003         1.1988        17.2843         2.0276       -60.9078       0.296991
      7622.0000         0.1869        10.4376         0.0087        -999.25        -999.25        42.6158       45.65803         1.0433         1.2318        17.8185         1.8879       -60.6429      0.2693198
      7622.5000         0.1322        12.4201         0.0033        -999.25        -999.25        45.2284       49.21259          1.125         1.2215         21.559         1.3988       -59.8783      0.3449487
      7623.0000         0.2255        14.9397        -0.0015        -999.25        -999.25        49.7623       55.38116         1.2733         1.2029        25.0542         1.1195       -59.9261      0.4761948
      7623.5000          0.314        16.9132        -0.0041        -999.25        -999.25        52.9974       59.78265         1.3863         1.1961        27.7234         1.0339       -60.2042      0.5698437
      7624.0000         0.3478        16.5661         -0.003        -999.25        -999.25        54.2767        61.5232         1.4174         1.2503           28.2         1.1116          -60.2      0.6068766
      7624.5000         0.3117        15.5397         0.0019        -999.25        -999.25        54.3527        61.6266         1.4207         1.4568        25.9459         1.4952       -58.9072      0.6090766
      7625.0000         0.2857        14.3652         0.0096        -999.25        -999.25        49.7525       55.36782         1.4235         1.7056        23.3934         2.2382       -57.5225      0.4759111
      7625.5000         0.3192        13.3874         0.0182        -999.25        -999.25        46.6327        51.1232         1.4328         1.9116        21.2493         2.9858       -56.6157      0.3856001
      7626.0000          0.504        12.8271         0.0196        -999.25        -999.25        44.4858       48.20225         1.4401         1.7741        20.9785         2.6247       -56.0508      0.3234521
      7626.5000         0.7201        12.8764         0.0197        -999.25        -999.25         49.929       55.60796         1.4208          1.485        23.3605         1.6539       -55.7935      0.4810205
