#------------------------------------------------------------------------------
# Created by    : vladimir.rabinovich
# Created on    : 09/19/2023 17:19:50
#------------------------------------------------------------------------------
~Version Information Section
VERS.           2.0     :   CWLS log ASCII Standard - VERSION 2.0
WRAP.           NO      :   One line per depth step
~Well Information Section
#MNEM       .UNIT                                         VALUE :DESCRIPTION
#------------------------------------------------------------------------------
STRT        .FT                                             880 :START DEPTH
STOP        .FT                                            8374 :STOP DEPTH
STEP        .FT                                             0.5 :STEP      
NULL        .                                           -999.25 :NULL      
COMP        .                                        EXXON CORP :COMPANY   
WELL        .                               OCS G04552 ST00BP00 :WELL      
FLD         .                                 BRAZOS BLOCK 0451 :FIELD     
LOC         .                                                   :LOCATION  
CNTY        .                                BRAZOS LARGE BLOCK :LOCATION  
STAT        .                                             TEXAS :STATE     
CTRY        .                                     UNITED STATES :COUNTRY   
SRVC        .                                                   :SERVICE COMPANY
DATE        .                             9/13/2023 11:19:08 AM :LOG DATE  
API         .                                    42704401130000 :API NUMBER
UWI         .                                    42704401130000 :UNIQUE WELL ID
XCOORD      .                                  760277.642000753 :SURFACE X 
YCOORD      .                                  10343629.6463693 :SURFACE Y 
LAT         .                                         28.475327 :LATITUDE  
LON         .                                        -95.739931 :LONGITUDE 
ELEV        .FT                                              95 :ELEVATION VALUE
ELEV_TYPE   .                                                KB :ELEVATION REFERENCE TYPE
~Curve Information Section
#MNEM       .UNIT                                      API CODE :CURVE DESCRIPTION
#------------------------------------------------------------------------------
DEPT        .FT                                                 :DEPTH     
ASFL        .OHMM                                               :          
CALI        .IN                                                 :          
CILD        .MMHO                                               :          
DT          .US/F                                               :          
GR          .GAPI                                               :          
GR_NORM     .GAPI                                               :GammaRay Normalized
ILD         .OHMM                                               :          
ILM         .OHMM                                               :          
RHOB        .G/C3                                               :          
SP          .MV                                                 :          
SP_NORM     .MV                                                 :SP Normalized
VSH_GR      .V/V                                                :Volume of Shale from GR
VSH_SP      .V/V                                                :Volume of Shale from SP
~A        DEPTH           ASFL           CALI           CILD             DT             GR        GR_NORM            ILD            ILM           RHOB             SP        SP_NORM         VSH_GR         VSH_SP
# ...
      5896.0000         0.9856        11.7609       1571.561       124.8204         46.688        71.8232         0.6253         0.6432         2.2309       -39.7983        -0.7904      0.8260254       0.984192
      5896.5000         0.9909        11.7534       1565.676       123.5912        46.0365       70.85857         0.6267         0.6452         2.2361       -39.7634        -0.7548      0.8055014       0.984904
      5897.0000         0.9962        11.7549       1560.719       122.7577        45.3843       69.89261          0.628         0.6436         2.2284       -39.7286        -0.7193      0.7849491       0.985614
      5897.5000         1.0012        11.7558       1556.934       122.4833        44.9929       69.31302         0.6294         0.6411         2.2017       -39.6937        -0.6838      0.7726174       0.986324
      5898.0000         1.0059        11.7557        1553.15       123.4648        45.7418       70.42203         0.6307         0.6393         2.1708       -39.6589        -0.6483      0.7962133       0.987034
      5898.5000         1.0105        11.7555       1549.363       124.7522         46.639       71.75062          0.632         0.6381         2.1582        -39.624        -0.6128      0.8244812       0.987744
      5899.0000          1.009        11.7538        1547.34       125.5118        47.5361       73.07908         0.6333         0.6369         2.1647        -39.593        -0.5811      0.8527464       0.988378
      5899.5000         1.0062        11.7519       1549.639       126.0671        48.3686       74.31187          0.634         0.6349           2.17       -39.5714        -0.5588       0.878976       0.988824
      5900.0000         1.0034        11.7527       1551.936       126.5785        48.0617       73.85742         0.6331         0.6329         2.1769       -39.5497        -0.5365      0.8693069        0.98927
      5900.5000         1.0006        11.7555       1554.234       127.0406        48.4697       74.46162         0.6322         0.6308         2.1953       -39.5281        -0.5142       0.882162       0.989716
      5901.0000         0.9978        11.7582       1556.533       127.4423        49.3757       75.80338         0.6313         0.6284         2.2058       -39.5065        -0.4919      0.9107103       0.990162
      5901.5000          0.995        11.7596       1558.832       127.7961        50.2804       77.14296         0.6304          0.626         2.2166       -39.4848        -0.4696      0.9392119       0.990608
      5902.0000         0.9922        11.7608       1561.131       127.6399        50.6586       77.70315         0.6295          0.625         2.2277       -39.4631        -0.4472      0.9511308       0.991056
      5902.5000         0.9926        11.7555       1566.645       127.3475        49.2463       75.61163         0.6287         0.6256         2.2365       -39.4417        -0.4251      0.9066303       0.991498
      5903.0000         0.9933         11.742         1572.5       126.9772        47.8239       73.50541          0.628         0.6264         2.2228       -39.4207        -0.4035      0.8618172        0.99193
      5903.5000         0.9941         11.707       1578.354       126.9885        47.1824       72.55531         0.6272         0.6289         2.2063       -39.3997        -0.3818      0.8416023       0.992364
      5904.0000         0.9944        11.6525       1580.475       127.0889        46.5052       71.55251         0.6265         0.6315         2.2006       -39.3787        -0.3601      0.8202661       0.992798
      5904.5000         0.9945        11.5768       1574.971       127.2372        45.7864       70.48806         0.6257         0.6341         2.2233       -39.3577        -0.3385      0.7976183        0.99323
      5905.0000         0.9947        11.4903       1569.459       127.3174        45.0149       69.34558          0.626         0.6374         2.2194       -39.3367        -0.3168      0.7733102       0.993664
      5905.5000         0.9948        11.4201       1562.654       127.3778        44.1925       68.12791         0.6286         0.6408         2.1998       -39.3379        -0.3173      0.7474024       0.993654
      5906.0000          0.995        11.3584       1555.361       127.2814        43.3695         66.909         0.6312         0.6441          2.174       -39.3394        -0.3182      0.7214682       0.993636
      5906.5000         0.9941        11.3136       1551.467       126.8318        43.3092       66.81973         0.6339         0.6448          2.153       -39.3409         -0.319      0.7195688        0.99362
      5907.0000         0.9928        11.2798       1554.721       126.4216        44.7291       68.92238         0.6367         0.6453         2.1489       -39.3424        -0.3198      0.7643059       0.993604
      5907.5000         0.9915        11.2671       1557.973        126.139        46.3851       71.37478         0.6394         0.6458          2.184       -39.3442         -0.321      0.8164846        0.99358
      5908.0000         0.9902         11.255       1558.949       126.0637         47.839       73.52761         0.6422         0.6453         2.2241        -39.357        -0.3331      0.8622896       0.993338
      5908.5000          0.989        11.2514       1555.477       126.3365        48.8643       75.04594         0.6446         0.6446         2.2476       -39.3698        -0.3453      0.8945944       0.993094
      5909.0000         0.9878        11.2477       1552.006        126.647        49.8896       76.56423         0.6438         0.6439         2.2421       -39.3825        -0.3573      0.9268985       0.992854
      5909.5000         0.9866        11.2451       1548.898       126.9952        50.8961        78.0547          0.643         0.6425         2.2301       -39.3535        -0.3276      0.9586107       0.993448
      5910.0000         0.9853         11.243       1548.039       127.1655        50.6533       77.69532         0.6422         0.6412         2.2027        -39.274        -0.2475      0.9509643        0.99505
      5910.5000         0.9841         11.243       1548.521       126.9934        50.2596       77.11228         0.6413         0.6409         2.1763       -39.1946        -0.1674      0.9385592       0.996652
      5911.0000         0.9829        11.2486       1551.574       126.8213        49.6697       76.23859         0.6405         0.6415         2.1595         -39.01         0.0179      0.9199701              1
      5911.5000         0.9813        11.2537       1555.617       126.4391        48.6758       74.76678          0.638         0.6421         2.1567       -38.7088         0.3197       0.888655              1
      5912.0000         0.9797        11.2575       1559.986       126.0474        47.9445       73.68387         0.6349         0.6434         2.1568       -38.4078         0.6214      0.8656142              1
      5912.5000          0.978         11.259       1564.494       125.9342        48.3466       74.27931         0.6317         0.6448         2.1562       -38.2101         0.8198      0.8782833              1
      5913.0000         0.9764        11.2549       1569.703       125.8553        48.7019       74.80544         0.6285          0.648         2.1497       -38.0711         0.9594      0.8894775              1
      5913.5000          0.974        11.2491        1574.92       125.5695        49.0568       75.33101         0.6254         0.6446         2.1428       -38.0422          0.989      0.9006597              1
      5914.0000         0.9715        11.2322       1581.256       125.2106        47.9759       73.73036         0.6227          0.639         2.1356       -38.0134         1.0185      0.8666034              1
      5914.5000          0.969        11.2153       1589.363       124.9451         46.688        71.8232         0.6205         0.6343         2.1501       -37.9844         1.0481      0.8260254              1
