#------------------------------------------------------------------------------
# Created by    : vladimir.rabinovich
# Created on    : 09/19/2023 17:20:18
#------------------------------------------------------------------------------
~Version Information Section
VERS.           2.0     :   CWLS log ASCII Standard - VERSION 2.0
WRAP.           NO      :   One line per depth step
~Well Information Section
#MNEM       .UNIT                                         VALUE :DESCRIPTION
#------------------------------------------------------------------------------
STRT        .FT                                             780 :START DEPTH
STOP        .FT                                            9803 :STOP DEPTH
STEP        .FT                                             0.5 :STEP      
NULL        .                                           -999.25 :NULL      
COMP        .                                  SAMEDAN OIL CORP :COMPANY   
WELL        .                               OCS G04076 ST00BP00 :WELL      
FLD         .                            HIGH ISLAND BLOCK 0105 :FIELD     
LOC         .                                                   :LOCATION  
CNTY        .                           HIGH ISLAND LARGE BLOCK :LOCATION  
STAT        .                                             TEXAS :STATE     
CTRY        .                                     UNITED STATES :COUNTRY   
SRVC        .                                                   :SERVICE COMPANY
DATE        .                             9/13/2023 11:19:59 AM :LOG DATE  
API         .                                    42708401630000 :API NUMBER
UWI         .                                    42708401630000 :UNIQUE WELL ID
XCOORD      .                                  1167393.84075462 :SURFACE X 
YCOORD      .                                  10652000.2522841 :SURFACE Y 
LAT         .                                        29.3430877 :LATITUDE  
LON         .                                       -94.4850788 :LONGITUDE 
ELEV        .FT                                              87 :ELEVATION VALUE
ELEV_TYPE   .                                                KB :ELEVATION REFERENCE TYPE
~Curve Information Section
#MNEM       .UNIT                                      API CODE :CURVE DESCRIPTION
#------------------------------------------------------------------------------
DEPT        .FT                                                 :DEPTH     
ASFL        .OHMM                                               :          
CILD        .MMHO                                               :          
DT          .US/F                                               :          
GR          .GAPI                                               :          
GR_1        .GAPI                                               :          
GR_NORM     .GAPI                                               :GammaRay Normalized
ILD         .OHMM                                               :          
SP          .MV                                                 :          
SP_NORM     .MV                                                 :SP Normalized
VSH_GR      .V/V                                                :Volume of Shale from GR
VSH_SP      .V/V                                                :Volume of Shale from SP
~A        DEPTH           ASFL           CILD             DT             GR           GR_1        GR_NORM            ILD             SP        SP_NORM         VSH_GR         VSH_SP
# ...
      4402.5000         0.6143       3042.316        -999.25        -999.25        48.2739       62.48909          0.297      -146.8416      -39.82059      0.6274273      0.1595423
      4403.0000         0.5781       3194.141        -999.25        -999.25        46.5845       60.93662         0.2566      -148.3777      -41.35769      0.5943962      0.1253847
      4403.5000         0.5543       3342.633        -999.25        -999.25        47.1309       61.43874         0.2516      -149.7122      -42.69318      0.6050797     0.09570702
      4404.0000         0.5305        3587.02        -999.25        -999.25        48.4188       62.62223         0.2597      -148.5383      -41.52027      0.6302603      0.1217717
      4404.5000         0.5129       3686.391        -999.25        -999.25        51.8896       65.81171            0.3      -145.6189      -38.60185      0.6981214      0.1866255
      4405.0000         0.5137       3777.145        -999.25        -999.25        55.8135       69.41756         0.3475      -142.4758      -35.45975      0.7748416      0.2564501
      4405.5000         0.5355       3718.863        -999.25        -999.25        58.6104       71.98775         0.3949      -138.6846      -31.66954      0.8295267      0.3406769
      4406.0000         0.5802       3620.031        -999.25        -999.25        62.2581       75.33978         0.4425      -134.1958      -27.18172      0.9008464      0.4404061
      4406.5000         0.6449       3248.211        -999.25        -999.25        63.8087        76.7647         0.4902      -130.2842      -23.27111      0.9311638      0.5273086
      4407.0000         0.6651       2875.996        -999.25        -999.25        64.7289       77.61032         0.5378      -127.4088      -20.39671      0.9491557      0.5911843
      4407.5000         0.6851       2543.941        -999.25        -999.25        63.5803       76.55481         0.5819      -122.6697      -15.65859      0.9266981      0.6964757
      4408.0000         0.6941       2391.531        -999.25        -999.25        60.8228       74.02083         0.6249      -116.8304      -9.820282      0.8727836       0.826216
      4408.5000         0.7031       1618.309        -999.25        -999.25        58.9382       72.28899         0.6907      -114.7556      -7.746475      0.8359359      0.8723006
      4409.0000         0.7121       1173.367        -999.25        -999.25        57.5999       71.05916         0.7668      -113.5548      -6.546669      0.8097693      0.8989629
      4409.5000         0.7376       1120.033        -999.25        -999.25        56.2629       69.83053          0.835      -112.8329      -5.825752      0.7836283      0.9149833
      4410.0000         0.7648       1071.352        -999.25        -999.25        54.6362       68.33568         0.9026      -112.1116      -5.105446      0.7518229      0.9309901
      4410.5000         0.8021       1031.607        -999.25        -999.25        52.8927       66.73351         0.9496      -111.4575      -4.452332      0.7177343      0.9455038
      4411.0000         0.8242       1009.129        -999.25        -999.25        51.5385       65.48908          0.956      -110.9133      -3.909119      0.6912571      0.9575751
      4411.5000         0.8349       1003.328        -999.25        -999.25        51.1456       65.12803         0.9623      -110.3691      -3.365913      0.6835751      0.9696464
      4412.0000         0.8363       1005.021        -999.25        -999.25        53.1923       67.00881         0.9648       -109.825        -2.8228      0.7235917      0.9817156
      4412.5000         0.8287       1015.667        -999.25        -999.25        55.8896        69.4875         0.9561      -109.2871      -2.285889      0.7763297      0.9936469
      4413.0000         0.8209       1026.313        -999.25        -999.25        58.7209       72.08929         0.9473      -108.7626      -1.762383      0.8316871              1
      4413.5000         0.8134       1036.512        -999.25        -999.25        60.5785       73.79632         0.9386      -108.2378      -1.238571      0.8680068              1
      4414.0000         0.8099       1045.871        -999.25        -999.25         62.193       75.27996         0.9306      -107.7129      -0.714653      0.8995736              1
      4414.5000         0.8082       1055.238        -999.25        -999.25        63.4809       76.46347         0.9249      -107.2466     -0.2493439      0.9247547              1
      4415.0000         0.8071       1060.838        -999.25        -999.25        64.7368       77.61758         0.9192       -106.921     0.07526398      0.9493101              1
      4415.5000          0.806       1065.717        -999.25        -999.25         65.934       78.71772         0.9136       -106.595      0.4002686      0.9727175              1
      4416.0000         0.8038       1059.732        -999.25        -999.25        67.1359        79.8222         0.9044      -106.2693      0.7249832      0.9962171              1
      4416.5000         0.8013       1052.777        -999.25        -999.25        67.6097        80.2576         0.8942      -106.2758      0.7174911              1              1
      4417.0000         0.7989       1044.941        -999.25        -999.25        66.6705       79.39453         0.8829      -106.7131      0.2792053      0.9871177              1
      4417.5000         0.7966       1035.967        -999.25        -999.25        65.7424       78.54166         0.8597      -107.2429     -0.2515793      0.9689716              1
      4418.0000         0.7942       1034.068        -999.25        -999.25        64.8136       77.68814         0.8365      -108.6033      -1.612976      0.9508115              1
      4418.5000         0.7909       1046.238        -999.25        -999.25        63.7885       76.74613         0.8134      -109.9636      -2.974266      0.9307688      0.9783496
      4419.0000         0.7851       1058.789        -999.25        -999.25        62.7602       75.80118         0.7904      -111.2283      -4.239952      0.9106634      0.9502233
      4419.5000         0.7765        1090.33        -999.25        -999.25        62.1973       75.28391         0.7731      -111.9661      -4.978745      0.8996577      0.9338057
      4420.0000         0.7658       1121.846        -999.25        -999.25        64.6829       77.56803         0.7558      -109.8175      -2.831131       0.948256      0.9815304
      4420.5000         0.7489       1153.385        -999.25        -999.25         70.436        82.8548         0.7385      -108.1282      -1.142815              1              1
      4421.0000         0.7314       1184.926        -999.25        -999.25        74.7382       86.80829         0.7212      -106.9987    -0.01431274              1              1
      4421.5000         0.7149       1216.441        -999.25        -999.25        75.7485       87.73669         0.7039      -105.8691       1.114296              1              1
      4422.0000         0.7044       1248.643        -999.25        -999.25        73.8959       86.03427         0.6933      -105.5066       1.475807              1              1
      4422.5000         0.6946       1281.406        -999.25        -999.25        72.3588       84.62177         0.6838      -105.1573        1.82412              1              1
      4423.0000         0.6779       1313.191        -999.25        -999.25         71.236       83.58997         0.6743       -104.885       2.095428              1              1
      4423.5000         0.6582       1341.354        -999.25        -999.25        70.2347       82.66984         0.6648       -104.809       2.170441              1              1
      4424.0000         0.6417       1369.488        -999.25        -999.25        71.4846       83.81841         0.6553      -104.7328       2.245651              1              1
      4424.5000         0.6292           1400        -999.25        -999.25        72.7345         84.967         0.6466      -104.6024       2.375061              1              1
