#------------------------------------------------------------------------------
# Created by    : vladimir.rabinovich
# Created on    : 09/19/2023 17:20:25
#------------------------------------------------------------------------------
~Version Information Section
VERS.           2.0     :   CWLS log ASCII Standard - VERSION 2.0
WRAP.           NO      :   One line per depth step
~Well Information Section
#MNEM       .UNIT                                         VALUE :DESCRIPTION
#------------------------------------------------------------------------------
STRT        .FT                                             396 :START DEPTH
STOP        .FT                                           11006 :STOP DEPTH
STEP        .FT                                             0.5 :STEP      
NULL        .                                           -999.25 :NULL      
COMP        .                                 CALIFORNIA CO THE :COMPANY   
WELL        .                                OCS 00507 ST00BP00 :WELL      
FLD         .                            HIGH ISLAND BLOCK 0052 :FIELD     
LOC         .                                                   :LOCATION  
CNTY        .                           HIGH ISLAND LARGE BLOCK :LOCATION  
STAT        .                                             TEXAS :STATE     
CTRY        .                                     UNITED STATES :COUNTRY   
SRVC        .                                                   :SERVICE COMPANY
DATE        .                             9/13/2023 11:19:15 AM :LOG DATE  
API         .                                    42708000170000 :API NUMBER
UWI         .                                    42708000170000 :UNIQUE WELL ID
XCOORD      .                                  1293108.02889945 :SURFACE X 
YCOORD      .                                   10685731.628563 :SURFACE Y 
LAT         .                                         29.439677 :LATITUDE  
LON         .                                        -94.091453 :LONGITUDE 
ELEV        .FT                                              70 :ELEVATION VALUE
ELEV_TYPE   .                                                KB :ELEVATION REFERENCE TYPE
~Curve Information Section
#MNEM       .UNIT                                      API CODE :CURVE DESCRIPTION
#------------------------------------------------------------------------------
DEPT        .FT                                                 :DEPTH     
ASN         .OHMM                                               :          
CILD        .MMHO                                               :          
ILM         .OHMM                                               :          
SP          .MV                                                 :          
SP_NORM     .MV                                                 :SP Normalized
VSH_SP      .V/V                                                :Volume of Shale from SP
~A        DEPTH            ASN           CILD            ILM             SP        SP_NORM         VSH_SP
# ...
      3208.0000         0.3789        1941.68         0.3627       -70.7704        -4.5993      0.9395512
      3208.5000         0.3655       1965.744         0.3538       -70.7102        -4.5369      0.9410023
      3209.0000         0.3521        1976.67         0.3449       -70.8416        -4.6662      0.9379954
      3209.5000         0.3387       1985.654         0.3372       -70.9728        -4.7952      0.9349954
      3210.0000         0.3256       2261.602          0.331       -71.2107        -5.0309      0.9295139
      3210.5000         0.3132       2381.625         0.3247       -71.8114        -5.6295       0.915593
      3211.0000         0.3008       2576.621         0.3184       -72.5479        -6.3638      0.8985163
      3211.5000         0.2885        2844.02         0.3121       -73.3748        -7.1886      0.8793349
      3212.0000         0.2786        3152.84         0.3058       -74.8394         -8.651      0.8453256
      3212.5000         0.2763       3244.055         0.2995       -77.9819       -11.7914       0.772293
      3213.0000         0.2811       3304.332         0.3047       -82.0334       -15.8407      0.6781232
      3213.5000          0.296       3362.352         0.3146       -86.1418        -19.947      0.5826279
      3214.0000         0.3109       3456.086         0.3245       -89.3282       -23.1312      0.5085768
      3214.5000         0.3214       3523.133         0.3344         -90.64       -24.4409      0.4781186
      3215.0000         0.3244       3380.141         0.3444       -90.4987       -24.2974      0.4814558
      3215.5000         0.3274       3037.508         0.3543        -88.428       -22.2246      0.5296605
      3216.0000         0.3347        2842.25         0.3591       -83.8142       -17.6086      0.6370093
      3216.5000         0.3462       2512.805         0.3639       -79.3274       -13.1197      0.7414023
      3217.0000         0.3577       2315.863         0.3687       -74.7267        -8.5168      0.8484465
      3217.5000         0.3695       2147.555         0.3734       -74.4554        -8.2434      0.8548046
      3218.0000         0.3879        2099.57         0.3782       -80.0668       -13.8526      0.7243581
      3218.5000         0.4064       2176.895         0.3822       -83.7487       -17.5324      0.6387814
      3219.0000         0.3612       2550.242         0.3732       -91.3835        -25.165       0.461279
      3219.5000         0.3313       2727.801         0.3643       -99.0031       -32.7825      0.2841279
      3220.0000         0.3019       3096.988         0.3554      -102.4202       -36.1974      0.2047116
      3220.5000         0.2935       3310.746         0.3464      -104.6681       -38.4432      0.1524837
      3221.0000         0.2874       3385.629         0.3375      -106.3153       -40.0882      0.1142279
      3221.5000         0.2813       3233.477         0.3286      -107.3657       -41.1365     0.08984881
      3222.0000         0.2763       2408.977         0.3229      -107.8793       -41.6479     0.07795582
      3222.5000         0.2755       2289.926         0.3186      -108.3568       -42.1232     0.06690234
      3223.0000         0.2748       2190.836         0.3143      -108.3125       -42.0768     0.06798136
      3223.5000         0.2741       2098.297         0.3099      -108.2682       -42.0303     0.06906278
      3224.0000         0.2734       1987.732         0.3056      -108.2239       -41.9839      0.0701419
      3224.5000         0.2727       1988.193         0.3013      -108.1249       -41.8827      0.0724953
      3225.0000          0.272       1988.656         0.2969      -107.9388       -41.6945      0.0768721
      3225.5000         0.2713       1980.969         0.2926      -107.7529       -41.5064     0.08124649
      3226.0000         0.2703       1973.025           0.29      -107.5668       -41.3182     0.08562327
      3226.5000         0.2685       1961.961         0.2889      -107.2074       -40.9566     0.09403256
      3227.0000         0.2667       1927.551         0.2878      -106.6716       -40.4187      0.1065418
      3227.5000         0.2648       1893.119         0.2868      -106.1356       -39.8805      0.1190581
      3228.0000          0.263       1740.656         0.2857      -105.6727       -39.4155      0.1298721
      3228.5000         0.2612       1374.854         0.2846       -105.517       -39.2576      0.1335442
      3229.0000         0.2594       1331.008         0.2835      -105.3612       -39.0997      0.1372163
      3229.5000         0.2576       1305.029         0.2775      -105.2054       -38.9417      0.1408907
      3230.0000         0.2559       1283.785         0.2715      -105.3348        -39.069      0.1379302
      3230.5000         0.2545       1298.445         0.2654      -105.4905       -39.2225      0.1343605
      3231.0000         0.2531       1351.951         0.2593      -105.6462       -39.3761      0.1307884
      3231.5000         0.2516       1683.123         0.2533      -106.0024       -39.7301      0.1225558
      3232.0000         0.2502       1812.174         0.2472      -106.5978       -40.3234      0.1087582
      3232.5000         0.2488       1893.209         0.2412      -107.1931       -40.9165     0.09496512
      3233.0000         0.2474       1957.391         0.2351      -107.7195       -41.4408      0.0827721
      3233.5000         0.2465       1972.666         0.2317      -108.1554       -41.8745     0.07268604
      3234.0000         0.2464        1983.52         0.2289      -108.5911       -42.3081     0.06260229
      3234.5000         0.2462       1991.277         0.2261       -109.027       -42.7418     0.05251632
      3235.0000          0.246       1998.195         0.2234      -109.2607       -42.9733     0.04713254
      3235.5000         0.2458       2001.984         0.2206      -109.4409       -43.1514     0.04299066
      3236.0000         0.2457       2003.051         0.2178      -109.6211       -43.3294     0.03885118
      3236.5000         0.2455       2004.117          0.215      -109.8014       -43.5076       0.034707
      3237.0000         0.2453       2003.107         0.2123      -109.9816       -43.6856     0.03056744
      3237.5000         0.2444       2001.807         0.2095      -109.9008       -43.6027     0.03249536
      3238.0000         0.2428       2000.508         0.2067      -109.7939       -43.4936     0.03503258
      3238.5000         0.2411       1990.195         0.2063       -109.687       -43.3846      0.0375674
      3239.0000         0.2395       1974.109         0.2077      -109.5802       -43.2756     0.04010231
      3239.5000         0.2379       1958.033         0.2091      -109.4734       -43.1667     0.04263492
      3240.0000         0.2362       1927.684         0.2105      -109.3666       -43.0577     0.04516974
      3240.5000         0.2346       1896.881         0.2119      -109.2598       -42.9488     0.04770235
      3241.0000         0.2344       1866.057         0.2132       -109.151       -42.8378     0.05028374
      3241.5000         0.2355       1836.561         0.2146      -109.0421       -42.7268     0.05286514
      3242.0000         0.2365       1807.152          0.216      -108.9332       -42.6157     0.05544884
      3242.5000         0.2375       1786.096         0.2174      -108.8243       -42.5047     0.05803024
      3243.0000         0.2386       1765.859         0.2188      -108.7156       -42.3938     0.06060933
      3243.5000         0.2396       1754.275         0.2188      -108.6067       -42.2828     0.06319073
      3244.0000         0.2425       1756.627          0.216      -108.4978       -42.1717     0.06577443
      3244.5000         0.2454       1769.467         0.2132      -108.3889       -42.0607     0.06835583
      3245.0000         0.2483       1795.799         0.2104      -108.3789       -42.0485     0.06863953
      3245.5000         0.2511       1822.133         0.2077      -108.3981       -42.0656     0.06824183
