#------------------------------------------------------------------------------
# Created by    : vladimir.rabinovich
# Created on    : 09/19/2023 17:20:45
#------------------------------------------------------------------------------
~Version Information Section
VERS.           2.0     :   CWLS log ASCII Standard - VERSION 2.0
WRAP.           NO      :   One line per depth step
~Well Information Section
#MNEM       .UNIT                                         VALUE :DESCRIPTION
#------------------------------------------------------------------------------
STRT        .FT                                            2010 :START DEPTH
STOP        .FT                                            7000 :STOP DEPTH
STEP        .FT                                             0.5 :STEP      
NULL        .                                           -999.25 :NULL      
COMP        .                                    TEXAS GULF INC :COMPANY   
WELL        .                                ST OF TEX TR 693-L :WELL      
FLD         .                                           WILDCAT :FIELD     
LOC         .                                                   :LOCATION  
CNTY        .                      MATAGORDA ISLAND LARGE BLOCK :LOCATION  
STAT        .                                             TEXAS :STATE     
CTRY        .                                     UNITED STATES :COUNTRY   
SRVC        .                                                   :SERVICE COMPANY
DATE        .                             9/13/2023 11:12:01 AM :LOG DATE  
API         .                                    42703300330000 :API NUMBER
UWI         .                                    42703300330000 :UNIQUE WELL ID
XCOORD      .                                  377893.250269135 :SURFACE X 
YCOORD      .                                  10151490.3803449 :SURFACE Y 
LAT         .                                        27.9187241 :LATITUDE  
LON         .                                       -96.9091122 :LONGITUDE 
ELEV        .FT                                              70 :ELEVATION VALUE
ELEV_TYPE   .                                                KB :ELEVATION REFERENCE TYPE
~Curve Information Section
#MNEM       .UNIT                                      API CODE :CURVE DESCRIPTION
#------------------------------------------------------------------------------
DEPT        .FT                                                 :DEPTH     
ASN         .OHMM                                               :          
CILD        .MMHO                                               :          
ILD         .OHMM                                               :          
SP          .MV                                                 :          
SP_NORM     .MV                                                 :SP Normalized
VSH_SP      .V/V                                                :Volume of Shale from SP
~A        DEPTH            ASN           CILD            ILD             SP        SP_NORM         VSH_SP
# ...
      2352.0000         0.8937       3507.328         0.2628       -99.8892       -47.6721     0.04849792
      2352.5000         0.9101       3502.938         0.2648       -99.4104       -47.1956     0.05842503
      2353.0000          0.927        3486.68         0.2653       -99.9921       -47.7797     0.04625623
      2353.5000         0.9392       3445.695         0.2641      -100.5824       -48.3723     0.03391043
      2354.0000         0.9225       3404.715         0.2629      -101.1726       -48.9649     0.02156456
      2354.5000         0.9148       3461.961         0.2618      -101.7629       -49.5575    0.009218772
      2355.0000         0.9148       3531.875         0.2606      -102.3535       -50.1505              0
      2355.5000         0.9319       3601.793         0.2594      -102.9438       -50.7431              0
      2356.0000         0.9303       3666.949         0.2582      -103.5342       -51.3359              0
      2356.5000         0.9196       3728.359         0.2571      -103.9572       -51.7612              0
      2357.0000         0.9348       3789.746          0.255      -104.2711       -52.0775              0
      2357.5000         0.9248       3851.156          0.252      -104.4518       -52.2605              0
      2358.0000         0.9077       3890.719          0.249      -103.9063       -51.7174              0
      2358.5000         0.8906       3925.516          0.247      -103.3608       -51.1742              0
      2359.0000         0.8727       3955.859         0.2528      -102.8152        -50.631              0
      2359.5000         0.8547       3875.629         0.2587      -102.2698       -50.0879              0
      2360.0000         0.8515       3780.691         0.2646      -101.4846        -49.305     0.01447916
      2360.5000         0.8818        3651.93         0.2704      -100.1841       -48.0069      0.0415229
      2361.0000         0.8596       3480.918         0.2763       -98.8835       -46.7086     0.06857085
      2361.5000         0.8356       3321.676          0.284       -96.0967       -43.9242      0.1265792
      2362.0000         0.8465       3167.273         0.3198       -91.6936       -39.5235      0.2182605
      2362.5000         0.8575       3012.871         0.3557       -88.5756       -36.4078      0.2831708
      2363.0000         0.9016       2858.469         0.3915       -84.0134       -31.8479      0.3781687
      2363.5000         0.9444       2704.066         0.4274       -78.3093       -26.1462      0.4969542
      2364.0000         0.9455       2549.664         0.4632       -72.6025       -20.4417      0.6157979
      2364.5000         0.9347       2395.262         0.4991       -66.8984         -14.74      0.7345833
      2365.0000         0.9247       2240.906         0.5351       -64.4427       -12.2866      0.7856959
      2365.5000         0.9148       2086.504         0.5901       -62.2456       -10.0919      0.8314188
      2366.0000         0.9417       1932.104         0.6451        -60.164        -8.0126      0.8747375
      2366.5000         0.9885       1776.154         0.7001       -58.3018        -6.1528      0.9134833
      2367.0000         1.0332       1615.865         0.7552        -57.735        -5.5883      0.9252437
      2367.5000         1.0778       1456.475         0.8102        -59.227        -7.0827      0.8941104
      2368.0000         1.1224       1304.865         0.8595        -58.116         -5.974      0.9172083
      2368.5000         1.1568       1171.865         0.9022       -56.4345        -4.2949      0.9521896
      2369.0000         1.1827       1100.426         0.9449       -56.6818        -4.5445      0.9469896
      2369.5000         1.2085       1044.477         0.9875       -57.2361        -5.1012      0.9353917
      2370.0000         1.2344       999.1289         1.0177       -57.6292        -5.4966      0.9271542
      2370.5000         1.2558       976.1055         1.0236       -57.7931        -5.6629      0.9236896
      2371.0000         1.2765       985.6094         1.0294        -57.957        -5.8291      0.9202271
      2371.5000         1.2813       996.1416         1.0353       -57.5201        -5.3946      0.9292791
      2372.0000         1.2635       1007.473         1.0412       -57.0164        -4.8932       0.939725
      2372.5000         1.2458       1017.555          1.047       -56.5126        -4.3918      0.9501708
      2373.0000         1.2511       1016.899         1.0529        -56.009        -3.8905      0.9606146
      2373.5000         1.2532       1016.244         1.0491       -55.5054        -3.3893      0.9710562
      2374.0000         1.2573       1015.589         1.0406       -54.9181        -2.8043      0.9832438
      2374.5000         1.2725       1007.073         1.0322       -54.4592        -2.3478      0.9927542
      2375.0000         1.2846       995.3994         1.0238        -55.559        -3.4499      0.9697937
      2375.5000         1.2733       983.7266         1.0154        -56.469        -4.3623      0.9507854
      2376.0000         1.2324       996.1045          1.007       -55.6404         -3.536          0.968
      2376.5000          1.188       1015.448         0.9985       -54.7866        -2.6846      0.9857375
      2377.0000          1.151       1055.252         0.9899       -53.8515        -1.7518              1
      2377.5000         1.1252       1101.424         0.9544       -53.2839        -1.1866              1
      2378.0000         1.0995       1178.301         0.9189       -53.4495        -1.3545              1
      2378.5000         1.0725       1230.295         0.8835       -53.3792        -1.2865              1
      2379.0000         1.0442       1270.992          0.848       -53.1477        -1.0574              1
      2379.5000          1.016        1335.57         0.8125       -52.9161        -0.8281              1
      2380.0000         0.9877       1397.133          0.777       -52.6676         -0.582              1
      2380.5000         0.9644       1450.064          0.749        -52.196        -0.1127              1
      2381.0000         0.9412       1491.969         0.7253       -51.7244         0.3565              1
      2381.5000          0.918       1533.863         0.7016       -52.0626          0.016              1
      2382.0000         0.8947       1570.979          0.678       -52.4883        -0.4121              1
      2382.5000         0.8754       1607.322         0.6543       -52.9141        -0.8402              1
      2383.0000         0.8567       1637.242         0.6306         -53.34        -1.2685              1
      2383.5000         0.8462       1667.162         0.6069       -53.6022         -1.533              1
      2384.0000         0.8539       1703.119         0.5833       -53.8314        -1.7646              1
      2384.5000         0.8718       1739.213         0.5601       -54.0605         -1.996              1
      2385.0000         0.8896       1770.367         0.5664       -54.2896        -2.2275      0.9952604
      2385.5000         0.9075       1688.104         0.5727       -54.5187        -2.4589      0.9904396
      2386.0000         0.9344       1550.039         0.5842       -54.2488        -2.1914      0.9960125
      2386.5000         0.9652       1485.508         0.6179       -53.7316        -1.6765              1
      2387.0000         0.9859       1427.664         0.6516       -53.2896        -1.2369              1
      2387.5000         0.9849       1391.994         0.6853       -52.8545        -0.8041              1
      2388.0000         0.9771       1330.482          0.719       -52.5401        -0.4921              1
      2388.5000         0.9732       1260.689         0.7527        -53.113        -1.0673              1
      2389.0000         0.9779       1226.803         0.7469       -53.6859        -1.6426              1
      2389.5000         0.9952       1234.074         0.7203       -54.2588        -2.2178      0.9954625
