#------------------------------------------------------------------------------
# Created by    : vladimir.rabinovich
# Created on    : 09/19/2023 17:20:24
#------------------------------------------------------------------------------
~Version Information Section
VERS.           2.0     :   CWLS log ASCII Standard - VERSION 2.0
WRAP.           NO      :   One line per depth step
~Well Information Section
#MNEM       .UNIT                                         VALUE :DESCRIPTION
#------------------------------------------------------------------------------
STRT        .FT                                            2979 :START DEPTH
STOP        .FT                                           11003 :STOP DEPTH
STEP        .FT                                             0.5 :STEP      
NULL        .                                           -999.25 :NULL      
COMP        .                                        TEXACO USA :COMPANY   
WELL        .                               OCS G01821 ST00BP00 :WELL      
FLD         .                                           WILDCAT :FIELD     
LOC         .                                                   :LOCATION  
CNTY        .                           HIGH ISLAND LARGE BLOCK :LOCATION  
STAT        .                                             TEXAS :STATE     
CTRY        .                                     UNITED STATES :COUNTRY   
SRVC        .                                                   :SERVICE COMPANY
DATE        .                             9/13/2023 11:19:15 AM :LOG DATE  
API         .                                    42708300170000 :API NUMBER
UWI         .                                    42708300170000 :UNIQUE WELL ID
XCOORD      .                                  1345073.13508324 :SURFACE X 
YCOORD      .                                  10640242.4404634 :SURFACE Y 
LAT         .                                         29.315788 :LATITUDE  
LON         .                                        -93.927032 :LONGITUDE 
ELEV        .FT                                              74 :ELEVATION VALUE
ELEV_TYPE   .                                                KB :ELEVATION REFERENCE TYPE
~Curve Information Section
#MNEM       .UNIT                                      API CODE :CURVE DESCRIPTION
#------------------------------------------------------------------------------
DEPT        .FT                                                 :DEPTH     
ASN         .OHMM                                               :          
CILD        .MMHO                                               :          
ILD         .OHMM                                               :          
SP          .MV                                                 :          
SP_NORM     .MV                                                 :SP Normalized
VSH_SP      .V/V                                                :Volume of Shale from SP
~A        DEPTH            ASN           CILD            ILD             SP        SP_NORM         VSH_SP
# ...
      5107.0000         0.7045       1569.715         0.6189       -83.0005      -36.19576       0.251154
      5107.5000         0.7107       1537.289         0.6343       -81.7677      -34.96051       0.277436
      5108.0000           0.72       1504.865         0.6531       -80.5348      -33.72515      0.3037201
      5108.5000         0.7323       1466.418         0.6719        -79.302      -32.48991       0.330002
      5109.0000         0.7462        1414.52         0.6907       -77.6942      -30.87965      0.3642627
      5109.5000         0.7601       1362.672         0.7095       -75.6719       -28.8549      0.4073426
      5110.0000         0.7739       1313.473         0.7245       -71.4867      -24.66726      0.4964414
      5110.5000         0.7878        1275.25         0.7359         -67.72       -20.8981      0.5766361
      5111.0000         0.8017       1238.625         0.7472       -64.9836      -18.15925      0.6349096
      5111.5000         0.8155       1206.277         0.7586       -62.3046       -15.4778      0.6919617
      5112.0000         0.8269        1175.99         0.7699       -60.1915      -13.36225      0.7369734
      5112.5000         0.8375       1155.553         0.7813       -58.8171       -11.9854      0.7662681
      5113.0000         0.8482       1135.117         0.7905       -57.4428      -10.60865      0.7955607
      5113.5000         0.8588        1114.68         0.7947       -56.4415      -9.604897      0.8169171
      5114.0000         0.8681        1100.93          0.799       -55.6848      -8.845745      0.8330693
      5114.5000         0.8756       1090.674         0.8032       -54.9275      -8.085995      0.8492342
      5115.0000         0.8831       1080.424         0.8074       -54.1708      -7.326843      0.8653863
      5115.5000         0.8906       1065.193         0.8117       -53.4426      -6.596191      0.8809321
      5116.0000         0.8981       1051.764         0.8118       -52.7555      -5.906643      0.8956034
      5116.5000         0.9056       1046.469         0.8116       -52.0683      -5.216988      0.9102768
      5117.0000         0.9093       1041.176         0.8114       -51.3811      -4.527336      0.9249503
      5117.5000         0.9115       1035.564         0.8111       -50.6815      -3.825287      0.9398875
      5118.0000         0.9137       1029.852         0.8109       -49.6349      -2.776234      0.9622078
      5118.5000         0.9089       1024.133         0.8107       -48.5871      -1.725986      0.9845535
      5119.0000         0.9035       1018.421         0.8105       -47.5392     -0.6756325              1
      5119.5000          0.898        1025.92         0.8114       -46.4915      0.3745155              1
      5120.0000         0.8926       1035.576         0.8127       -45.7298       1.138668              1
      5120.5000         0.8872       1046.969         0.8139       -44.9725       1.898418              1
      5121.0000         0.8818       1061.381         0.8152       -44.2158        2.65757              1
      5121.5000         0.8764       1075.793         0.8165        -43.459       3.416821              1
      5122.0000          0.871       1090.205          0.829       -42.8427       4.035572              1
      5122.5000         0.8963       1104.617         0.8583       -42.3262       4.554523              1
      5123.0000         0.9303       1119.018         0.8898       -41.8103       5.072876              1
      5123.5000         0.9605       1080.031         0.9251       -43.1605       3.725124              1
      5124.0000         0.9906       1032.582         0.9604       -44.2617       2.626377              1
      5124.5000         1.0208       969.2354         0.9935       -45.3629       1.527626              1
      5125.0000         1.0509       905.8369         1.0082       -46.6765      0.2164803              1
      5125.5000         1.0816       853.7393         1.0229       -49.1594      -2.263969       0.973107
      5126.0000         1.1134       818.6904         1.0376       -51.6425      -4.744621      0.9203272
      5126.5000         1.1453       803.2344         1.0413       -54.7289      -7.828568      0.8547114
      5127.0000         1.1758       807.0996         1.0437       -58.2684      -11.36562       0.779455
      5127.5000          1.198       810.9619         1.0462       -59.5484      -12.64317      0.7522731
      5128.0000         1.1934       815.5088         1.0486       -60.4683      -13.56062      0.7327529
      5128.5000         1.1838       823.6338         1.0511       -59.6508      -12.74066      0.7501987
      5129.0000         1.1746       831.7588         1.0535       -58.2548      -11.34221      0.7799529
      5129.5000         1.1673        839.877         1.0503       -56.8034      -9.888359       0.810886
      5130.0000           1.16        848.002         1.0465       -55.3521      -8.434612      0.8418168
      5130.5000         1.1527        856.126         1.0428       -54.1683       -7.24836      0.8670562
      5131.0000         1.1553        864.251         1.0391       -54.5836      -7.661209      0.8582721
      5131.5000         1.1594       872.3691         1.0288       -56.3478      -9.422958      0.8207881
      5132.0000         1.1636       881.4131         1.0071       -58.3578      -11.43051      0.7780743
      5132.5000         1.1698       907.4619         0.9854       -60.4224      -13.49266      0.7341988
      5133.0000         1.1665       933.5117         0.9637       -62.8483      -15.91611       0.682636
      5133.5000         1.1632       959.5605         0.9442       -65.2767      -18.34206      0.6310201
      5134.0000         1.1593       982.6348         0.9259       -67.1117      -20.17461      0.5920296
      5134.5000         1.1555       1005.059         0.9274        -68.661      -21.72145       0.559118
      5135.0000          1.153       997.7842         0.9317       -70.2092       -23.2672      0.5262299
      5135.5000         1.1607       983.9092         0.9359       -71.2483      -24.30385      0.5041735
      5136.0000         1.1608       969.9102         0.9395       -69.9324       -22.9855      0.5322234
      5136.5000         1.1525       955.9102         0.9415       -68.6163      -21.66695      0.5602776
      5137.0000         1.1418       941.9111         0.9435       -67.3003       -20.3485      0.5883299
      5137.5000         1.1292       927.9111         0.9455       -65.9844      -19.03014      0.6163799
      5138.0000         1.1165       934.0859         0.9324       -64.6683      -17.71159      0.6444343
      5138.5000         1.1028        951.623         0.9132       -63.9742      -17.01505      0.6592544
      5139.0000         1.0816       969.1729         0.8939       -63.8077      -16.84609      0.6628491
      5139.5000         1.0606       993.2842          0.869       -63.6412      -16.67714      0.6664438
      5140.0000         1.0425       1020.684         0.8422       -63.1284      -16.16189      0.6774066
      5140.5000         1.0244       1048.082         0.8155       -63.2801      -16.31114       0.674231
      5141.0000         1.0029       1075.455         0.7888       -63.6024      -16.63099      0.6674258
      5141.5000         0.9798        1102.83         0.7621       -64.2114      -17.23754      0.6545204
      5142.0000         0.9613       1130.203         0.7354       -64.8834      -17.90709      0.6402748
      5142.5000         0.9807       1157.604         0.7107         -68.61      -21.63124      0.5610375
      5143.0000         0.9875       1185.352         0.6989       -71.7611      -24.77988       0.494045
      5143.5000         0.9737       1213.502         0.6871       -78.2203      -31.23663      0.3566675
      5144.0000         0.9486       1241.625         0.6816       -84.8615      -37.87539      0.2154173
      5144.5000         0.9236       1284.273         0.6863       -87.9933      -41.00473      0.1488355
