#------------------------------------------------------------------------------
# Created by    : vladimir.rabinovich
# Created on    : 09/19/2023 17:20:30
#------------------------------------------------------------------------------
~Version Information Section
VERS.           2.0     :   CWLS log ASCII Standard - VERSION 2.0
WRAP.           NO      :   One line per depth step
~Well Information Section
#MNEM       .UNIT                                         VALUE :DESCRIPTION
#------------------------------------------------------------------------------
STRT        .FT                                             617 :START DEPTH
STOP        .FT                                           12396 :STOP DEPTH
STEP        .FT                                             0.5 :STEP      
NULL        .                                           -999.25 :NULL      
COMP        .                                        SUN OIL CO :COMPANY   
WELL        .                               OCS G01781 ST00BP00 :WELL      
FLD         .                                           WILDCAT :FIELD     
LOC         .                                                   :LOCATION  
CNTY        .                             GALVESTON LARGE BLOCK :LOCATION  
STAT        .                                             TEXAS :STATE     
CTRY        .                                     UNITED STATES :COUNTRY   
SRVC        .                                                   :SERVICE COMPANY
DATE        .                             9/13/2023 11:19:24 AM :LOG DATE  
API         .                                    42706001390000 :API NUMBER
UWI         .                                    42706001390000 :UNIQUE WELL ID
XCOORD      .                                  1010631.41746955 :SURFACE X 
YCOORD      .                                  10491097.5822315 :SURFACE Y 
LAT         .                                         28.894296 :LATITUDE  
LON         .                                        -94.968586 :LONGITUDE 
ELEV        .FT                                              65 :ELEVATION VALUE
ELEV_TYPE   .                                                KB :ELEVATION REFERENCE TYPE
~Curve Information Section
#MNEM       .UNIT                                      API CODE :CURVE DESCRIPTION
#------------------------------------------------------------------------------
DEPT        .FT                                                 :DEPTH     
ASN         .OHMM                                               :          
CILD        .MMHO                                               :          
DT          .US/F                                               :          
ILD         .OHMM                                               :          
SP          .MV                                                 :          
SP_NORM     .MV                                                 :SP Normalized
VSH_SP      .V/V                                                :Volume of Shale from SP
~A        DEPTH            ASN           CILD             DT            ILD             SP        SP_NORM         VSH_SP
# ...
      5307.0000         0.7544       3486.512       119.8547         0.2673        -128.79      -52.25868      0.2022431
      5307.5000         0.7394       3523.789       118.6029          0.268      -132.4285      -55.90082      0.1444315
      5308.0000         0.7245       3535.449       117.4484         0.2688      -133.4316      -56.90754      0.1284517
      5308.5000         0.7095       3366.801       116.5437         0.2696       -134.356      -57.83557      0.1137211
      5309.0000          0.712       3295.309       116.2518         0.2806      -134.9761       -58.4593      0.1038206
      5309.5000          0.715       3227.277       115.7885         0.3074      -135.3608      -58.84762     0.09765685
      5310.0000         0.7181       3147.531       115.1168         0.3341      -134.9407      -58.43115      0.1042674
      5310.5000         0.7211       3054.352       114.6136         0.3608      -132.0117      -55.50578      0.1507019
      5311.0000         0.7241       2947.336       115.3245         0.3875      -131.1797      -54.67741      0.1638507
      5311.5000         0.7271        2802.18       117.3606         0.4142       -130.479      -53.98033      0.1749154
      5312.0000          0.733       2680.047       118.0756         0.4401      -129.7778      -53.28276      0.1859879
      5312.5000         0.7596       2535.777       118.5602         0.4615      -129.0767      -52.58529      0.1970589
      5313.0000         0.7861       2405.836       117.9183          0.483      -128.3264      -51.83861       0.208911
      5313.5000         0.8328       2237.164        116.434         0.5045      -127.2389      -50.75474      0.2261153
      5314.0000         0.9108       2013.859       114.8488          0.526      -119.4552      -42.97466      0.3496085
      5314.5000         0.9341       1776.285       113.2813         0.5475       -113.255      -36.77808      0.4479669
      5315.0000         0.9574       1592.096       112.5243          0.569      -103.1362      -26.66292      0.6085251
      5315.5000         0.9569       1531.523       112.2855         0.5802         -98.78      -22.31034      0.6776136
      5316.0000         0.9558       1552.324       112.9977         0.5701       -98.1996      -21.73357      0.6867688
      5316.5000         0.9479       1616.898       114.6719         0.5601       -99.2635      -22.80109      0.6698239
      5317.0000         0.9384       1662.945       116.6891         0.5501      -100.3275      -23.86872      0.6528774
      5317.5000         0.9289       1708.992       119.7645         0.5401      -101.1038      -24.64864      0.6404977
      5318.0000         0.9194        1877.75        121.676         0.5301      -101.0522      -24.60068      0.6412591
      5318.5000         0.9099       2076.539       121.4435         0.5139      -101.0007       -24.5528       0.642019
      5319.0000         0.9004       2131.086       117.5718         0.4963      -100.9537      -24.50942      0.6427076
      5319.5000         0.8909       2197.586       114.7681         0.4787      -100.9415      -24.50085      0.6428436
      5320.0000         0.8846       2250.254       113.2777         0.4611      -100.9293      -24.49228      0.6429797
      5320.5000           0.88       2297.637       114.7977         0.4435      -100.9171       -24.4837      0.6431158
      5321.0000         0.8754       2355.691       116.6866          0.444       -101.291      -24.86124      0.6371232
      5321.5000         0.8708       2398.969       117.2604         0.4472      -102.7494      -26.32326      0.6139166
      5322.0000         0.8662       2390.238       113.7156         0.4504      -108.2948      -31.87228      0.5258368
      5322.5000         0.8664        2372.02       108.7843         0.4536       -111.814      -35.39512      0.4699188
      5323.0000         0.8777        2351.91       101.5702         0.4568      -113.9034      -37.48814      0.4366963
      5323.5000         0.8891       2331.824        97.0115           0.46      -115.2626      -38.85097       0.415064
      5324.0000         0.9003       2311.719        95.8605         0.4627      -116.4393       -40.0313      0.3963286
      5324.5000         0.9073       2277.332       101.7125         0.4652      -117.5244      -41.12002      0.3790473
      5325.0000         0.9124       2234.297       113.5969         0.4676      -116.9825      -40.58174      0.3875914
      5325.5000         0.8932       2177.082       120.1086           0.47      -114.4131      -38.01598      0.4283178
      5326.0000         0.8739       2074.859       121.5455         0.4724      -110.6906       -34.2971      0.4873477
      5326.5000         0.8554       2060.484       120.4646         0.4748      -106.8861      -30.49622       0.547679
      5327.0000         0.8374       2047.602       118.5803         0.4772      -102.8436      -26.45735      0.6117881
      5327.5000         0.8194       2040.832       117.1044         0.4617      -100.7703      -24.38768        0.64464
      5328.0000         0.8014       2038.566       115.9949         0.4446       -98.7738      -22.39481      0.6762729
      5328.5000          0.786       2047.496       115.5975         0.4274       -96.6954      -20.32003      0.7092059
      5329.0000          0.781       2147.836       115.6746         0.4102       -94.9768      -18.60506      0.7364277
      5329.5000         0.7759        2332.32       113.4403         0.3931       -93.7491      -17.38098      0.7558574
      5330.0000         0.7709       2407.418       109.6149         0.3782       -96.4375      -20.07301      0.7131268
      5330.5000         0.7658       2484.195       105.1274         0.3671      -102.4963      -26.13544      0.6168978
      5331.0000         0.7608       2739.137       102.3473         0.3559      -113.4534      -37.09616      0.4429181
      5331.5000         0.7557       3197.234       106.0173         0.3447      -119.8445      -43.49089      0.3414144
      5332.0000         0.7489       3338.094       112.3297         0.3335      -122.3816      -46.03162      0.3010854
      5332.5000         0.7401       3401.188       118.0204         0.3223      -124.5715      -48.22514      0.2662676
      5333.0000         0.7314       3621.148        121.873         0.3111      -126.6672      -50.32447      0.2329449
      5333.5000         0.7227       3397.234       121.8794          0.311      -128.6958       -52.3567      0.2006873
      5334.0000         0.7139       3166.703       123.0038         0.3159      -129.8367      -53.50122      0.1825203
      5334.5000         0.7052       3038.344       123.6057         0.3208      -127.7758      -51.44395      0.2151753
      5335.0000         0.6998       2854.551       122.8104         0.3258       -125.137      -48.80878      0.2570035
      5335.5000         0.6978       2725.992       121.7816         0.3307      -119.4552       -43.1306      0.3471333
      5336.0000         0.7114       2684.367       120.5405         0.3357      -114.7455      -38.42453      0.4218329
      5336.5000         0.7389         2704.5       119.3231         0.3411      -111.4309      -35.11356       0.474388
      5337.0000         0.7557       2726.859       120.0327         0.3483       -109.928      -33.61428       0.498186
      5337.5000         0.7598       2750.895       120.9784         0.3555      -111.7917      -35.48161      0.4685458
      5338.0000         0.7625        2774.93       121.3574         0.3627      -113.9493      -37.64284      0.4342407
      5338.5000         0.7546       2791.656       121.0413         0.3699      -116.5311      -40.22826      0.3932023
      5339.0000         0.7466       2795.953       119.5355         0.3771      -119.3683      -43.06909      0.3481097
      5339.5000         0.7387       2770.211       117.6667         0.3851      -121.2979      -45.00231      0.3174236
      5340.0000         0.7307       2624.313       115.7837         0.3984      -123.1455      -46.85354      0.2880391
