#------------------------------------------------------------------------------
# Created by    : vladimir.rabinovich
# Created on    : 09/19/2023 17:22:30
#------------------------------------------------------------------------------
~Version Information Section
VERS.           2.0     :   CWLS log ASCII Standard - VERSION 2.0
WRAP.           NO      :   One line per depth step
~Well Information Section
#MNEM       .UNIT                                         VALUE :DESCRIPTION
#------------------------------------------------------------------------------
STRT        .FT                                            1687 :START DEPTH
STOP        .FT                                            6155 :STOP DEPTH
STEP        .FT                                             0.5 :STEP      
NULL        .                                           -999.25 :NULL      
COMP        .                       AMERICAN COASTAL ENERGY INC :COMPANY   
WELL        .                                ST TR 00596-L NE/4 :WELL      
FLD         .                        SHERMAN OFFSHORE SOUTHWEST :FIELD     
LOC         .                                                   :LOCATION  
CNTY        .                      MATAGORDA ISLAND LARGE BLOCK :LOCATION  
STAT        .                                             TEXAS :STATE     
CTRY        .                                     UNITED STATES :COUNTRY   
SRVC        .                                                   :SERVICE COMPANY
DATE        .                             9/13/2023 11:12:01 AM :LOG DATE  
API         .                                    42703302820000 :API NUMBER
UWI         .                                    42703302820000 :UNIQUE WELL ID
XCOORD      .                                  484247.709270029 :SURFACE X 
YCOORD      .                                   10242127.767654 :SURFACE Y 
LAT         .                                        28.1765839 :LATITUDE  
LON         .                                       -96.5886238 :LONGITUDE 
ELEV        .FT                                              79 :ELEVATION VALUE
ELEV_TYPE   .                                                KB :ELEVATION REFERENCE TYPE
~Curve Information Section
#MNEM       .UNIT                                      API CODE :CURVE DESCRIPTION
#------------------------------------------------------------------------------
DEPT        .FT                                                 :DEPTH     
CILD        .MMHO                                               :          
DT          .US/F                                               :          
ILD         .OHMM                                               :          
SN          .OHMM                                               :          
SP          .MV                                                 :          
SP_NORM     .MV                                                 :SP Normalized
VSH_SP      .V/V                                                :Volume of Shale from SP
~A        DEPTH           CILD             DT            ILD             SN             SP        SP_NORM         VSH_SP
# ...
      4032.0000       1084.912        122.856         0.9494         1.4346       -24.8548        -9.0122       0.903029
      4032.5000       1220.292       133.1156         0.8742          1.291        -25.154         -9.322      0.8980322
      4033.0000       1355.669       141.2785         0.7688         1.2331       -25.5527        -9.7313      0.8914306
      4033.5000        1459.19        144.862         0.7243         1.1887       -25.8518        -10.041      0.8864354
      4034.0000       1518.925       144.2644         0.6855         1.1565       -25.7526        -9.9524      0.8878645
      4034.5000       1475.092       143.0694         0.6919         1.1251       -24.9561        -9.1665      0.9005403
      4035.0000       1411.365        140.879          0.731         1.1047       -24.1595        -8.3806      0.9132161
      4035.5000       1307.818       137.8921         0.7724         1.1149       -23.3631        -7.5948      0.9258903
      4036.0000       1204.271       135.3034         0.8237         1.1407       -22.6662        -6.9085      0.9369597
      4036.5000       1164.437       133.7102         0.8823         1.1726       -21.8698        -6.1227      0.9496339
      4037.0000       1108.674       131.8188         0.9409         1.1834       -21.5713        -5.8348      0.9542774
      4037.5000        1068.84        125.248         0.9896         1.1998         -21.97        -6.2441      0.9476758
      4038.0000       1013.078       120.5684         1.0172         1.2277       -22.3688        -6.6535      0.9410726
      4038.5000       965.2797       113.9979         1.0947         1.2504       -23.2655        -7.5608      0.9264387
      4039.0000       901.5532        111.608         1.1727         1.2736       -24.2619        -8.5679      0.9101952
      4039.5000       841.8237       108.8202         1.2277         1.3152       -25.1586        -9.4752      0.8955613
      4040.0000       814.0034       106.8289         1.2972         1.3644       -25.2586        -9.5858      0.8937774
      4040.5000       809.9433       105.2359         1.3092         1.3581       -25.0597        -9.3975      0.8968145
      4041.0000       845.7674       105.5344         1.2505         1.3335       -24.8608        -9.2092      0.8998516
      4041.5000       925.3794       107.1269          1.189         1.2914       -24.7616        -9.1206      0.9012806
      4042.0000       973.1511       112.9006         1.1049         1.2506       -24.6623        -9.0319      0.9027113
      4042.5000       1020.923       120.7645         1.0505         1.2055       -24.8618         -9.242      0.8993226
      4043.0000       1068.695       132.7104         0.9807         1.1675        -25.161        -9.5518      0.8943258
      4043.5000       1116.466        135.498         0.9239         1.1306       -26.0577       -10.4592      0.8796903
      4044.0000       1164.238       134.5017         0.8866         1.1151       -26.9544       -11.3665      0.8650565
      4044.5000       1196.081       132.3112         0.8625         1.1152       -27.9508       -12.3735      0.8488145
      4045.0000       1196.068       128.5279         0.8745         1.1203       -28.9471       -13.3804      0.8325742
      4045.5000        1148.27       126.5365         0.8948         1.1516       -29.5451        -13.989      0.8227581
      4046.0000       1100.472       122.9523         0.9498         1.1946       -29.5454       -13.9999      0.8225822
      4046.5000       1020.817       120.1645         1.0221         1.2336       -29.3465       -13.8116      0.8256193
      4047.0000       965.0545       118.1731         1.1051         1.2681       -29.6457       -14.1214      0.8206226
      4047.5000       925.2205       114.9872         1.1569         1.3035       -30.4428       -14.9292      0.8075935
      4048.0000       885.3864       110.8056         1.2113         1.3399       -31.3396       -15.8366      0.7929581
      4048.5000       829.6241       105.2304         1.2681         1.3773       -31.5391       -16.0467      0.7895694
      4049.0000       797.7542       103.6374         1.3338         1.4158       -31.2406       -15.7588      0.7942129
      4049.5000       765.8982       102.2435         1.3886         1.4553       -30.4445       -14.9733      0.8068823
      4050.0000        813.656       104.0348          1.329         1.3648       -28.8512       -13.3906      0.8324097
      4050.5000       893.2844       107.8174         1.1937         1.2281       -26.8595       -11.4095      0.8643629
      4051.0000       956.9844       110.2064         1.1092         1.1731       -24.6682        -9.2288      0.8995355
      4051.5000       1020.684       117.4996         1.0451         1.1678       -23.3738         -7.945       0.920242
      4052.0000        1076.42       126.9308         0.9631         1.1518       -22.2785        -6.8604      0.9377355
      4052.5000       1171.977       131.9081         0.8868         1.1154       -20.8844        -5.4769        0.96005
      4053.0000       1219.749       132.2064         0.8471         1.0852       -19.9883        -4.5914      0.9743323
      4053.5000       1283.449       132.7039         0.8166         1.0557       -19.5902        -4.2039      0.9805822
      4054.0000       1307.328       133.2013         0.7981         1.0271       -19.5906        -4.2149      0.9804049
      4054.5000       1323.243       134.0965         0.7902         1.0131       -19.4913        -4.1262      0.9818355
      4055.0000       1315.266       135.2908         0.7886         1.0038        -19.392        -4.0375      0.9832661
      4055.5000       1315.252       136.0869          0.787         0.9992       -18.9939          -3.65      0.9895161
      4056.0000       1323.203        136.883          0.783         0.9947       -18.3967        -3.0635      0.9989758
      4056.5000       1331.154       137.8782         0.7759         0.9902       -17.6002        -2.2776              1
      4057.0000       1331.141        138.376         0.7759         0.9902       -17.3017        -1.9897              1
      4057.5000       1323.164       138.8734         0.7831         0.9902       -17.0032        -1.7018              1
      4058.0000       1307.222       139.2709         0.7976         0.9902       -16.6052        -1.3144              1
      4058.5000       1283.316       139.6688         0.8086         0.9993       -16.1075        -0.8273              1
      4059.0000       1267.375       139.6684         0.8318         1.0039       -15.9086         -0.639              1
      4059.5000         1235.5       139.6681         0.8472         1.0086       -16.0085        -0.7495              1
      4060.0000       1219.563       139.0705         0.8551         1.0132       -15.7101        -0.4617              1
      4060.5000       1211.583       138.0746         0.8669         1.0226       -16.0092        -0.7715              1
      4061.0000         1203.6       137.6763         0.8749         1.0273       -16.0095        -0.7824              1
      4061.5000       1195.628        136.282         0.8871         1.0368       -16.4083        -1.1918              1
      4062.0000       1187.651       136.0826         0.8912         1.0368       -16.6078        -1.4019              1
      4062.5000       1179.674       136.2813         0.8986         1.0416       -16.8073         -1.612              1
      4063.0000        1179.66       136.6792         0.8987         1.0416       -17.2061        -2.0214              1
      4063.5000       1171.683       136.6789         0.8987         1.0464       -17.7044        -2.5303              1
      4064.0000        1171.67       136.0812         0.8987         1.0464        -17.904        -2.7405              1
      4064.5000       1171.656       135.4836         0.9028         1.0464       -18.1035        -2.9507              1
      4065.0000       1171.643       135.0853         0.8987         1.0465       -18.5022          -3.36      0.9941936
