#------------------------------------------------------------------------------
# Created by    : vladimir.rabinovich
# Created on    : 09/19/2023 17:22:41
#------------------------------------------------------------------------------
~Version Information Section
VERS.           2.0     :   CWLS log ASCII Standard - VERSION 2.0
WRAP.           NO      :   One line per depth step
~Well Information Section
#MNEM       .UNIT                                         VALUE :DESCRIPTION
#------------------------------------------------------------------------------
STRT        .FT                                            2948 :START DEPTH
STOP        .FT                                            8770 :STOP DEPTH
STEP        .FT                                             0.5 :STEP      
NULL        .                                           -999.25 :NULL      
COMP        .                 BROOKLYN UNION EXPLORATION CO INC :COMPANY   
WELL        .                               OCS G07238 ST00BP00 :WELL      
FLD         .                                           WILDCAT :FIELD     
LOC         .                                                   :LOCATION  
CNTY        .                             GALVESTON LARGE BLOCK :LOCATION  
STAT        .                                             TEXAS :STATE     
CTRY        .                                     UNITED STATES :COUNTRY   
SRVC        .                                                   :SERVICE COMPANY
DATE        .                             9/13/2023 11:19:34 AM :LOG DATE  
API         .                                    42706402470000 :API NUMBER
UWI         .                                    42706402470000 :UNIQUE WELL ID
XCOORD      .                                  1057740.92261072 :SURFACE X 
YCOORD      .                                   10547901.298013 :SURFACE Y 
LAT         .                                         29.052568 :LATITUDE  
LON         .                                        -94.824133 :LONGITUDE 
ELEV        .FT                                              85 :ELEVATION VALUE
ELEV_TYPE   .                                                KB :ELEVATION REFERENCE TYPE
~Curve Information Section
#MNEM       .UNIT                                      API CODE :CURVE DESCRIPTION
#------------------------------------------------------------------------------
DEPT        .FT                                                 :DEPTH     
DCAL        .IN                                                 :          
DT          .US/F                                               :          
GR          .GAPI                                               :          
GR_NORM     .GAPI                                               :GammaRay Normalized
ILD         .OHMM                                               :          
ILM         .OHMM                                               :          
SFL         .OHMM                                               :          
SP          .MV                                                 :          
SP_NORM     .MV                                                 :SP Normalized
VSH_GR      .V/V                                                :Volume of Shale from GR
VSH_SP      .V/V                                                :Volume of Shale from SP
~A        DEPTH           DCAL             DT             GR        GR_NORM            ILD            ILM            SFL             SP        SP_NORM         VSH_GR         VSH_SP
# ...
      5693.0000         2.9636       117.4135        67.7386       73.72076          0.744         0.7333         0.7199       -46.5703       1.099773      0.8663992              1
      5693.5000         2.8684       116.9965        68.7755       74.96711         0.7414         0.7312         0.7212       -46.7629      0.9058151      0.8929172              1
      5694.0000         2.7746       115.2063        69.4066       75.72421         0.7426         0.7315         0.7243       -46.9992      0.6681557      0.9090258              1
      5694.5000         2.6824       113.3063        70.0272       76.46867         0.7439         0.7329         0.7351       -47.2751       0.390892      0.9248652              1
      5695.0000         2.6011       112.6803        71.2665       77.95902         0.7433         0.7342         0.7499       -47.5526      0.1120338       0.956575              1
      5695.5000         2.5272       113.1803        71.6053       78.36372         0.7424         0.7345         0.7507       -47.7029    -0.03962708      0.9651855      0.9993904
      5696.0000         2.4661       113.9363        69.3007       75.58146         0.7405         0.7344          0.739       -47.6869    -0.02499008      0.9059885      0.9996156
      5696.5000         2.4384       114.4521        64.3533       69.61295          0.738          0.734         0.7297       -47.5382      0.1223526       0.778999              1
      5697.0000         2.4219       114.6249        62.9517       67.91936         0.7348         0.7291         0.7222       -47.7518    -0.09260941      0.7429652      0.9985752
      5697.5000         2.4293       114.1459        63.7463       68.87359         0.7307         0.7241         0.7164       -48.2153     -0.5574722      0.7632678      0.9914235
      5698.0000         2.4401       113.5502         65.556       71.05164         0.7139         0.7176         0.7116        -48.787      -1.130527      0.8096093      0.9826072
      5698.5000         2.4813       113.0118         66.705       72.43314         0.6876         0.7085         0.7045       -49.4324       -1.77729       0.839003      0.9726571
      5699.0000         2.5224       112.6432        65.6749       71.18745          0.653         0.6896          0.693       -50.3106      -2.656853      0.8124989      0.9591253
      5699.5000         2.5987       112.7617        64.2183       69.42755         0.6133         0.6534         0.6754         -51.34      -3.687611      0.7750543      0.9432675
      5700.0000         2.6831       114.0935        62.6191       67.49574         0.5714         0.6144         0.6525       -52.7756      -5.124573       0.733952      0.9211604
      5700.5000         2.7663       115.6678         62.956       67.89815         0.5355          0.579         0.6332       -54.8666      -7.216934      0.7425138      0.8889703
      5701.0000         2.8203       117.1481        64.9205       70.26284         0.5098         0.5539         0.6193       -58.0352      -10.38689      0.7928264      0.8402017
      5701.5000         2.7893       117.8395        67.1428       72.93835          0.491         0.5435         0.6164       -61.5383      -13.89135      0.8497522      0.7862869
      5702.0000          2.672       117.0851          68.97       75.13751         0.4845         0.5391         0.6273       -65.3708      -17.72521      0.8965428      0.7273045
      5702.5000         2.5013       113.2577        67.9802       73.94041          0.484         0.5422          0.682       -68.0935      -20.44927      0.8710725      0.6853958
      5703.0000         2.3542       109.7521        65.7158       71.20659         0.4856         0.5466         0.7602       -69.7546      -22.11174      0.8129061      0.6598194
      5703.5000         2.3274       108.2784        63.1171       68.06975           0.49         0.5493         0.7946       -71.0676      -23.42609      0.7461649      0.6395986
      5704.0000          2.548       109.4153        61.6616       66.31118         0.4953         0.5491         0.7832       -71.8252      -24.18506      0.7087485      0.6279222
      5704.5000         2.7044       111.1168        60.8247       65.29842         0.5001         0.5487         0.7254       -71.6666      -24.02782      0.6872005      0.6303412
      5705.0000         2.7191       112.4167        60.8279       65.29852         0.5048         0.5473         0.6731       -71.1228      -23.48538      0.6872025      0.6386865
      5705.5000         2.5892       113.4766        61.8102       66.47903         0.5091         0.5449         0.6179       -70.6904      -23.05434      0.7123199      0.6453179
      5706.0000         2.4142       114.3019        62.1998       66.94498         0.5059         0.5421         0.5732        -70.182       -22.5473      0.7222337      0.6531185
      5706.5000         2.3336       114.8776        61.6293       66.25338         0.4923         0.5366         0.5441       -69.3831      -21.74976      0.7075187      0.6653883
      5707.0000          2.355       115.3846        61.1271       65.64415         0.4658         0.5296         0.5352       -68.1741      -20.54212      0.6945564      0.6839674
      5707.5000         2.3326       116.6147        61.6318       66.24886         0.4353         0.5177         0.5265       -66.9291      -19.29848      0.7074226      0.7031003
      5708.0000         2.3052       119.3805        62.1905       66.91869         0.4047         0.4854         0.5136       -66.3439      -18.71464      0.7216741      0.7120824
      5708.5000         2.2925       123.2678        62.0431       66.73721         0.3756         0.4514         0.5037       -66.8722       -19.2443      0.7178129      0.7039338
      5709.0000         2.3278       125.2739        60.3696       64.71581         0.3485         0.4171         0.5037       -69.0424      -21.41586      0.6748044      0.6705253
      5709.5000         2.4021       125.1217        57.4116       61.14578         0.3237         0.3825         0.5246       -75.1938      -27.56862      0.5988464      0.5758674
      5710.0000         2.5271       123.1531        53.8564       56.85574         0.2988         0.3572         0.5463       -82.4478      -34.82398      0.5075688      0.4642464
      5710.5000         2.6564       120.7054         52.671       55.42282         0.2772         0.3419         0.5623         -86.86      -39.23755      0.4770813      0.3963455
      5711.0000         2.6768       118.6907        54.5229       57.65175         0.2651         0.3429         0.5869       -88.6364       -41.0153      0.5245054      0.3689954
      5711.5000         2.6617       117.4606         56.921       60.53922          0.264         0.3483         0.6224       -88.2789      -40.65916      0.5859407      0.3744744
      5712.0000         3.0433       117.0531        59.0937       63.15491         0.2713         0.3577         0.6593       -87.3171      -39.69873      0.6415939      0.3892504
      5712.5000         3.7878       117.7139        61.8239       66.44276         0.2892          0.373         0.6414       -86.3323      -38.71528      0.7115481      0.4043803
      5713.0000         3.4324       119.4904         66.199       71.71375         0.3212         0.3948         0.5578       -85.2039      -37.58825      0.8236967      0.4217193
      5713.5000         2.9654       121.3354        70.9606       77.45073         0.3597         0.4231         0.4814       -81.5162      -33.90191      0.9457602      0.4784322
      5714.0000          2.663        122.921        72.9568       79.85365         0.4019         0.4575         0.4569       -73.9055      -26.29257      0.9968861       0.595499
      5714.5000         2.6229        124.241        73.3633       80.33996         0.4508         0.4874         0.4764       -64.6697      -17.05813              1      0.7375672
      5715.0000         2.6404       125.0605        74.2307       81.38195         0.4862         0.5118         0.5077       -60.0618      -12.45159              1      0.8084371
