#------------------------------------------------------------------------------
# Created by    : vladimir.rabinovich
# Created on    : 09/19/2023 17:20:25
#------------------------------------------------------------------------------
~Version Information Section
VERS.           2.0     :   CWLS log ASCII Standard - VERSION 2.0
WRAP.           NO      :   One line per depth step
~Well Information Section
#MNEM       .UNIT                                         VALUE :DESCRIPTION
#------------------------------------------------------------------------------
STRT        .FT                                             396 :START DEPTH
STOP        .FT                                           11006 :STOP DEPTH
STEP        .FT                                             0.5 :STEP      
NULL        .                                           -999.25 :NULL      
COMP        .                                 CALIFORNIA CO THE :COMPANY   
WELL        .                                OCS 00507 ST00BP00 :WELL      
FLD         .                            HIGH ISLAND BLOCK 0052 :FIELD     
LOC         .                                                   :LOCATION  
CNTY        .                           HIGH ISLAND LARGE BLOCK :LOCATION  
STAT        .                                             TEXAS :STATE     
CTRY        .                                     UNITED STATES :COUNTRY   
SRVC        .                                                   :SERVICE COMPANY
DATE        .                             9/13/2023 11:19:15 AM :LOG DATE  
API         .                                    42708000170000 :API NUMBER
UWI         .                                    42708000170000 :UNIQUE WELL ID
XCOORD      .                                  1293108.02889945 :SURFACE X 
YCOORD      .                                   10685731.628563 :SURFACE Y 
LAT         .                                         29.439677 :LATITUDE  
LON         .                                        -94.091453 :LONGITUDE 
ELEV        .FT                                              70 :ELEVATION VALUE
ELEV_TYPE   .                                                KB :ELEVATION REFERENCE TYPE
~Curve Information Section
#MNEM       .UNIT                                      API CODE :CURVE DESCRIPTION
#------------------------------------------------------------------------------
DEPT        .FT                                                 :DEPTH     
ASN         .OHMM                                               :          
CILD        .MMHO                                               :          
ILM         .OHMM                                               :          
SP          .MV                                                 :          
SP_NORM     .MV                                                 :SP Normalized
VSH_SP      .V/V                                                :Volume of Shale from SP
~A        DEPTH            ASN           CILD            ILM             SP        SP_NORM         VSH_SP
# ...
      8148.0000         0.4226       1785.787         0.3776        -73.276       -39.3137       0.407719
      8148.5000         0.4378       1794.541         0.3856       -74.3345       -40.3722      0.3909175
      8149.0000         0.4676        1795.35         0.3937       -76.0078       -42.0455      0.3643571
      8149.5000         0.4974        1795.42         0.4176       -77.6812       -43.7189      0.3377953
      8150.0000          0.526        1795.49         0.4419       -56.5521       -22.5898      0.6731778
      8150.5000         0.5524       1795.561         0.4662       -49.1096       -15.1473      0.7913127
      8151.0000         0.5787       1795.631         0.4905       -44.5324       -10.5701      0.8639666
      8151.5000         0.5988       1795.701         0.5148       -43.2583         -9.296      0.8841905
      8152.0000         0.6028       1795.771         0.5391       -44.8317       -10.8694      0.8592159
      8152.5000         0.6067        1795.84         0.5634       -46.4051       -12.4428      0.8342413
      8153.0000         0.6105        1795.91         0.5674       -47.9785       -14.0162      0.8092667
      8153.5000         0.6132        1795.98         0.5686       -49.5079       -15.5456      0.7849905
      8154.0000         0.6159       1796.051         0.5698       -50.9075       -16.9452      0.7627746
      8154.5000         0.6185       1796.121         0.5709       -52.3049       -18.3426      0.7405937
      8155.0000         0.6212       1796.191         0.5721       -52.3973        -18.435       0.739127
      8155.5000         0.6297        1796.26         0.5733       -51.6733        -17.711      0.7506191
      8156.0000         0.6424       1797.047         0.5745       -50.9493        -16.987      0.7621111
      8156.5000          0.655       1798.311         0.5757        -50.068       -16.1057         0.7761
      8157.0000         0.6615       1799.576          0.575       -49.1306       -15.1683      0.7909794
      8157.5000          0.664        1800.84         0.5671       -48.3438       -14.3815      0.8034682
      8158.0000         0.6665       1802.104         0.5592       -50.0757       -16.1134      0.7759778
      8158.5000         0.6562       1801.508         0.5513       -51.8076       -17.8453      0.7484873
      8159.0000         0.6447       1800.723         0.5433       -53.5372       -19.5749      0.7210333
      8159.5000         0.6332       1799.938         0.5354       -55.1898       -21.2275      0.6948016
      8160.0000         0.6217       1799.152         0.5275       -56.5519       -22.5896      0.6731809
      8160.5000         0.6101       1798.367         0.5195       -57.9119       -23.9496      0.6515936
      8161.0000         0.5986       1792.627         0.5116       -59.2741       -25.3118      0.6299714
      8161.5000         0.5871       1786.838         0.5037        -59.723       -25.7607       0.622846
      8162.0000         0.5904       1781.049         0.4958       -58.5369       -24.5746       0.641673
      8162.5000         0.6009       1775.262         0.4959       -56.1382       -22.1759      0.6797476
      8163.0000         0.6113       1768.805         0.4967       -53.2379       -19.2756      0.7257841
      8163.5000         0.6218       1761.551         0.4975       -50.3375       -16.3752      0.7718222
      8164.0000         0.6324       1754.295         0.4984       -47.4372       -13.4749      0.8178588
      8164.5000         0.6477       1747.576         0.4992        -45.767       -11.8047      0.8443698
      8165.0000         0.6631       1740.879            0.5       -44.5324       -10.5701      0.8639666
      8165.5000         0.6784       1742.586         0.5008       -43.2979        -9.3356      0.8835619
      8166.0000         0.6937       1753.387         0.5016       -42.2972        -8.3349       0.899446
      8166.5000         0.7062       1764.188         0.5024       -42.0895        -8.1272      0.9027429
      8167.0000         0.7164         1778.5         0.5032       -41.8815        -7.9192      0.9060444
      8167.5000         0.7009       1793.359         0.5041       -41.6739        -7.7116      0.9093397
      8168.0000         0.6853       1808.221         0.5075       -41.1798        -7.2175      0.9171826
      8168.5000         0.6701       1823.365         0.5129       -40.1115        -6.1492      0.9341397
      8169.0000          0.661       1841.617         0.5183        -39.042        -5.0797      0.9511158
      8169.5000          0.652       1833.936         0.5238       -37.9736        -4.0113      0.9680746
      8170.0000         0.6429       1814.807         0.5292        -37.298        -3.3357      0.9787984
      8170.5000         0.6457       1799.531         0.5346       -37.1822        -3.2199      0.9806365
      8171.0000         0.6558       1787.102           0.54       -37.2903         -3.328      0.9789206
      8171.5000         0.6659       1774.648         0.5455       -38.5667        -4.6044      0.9586603
      8172.0000         0.6728       1768.771         0.5509        -39.843        -5.8807      0.9384016
      8172.5000         0.6759       1771.135         0.5563       -41.1193         -7.157      0.9181429
      8173.0000          0.679       1773.496         0.5618       -42.3956        -8.4333      0.8978841
      8173.5000         0.6821        1777.58         0.5672       -43.7732        -9.8109      0.8760175
      8174.0000         0.6764       1784.377         0.5696       -45.2586       -11.2963      0.8524397
      8174.5000         0.6698        1791.16         0.5698       -44.6204       -10.6581      0.8625699
      8175.0000         0.6632       1797.955           0.57       -43.6665        -9.7042      0.8777111
      8175.5000         0.6566        1804.74         0.5702       -42.7125        -8.7502       0.892854
      8176.0000         0.6498       1811.535         0.5703       -41.7586        -7.7963      0.9079952
      8176.5000          0.643        1818.32         0.5705       -40.9395        -6.9772      0.9209968
      8177.0000         0.6363       1821.467         0.5707       -40.3827        -6.4204      0.9298349
      8177.5000         0.6295       1823.184         0.5709       -39.8259        -5.8636       0.938673
      8178.0000         0.6227       1824.902          0.571       -39.2692        -5.3069      0.9475095
      8178.5000         0.6186       1826.619         0.5712       -38.7125        -4.7502       0.956346
      8179.0000          0.619        1828.34         0.5714       -38.3807        -4.4184      0.9616127
      8179.5000         0.6195       1821.635         0.5716       -38.1934        -4.2311      0.9645857
      8180.0000         0.6199       1809.773         0.5725       -38.0063         -4.044      0.9675556
      8180.5000         0.6203       1797.912         0.5736       -37.8193         -3.857      0.9705238
      8181.0000         0.6208       1786.051         0.5747       -37.6515        -3.6892      0.9731873
      8181.5000         0.6212       1777.154         0.5758       -37.5276        -3.5653       0.975154
      8182.0000         0.6217       1768.729         0.5769       -37.4036        -3.4413      0.9771222
      8182.5000         0.6225       1760.303          0.578       -37.2798        -3.3175      0.9790873
      8183.0000         0.6244       1751.877         0.5791       -37.1559        -3.1936      0.9810539
      8183.5000         0.6263       1743.439         0.5802        -37.032        -3.0697      0.9830207
      8184.0000         0.6281       1735.408         0.5813       -36.9083         -2.946      0.9849841
      8184.5000           0.63       1728.471         0.5824       -36.7881        -2.8258       0.986892
      8185.0000         0.6319       1721.533         0.5835       -36.6685        -2.7062      0.9887905
      8185.5000         0.6338       1714.596         0.5846       -36.5487        -2.5864      0.9906921
