#------------------------------------------------------------------------------
# Created by    : vladimir.rabinovich
# Created on    : 09/19/2023 17:20:36
#------------------------------------------------------------------------------
~Version Information Section
VERS.           2.0     :   CWLS log ASCII Standard - VERSION 2.0
WRAP.           NO      :   One line per depth step
~Well Information Section
#MNEM       .UNIT                                         VALUE :DESCRIPTION
#------------------------------------------------------------------------------
STRT        .FT                                             498 :START DEPTH
STOP        .FT                                            9565 :STOP DEPTH
STEP        .FT                                             0.5 :STEP      
NULL        .                                           -999.25 :NULL      
COMP        .                       BLUE DOLPHIN EXPLORATION CO :COMPANY   
WELL        .                                OCS 00714 ST00BP00 :WELL      
FLD         .                              GALVESTON BLOCK 0288 :FIELD     
LOC         .                                                   :LOCATION  
CNTY        .                             GALVESTON LARGE BLOCK :LOCATION  
STAT        .                                             TEXAS :STATE     
CTRY        .                                     UNITED STATES :COUNTRY   
SRVC        .                                                   :SERVICE COMPANY
DATE        .                             9/13/2023 11:19:25 AM :LOG DATE  
API         .                                    42706000390000 :API NUMBER
UWI         .                                    42706000390000 :UNIQUE WELL ID
XCOORD      .                                  1097340.72850425 :SURFACE X 
YCOORD      .                                  10481267.2561277 :SURFACE Y 
LAT         .                                        28.8709496 :LATITUDE  
LON         .                                       -94.6972159 :LONGITUDE 
ELEV        .FT                                              85 :ELEVATION VALUE
ELEV_TYPE   .                                                KB :ELEVATION REFERENCE TYPE
~Curve Information Section
#MNEM       .UNIT                                      API CODE :CURVE DESCRIPTION
#------------------------------------------------------------------------------
DEPT        .FT                                                 :DEPTH     
ASN         .OHMM                                               :          
CALI        .IN                                                 :          
DT          .US/F                                               :          
ILD         .OHMM                                               :          
SP          .MV                                                 :          
SP_1        .MV                                                 :          
SP_NORM     .MV                                                 :SP Normalized
VSH_SP      .V/V                                                :Volume of Shale from SP
~A        DEPTH            ASN           CALI             DT            ILD             SP           SP_1        SP_NORM         VSH_SP
# ...
      3507.0000         0.8789         10.558       148.7798         0.8929       -65.9551        -999.25      -2.540466      0.9836223
      3507.5000          0.877        10.5633        144.061         0.8894       -65.9553        -999.25      -2.540665      0.9836162
      3508.0000         0.8732        10.5706       142.9165         0.8859       -65.9075        -999.25      -2.492867      0.9850646
      3508.5000         0.8688        10.5829       143.8179         0.8823       -65.0684        -999.25      -1.653763              1
      3509.0000         0.8645        10.6127       147.6433         0.8788       -64.3336        -999.25     -0.9189682              1
      3509.5000         0.8602        10.6352       148.8801         0.8753       -63.8904        -999.25     -0.4757652              1
      3510.0000         0.8558        10.6531       147.8188         0.8717       -63.6805        -999.25     -0.2658653              1
      3510.5000         0.8515        10.6771       147.5793         0.8682         -63.67        -999.25     -0.2553635              1
      3511.0000         0.8472        10.6947       147.9126         0.8648       -64.2823        -999.25     -0.8676682              1
      3511.5000          0.843        10.6958        148.394         0.8614        -64.861        -999.25      -1.446365              1
      3512.0000         0.8408        10.6721       148.9885          0.858       -65.1674        -999.25      -1.752762              1
      3512.5000         0.8436        10.6399       148.8716         0.8546       -64.7979        -999.25      -1.383263              1
      3513.0000         0.8476        10.6097       147.2495         0.8511       -64.6278        -999.25      -1.213165              1
      3513.5000          0.853        10.6106       146.4795         0.8477       -64.6851        -999.25      -1.270462              1
      3514.0000         0.8502        10.6444       145.3909         0.8494       -64.8549        -999.25      -1.440262              1
      3514.5000         0.8465        10.6722       144.7769         0.8571         -64.95        -999.25      -1.535362              1
      3515.0000         0.8426        10.6916       144.4189         0.8648       -64.9122        -999.25      -1.497566              1
      3515.5000         0.8387        10.7009       145.2783         0.8725       -64.3306        -999.25     -0.9159622              1
      3516.0000         0.8631        10.6962       148.7686         0.8802       -64.1381        -999.25      -0.723465              1
      3516.5000         0.9121        10.6685       150.7427         0.9022       -64.4587        -999.25      -1.044067              1
      3517.0000         0.9348        10.6754       150.5698         0.9263       -64.6404        -999.25      -1.225769              1
      3517.5000         0.9566        10.6998       149.2815         0.9504       -64.4575        -999.25      -1.042862              1
      3518.0000         0.9716        10.7059       150.2092         0.9715        -64.354        -999.25     -0.9393616              1
      3518.5000         0.9868        10.6847       150.8264         0.9893       -64.4742        -999.25      -1.059563              1
      3519.0000         0.9974        10.6711       150.0544         1.0071       -65.1182        -999.25      -1.703568              1
      3519.5000         1.0037        10.6566        150.041         1.0249       -65.4642        -999.25      -2.049568       0.998498
      3520.0000          1.008        10.6412       150.9094         1.0224       -65.6041        -999.25      -2.189468      0.9942585
      3520.5000         1.0052         10.634       150.4883         1.0174       -65.1653        -999.25      -1.750664              1
      3521.0000         0.9994        10.6289         149.96         1.0124       -64.5479        -999.25      -1.133263              1
      3521.5000          0.994        10.6239       149.9526         1.0074       -63.9645        -999.25     -0.5498657              1
      3522.0000         0.9917        10.6234       150.3796         1.0024       -63.4367        -999.25    -0.02206421              1
      3522.5000         0.9894        10.6371       152.2969         0.9968       -63.4367        -999.25    -0.02206421              1
      3523.0000         0.9865        10.6579       152.1091         0.9867       -63.1921        -999.25      0.2225342              1
      3523.5000         0.9826        10.6851       148.5232         0.9767       -63.9851        -999.25     -0.5704651              1
      3524.0000         0.9788        10.7063       143.5681         0.9666       -65.1007        -999.25      -1.686066              1
      3524.5000         0.9661        10.7103       141.3418         0.9565       -65.5391        -999.25      -2.124466      0.9962283
      3525.0000         0.9553         10.704       141.5083         0.9465        -65.729        -999.25      -2.314362      0.9904739
      3525.5000         0.9452        10.6846       141.6226         0.9364       -65.7522        -999.25      -2.337563      0.9897708
      3526.0000         0.9395        10.6613       138.6941         0.9273       -65.2917        -999.25      -1.877068              1
      3526.5000         0.9321        10.6376       134.5288         0.9198       -64.7992        -999.25      -1.384567              1
      3527.0000         0.9161        10.6248       132.8254         0.9124       -64.3066        -999.25     -0.8919678              1
      3527.5000         0.8887        10.6213       133.7976         0.9049       -63.8141        -999.25     -0.3994637              1
      3528.0000         0.8765        10.6497       139.7383         0.8974       -63.3214        -999.25     0.09323502              1
      3528.5000         0.8665        10.6731       141.0369         0.8899       -62.5818        -999.25      0.8328362              1
      3529.0000         0.8566        10.6694        137.759         0.8824       -62.8568        -999.25      0.5578346              1
      3529.5000          0.847        10.6427       138.8606          0.875       -63.8627        -999.25     -0.4480667              1
      3530.0000         0.8388        10.6124       141.9424         0.8682       -64.7595        -999.25      -1.344864              1
      3530.5000         0.8312        10.6029       142.5933         0.8641       -65.4724        -999.25      -2.057762      0.9982497
      3531.0000         0.8267        10.6019       141.6306           0.86       -65.8732        -999.25      -2.458565      0.9861041
      3531.5000         0.8235        10.6089       140.8035         0.8558       -65.7972        -999.25      -2.382568       0.988407
      3532.0000         0.8296        10.6167       140.7905         0.8517       -65.5135        -999.25      -2.098862      0.9970042
      3532.5000         0.8369        10.6248       141.6975         0.8585       -64.9615        -999.25      -1.546867              1
      3533.0000         0.8443        10.6301       143.7156         0.8673       -64.6071        -999.25      -1.192467              1
      3533.5000         0.8522        10.6332         143.72         0.8762        -64.009        -999.25      -0.594368              1
      3534.0000         0.8609        10.6346       141.9902         0.8848       -63.8016        -999.25     -0.3869667              1
      3534.5000         0.8695        10.6357       141.7927         0.8923       -63.7937        -999.25     -0.3790665              1
      3535.0000         0.8769         10.632       143.7661         0.8999       -64.0015        -999.25     -0.5868683              1
      3535.5000         0.8844        10.6306       146.5227         0.9074       -64.6213        -999.25      -1.206665              1
      3536.0000         0.8922        10.6317       150.0151          0.915       -65.1776        -999.25      -1.762962              1
