#------------------------------------------------------------------------------
# Created by    : vladimir.rabinovich
# Created on    : 09/19/2023 17:20:28
#------------------------------------------------------------------------------
~Version Information Section
VERS.           2.0     :   CWLS log ASCII Standard - VERSION 2.0
WRAP.           NO      :   One line per depth step
~Well Information Section
#MNEM       .UNIT                                         VALUE :DESCRIPTION
#------------------------------------------------------------------------------
STRT        .FT                                            2653 :START DEPTH
STOP        .FT                                           10423 :STOP DEPTH
STEP        .FT                                             0.5 :STEP      
NULL        .                                           -999.25 :NULL      
COMP        .                                       MONSANTO CO :COMPANY   
WELL        .                                     ST TR 00150-L :WELL      
FLD         .                                           WILDCAT :FIELD     
LOC         .                                                   :LOCATION  
CNTY        .                             GALVESTON LARGE BLOCK :LOCATION  
STAT        .                                             TEXAS :STATE     
CTRY        .                                     UNITED STATES :COUNTRY   
SRVC        .                                                   :SERVICE COMPANY
DATE        .                             9/13/2023 11:19:24 AM :LOG DATE  
API         .                                    42706300340000 :API NUMBER
UWI         .                                    42706300340000 :UNIQUE WELL ID
XCOORD      .                                  1113316.22146511 :SURFACE X 
YCOORD      .                                  10612518.3672968 :SURFACE Y 
LAT         .                                         29.232517 :LATITUDE  
LON         .                                       -94.6530532 :LONGITUDE 
ELEV        .FT                                              81 :ELEVATION VALUE
ELEV_TYPE   .                                                KB :ELEVATION REFERENCE TYPE
~Curve Information Section
#MNEM       .UNIT                                      API CODE :CURVE DESCRIPTION
#------------------------------------------------------------------------------
DEPT        .FT                                                 :DEPTH     
ASN         .OHMM                                               :          
CILD        .MMHO                                               :          
ILD         .OHMM                                               :          
SP          .MV                                                 :          
SP_NORM     .MV                                                 :SP Normalized
VSH_SP      .V/V                                                :Volume of Shale from SP
~A        DEPTH            ASN           CILD            ILD             SP        SP_NORM         VSH_SP
# ...
      7783.0000         0.9474       1526.129         0.7321        -49.199      -4.503822      0.9351144
      7783.5000         0.9151       1668.941         0.6245       -50.7979      -6.107647      0.9054139
      7784.0000         0.8765       1895.725         0.5258       -53.7842      -9.098869      0.8500209
      7784.5000         0.8378         2005.5         0.4402       -60.2784      -15.59799      0.7296668
      7785.0000         0.7828         2333.5         0.3756       -65.8918      -21.21632      0.6256238
      7785.5000         0.7255         2661.5         0.3248       -67.8708      -23.20024      0.5888845
      7786.0000         0.7042       2866.035         0.3389       -67.0591      -22.39346      0.6038249
      7786.5000         0.6829       3026.141          0.377       -66.2485      -21.58778      0.6187447
      7787.0000          0.667       3110.605         0.4151       -65.4602      -20.80441      0.6332517
      7787.5000         0.6726       3149.043         0.4532       -69.4047      -24.75384      0.5601141
      7788.0000         0.7102       3087.938         0.4913       -73.0576      -28.41166      0.4923767
      7788.5000         0.7478       2962.176          0.548       -74.4376      -29.79658        0.46673
      7789.0000         0.7778         2509.5         0.6115        -58.094      -13.45791       0.769298
      7789.5000         0.8078         2063.5          0.628       -53.1447      -8.513531      0.8608605
      7790.0000         0.8378       1721.375         0.6067       -48.9149      -4.288654       0.939099
      7790.5000         0.8583       1655.734         0.5796       -47.7427      -3.121376      0.9607152
      7791.0000         0.8643       1621.535         0.5525       -48.2716      -3.655201      0.9508296
      7791.5000         0.8625       1678.305         0.5254        -50.429      -5.817528      0.9107865
      7792.0000         0.8606       1740.051         0.4983       -51.9098      -7.303249      0.8832732
      7792.5000         0.8587           1814         0.4712       -56.8149      -12.21327      0.7923468
      7793.0000         0.8568        1951.75         0.4441       -60.2341       -15.6374      0.7289371
      7793.5000         0.8549        2089.75         0.4209       -67.6827      -23.09092      0.5909089
      7794.0000         0.8529         2227.5          0.402       -67.7885      -23.20164      0.5888585
      7794.5000          0.851        2365.25         0.3856       -65.9805      -21.39857      0.6222488
      7795.0000         0.8491       2495.012          0.383       -64.0494      -19.47239      0.6579186
      7795.5000         0.8438        2732.93         0.3842       -62.2513      -17.67921      0.6911256
      7796.0000          0.838       2771.172         0.3919       -61.4985      -16.93134      0.7049752
      7796.5000         0.8139       2674.188         0.3997        -67.481      -22.91877      0.5940969
      7797.0000         0.7549       2589.133         0.4074       -70.1328      -25.57549      0.5448985
      7797.5000         0.6753       2528.914         0.4151        -74.969      -30.41661      0.4552479
      7798.0000         0.7278       2482.098          0.428       -69.4982      -24.95073      0.5564679
      7798.5000         0.7833       2453.121         0.4448       -55.7276      -11.18506      0.8113878
      7799.0000         0.8154       2420.695         0.4339       -53.4915      -8.953884      0.8527058
      7799.5000         0.8442        2367.77          0.408       -53.5665      -9.033806      0.8512258
      7800.0000          0.873       2210.473         0.3737       -56.9133      -12.38553      0.7891569
      7800.5000         0.9018       2157.152         0.3394       -60.4653      -15.94246      0.7232879
      7801.0000         0.9305       3191.473         0.3051       -69.3013      -24.78337      0.5595672
      7801.5000         0.9562           3489         0.2779       -93.7467       -49.2337      0.1067834
      7802.0000         0.9708           4177         0.2599       -94.8992      -50.39112     0.08534954
      7802.5000         0.9854           4864         0.2543       -96.5472      -52.04405     0.05473978
      7803.0000         1.0001       5117.305         0.2486       -98.2495      -53.75127     0.02312469
      7803.5000         0.9705        5300.43          0.243       -99.2175      -54.72419    0.005107526
      7804.0000         0.8622       5364.984         0.2374      -100.1388      -55.65042              0
      7804.5000         0.6843       5431.711         0.2364      -100.9899      -56.50644              0
      7805.0000         0.6832       5483.945         0.2367      -101.6793      -57.20076              0
      7805.5000         0.6835       5521.102         0.2369       -102.234      -57.76039              0
      7806.0000         0.6764       5548.844         0.2371      -102.7881      -58.31942              0
      7806.5000         0.6654       5569.273         0.2374      -103.1407      -58.67694              0
      7807.0000         0.6561       5373.656         0.2376      -103.3651      -58.90626              0
      7807.5000         0.6458       5268.695         0.2382      -103.3694      -58.91549              0
      7808.0000         0.6314       4941.305         0.2389      -103.3737      -58.92471              0
      7808.5000         0.6119       4945.492         0.2395      -103.2389      -58.79483              0
      7809.0000         0.5841       4965.992         0.2402      -102.9357      -58.49656              0
      7809.5000         0.5608       4986.516         0.2408      -102.6328      -58.19858              0
      7810.0000         0.5388       5007.016         0.2415      -102.2709       -57.8416              0
      7810.5000         0.5196       5028.336         0.2421      -101.8127      -57.38832              0
      7811.0000         0.5033       5021.703         0.2422       -101.285      -56.86555              0
      7811.5000         0.4829       4986.914         0.2418      -100.5886      -56.17408              0
      7812.0000         0.4558       4952.172         0.2413      -100.3042       -55.8946              0
      7812.5000         0.4348         4820.5         0.2409      -100.0475      -55.64282              0
      7813.0000         0.4258       4794.969         0.2405       -99.9393      -55.53955              0
      7813.5000         0.4235       4794.797         0.2401       -99.3971      -55.00227              0
      7814.0000         0.4254       4829.563         0.2397       -98.7058       -54.3159     0.01266854
      7814.5000         0.4272       4866.625         0.2392       -97.8351      -53.45012     0.02870157
      7815.0000         0.4293       4899.688         0.2388       -96.8892      -52.50914     0.04612704
      7815.5000         0.4328       4924.352         0.2384        -97.182      -52.80687      0.0406136
      7816.0000         0.4363        4853.07          0.238      -100.0366      -55.66639              0
      7816.5000         0.4351       4798.867         0.2375      -101.0194      -56.65411              0
      7817.0000          0.428       4787.977         0.2371      -101.6172      -57.25684              0
      7817.5000         0.4206       4814.781         0.2367      -101.0625      -56.70706              0
      7818.0000         0.4131       4840.828         0.2363      -100.5077      -56.15718              0
      7818.5000         0.4057       4853.664         0.2359       -99.9536      -55.60801              0
      7819.0000         0.4134       4823.648         0.2354       -99.4764      -55.13573              0
      7819.5000         0.4303       4829.617          0.235       -99.3663      -55.03056              0
      7820.0000         0.4426       4888.852          0.235       -99.7305      -55.39968              0
      7820.5000         0.4549       4943.055         0.2356      -100.0945       -55.7686              0
