#------------------------------------------------------------------------------
# Created by    : vladimir.rabinovich
# Created on    : 09/19/2023 17:20:58
#------------------------------------------------------------------------------
~Version Information Section
VERS.           2.0     :   CWLS log ASCII Standard - VERSION 2.0
WRAP.           NO      :   One line per depth step
~Well Information Section
#MNEM       .UNIT                                         VALUE :DESCRIPTION
#------------------------------------------------------------------------------
STRT        .FT                                             521 :START DEPTH
STOP        .FT                                           11050 :STOP DEPTH
STEP        .FT                                             0.5 :STEP      
NULL        .                                           -999.25 :NULL      
COMP        .                                      SHELL OIL CO :COMPANY   
WELL        .                                     ST TR 00335-L :WELL      
FLD         .                                           WILDCAT :FIELD     
LOC         .                                                   :LOCATION  
CNTY        .                                BRAZOS LARGE BLOCK :LOCATION  
STAT        .                                             TEXAS :STATE     
CTRY        .                                     UNITED STATES :COUNTRY   
SRVC        .                                                   :SERVICE COMPANY
DATE        .                             9/13/2023 11:18:52 AM :LOG DATE  
API         .                                    42704000130000 :API NUMBER
UWI         .                                    42704000130000 :UNIQUE WELL ID
XCOORD      .                                  903482.990868916 :SURFACE X 
YCOORD      .                                   10450808.276789 :SURFACE Y 
LAT         .                                        28.7782296 :LATITUDE  
LON         .                                       -95.3008656 :LONGITUDE 
ELEV        .FT                                              81 :ELEVATION VALUE
ELEV_TYPE   .                                                DF :ELEVATION REFERENCE TYPE
~Curve Information Section
#MNEM       .UNIT                                      API CODE :CURVE DESCRIPTION
#------------------------------------------------------------------------------
DEPT        .FT                                                 :DEPTH     
ASN         .OHMM                                               :          
CILD        .MMHO                                               :          
ILD         .OHMM                                               :          
SP          .MV                                                 :          
SP_NORM     .MV                                                 :SP Normalized
VSH_SP      .V/V                                                :Volume of Shale from SP
~A        DEPTH            ASN           CILD            ILD             SP        SP_NORM         VSH_SP
# ...
      5423.0000         0.9551       1253.576         0.7978       -46.3481       -1.09219      0.9982928
      5423.5000         0.9592       1244.691         0.7985       -46.6829      -1.433361      0.9919748
      5424.0000         0.9633       1235.807         0.7991       -47.1139      -1.870735      0.9838753
      5424.5000         0.9683       1227.066         0.7998       -47.5446      -2.307808      0.9757813
      5425.0000         0.9777       1218.414         0.8004       -47.9653      -2.734882      0.9678726
      5425.5000         0.9871       1209.887         0.8015       -47.6461       -2.42205      0.9736657
      5426.0000         0.9854       1201.502         0.8033       -47.2882      -2.070526      0.9801754
      5426.5000         0.9795       1192.229          0.805       -46.9302      -1.718895      0.9866871
      5427.0000         0.9811       1181.666         0.8067       -46.8593      -1.654366      0.9878821
      5427.5000         0.9951       1160.494         0.8089       -47.4333      -2.234741      0.9771344
      5428.0000         1.0092       1129.477         0.8388       -48.1777      -2.985512      0.9632313
      5428.5000         1.0232       1068.512         0.8727        -49.113      -3.927185      0.9457929
      5429.0000         1.0444       1041.355         0.9091       -49.6599      -4.480457      0.9355471
      5429.5000         1.0666       1036.904         0.9429        -49.874      -4.700928      0.9314643
      5430.0000         1.0695       1048.518         0.9642       -50.0096      -4.842903      0.9288352
      5430.5000         1.0337        1085.77         0.9722       -50.1452      -4.984871      0.9262061
      5431.0000         1.0098       1124.348         0.9533       -50.2808      -5.126846      0.9235769
      5431.5000         0.9877       1155.729         0.9211        -50.453      -5.305416      0.9202701
      5432.0000         0.9656        1184.68         0.8889        -50.645      -5.503792      0.9165965
      5432.5000         0.9435       1212.828         0.8587        -50.837      -5.702164      0.9129229
      5433.0000          0.926       1244.672         0.8284       -51.0466      -5.918133      0.9089234
      5433.5000         0.9103       1281.742         0.8055       -51.3727      -6.250607      0.9027665
      5434.0000         0.8987       1361.813         0.7912       -51.6985      -6.582779      0.8966152
      5434.5000         0.8944       1397.842         0.7769       -52.0243      -6.914951      0.8904639
      5435.0000          0.891       1402.359          0.766         -52.35      -7.247021      0.8843144
      5435.5000         0.8881       1399.314         0.7587       -52.7953      -7.698692      0.8759502
      5436.0000         0.8913       1360.295         0.7514       -53.4602      -8.369968      0.8635191
      5436.5000         0.8946        1349.66         0.7505       -53.0771      -7.993237      0.8704956
      5437.0000         0.8979       1340.082         0.7633       -52.5358      -7.458313      0.8804016
      5437.5000         0.9022       1334.035         0.7761       -51.9648      -6.893684      0.8908577
      5438.0000         0.9286       1327.994         0.7889       -51.3939      -6.329159      0.9013119
      5438.5000         0.9549       1304.494         0.8104       -50.8229      -5.764526       0.911768
      5439.0000         0.9813       1261.178         0.8355       -50.2519      -5.199898      0.9222241
      5439.5000         1.0077       1204.637         0.8607        -50.658      -5.612373      0.9145856
      5440.0000          1.038       1123.813         0.8858       -51.1245      -6.085243      0.9058288
      5440.5000         1.0244       1108.328         0.9036        -51.546      -6.513119      0.8979052
      5441.0000         0.9966       1104.703         0.9204       -51.9676       -6.94109      0.8899798
      5441.5000          0.976       1102.988         0.9371       -52.3892      -7.369057      0.8820545
      5442.0000         0.9555       1111.367         0.9364       -52.8107      -7.796932      0.8741309
      5442.5000          0.935       1125.793         0.9266       -53.2323      -8.224903      0.8662055
      5443.0000         0.9174       1150.188         0.9137       -53.6542      -8.653179      0.8582745
      5443.5000         0.9088       1225.906         0.8926       -54.0757      -9.081047       0.850351
      5444.0000         0.9002       1262.393         0.8715       -53.6778      -8.689522      0.8576015
      5444.5000         0.9028       1311.934         0.8497       -52.9638      -7.981892      0.8707057
      5445.0000         0.9132       1336.059         0.8275       -52.2692      -7.293663      0.8834507
      5445.5000         0.9395       1341.734         0.8053       -51.5751      -6.605938      0.8961864
      5446.0000         0.9658       1270.025         0.7914       -50.8805      -5.917709      0.9089313
      5446.5000         0.9916       1244.355           0.78       -50.1871      -5.230682       0.921654
      5447.0000         1.0131       1220.121         0.7817       -49.8403      -4.890255      0.9279583
      5447.5000         1.0346       1197.709         0.8068       -49.4937      -4.550022      0.9342589
      5448.0000         1.0561       1174.713         0.8447       -49.1469      -4.209599       0.940563
      5448.5000         1.0636       1148.023         0.8831        -49.827      -4.896069      0.9278506
      5449.0000         1.0702       1120.045         0.9242       -50.9277      -6.003143      0.9073492
      5449.5000         1.0768       1046.244         0.9652       -52.5534      -7.635212      0.8771257
      5450.0000         1.0834       1012.749         0.9874       -53.2032      -8.291389      0.8649743
      5450.5000         1.0897       988.5625         0.9993       -53.8112      -8.905758      0.8535971
      5451.0000         1.0961       974.9502         0.9896       -54.2657      -9.366631      0.8450624
      5451.5000          1.101       983.8164         0.9798       -54.6094      -9.716705      0.8385795
      5452.0000         1.1052       992.8271         0.9701       -54.9531      -10.06677      0.8320968
      5452.5000         1.0979       1007.607           0.96       -55.2968      -10.41685      0.8256139
      5453.0000         1.0657       1023.602         0.9477       -55.2538      -10.38022      0.8262923
      5453.5000         1.0384        1039.84         0.9354       -54.9731      -10.10589      0.8313724
      5454.0000         1.0301       1056.648          0.923       -54.7334      -9.872562      0.8356933
      5454.5000         1.0245       1074.176         0.9108       -54.4934      -9.638935      0.8400197
      5455.0000         1.0195       1093.135         0.8986       -54.2534      -9.405308      0.8443462
      5455.5000         1.0148       1118.732         0.8864       -54.0136      -9.171879      0.8486689
      5456.0000         1.0112       1138.313         0.8745       -53.7642      -8.928852      0.8531694
      5456.5000          1.008        1155.57         0.8637       -53.4887      -8.659725      0.8581532
      5457.0000         1.0049       1173.717         0.8528       -53.2132      -8.390594      0.8631371
      5457.5000         1.0018       1194.768          0.842       -52.9377      -8.121468       0.868121
      5458.0000         0.9952       1203.969         0.8319       -52.6625      -7.852638      0.8730993
      5458.5000         0.9875       1211.262         0.8221       -52.4818      -7.678314      0.8763275
      5459.0000         0.9797       1220.268         0.8124       -52.4362      -7.639084       0.877054
      5459.5000          0.972        1231.34         0.8027       -52.3906      -7.599854      0.8777805
      5460.0000          0.964       1245.912         0.7929        -52.345      -7.560631      0.8785068
      5460.5000         0.9525       1258.176         0.7832       -52.2994        -7.5214      0.8792333
