#------------------------------------------------------------------------------
# Created by    : vladimir.rabinovich
# Created on    : 09/19/2023 17:22:52
#------------------------------------------------------------------------------
~Version Information Section
VERS.           2.0     :   CWLS log ASCII Standard - VERSION 2.0
WRAP.           NO      :   One line per depth step
~Well Information Section
#MNEM       .UNIT                                         VALUE :DESCRIPTION
#------------------------------------------------------------------------------
STRT        .FT                                            1126 :START DEPTH
STOP        .FT                                            9906 :STOP DEPTH
STEP        .FT                                             0.5 :STEP      
NULL        .                                           -999.25 :NULL      
COMP        .                                        EXXON CORP :COMPANY   
WELL        .                               OCS G06053 ST00BP00 :WELL      
FLD         .                                           WILDCAT :FIELD     
LOC         .                                                   :LOCATION  
CNTY        .                      MATAGORDA ISLAND LARGE BLOCK :LOCATION  
STAT        .                                             TEXAS :STATE     
CTRY        .                                     UNITED STATES :COUNTRY   
SRVC        .                                                   :SERVICE COMPANY
DATE        .                             9/13/2023 11:12:11 AM :LOG DATE  
API         .                                    42703402640000 :API NUMBER
UWI         .                                    42703402640000 :UNIQUE WELL ID
XCOORD      .                                  440255.018680432 :SURFACE X 
YCOORD      .                                  10152284.9344853 :SURFACE Y 
LAT         .                                         27.926249 :LATITUDE  
LON         .                                        -96.716438 :LONGITUDE 
ELEV        .FT                                              94 :ELEVATION VALUE
ELEV_TYPE   .                                                KB :ELEVATION REFERENCE TYPE
~Curve Information Section
#MNEM       .UNIT                                      API CODE :CURVE DESCRIPTION
#------------------------------------------------------------------------------
DEPT        .FT                                                 :DEPTH     
GR          .GAPI                                               :          
GR_NORM     .GAPI                                               :GammaRay Normalized
ILD         .OHMM                                               :          
SP          .MV                                                 :          
SP_NORM     .MV                                                 :SP Normalized
VSH_GR      .V/V                                                :Volume of Shale from GR
VSH_SP      .V/V                                                :Volume of Shale from SP
~A        DEPTH             GR        GR_NORM            ILD             SP        SP_NORM         VSH_GR         VSH_SP
# ...
      4040.5000          52.41       82.32698         0.9895       -66.4408      -13.03193              1      0.8256243
      4041.0000        46.8653       76.77937         0.9748       -72.4772       -19.0672      0.9314759      0.7381565
      4041.5000         41.306       71.21716         0.9396       -77.8035      -24.39238       0.813131        0.66098
      4042.0000        38.7825       68.69075         0.8974       -80.8088      -27.39655      0.7593777      0.6174412
      4042.5000        39.9319       69.83723         0.8597        -79.696      -26.28263      0.7837709       0.633585
      4043.0000        44.4736       74.37602         0.8336       -75.0543      -21.63981      0.8803409      0.7008724
      4043.5000        48.8689       78.76842          0.811       -70.6432      -17.22759      0.9737961      0.7648175
      4044.0000         51.435        81.3316         0.7927       -66.6622      -13.24546              1      0.8225295
      4044.5000        53.5789        83.4726         0.7738       -62.9614      -9.543541              1      0.8761806
      4045.0000        52.6882       82.57899         0.7543       -65.1852      -11.76622              1      0.8439678
      4045.5000        48.1294       78.01727         0.7288        -69.007       -15.5869      0.9578143      0.7885957
      4046.0000        45.0178       74.90276         0.6957       -71.2655      -17.84428      0.8915482      0.7558801
      4046.5000        45.6475       75.52956         0.6477       -68.8495      -15.42715      0.9048842      0.7909108
      4047.0000        47.9122       77.79134         0.5908        -65.619      -12.19553      0.9530073       0.837746
      4047.5000        49.6669       79.54314         0.5468       -62.6868      -9.262203      0.9902795      0.8802579
      4048.0000        51.0604       80.93372         0.5029       -61.4417      -8.015984              1      0.8983191
      4048.5000        50.4991       80.36951         0.4684       -67.0961      -13.66926              1      0.8163875
      4049.0000        47.6292        77.4967         0.4437       -77.6863      -24.25834      0.9467384      0.6629226
      4049.5000        46.8394       76.70399         0.4281       -84.3011      -30.87202      0.9298722      0.5670722
      4050.0000        47.2686       77.13028         0.4221       -89.0234      -35.59319      0.9389421      0.4986494
      4050.5000        48.2917       78.15047         0.4173       -84.1473      -30.71597      0.9606482      0.5693338
      4051.0000        48.0037       76.69928         0.4131       -80.2587      -26.82624      0.9297719      0.6257066
      4051.5000        47.2451       75.52498         0.4095       -80.1462      -26.71263      0.9047868      0.6273533
      4052.0000        46.8046       74.84122          0.412       -86.9294       -33.4947      0.8902386      0.5290623
      4052.5000        47.6974       76.21349         0.4163        -92.426      -38.99018       0.919436      0.4494177
      4053.0000        48.0176       76.70275          0.423       -95.5879      -42.15096      0.9298458      0.4036093
      4053.5000         46.631       74.56002         0.4399       -96.8206      -43.38254      0.8842558      0.3857603
      4054.0000        45.5867       72.94517         0.4646       -95.9768      -42.53761      0.8498972      0.3980057
      4054.5000        45.5267       72.84814         0.5011       -94.7039      -41.26359      0.8478327      0.4164697
      4055.0000         46.465       74.29058         0.5291       -93.1499      -39.70847       0.878523      0.4390077
      4055.5000         47.404       75.73412         0.5523        -91.411      -37.96845      0.9092367      0.4642254
      4056.0000        48.9006       77.63719         0.5712       -89.5935      -36.14982      0.9497275      0.4905823
      4056.5000         47.662       75.33218          0.588       -88.5964       -35.1516      0.9006848      0.5050493
      4057.0000        44.7933       70.00073         0.6006       -89.4333      -35.98737      0.7872496      0.4929366
      4057.5000        43.5499        67.6868         0.6103       -92.2631      -38.81606       0.738017      0.4519412
      4058.0000        44.0444       68.59949         0.6092       -96.3282      -42.88003      0.7574359       0.393043
      4058.5000        44.5392       69.51276         0.6017        -96.698      -43.24871      0.7768672      0.3876999
      4059.0000        44.0161       68.53613          0.594       -94.3131      -40.86269      0.7560878      0.4222799
      4059.5000        42.6482       65.99108          0.599       -93.9607      -40.50916      0.7019379      0.4274035
      4060.0000        40.8325       62.61463         0.6096        -97.161      -43.70834      0.6300985      0.3810385
      4060.5000        39.0278       59.25861         0.6351      -101.7113      -48.25752      0.5586938      0.3151084
      4061.0000        37.7966       56.96733         0.6662      -105.9576       -52.5027      0.5099432      0.2535841
      4061.5000        37.1949       55.84481         0.7058      -107.3816      -53.92557      0.4860599      0.2329627
      4062.0000        37.0862       55.63759          0.744      -105.8341      -52.37695      0.4816508      0.2554065
      4062.5000        37.4967       56.39434         0.7726      -104.3716      -50.91333      0.4977518      0.2766185
      4063.0000        37.9482       57.22718         0.7842      -105.5385       -52.0791      0.5154718      0.2597232
      4063.5000        38.4723       58.19481         0.7825      -107.5574      -54.09689      0.5360599      0.2304799
      4064.0000        38.8502       58.89103         0.7775      -109.7153      -56.25366      0.5508729      0.1992223
      4064.5000        38.4381        58.1205         0.7593      -111.8092      -58.34644      0.5344788      0.1688922
      4065.0000        37.8161       56.96029         0.7349      -110.7595      -57.29561      0.5097934      0.1841216
      4065.5000        37.1029       55.63076         0.7105      -109.3245      -55.85949      0.4815056      0.2049349
      4066.0000        35.9431       53.47206         0.6989      -108.0021      -54.53597      0.4355758      0.2241164
      4066.5000        35.3986       52.45574         0.6935      -110.6177      -57.15044       0.413952      0.1862254
      4067.0000        36.2811       54.08881         0.6927      -115.9087      -62.44032       0.448698      0.1095605
      4067.5000        37.7941       56.89243          0.683      -116.4474      -62.97791      0.5083497      0.1017695
      4068.0000        39.2987        59.6805         0.6739      -117.5289      -64.05828      0.5676701     0.08611187
      4068.5000        40.5494       61.99718         0.6478      -118.2601      -64.78836      0.6169612     0.07553101
      4069.0000        39.6537        60.3288         0.5981      -118.1713      -64.69844      0.5814638     0.07683419
      4069.5000        36.1957       53.90321         0.5327      -117.2627      -63.78872      0.4447491     0.09001862
      4070.0000        33.9675        49.7609         0.4584      -115.5632      -62.08809      0.3566149      0.1146654
      4070.5000        34.9962        51.6654         0.3912      -113.9186      -60.44237      0.3971361      0.1385164
      4071.0000         36.386       54.24032         0.3426      -113.4427      -59.96535      0.4519217      0.1454297
      4071.5000        37.6913       56.65837         0.3078      -114.0179      -60.53942      0.5033697      0.1371098
      4072.0000        38.0989       57.40971         0.2819      -115.1093       -61.6297      0.5193555      0.1213088
      4072.5000        37.3043       55.92905          0.271      -116.2377      -62.75698      0.4878521      0.1049713
      4073.0000        36.1517       53.78369         0.2685      -116.6758      -63.19395      0.4422062     0.09863839
      4073.5000        35.0468       51.72693         0.2727      -116.4601      -62.97713      0.3984454      0.1017807
