#------------------------------------------------------------------------------
# Created by    : vladimir.rabinovich
# Created on    : 09/19/2023 17:20:32
#------------------------------------------------------------------------------
~Version Information Section
VERS.           2.0     :   CWLS log ASCII Standard - VERSION 2.0
WRAP.           NO      :   One line per depth step
~Well Information Section
#MNEM       .UNIT                                         VALUE :DESCRIPTION
#------------------------------------------------------------------------------
STRT        .FT                                             502 :START DEPTH
STOP        .FT                                            9122 :STOP DEPTH
STEP        .FT                                             0.5 :STEP      
NULL        .                                           -999.25 :NULL      
COMP        .                       BLUE DOLPHIN EXPLORATION CO :COMPANY   
WELL        .                                OCS 00714 ST00BP00 :WELL      
FLD         .                              GALVESTON BLOCK 0288 :FIELD     
LOC         .                                                   :LOCATION  
CNTY        .                             GALVESTON LARGE BLOCK :LOCATION  
STAT        .                                             TEXAS :STATE     
CTRY        .                                     UNITED STATES :COUNTRY   
SRVC        .                                                   :SERVICE COMPANY
DATE        .                             9/13/2023 11:19:24 AM :LOG DATE  
API         .                                    42706000680000 :API NUMBER
UWI         .                                    42706000680000 :UNIQUE WELL ID
XCOORD      .                                  1088404.51782723 :SURFACE X 
YCOORD      .                                  10474534.8869196 :SURFACE Y 
LAT         .                                        28.8520809 :LATITUDE  
LON         .                                       -94.7248272 :LONGITUDE 
ELEV        .FT                                              85 :ELEVATION VALUE
ELEV_TYPE   .                                                KB :ELEVATION REFERENCE TYPE
~Curve Information Section
#MNEM       .UNIT                                      API CODE :CURVE DESCRIPTION
#------------------------------------------------------------------------------
DEPT        .FT                                                 :DEPTH     
ASN         .OHMM                                               :          
ASN_1       .OHMM                                               :          
DT          .US/F                                               :          
ILD         .OHMM                                               :          
LAT         .OHMM                                               :          
LN          .OHMM                                               :          
SP          .MV                                                 :          
SP_NORM     .MV                                                 :SP Normalized
VSH_SP      .V/V                                                :Volume of Shale from SP
~A        DEPTH            ASN          ASN_1             DT            ILD            LAT             LN             SP        SP_NORM         VSH_SP
       502.0000        -999.25          0.012        -999.25        -999.25              0              0       -12.7994       2.756156              1
       502.5000        -999.25         0.0514        -999.25        -999.25              0              0       -13.5487       2.006856              1
       503.0000        -999.25         0.2073        -999.25        -999.25              0              0       -19.1375      -2.295647      0.9501674
       503.5000        -999.25         0.5688        -999.25        -999.25              0              0       -21.8473     0.08214951              1
       504.0000        -999.25         0.8383        -999.25        -999.25              0              0       -22.9659      0.4550285              1
       504.5000        -999.25          0.911        -999.25        -999.25              0              0        -23.463       1.229828              1
       505.0000        -999.25         0.9776        -999.25        -999.25              0              0       -24.5473       1.417425              1
       505.5000        -999.25         1.0611        -999.25        -999.25              0         0.3259       -24.8199       1.846767              1
       506.0000        -999.25         1.1626        -999.25        -999.25              0         0.6187       -25.2419       1.424768              1
       506.5000        -999.25         1.2367        -999.25        -999.25              0         0.8446       -25.9281      0.7385674              1
       507.0000        -999.25         1.3009        -999.25        -999.25              0          0.954       -26.2625      0.4041672              1
       507.5000        -999.25         1.3882        -999.25        -999.25              0         1.0467       -26.3512      0.3154678              1
       508.0000        -999.25         1.4512        -999.25        -999.25              0         1.1037       -26.3513      0.3153687              1
       508.5000        -999.25         1.5228        -999.25        -999.25              0         1.1519       -27.2853     -0.6186314              1
       509.0000        -999.25         1.5903        -999.25        -999.25              0         1.2063       -27.5441     -0.8774319              1
       509.5000        -999.25         1.6414        -999.25        -999.25              0         1.2793       -26.9099     -0.2432327              1
       510.0000        -999.25         1.7169        -999.25        -999.25              0         1.3968       -25.8928      0.7738686              1
       510.5000        -999.25         1.7928        -999.25        -999.25              0         1.4867       -24.7181       1.948568              1
       511.0000        -999.25         1.8232        -999.25        -999.25              0          1.557       -24.0266       2.640068              1
       511.5000        -999.25         1.8371        -999.25        -999.25              0          1.632       -23.6906       2.976068              1
       512.0000        -999.25         1.8441        -999.25        -999.25              0         1.7104       -23.9992       2.667467              1
       512.5000        -999.25         1.8396        -999.25        -999.25              0         1.7748       -25.0445       1.622168              1
       513.0000        -999.25          1.828        -999.25        -999.25              0         1.8267       -26.2023      0.4693909              1
       513.5000        -999.25         1.8236        -999.25        -999.25              0         1.8548       -26.7196    -0.01660347              1
       514.0000        -999.25         1.8144        -999.25        -999.25              0         1.8663       -27.3418     -0.6074944              1
       514.5000        -999.25         1.7849        -999.25        -999.25              0         1.8637       -27.3261     -0.5604858              1
       515.0000        -999.25         1.7667        -999.25        -999.25              0         1.8473       -26.9881     -0.1911774              1
       515.5000        -999.25         1.7636        -999.25        -999.25              0         1.8178       -26.1396      0.6886292              1
       516.0000        -999.25         1.7508        -999.25        -999.25              0          1.788       -25.1499       1.709639              1
       516.5000        -999.25         1.7325        -999.25        -999.25              0         1.7571       -24.4423       2.448545              1
       517.0000        -999.25         1.7129        -999.25        -999.25              0         1.7336       -24.7948       2.127356              1
       517.5000        -999.25         1.6927        -999.25        -999.25              0         1.7284       -25.6009       1.352564              1
       518.0000        -999.25         1.6735        -999.25        -999.25              0         1.7257        -26.969     0.01577187              1
       518.5000        -999.25         1.6507        -999.25        -999.25              0         1.7262       -26.8532      0.1628799              1
       519.0000        -999.25         1.6326        -999.25        -999.25              0         1.7203       -27.0981    -0.05071259              1
       519.5000        -999.25         1.6217        -999.25        -999.25              0         1.7077       -27.4021     -0.3234024              1
       520.0000        -999.25         1.6151        -999.25        -999.25              0         1.6612       -27.1423    -0.03229523              1
       520.5000        -999.25         1.6123        -999.25        -999.25              0         1.5998       -27.6732     -0.5318871              1
       521.0000        -999.25         1.6104        -999.25        -999.25         0.0583         1.5349       -27.4568     -0.2841797              1
       521.5000        -999.25         1.5773        -999.25        -999.25         0.3026         1.4884       -27.3492     -0.1452694              1
       522.0000        -999.25         1.5329        -999.25        -999.25         0.6805         1.4448       -27.2464     -0.0111618              1
       522.5000        -999.25         1.4727        -999.25        -999.25          1.123           1.42       -27.2884     -0.0218544              1
       523.0000        -999.25         1.4185        -999.25        -999.25         1.4374         1.3967       -28.1101     -0.8122444              1
       523.5000        -999.25          1.366        -999.25        -999.25          1.651         1.3712       -28.6334      -1.304237      0.9882985
       524.0000        -999.25         1.3149        -999.25        -999.25         1.7864         1.3437       -28.6976      -1.337128      0.9870335
       524.5000        -999.25         1.2635        -999.25        -999.25         1.8163         1.3286       -28.9346      -1.542822      0.9791222
       525.0000        -999.25         1.2343        -999.25        -999.25         1.8569         1.3157       -28.6606      -1.237513      0.9908649
       525.5000        -999.25         1.2134        -999.25        -999.25          1.895          1.307       -28.2331     -0.7787056              1
       526.0000        -999.25         1.1955        -999.25        -999.25         1.9334         1.2971       -28.1922     -0.7064953              1
       526.5000        -999.25         1.1803        -999.25        -999.25         1.9718         1.2868       -27.8538     -0.3367882              1
       527.0000        -999.25         1.1689        -999.25        -999.25          1.996         1.2791       -27.4813     0.06702042              1
       527.5000        -999.25         1.1607        -999.25        -999.25         2.0139         1.2724       -27.8435     -0.2638702              1
       528.0000        -999.25         1.1543        -999.25        -999.25         2.0308         1.2801       -29.0956      -1.484663      0.9813591
