#------------------------------------------------------------------------------
# Created by    : vladimir.rabinovich
# Created on    : 09/19/2023 17:20:24
#------------------------------------------------------------------------------
~Version Information Section
VERS.           2.0     :   CWLS log ASCII Standard - VERSION 2.0
WRAP.           NO      :   One line per depth step
~Well Information Section
#MNEM       .UNIT                                         VALUE :DESCRIPTION
#------------------------------------------------------------------------------
STRT        .FT                                            3071 :START DEPTH
STOP        .FT                                           14991 :STOP DEPTH
STEP        .FT                                             0.5 :STEP      
NULL        .                                           -999.25 :NULL      
COMP        .                                        TEXACO USA :COMPANY   
WELL        .                                     ST TR 00012-L :WELL      
FLD         .                                           WILDCAT :FIELD     
LOC         .                                                   :LOCATION  
CNTY        .                           HIGH ISLAND LARGE BLOCK :LOCATION  
STAT        .                                             TEXAS :STATE     
CTRY        .                                     UNITED STATES :COUNTRY   
SRVC        .                                                   :SERVICE COMPANY
DATE        .                             9/13/2023 11:19:15 AM :LOG DATE  
API         .                                    42708000680000 :API NUMBER
UWI         .                                    42708000680000 :UNIQUE WELL ID
XCOORD      .                                  1354682.00685938 :SURFACE X 
YCOORD      .                                  10733491.7088446 :SURFACE Y 
LAT         .                                        29.5724948 :LATITUDE  
LON         .                                       -93.8991324 :LONGITUDE 
ELEV        .FT                                              44 :ELEVATION VALUE
ELEV_TYPE   .                                                KB :ELEVATION REFERENCE TYPE
~Curve Information Section
#MNEM       .UNIT                                      API CODE :CURVE DESCRIPTION
#------------------------------------------------------------------------------
DEPT        .FT                                                 :DEPTH     
ASN         .OHMM                                               :          
CILD        .MMHO                                               :          
ILD         .OHMM                                               :          
SP          .MV                                                 :          
SP_NORM     .MV                                                 :SP Normalized
VSH_SP      .V/V                                                :Volume of Shale from SP
~A        DEPTH            ASN           CILD            ILD             SP        SP_NORM         VSH_SP
# ...
      5465.0000          0.651       3590.086         0.2577      -111.7357      -63.07027      0.1004309
      5465.5000         0.6375       3545.461         0.2479       -112.599      -63.94158     0.08780316
      5466.0000         0.6241       3497.988         0.2381       -113.234       -64.5846     0.07848402
      5466.5000         0.6072       3447.746         0.2282      -113.8689      -65.22752     0.06916633
      5467.0000         0.5878       3366.254         0.2184      -114.5039      -65.87054     0.05984718
      5467.5000         0.5684       3276.457         0.2086      -115.1389      -66.51357     0.05052804
      5468.0000          0.549       2758.621         0.1988      -115.7739      -67.15659      0.0412089
      5468.5000         0.5296       2140.703         0.2045      -116.4088       -67.7995     0.03189131
      5469.0000         0.5001       2038.789         0.2204      -117.0438      -68.44252     0.02257217
      5469.5000         0.4706       1763.582         0.2363      -117.6788      -69.08554     0.01325303
      5470.0000         0.4404       1687.975         0.2522       -118.075      -69.48976    0.007394763
      5470.5000         0.4065       1612.217         0.2682      -118.3173      -69.74008    0.003766931
      5471.0000         0.4102       1450.023         0.2806      -118.5594       -69.9902   0.0001419731
      5471.5000         0.4158       1396.471         0.2786      -118.8018      -70.24062              0
      5472.0000         0.4214       1337.773         0.2766      -119.0439      -70.49074              0
      5472.5000         0.4269        1222.26         0.2747      -119.2861      -70.74097              0
      5473.0000         0.4325       1146.305         0.2727      -119.5281      -70.99098              0
      5473.5000         0.4356       1070.449         0.2707      -119.7704       -71.2413              0
      5474.0000          0.433       994.5957         0.2687      -120.0126      -71.49152              0
      5474.5000         0.4303       918.7402         0.2667      -120.2549      -71.74184              0
      5475.0000         0.4276       842.7861         0.2647      -120.4971      -71.99207              0
      5475.5000         0.4249       766.9307         0.2602       -120.677      -72.17998              0
      5476.0000         0.4176       691.0752         0.2501      -120.5885       -72.0995              0
      5476.5000         0.4092       615.2197         0.2399      -120.5001      -72.01912              0
      5477.0000         0.4007       539.2656         0.2298      -120.4116      -71.93864              0
      5477.5000         0.3922       463.4106         0.2196      -120.3232      -71.85826              0
      5478.0000         0.3837       387.5552         0.2095      -120.2347      -71.77779              0
      5478.5000         0.3727       311.7002         0.1993      -119.0409        -70.592              0
      5479.0000         0.3585       547.5732         0.1892      -114.2595      -65.81862     0.06059973
      5479.5000         0.3442       734.8877          0.179      -111.9521      -63.51924     0.09392404
      5480.0000         0.3278       885.0156         0.1689      -110.8514      -62.42656      0.1097599
      5480.5000         0.3054       1035.143         0.1587      -109.7494      -61.33258      0.1256148
      5481.0000         0.2829       1185.271         0.1486      -108.6473       -60.2385       0.141471
      5481.5000         0.2656         1335.4         0.1384      -107.5453      -59.14452      0.1573257
      5482.0000         0.2572       1485.527         0.1311      -106.4445      -58.05174      0.1731631
      5482.5000         0.2562       1628.041         0.1375      -106.3026      -57.91785      0.1751036
      5483.0000         0.2762       1720.115          0.144      -106.4421      -58.06538      0.1729655
      5483.5000         0.2963       1762.592         0.1504      -106.6655      -58.29679      0.1696117
      5484.0000         0.3163       1795.896         0.1569      -107.0126      -58.65192      0.1644649
      5484.5000         0.3364       1815.973         0.1633      -107.3596      -59.00694      0.1593198
      5485.0000         0.3564       1834.078         0.1706      -107.7063      -59.36166      0.1541789
      5485.5000         0.3765       1828.299         0.1811      -108.0533      -59.71668      0.1490336
      5486.0000         0.3966       1818.977         0.1915      -108.4004       -60.0718       0.143887
      5486.5000          0.417       1805.279         0.2019      -108.7471      -60.42652      0.1387461
      5487.0000         0.4374       1791.607         0.2124      -109.0941      -60.78154      0.1336009
      5487.5000         0.4578       1800.645         0.2228      -109.4412      -61.13666      0.1284542
      5488.0000         0.4782       1820.201         0.2333      -109.7878      -61.49128      0.1233148
      5488.5000         0.4931       1928.414         0.2437      -109.9279       -61.6394      0.1211681
      5489.0000         0.4853       1931.176         0.2542       -109.741      -61.46051      0.1237607
      5489.5000         0.4776       1933.938         0.2646      -109.5541      -61.28164      0.1263531
      5490.0000         0.4696       1936.697         0.2751      -109.3672      -61.10276      0.1289455
      5490.5000         0.4604       2083.738          0.285      -109.1802      -60.92377      0.1315395
      5491.0000         0.4512       2256.215         0.2821      -109.1532       -60.9048      0.1318145
      5491.5000          0.442       2513.352         0.2791       -109.353      -61.11261      0.1288027
      5492.0000         0.4328       2909.738         0.2762      -109.5526      -61.32023      0.1257937
      5492.5000         0.4237        3306.52         0.2733      -109.7523      -61.52795      0.1227833
      5493.0000         0.4145       3536.656         0.2703      -109.9519      -61.73557      0.1197743
      5493.5000         0.4053       3564.867         0.2674      -110.1224      -61.91409      0.1171871
      5494.0000         0.3961       3577.973         0.2644      -110.0063      -61.80602      0.1187534
      5494.5000         0.3869       3589.184         0.2615      -109.8904      -61.69814      0.1203168
      5495.0000         0.3777        3430.34         0.2592      -109.7743      -61.59005      0.1218833
      5495.5000         0.3685       3101.258         0.2579      -109.6582      -61.48198      0.1234496
      5496.0000         0.3594       3050.074         0.2567      -109.5422      -61.37399      0.1250146
      5496.5000         0.3502       2998.848         0.2554      -109.4261      -61.26592      0.1265809
      5497.0000         0.3461       2947.668         0.2542      -109.3101      -61.15793      0.1281459
      5497.5000         0.3434       2896.438         0.2529      -109.1941      -61.04995      0.1297108
      5498.0000         0.3407       2845.258         0.2517      -108.0005      -59.86438       0.146893
      5498.5000         0.3381       2794.027         0.2504      -105.9432      -57.81509      0.1765928
      5499.0000         0.3568       2742.848         0.2491      -103.8834      -55.76331      0.2063288
      5499.5000         0.3787       2691.617         0.2479       -101.826      -53.71393        0.23603
      5500.0000         0.4006       2640.438         0.2466       -98.8259      -50.72185      0.2793935
      5500.5000         0.4224       2589.207         0.2467       -94.3431      -46.24707      0.3442453
      5501.0000         0.4443       2538.027         0.2587       -91.1465      -43.05849      0.3904566
      5501.5000         0.4807       2486.797         0.2707       -88.7583      -40.67831       0.424952
      5502.0000         0.5243       2435.617         0.2827       -86.3701      -38.29813      0.4594473
      5502.5000         0.5679       2384.391         0.2947       -84.1835      -36.11956      0.4910209
