#------------------------------------------------------------------------------
# Created by    : vladimir.rabinovich
# Created on    : 09/19/2023 17:20:09
#------------------------------------------------------------------------------
~Version Information Section
VERS.           2.0     :   CWLS log ASCII Standard - VERSION 2.0
WRAP.           NO      :   One line per depth step
~Well Information Section
#MNEM       .UNIT                                         VALUE :DESCRIPTION
#------------------------------------------------------------------------------
STRT        .FT                                             880 :START DEPTH
STOP        .FT                                           10998 :STOP DEPTH
STEP        .FT                                             0.5 :STEP      
NULL        .                                           -999.25 :NULL      
COMP        .                        HUGHES TEXAS PETROLEUM LTD :COMPANY   
WELL        .                                ST TR 00564-L NE/4 :WELL      
FLD         .                       MATAGORDA ISLAND BLOCK 0565 :FIELD     
LOC         .                                                   :LOCATION  
CNTY        .                      MATAGORDA ISLAND LARGE BLOCK :LOCATION  
STAT        .                                             TEXAS :STATE     
CTRY        .                                     UNITED STATES :COUNTRY   
SRVC        .                                                   :SERVICE COMPANY
DATE        .                             9/13/2023 11:12:01 AM :LOG DATE  
API         .                                    42703303560000 :API NUMBER
UWI         .                                    42703303560000 :UNIQUE WELL ID
XCOORD      .                                  580856.659723482 :SURFACE X 
YCOORD      .                                  10268633.8274002 :SURFACE Y 
LAT         .                                         28.256926 :LATITUDE  
LON         .                                       -96.2914173 :LONGITUDE 
ELEV        .FT                                              25 :ELEVATION VALUE
ELEV_TYPE   .                                                KB :ELEVATION REFERENCE TYPE
~Curve Information Section
#MNEM       .UNIT                                      API CODE :CURVE DESCRIPTION
#------------------------------------------------------------------------------
DEPT        .FT                                                 :DEPTH     
ASFL        .OHMM                                               :          
GR          .GAPI                                               :          
GR_NORM     .GAPI                                               :GammaRay Normalized
ILD         .OHMM                                               :          
SP          .MV                                                 :          
SP_NORM     .MV                                                 :SP Normalized
VSH_GR      .V/V                                                :Volume of Shale from GR
VSH_SP      .V/V                                                :Volume of Shale from SP
~A        DEPTH           ASFL             GR        GR_NORM            ILD             SP        SP_NORM         VSH_GR         VSH_SP
# ...
       968.5000        -999.25        26.5915       61.20583        -999.25        -999.25        -999.25      0.6001241        -999.25
       969.0000        -999.25        25.5659       59.80836        -999.25        -999.25        -999.25      0.5703908        -999.25
       969.5000        -999.25         24.726       58.66395        -999.25        -999.25        -999.25      0.5460414        -999.25
       970.0000        -999.25        23.9818       57.64991        -999.25        -999.25        -999.25      0.5244663        -999.25
       970.5000        -999.25        24.4189        58.2455        -999.25        -999.25        -999.25      0.5371383        -999.25
       971.0000        -999.25        24.8561       58.84122        -999.25        -999.25        -999.25      0.5498132        -999.25
       971.5000        -999.25        25.2933       59.43694        -999.25        -999.25        -999.25       0.562488        -999.25
       972.0000        -999.25        25.1029        59.1775        -999.25        -999.25        -999.25      0.5569681        -999.25
       972.5000        -999.25        24.5237        58.3883        -999.25        -999.25        -999.25      0.5401766        -999.25
       973.0000        -999.25        23.9997        57.6743        -999.25        -999.25        -999.25      0.5249851        -999.25
       973.5000        -999.25        23.4756       56.96018        -999.25        -999.25        -999.25       0.509791        -999.25
       974.0000        -999.25        22.9514       56.24592        -999.25        -999.25        -999.25      0.4945941        -999.25
       974.5000        -999.25        22.4274       55.53193        -999.25        -999.25        -999.25      0.4794027        -999.25
       975.0000        -999.25        22.0272       54.98663        -999.25        -999.25        -999.25      0.4678006        -999.25
       975.5000        -999.25        21.8395       54.73087        -999.25        -999.25        -999.25      0.4623589        -999.25
       976.0000        -999.25        21.6517       54.47498        -999.25        -999.25        -999.25      0.4569145        -999.25
       976.5000        -999.25        21.4765       54.23625        -999.25        -999.25        -999.25      0.4518351        -999.25
       977.0000        -999.25        23.1928       56.57484        -999.25        -999.25        -999.25      0.5015923        -999.25
       977.5000        -999.25        24.3756        58.1865        -999.25        -999.25        -999.25      0.5358829        -999.25
       978.0000        -999.25        25.3913       59.57046        -999.25        -999.25        -999.25       0.565329        -999.25
       978.5000        -999.25        26.3355       60.85701        -999.25        -999.25        -999.25      0.5927023        -999.25
       979.0000        -999.25        26.6435       61.27669        -999.25        -999.25        -999.25      0.6016316        -999.25
       979.5000        -999.25        26.9516        61.6965        -999.25        -999.25        -999.25      0.6105637        -999.25
       980.0000        -999.25        26.9059       61.63422        -999.25        -999.25        -999.25      0.6092388        -999.25
       980.5000        -999.25        26.8226       61.52072        -999.25        -999.25        -999.25      0.6068238        -999.25
       981.0000        -999.25        26.8281       61.52821        -999.25        -999.25        -999.25      0.6069832        -999.25
       981.5000        -999.25        26.9456       61.68831        -999.25        -999.25        -999.25      0.6103895        -999.25
       982.0000        -999.25         27.063       61.84828        -999.25        -999.25        -999.25      0.6137931        -999.25
       982.5000        -999.25        27.0632       61.84855        -999.25        -999.25        -999.25      0.6137989        -999.25
       983.0000        -999.25        26.8257       61.52495        -999.25        -999.25        -999.25      0.6069138        -999.25
       983.5000        -999.25         26.588       61.20106        -999.25        -999.25        -999.25      0.6000226        -999.25
       984.0000        -999.25         26.116       60.55794        -999.25        -999.25        -999.25      0.5863391        -999.25
       984.5000        -999.25        25.2295       59.34999        -999.25        -999.25        -999.25      0.5606381        -999.25
       985.0000        -999.25        24.3429       58.14193        -999.25        -999.25        -999.25      0.5349348        -999.25
       985.5000        -999.25        23.2541       56.65837        -999.25        -999.25        -999.25      0.5033696        -999.25
       986.0000        -999.25        22.0441       55.00966        -999.25        -999.25        -999.25      0.4682906        -999.25
       986.5000        -999.25        21.3587       54.07574        -999.25        -999.25        -999.25      0.4484201        -999.25
       987.0000        -999.25        22.9689       56.26976        -999.25        -999.25        -999.25      0.4951013        -999.25
       987.5000        -999.25        24.6566       58.56939        -999.25        -999.25        -999.25      0.5440295        -999.25
       988.0000        -999.25        26.1963       60.66734        -999.25        -999.25        -999.25      0.5886668        -999.25
       988.5000        -999.25        27.6798       62.70137        -999.25        -999.25        -999.25      0.6319439        -999.25
       989.0000        -999.25        29.0454       64.58934        -999.25        -999.25        -999.25      0.6721136        -999.25
       989.5000        -999.25        29.4845       65.21486        -999.25        -999.25        -999.25      0.6854225        -999.25
       990.0000         0.8142        29.9235       65.84026         1.3692      -109.0057    -0.02365875      0.6987289              1
       990.5000         1.2093          30.18         66.217         1.3804      -105.1411       3.840942      0.7067447              1
       991.0000         1.2975        30.6161       66.83844         1.3916      -105.6747       3.307343      0.7199668              1
       991.5000         1.3523        31.3331       67.84263         1.4028      -107.3472       1.634842      0.7413325              1
       992.0000         1.3803        32.1859       69.03186         1.3891      -108.6716      0.3104401      0.7666353              1
       992.5000         1.3926        33.1578       70.38337         1.3686      -109.5057     -0.5236588      0.7953908              1
       993.0000         1.4048        32.7106       69.80126         1.3482      -109.6649     -0.6828613      0.7830056              1
       993.5000         1.3908        32.5839       69.65585         1.3277       -109.498     -0.5159607      0.7799116              1
       994.0000         1.3517        33.5789       71.03885         1.3072      -109.3312     -0.3491592      0.8093372              1
       994.5000         1.3039        34.5643       72.40875         1.2831      -109.1643     -0.1822586      0.8384841              1
       995.0000         1.2388        35.5364       73.76054         1.2528       -108.796      0.1860428      0.8672456              1
       995.5000         1.1942        36.5082       75.11193         1.2224      -108.3798      0.6022415      0.8959985              1
       996.0000         1.1442        37.4803       76.46372         1.1921      -107.9634       1.018639        0.92476              1
       996.5000         1.0804        38.6676       78.10872         1.1617      -107.8511       1.130943        0.95976              1
       997.0000         1.0283        39.8828       79.79176         1.1314      -108.2795      0.7025375      0.9955693              1
       997.5000         1.0041        39.4485       79.22722          1.105      -108.7472      0.2348404      0.9835578              1
