#------------------------------------------------------------------------------
# Created by    : vladimir.rabinovich
# Created on    : 09/19/2023 17:20:57
#------------------------------------------------------------------------------
~Version Information Section
VERS.           2.0     :   CWLS log ASCII Standard - VERSION 2.0
WRAP.           NO      :   One line per depth step
~Well Information Section
#MNEM       .UNIT                                         VALUE :DESCRIPTION
#------------------------------------------------------------------------------
STRT        .FT                                             598 :START DEPTH
STOP        .FT                                           10008 :STOP DEPTH
STEP        .FT                                             0.5 :STEP      
NULL        .                                           -999.25 :NULL      
COMP        .                                        SUN OIL CO :COMPANY   
WELL        .                               OCS G01712 ST00BP00 :WELL      
FLD         .                                           WILDCAT :FIELD     
LOC         .                                                   :LOCATION  
CNTY        .                                BRAZOS LARGE BLOCK :LOCATION  
STAT        .                                             TEXAS :STATE     
CTRY        .                                     UNITED STATES :COUNTRY   
SRVC        .                                                   :SERVICE COMPANY
DATE        .                             9/13/2023 11:18:52 AM :LOG DATE  
API         .                                    42704300120000 :API NUMBER
UWI         .                                    42704300120000 :UNIQUE WELL ID
XCOORD      .                                   818594.06951761 :SURFACE X 
YCOORD      .                                  10373365.4427938 :SURFACE Y 
LAT         .                                         28.560597 :LATITUDE  
LON         .                                        -95.560517 :LONGITUDE 
ELEV        .FT                                              89 :ELEVATION VALUE
ELEV_TYPE   .                                                KB :ELEVATION REFERENCE TYPE
~Curve Information Section
#MNEM       .UNIT                                      API CODE :CURVE DESCRIPTION
#------------------------------------------------------------------------------
DEPT        .FT                                                 :DEPTH     
ASN         .OHMM                                               :          
CALI        .IN                                                 :          
CILD        .MMHO                                               :          
ILD         .OHMM                                               :          
SP          .MV                                                 :          
SP_NORM     .MV                                                 :SP Normalized
VSH_SP      .V/V                                                :Volume of Shale from SP
~A        DEPTH            ASN           CALI           CILD            ILD             SP        SP_NORM         VSH_SP
# ...
      1234.5000         2.9616         15.402       561.1934         2.0122       -69.0892       -23.8511    0.006767966
      1235.0000         2.9924        15.3973       563.0137         2.0165       -68.8901        -23.652     0.01581816
      1235.5000         3.0232        15.4115       564.7949         2.0165       -68.6909       -23.4528     0.02487252
      1236.0000         3.0022        15.4235       566.5762         2.0088       -68.4918       -23.2537     0.03392272
      1236.5000         2.9555        15.4129       569.8428         1.9943       -68.2356      -22.99751     0.04556794
      1237.0000         2.9088        15.4068       574.1611         1.9813        -67.952      -22.71391     0.05845885
      1237.5000         2.8643        15.3542       579.2783         1.9713       -67.9336       -22.6955     0.05929531
      1238.0000         2.8219        15.2695       584.3496          1.962       -67.9153       -22.6772     0.06012726
      1238.5000         2.7896        15.2871        588.876          1.954       -68.1124       -22.8743     0.05116827
      1239.0000         2.7748        15.3331        591.918         1.9475       -68.3336       -23.0955     0.04111342
      1239.5000         2.8186        15.3452       593.3779         1.9439       -68.7538       -23.5157     0.02201358
      1240.0000         2.8623        15.3869       594.8389         1.9402       -69.1974       -23.9593    0.001849781
      1240.5000         2.9012        15.3888       595.5322         1.9356        -69.536       -24.2979              0
      1241.0000         2.9277        15.3523       595.8975         1.9311       -69.6774       -24.4393              0
      1241.5000         2.9542        15.3788       595.9482          1.926       -69.7854       -24.5473              0
      1242.0000         2.9709         15.385       595.3135         1.9206       -69.8855       -24.6474              0
      1242.5000         2.9592         15.385       594.6787         1.9148       -69.9539      -24.71581              0
      1243.0000         2.9476        15.3212        594.291         1.9082       -69.9691        -24.731              0
      1243.5000         2.9359        15.1233       593.9219         1.9015       -69.9843       -24.7462              0
      1244.0000         2.9243         14.856       595.1846         1.8976       -69.8788       -24.6407              0
      1244.5000            2.9        14.7681       596.8516         1.8939        -69.739       -24.5009              0
      1245.0000         2.8611        14.7413       600.2148         1.8902       -69.5022       -24.2641              0
      1245.5000         2.8223        14.8571       604.2139          1.887       -69.1072       -23.8691    0.005949887
      1246.0000         2.7758        14.9756       610.5215          1.884       -68.5398       -23.3017     0.03174071
      1246.5000          2.726        14.9873       610.1133         1.8806       -68.0721        -22.834     0.05300002
      1247.0000         2.6761        14.8778       609.4395         1.8752       -67.5515       -22.3134     0.07666362
      1247.5000         2.6268        14.7732       608.7646         1.8698       -67.2655       -22.0274     0.08966342
      1248.0000          2.586        14.9878       605.3711         1.8714       -67.0479       -21.8098     0.09955458
      1248.5000         2.6202        15.1685       600.0586         1.8735       -66.9565       -21.7184      0.1037091
      1249.0000         2.7501        15.2811       593.8105         1.8756       -67.1024       -21.8643     0.09707711
      1249.5000         2.8612        15.3279       586.6875         1.8817       -67.2896       -22.0515     0.08856826
      1250.0000         2.9485        15.1777       577.1895         1.9189       -67.8359       -22.5978     0.06373631
      1250.5000         2.9571        15.0061       568.2764         1.9668       -68.2126       -22.9745     0.04661352
      1251.0000         2.9877        14.8303       559.0488         2.0156        -68.576       -23.3379     0.03009553
      1251.5000         3.0231        14.6919       547.6406         2.0931       -68.8213       -23.5832     0.01894552
      1252.0000         3.0584        14.7644       534.9521         2.1672        -69.048       -23.8099    0.008640983
      1252.5000         3.0937        15.2161       519.1807         2.2103        -69.215       -23.9769    0.001050082
      1253.0000         3.1486        15.3785       495.1274         2.2534       -69.2899       -24.0518              0
      1253.5000         3.2959         15.409       471.0996          2.366       -69.2517       -24.0136              0
      1254.0000         3.4489         15.409       463.8354         2.4715       -69.1849       -23.9468    0.002418171
      1254.5000         3.5679        15.4031       464.2437         2.5616       -69.1182       -23.8801    0.005449815
      1255.0000         3.5492        15.3891       466.2187         2.5881       -68.7885       -23.5504     0.02043637
      1255.5000         3.4979        15.3941       470.2466          2.669       -68.4147      -23.17661     0.03742703
      1256.0000         3.4448        15.4014       475.2417          2.651       -67.9626       -22.7245     0.05797715
      1256.5000         3.3916        15.4118       481.3857         2.6349       -67.3721        -22.134     0.08481806
      1257.0000         3.3537        15.4216       485.7354          2.617       -66.5334       -21.2953      0.1229408
      1257.5000         3.3224        15.4306       488.0522         2.5802       -66.1375       -20.8994      0.1409364
      1258.0000         3.2854         15.438       491.9766         2.5382       -65.7417       -20.5036      0.1589272
      1258.5000         3.2411        15.4449       502.2905         2.5147       -65.3826       -20.1445        0.17525
      1259.0000         3.2096        15.4378       519.8203         2.4994       -64.9967       -19.7586       0.192791
      1259.5000          3.107        15.4255       550.4746         2.4693       -64.4497       -19.2116      0.2176545
      1260.0000         2.8506        15.4024       589.8604         2.4335       -63.7674       -18.5293      0.2486681
      1260.5000         2.7374        15.3837       628.3145         2.3681       -62.4432       -17.2051      0.3088591
      1261.0000         2.6483        15.3248       666.7686         2.2364       -61.1147       -15.8766      0.3692454
      1261.5000         2.5339        15.0996       705.2285         2.1329       -58.6563       -13.4182      0.4809909
      1262.0000         2.4042        14.1333       743.6826         1.8819       -57.0593       -11.8212      0.5535818
      1262.5000         2.2683        13.2152       775.1035         1.7036       -50.3282      -5.090103      0.8595408
      1263.0000         2.0191        12.7742       821.8486         1.4938        -49.074      -3.835903      0.9165499
      1263.5000         1.8339        12.5412       829.5088         1.3793       -47.6729      -2.434803      0.9802362
      1264.0000         1.7999        12.4458       835.7246         1.3304       -46.6118      -1.373703              1
      1264.5000         1.7724        12.3792       839.6152         1.2921       -45.7182     -0.4801025              1
      1265.0000         1.7613        12.3334       841.4932         1.2834       -45.2562    -0.01810074              1
      1265.5000         1.7568        12.3025       843.3701         1.2798       -44.9574      0.2806969              1
      1266.0000         1.7523        12.2855       842.2939         1.2791       -44.8148      0.4232979              1
      1266.5000         1.7465        12.2676       840.8418         1.2804       -44.6745      0.5635986              1
      1267.0000         1.7371        12.2448       838.4717         1.2817       -44.5349      0.7031975              1
      1267.5000         1.7246         12.231       836.1621         1.2839        -44.333       0.905098              1
