#------------------------------------------------------------------------------
# Created by    : vladimir.rabinovich
# Created on    : 09/19/2023 17:20:34
#------------------------------------------------------------------------------
~Version Information Section
VERS.           2.0     :   CWLS log ASCII Standard - VERSION 2.0
WRAP.           NO      :   One line per depth step
~Well Information Section
#MNEM       .UNIT                                         VALUE :DESCRIPTION
#------------------------------------------------------------------------------
STRT        .FT                                             500 :START DEPTH
STOP        .FT                                            9234 :STOP DEPTH
STEP        .FT                                             0.5 :STEP      
NULL        .                                           -999.25 :NULL      
COMP        .                                      SHELL OIL CO :COMPANY   
WELL        .                                OCS 00713 ST00BP00 :WELL      
FLD         .                                           WILDCAT :FIELD     
LOC         .                                                   :LOCATION  
CNTY        .                             GALVESTON LARGE BLOCK :LOCATION  
STAT        .                                             TEXAS :STATE     
CTRY        .                                     UNITED STATES :COUNTRY   
SRVC        .                                                   :SERVICE COMPANY
DATE        .                             9/13/2023 11:19:25 AM :LOG DATE  
API         .                                    42706000510000 :API NUMBER
UWI         .                                    42706000510000 :UNIQUE WELL ID
XCOORD      .                                  1104646.85179908 :SURFACE X 
YCOORD      .                                   10481381.387581 :SURFACE Y 
LAT         .                                         28.871549 :LATITUDE  
LON         .                                        -94.674396 :LONGITUDE 
ELEV        .FT                                              82 :ELEVATION VALUE
ELEV_TYPE   .                                                KB :ELEVATION REFERENCE TYPE
~Curve Information Section
#MNEM       .UNIT                                      API CODE :CURVE DESCRIPTION
#------------------------------------------------------------------------------
DEPT        .FT                                                 :DEPTH     
ASN         .OHMM                                               :          
ASN_1       .OHMM                                               :          
GR_NORM     .                                                   :GammaRay Normalized
ILD         .OHMM                                               :          
LAT         .OHMM                                               :          
LN          .OHMM                                               :          
SP          .MV                                                 :          
SP_1        .MV                                                 :          
SP_NORM     .MV                                                 :SP Normalized
VSH_SP      .V/V                                                :Volume of Shale from SP
~A        DEPTH            ASN          ASN_1        GR_NORM            ILD            LAT             LN             SP           SP_1        SP_NORM         VSH_SP
       500.0000        -999.25         0.0927        -999.25        -999.25         0.1408         0.1062        -999.25      -154.1179       2.196403              1
       500.5000        -999.25         0.1398        -999.25        -999.25         0.1427         0.4203        -999.25      -152.4756      0.1440825              1
       501.0000        -999.25         0.1864        -999.25        -999.25         0.1446         0.5941        -999.25      -150.5681       3.389843              1
       501.5000        -999.25         0.2205        -999.25        -999.25         0.1461         0.6807        -999.25      -147.6609      0.2435797              1
       502.0000        -999.25         0.2605        -999.25        -999.25         0.1475         0.7603        -999.25      -137.7803     -0.6727245              1
       502.5000        -999.25         0.3323        -999.25        -999.25          0.149         0.8367        -999.25      -104.4955     -0.8264197              1
       503.0000        -999.25         0.7891        -999.25        -999.25         0.1502         0.8865        -999.25       -82.2535       2.609879              1
       503.5000        -999.25         0.8316        -999.25        -999.25         0.1507         0.9354        -999.25       -79.9927      0.2742191              1
       504.0000        -999.25         0.9095        -999.25        -999.25         0.1512         0.9831        -999.25       -79.3962       3.487534              1
       504.5000        -999.25         0.9742        -999.25        -999.25         0.1505         1.0301        -999.25       -78.9501      0.3788468              1
       505.0000        -999.25         1.0438        -999.25        -999.25         0.1492          1.077        -999.25       -78.5416      0.1332461              1
       505.5000        -999.25         1.0959        -999.25        -999.25         0.1362         1.1172        -999.25       -77.8003      0.6583846              1
       506.0000        -999.25          1.118        -999.25        -999.25         0.1171         1.1556        -999.25       -77.7914       1.932404              1
       506.5000        -999.25         1.1364        -999.25        -999.25          0.107         1.1867        -999.25       -79.1869     -0.5706941              1
       507.0000        -999.25         1.1525        -999.25        -999.25         0.0968         1.2154        -999.25       -80.8134     -0.3458415              1
       507.5000        -999.25         1.1646        -999.25        -999.25         0.1009          1.244        -999.25       -82.4215     -0.1763962              1
       508.0000        -999.25          1.175        -999.25        -999.25         0.1051         1.2683        -999.25       -84.2694      -1.194964              1
       508.5000        -999.25         1.1848        -999.25        -999.25         0.1147         1.2921        -999.25       -85.4763     -0.5384846              1
       509.0000        -999.25          1.194        -999.25        -999.25          0.124         1.3145        -999.25       -86.2192       3.171831              1
       509.5000        -999.25         1.2024        -999.25        -999.25         0.1328         1.3363        -999.25       -86.4164     -0.5636033              1
       510.0000        -999.25         1.2111        -999.25        -999.25         0.1388         1.3551        -999.25       -84.6042       1.588086              1
       510.5000        -999.25          1.222        -999.25        -999.25         0.1379         1.3661        -999.25       -84.2263      -5.278931      0.8738873
       511.0000        -999.25         1.2296        -999.25        -999.25         0.1369          1.377        -999.25       -83.8452      -4.897827      0.8885451
       511.5000        -999.25         1.2258        -999.25        -999.25         0.1359         1.3871        -999.25       -83.4519      -4.504524      0.9036722
       512.0000        -999.25         1.2206        -999.25        -999.25         0.1349         1.3972        -999.25       -83.0338      -4.086426      0.9197528
       512.5000        -999.25         1.2149        -999.25        -999.25          0.133         1.4072        -999.25       -82.8671      -3.919731      0.9261642
       513.0000        -999.25         1.2095        -999.25        -999.25         0.1301         1.4165        -999.25       -83.3405      -4.393127      0.9079567
       513.5000        -999.25         1.2058        -999.25        -999.25         0.1272         1.4254        -999.25       -83.8132      -4.865829      0.8897758
       514.0000        -999.25         1.2023        -999.25        -999.25          0.126         1.4343        -999.25       -84.2577      -5.310326      0.8726798
       514.5000        -999.25         1.2087        -999.25        -999.25         0.1287         1.4431        -999.25       -84.5382      -5.590828      0.8618912
       515.0000        -999.25         1.2151        -999.25        -999.25         0.1315          1.452        -999.25        -83.217       -4.26963      0.9127065
       515.5000        -999.25         1.2198        -999.25        -999.25         0.1345         1.4595        -999.25        -82.882      -3.934631      0.9255911
       516.0000        -999.25         1.2233        -999.25        -999.25         0.1392         1.4662        -999.25       -82.5469      -3.599525      0.9384798
       516.5000        -999.25         1.2229        -999.25        -999.25         0.1439         1.4729        -999.25       -82.2385       -3.29113      0.9503412
       517.0000        -999.25         1.2225        -999.25        -999.25         0.1502         1.4796        -999.25       -82.0428      -3.095428      0.9578682
       517.5000        -999.25         1.2211        -999.25        -999.25          0.158         1.4844        -999.25        -81.847      -2.899628      0.9653989
       518.0000        -999.25          1.219        -999.25        -999.25         0.1722         1.4881        -999.25       -81.6385      -2.691124      0.9734183
       518.5000        -999.25         1.2228        -999.25        -999.25         0.1912         1.4919        -999.25       -81.4209      -2.473526      0.9817874
       519.0000        -999.25         1.2341        -999.25        -999.25         0.2417         1.4955        -999.25       -82.3701      -3.422729      0.9452797
       519.5000        -999.25         1.2419        -999.25        -999.25         0.3278         1.4986        -999.25        -83.176       -4.22863      0.9142835
       520.0000        -999.25           1.25        -999.25        -999.25         0.4315         1.5018        -999.25       -83.5194      -4.572029      0.9010758
       520.5000        -999.25         1.2559        -999.25        -999.25         0.6339         1.5046        -999.25       -83.8304      -4.883026      0.8891144
       521.0000        -999.25         1.2521        -999.25        -999.25          0.844         1.5067        -999.25       -84.1089       -5.16153      0.8784027
       521.5000        -999.25         1.2443        -999.25        -999.25         1.0661         1.5088        -999.25       -84.3873      -5.439926      0.8676952
       522.0000        -999.25         1.2364        -999.25        -999.25         1.2823         1.5127        -999.25       -84.7273       -5.77993      0.8546181
       522.5000        -999.25         1.2264        -999.25        -999.25         1.3604         1.5182        -999.25       -84.7428      -5.795425      0.8540221
       523.0000        -999.25         1.2168        -999.25        -999.25         1.4403         1.5238        -999.25       -83.6162      -4.668831      0.8973526
       523.5000        -999.25         1.2085        -999.25        -999.25         1.4844         1.5283        -999.25       -83.1154       -4.16803      0.9166142
       524.0000        -999.25         1.2029        -999.25        -999.25         1.5016          1.532        -999.25       -82.6229      -3.675529      0.9355565
