#------------------------------------------------------------------------------
# Created by    : vladimir.rabinovich
# Created on    : 09/19/2023 17:22:43
#------------------------------------------------------------------------------
~Version Information Section
VERS.           2.0     :   CWLS log ASCII Standard - VERSION 2.0
WRAP.           NO      :   One line per depth step
~Well Information Section
#MNEM       .UNIT                                         VALUE :DESCRIPTION
#------------------------------------------------------------------------------
STRT        .FT                                            3600 :START DEPTH
STOP        .FT                                            7940 :STOP DEPTH
STEP        .FT                                             0.5 :STEP      
NULL        .                                           -999.25 :NULL      
COMP        .                          SEAGULL ENERGY E & P INC :COMPANY   
WELL        .                               OCS G09015 ST00BP00 :WELL      
FLD         .                                 BRAZOS BLOCK 0431 :FIELD     
LOC         .                                                   :LOCATION  
CNTY        .                                BRAZOS LARGE BLOCK :LOCATION  
STAT        .                                             TEXAS :STATE     
CTRY        .                                     UNITED STATES :COUNTRY   
SRVC        .                                                   :SERVICE COMPANY
DATE        .                             9/13/2023 11:09:51 AM :LOG DATE  
API         .                                    42704402370000 :API NUMBER
UWI         .                                    42704402370000 :UNIQUE WELL ID
XCOORD      .                                  876086.487249857 :SURFACE X 
YCOORD      .                                  10366258.6106956 :SURFACE Y 
LAT         .                                        28.5443209 :LATITUDE  
LON         .                                       -95.3810825 :LONGITUDE 
ELEV        .FT                                              90 :ELEVATION VALUE
ELEV_TYPE   .                                                KB :ELEVATION REFERENCE TYPE
~Curve Information Section
#MNEM       .UNIT                                      API CODE :CURVE DESCRIPTION
#------------------------------------------------------------------------------
DEPT        .FT                                                 :DEPTH     
DCAL        .IN                                                 :          
DPHI        .%                                                  :          
GR          .GAPI                                               :          
GR_NORM     .GAPI                                               :GammaRay Normalized
ILD         .OHMM                                               :          
ILM         .OHMM                                               :          
NPHI        .%                                                  :          
SGRD        .OHMM                                               :          
SP          .MV                                                 :          
SP_NORM     .MV                                                 :SP Normalized
VSH_GR      .V/V                                                :Volume of Shale from GR
VSH_SP      .V/V                                                :Volume of Shale from SP
~A        DEPTH           DCAL           DPHI             GR        GR_NORM            ILD            ILM           NPHI           SGRD             SP        SP_NORM         VSH_GR         VSH_SP
# ...
      4461.0000         1.9568         34.397        48.5822       34.49449         0.3002         0.3634        38.1222         0.6797       -71.1449      -17.39552     0.03179769      0.1897095
      4461.5000         1.8048        34.3596        48.7502        34.8043         0.3309         0.3702        37.6642         0.6655       -69.0516      -15.29243     0.03838933      0.3003982
      4462.0000         1.7377        33.4688        51.8336       40.52689         0.3684         0.3881         39.012         0.6528        -66.389      -12.62006      0.1601466      0.4410497
      4462.5000         1.7328        32.0363        55.7128       47.72695         0.4083         0.4133        41.0577         0.6477       -63.1247       -9.34597      0.3133393        0.61337
      4463.0000         1.7572        29.8655        62.1269       59.63338         0.4476         0.4439        42.9928          0.683       -58.5056      -4.717091      0.5666677      0.8569952
      4463.5000         1.8074        27.3629        66.8879        68.4706         0.4896         0.4822        44.4918         0.7182       -56.2638      -2.465508      0.7546936      0.9754996
      4464.0000         1.9208        25.6554        69.0464         72.476          0.539         0.5322        45.5087         0.7504       -55.6832      -1.875126      0.8399149              1
      4464.5000         2.0294        24.6694        71.1241       76.33138         0.5906         0.5897        45.6973         0.7714       -56.2599      -2.442043      0.9219443      0.9767346
      4465.0000         2.0239        24.9897        71.6647       77.33299         0.6422         0.6478         45.584         0.7878       -57.8334       -4.00576      0.9432552      0.8944337
      4465.5000         2.0234        25.5929        70.2709       74.74312          0.688         0.7062        44.8237         0.8022       -59.2409      -5.403477      0.8881515      0.8208696
      4466.0000         2.0278        25.9013        68.7507       71.91863          0.708         0.7476        43.9684         0.8111       -60.2745      -6.427296       0.828056      0.7669845
      4466.5000         2.0205        26.1067        69.8032       73.87061         0.6984         0.7513        43.5596          0.817        -61.262      -7.405014      0.8695875      0.7155256
      4467.0000         2.0057         26.445        70.2126        74.6286         0.6704         0.7427        44.0237         0.8196       -62.2005      -8.333729      0.8857149      0.6666458
      4467.5000         2.0083        26.8939        71.7924       77.55959         0.6175         0.7117         44.564         0.8186       -63.3514      -9.474846      0.9480763      0.6065871
      4468.0000         2.0122         27.653        71.7533       77.48489         0.5574         0.6781        44.9818         0.8086       -64.8767      -10.99036      0.9464869      0.5268229
      4468.5000         2.0121        29.6314        69.3252       72.97475         0.5079         0.6299        44.2794          0.793        -67.512      -13.61588      0.8505267      0.3886378
      4469.0000         1.8404        31.7092        62.8303       60.91412         0.4699         0.5741        42.8597         0.7668       -69.8671       -15.9612      0.5939175         0.2652
      4469.5000         1.6781        33.0343        53.7901       44.12787         0.4471         0.5269        41.2838         0.7425       -71.7598      -17.84412      0.2367632       0.166099
      4470.0000         1.5695        32.6688        50.0535       37.18836         0.4337         0.4982        40.1086         0.7202       -72.3053      -18.37983       0.089114      0.1379035
      4470.5000         1.5263        31.2812        49.5608       36.27151          0.422         0.4797        39.2028         0.7011       -71.5045      -17.56925     0.06960662      0.1805657
      4471.0000         1.6766        28.9581        50.2808       37.60618         0.4118         0.4711        38.3049         0.7004        -70.151      -16.20597     0.09800387      0.2523173
      4471.5000         1.8376        26.9508        53.2274       43.07479         0.4017         0.4655        37.5682         0.7278       -68.8992      -14.94439      0.2143572      0.3187166
      4472.0000         1.9704        25.8602        56.3641       48.89633         0.3973         0.4602        37.4761         0.7759       -68.4564       -14.4918      0.3382198      0.3425367
      4472.5000         1.9667        27.7444         59.084       53.94403         0.4004         0.4552        38.3803         0.7955        -68.412      -14.43762      0.4456178      0.3453883
      4473.0000         1.8436        30.1413        61.9081       59.18519         0.4026         0.4515        39.7182         0.7788       -68.2319      -14.24774      0.5571318       0.355382
      4473.5000         1.5404        31.1385        64.1812       63.40335         0.4032         0.4494        41.4096         0.7462       -67.6428      -13.64885      0.6468797      0.3869025
      4474.0000         1.1559         30.593        66.5259       67.75446         0.3996         0.4494        42.5447         0.7222       -66.8085      -12.80478      0.7394567      0.4313276
      4474.5000         1.0264        30.1891        68.5514       71.51292         0.3875         0.4512        43.2912         0.7123       -65.6388      -11.62529      0.8194239      0.4934058
      4475.0000         1.1283        30.4811        67.8689       70.24369          0.367         0.4521        43.6481         0.7064       -65.3085      -11.28521       0.792419      0.5113047
      4475.5000         1.2714        31.9994         65.631       66.08666         0.3509         0.4496        43.2846         0.7041       -66.3988      -12.36573      0.7039716      0.4544353
      4476.0000         1.2255        34.2006         62.338       59.97075         0.3554         0.4429        41.6589         0.7023       -67.1996      -13.15674      0.5738457      0.4128031
      4476.5000         1.0416        36.0884        60.2342       56.06271         0.3606         0.4324        40.2841         0.7023        -67.325      -13.27236      0.4906959       0.406718
      4477.0000         0.8818        36.1678         61.301       58.04125         0.3659         0.4195        39.0881         0.7022       -66.6907      -12.62827      0.5327925      0.4406172
      4477.5000         0.7581        34.0941        66.6183       67.91134         0.3673         0.4241        38.5294         0.7022       -64.7504      -10.67819      0.7427945      0.5432531
      4478.0000         0.7123        32.2944        73.8583        81.3511         0.3648         0.4338         39.719         0.7019       -62.4864      -8.404411              1      0.6629257
      4478.5000         0.7521        30.9533        77.0211       87.22111         0.3617         0.4419        41.3735         0.7007       -61.7443      -7.652531              1      0.7024984
      4479.0000         0.9009        29.8126        79.0636       91.01115         0.3642         0.4493        43.1475         0.6995       -61.7804      -7.678844              1      0.7011135
      4479.5000         1.0882         30.898        75.7576       84.87108          0.373         0.4567        43.6838         0.6972       -64.9771      -10.86576              1       0.533381
      4480.0000         1.2914        33.1425        68.1138        70.6774         0.3864         0.4633        41.7599         0.6951       -67.5829      -13.46178      0.8016468      0.3967484
      4480.5000         1.4615        34.3345         61.585       58.55384         0.4038          0.471        39.4384         0.6943       -68.2257       -14.0948      0.5436987      0.3634316
      4481.0000         1.4134        34.8674        56.9008         49.855         0.4174         0.4847        37.2083         0.6954        -68.241      -14.10032       0.358617      0.3631413
