#------------------------------------------------------------------------------
# Created by    : vladimir.rabinovich
# Created on    : 09/19/2023 17:19:44
#------------------------------------------------------------------------------
~Version Information Section
VERS.           2.0     :   CWLS log ASCII Standard - VERSION 2.0
WRAP.           NO      :   One line per depth step
~Well Information Section
#MNEM       .UNIT                                         VALUE :DESCRIPTION
#------------------------------------------------------------------------------
STRT        .FT                                            2932 :START DEPTH
STOP        .FT                                           14530 :STOP DEPTH
STEP        .FT                                             0.5 :STEP      
NULL        .                                           -999.25 :NULL      
COMP        .                                 MESA PETROLEUM CO :COMPANY   
WELL        .                                 ST TR 00022-L W/2 :WELL      
FLD         .                                           WILDCAT :FIELD     
LOC         .                                                   :LOCATION  
CNTY        .                           HIGH ISLAND LARGE BLOCK :LOCATION  
STAT        .                                             TEXAS :STATE     
CTRY        .                                     UNITED STATES :COUNTRY   
SRVC        .                                                   :SERVICE COMPANY
DATE        .                             9/13/2023 11:19:15 AM :LOG DATE  
API         .                                    42708300770000 :API NUMBER
UWI         .                                    42708300770000 :UNIQUE WELL ID
XCOORD      .                                  1307803.37781852 :SURFACE X 
YCOORD      .                                  10713200.3443699 :SURFACE Y 
LAT         .                                         29.515602 :LATITUDE  
LON         .                                       -94.0460534 :LONGITUDE 
ELEV        .FT                                              85 :ELEVATION VALUE
ELEV_TYPE   .                                                KB :ELEVATION REFERENCE TYPE
~Curve Information Section
#MNEM       .UNIT                                      API CODE :CURVE DESCRIPTION
#------------------------------------------------------------------------------
DEPT        .FT                                                 :DEPTH     
ASFL        .OHMM                                               :          
CILD        .MMHO                                               :          
ILD         .OHMM                                               :          
SP          .MV                                                 :          
SP_NORM     .MV                                                 :SP Normalized
VSH_SP      .V/V                                                :Volume of Shale from SP
~A        DEPTH           ASFL           CILD            ILD             SP        SP_NORM         VSH_SP
      2932.0000         0.0562       2060.375          0.017        -95.668      -3.844101      0.9322833
      2932.5000         0.0659       1791.625         0.0142       -96.6372      -5.053925       0.903478
      2933.0000         0.0821       1522.875         0.0114       -97.6577      -6.315056      0.8734511
      2933.5000         0.0983       1254.125         0.0086       -98.8721      -7.770081      0.8388076
      2934.0000         0.1418        985.375         0.0113       -99.7373      -8.875908      0.8124784
      2934.5000         0.1695        716.625         0.0316       -98.8779      -8.257133      0.8272111
      2935.0000          0.201            448         0.0519       -97.8857      -7.505562      0.8451056
      2935.5000         0.2251       312.4219         0.0722       -96.8071      -6.667587      0.8650575
      2936.0000          0.355       318.6875         0.0954        -95.729      -5.830116      0.8849972
      2936.5000         0.4234        383.375         0.1357       -94.6279      -4.969643      0.9054847
      2937.0000         0.4591       520.6875          0.176       -93.3252       -3.90757      0.9307721
      2937.5000          0.482       676.5625         0.2164       -93.2244      -4.047401      0.9274428
      2938.0000         0.5085           1660         0.2567       -93.4095      -4.473122      0.9173066
      2938.5000         0.5558       2933.625         0.3111       -93.3943      -4.698555      0.9119391
      2939.0000         0.5872        2694.25         0.3715       -92.7739      -4.318779      0.9209815
      2939.5000         0.6045           2455         0.4431       -93.0527      -4.838203      0.9086142
      2940.0000         0.6312       2418.938         0.4257       -94.2197      -6.245834      0.8750992
      2940.5000         0.6219       2472.094         0.4083       -95.3643      -7.631065      0.8421175
      2941.0000         0.6126         2676.5         0.3915       -96.4805      -8.987885      0.8098122
      2941.5000         0.6033       3281.688         0.3765       -97.5061      -10.25411       0.779664
      2942.0000          0.594       3385.625         0.3614       -98.1274      -11.11604      0.7591418
      2942.5000         0.5831       3455.906         0.3463       -98.7488      -11.97807      0.7386175
      2943.0000         0.5723       3543.688         0.3312       -99.1245      -12.59439      0.7239431
      2943.5000         0.5614       3605.125         0.3162        -98.249      -11.95952      0.7390591
      2944.0000         0.5492       3645.172         0.3069       -97.3594      -11.31055      0.7545108
      2944.5000         0.5359       3674.688         0.2984       -97.0229      -11.21468      0.7567934
      2945.0000         0.5233         3723.5         0.2899       -98.2378       -12.6702       0.722138
      2945.5000         0.5255       3765.688          0.292       -99.0498      -13.72282      0.6970756
      2946.0000         0.5277        3660.75         0.3044       -98.9194      -13.83305      0.6944511
      2946.5000         0.5298       3555.813         0.3169       -98.1655      -13.31978       0.706672
      2947.0000          0.532        3399.75         0.3294       -97.4116       -12.8065      0.7188928
      2947.5000         0.5326       3227.438         0.3418       -96.6577      -12.29324      0.7311134
      2948.0000         0.5325           3004         0.3543       -95.1172      -10.99336      0.7620628
      2948.5000         0.5325        2893.75         0.3743       -95.8633      -11.98009      0.7385694
      2949.0000         0.5325       2794.875          0.396       -97.3506      -13.70802      0.6974282
      2949.5000         0.5383        2707.75         0.4176       -97.2344      -13.83244      0.6944656
      2950.0000         0.5534       2623.938         0.4393       -87.3145      -4.153168      0.9249246
      2950.5000         0.5684       2540.125          0.461       -85.4673      -2.546593      0.9631764
      2951.0000         0.5784       2456.313         0.4827       -83.7314      -1.051323       0.998778
      2951.5000         0.5725       2389.063         0.4769       -81.6709      0.7685547              1
      2952.0000         0.5661       2322.969         0.4704       -81.0884        1.11042              1
      2952.5000         0.5598       2258.594         0.4639       -80.3296       1.628601              1
      2953.0000         0.5517       2210.969         0.4574       -79.0312       2.349777              1
      2953.5000         0.5423       2231.922         0.4509       -77.0947       2.180786              1
      2954.0000         0.5329       2265.641         0.4443       -74.2402        2.92981              1
      2954.5000         0.5234       2299.344         0.4371       -72.3184       2.746124              1
      2955.0000         0.5148       2363.063         0.4294       -72.6311      0.3279343              1
      2955.5000         0.5082       2429.094         0.4217       -73.1968      -2.343246      0.9680179
      2956.0000         0.5015       2496.344          0.414       -74.9727      -5.808495      0.8855121
      2956.5000         0.4962       2564.438         0.4063       -76.9316       -7.85553      0.8367731
      2957.0000         0.4943       2629.688         0.3986       -77.7188      -8.730865      0.8159318
      2957.5000         0.4925       2620.328          0.391        -74.584      -5.684204      0.8884713
      2958.0000         0.4906       2592.172         0.3904       -71.4492      -2.637543      0.9610109
      2958.5000         0.4875       2551.156         0.3929       -69.5918     -0.8682709              1
      2959.0000         0.4815        2522.27         0.3954        -68.522      0.1133881              1
      2959.5000         0.4755       2529.066         0.3979       -67.6426      0.9046478              1
      2960.0000         0.4715       2535.863         0.4004       -68.4702    -0.01108551              1
      2960.5000         0.4876        2539.75         0.4029       -69.8608      -1.489822      0.9883376
      2961.0000         0.5037       2525.039         0.4101       -72.5918      -4.308952      0.9212154
      2961.5000         0.5198       2510.328         0.4186       -75.8281        -7.6334      0.8420619
      2962.0000         0.5359       2484.219         0.4272       -79.4902      -11.38363      0.7527707
      2962.5000         0.5536       2503.477         0.4357       -83.2734      -15.25497       0.660596
      2963.0000         0.5779       2522.727         0.4442       -84.9072      -16.97691      0.6195975
      2963.5000         0.5945       2551.234         0.4527       -86.2139      -18.37173      0.5863873
      2964.0000         0.5945       2586.609         0.4612       -89.4941      -21.74008      0.5061885
      2964.5000         0.5905       2621.984          0.464       -91.3848      -23.71892      0.4590734
      2965.0000         0.5867       2657.359         0.4661        -86.873      -19.29525      0.5643988
      2965.5000         0.5831       2633.688         0.4682       -84.0762      -16.58659      0.6288908
      2966.0000         0.5796       2577.938         0.4704       -82.5615      -15.16003      0.6628565
      2966.5000         0.5788       2522.219         0.4725       -81.1621      -13.84876      0.6940771
      2967.0000          0.591         2466.5         0.4724        -79.707       -12.4818      0.7266239
      2967.5000         0.6031        2410.75         0.4716       -79.7419      -12.60483      0.7236946
      2968.0000         0.6019       2355.031         0.4708       -80.4133      -13.36437      0.7056102
      2968.5000         0.5983       2308.391           0.47       -81.0847      -14.12391       0.687526
      2969.0000         0.5938       2267.078         0.4692       -81.7561      -14.88345      0.6694418
      2969.5000         0.5893        2225.75         0.4684       -81.7168      -14.93227      0.6682792
