#------------------------------------------------------------------------------
# Created by    : vladimir.rabinovich
# Created on    : 09/19/2023 17:20:38
#------------------------------------------------------------------------------
~Version Information Section
VERS.           2.0     :   CWLS log ASCII Standard - VERSION 2.0
WRAP.           NO      :   One line per depth step
~Well Information Section
#MNEM       .UNIT                                         VALUE :DESCRIPTION
#------------------------------------------------------------------------------
STRT        .FT                                             510 :START DEPTH
STOP        .FT                                            8711 :STOP DEPTH
STEP        .FT                                             0.5 :STEP      
NULL        .                                           -999.25 :NULL      
COMP        .                                      SHELL OIL CO :COMPANY   
WELL        .                                OCS 00708 ST00BP00 :WELL      
FLD         .                                           WILDCAT :FIELD     
LOC         .                                                   :LOCATION  
CNTY        .                             GALVESTON LARGE BLOCK :LOCATION  
STAT        .                                             TEXAS :STATE     
CTRY        .                                     UNITED STATES :COUNTRY   
SRVC        .                                                   :SERVICE COMPANY
DATE        .                             9/13/2023 11:19:25 AM :LOG DATE  
API         .                                    42706000300000 :API NUMBER
UWI         .                                    42706000300000 :UNIQUE WELL ID
XCOORD      .                                  1082576.09526943 :SURFACE X 
YCOORD      .                                  10493698.2734572 :SURFACE Y 
LAT         .                                         28.904546 :LATITUDE  
LON         .                                        -94.743912 :LONGITUDE 
ELEV        .FT                                              92 :ELEVATION VALUE
ELEV_TYPE   .                                                KB :ELEVATION REFERENCE TYPE
~Curve Information Section
#MNEM       .UNIT                                      API CODE :CURVE DESCRIPTION
#------------------------------------------------------------------------------
DEPT        .FT                                                 :DEPTH     
ASN         .OHMM                                               :          
CILD        .MMHO                                               :          
DT          .US/F                                               :          
ILD         .OHMM                                               :          
SP          .MV                                                 :          
SP_NORM     .MV                                                 :SP Normalized
VSH_SP      .V/V                                                :Volume of Shale from SP
~A        DEPTH            ASN           CILD             DT            ILD             SP        SP_NORM         VSH_SP
# ...
      8684.0000         0.9652       1300.404       105.8382         0.8324       -36.8912     -0.3058357              1
      8684.5000         0.9619       1334.342       106.0486         0.8428       -36.8822      -0.296833              1
      8685.0000         0.9585       1350.605       107.3064         0.8531       -36.8732     -0.2878342              1
      8685.5000         0.9473           1363       107.7961         0.8634       -36.8641     -0.2787361              1
      8686.0000         0.9312       1370.594       109.3333         0.8738       -36.8552     -0.2698364              1
      8686.5000         0.9179       1378.201       108.8454         0.8629       -36.8461     -0.2607346              1
      8687.0000         0.9089       1403.982        109.754         0.8406       -36.8372     -0.2518349              1
      8687.5000            0.9       1454.498        109.177         0.8183       -36.8266     -0.2412338              1
      8688.0000          0.891        1483.85       108.4436          0.796       -36.8121     -0.2267342              1
      8688.5000         0.8835       1545.504       108.1088         0.7737       -36.7975     -0.2121353              1
      8689.0000          0.876         1571.5       107.9421         0.7494        -36.783     -0.1976357              1
      8689.5000         0.8685       1587.518       107.6841          0.725       -36.7684      -0.183033              1
      8690.0000         0.8614       1596.578       107.2189         0.7007       -36.7539     -0.1685333              1
      8690.5000         0.8556       1603.346       108.2392          0.696       -36.8013     -0.2159348              1
      8691.0000         0.8498       1602.041       109.1125         0.6952       -36.8929     -0.3075333              1
      8691.5000         0.8441       1590.807       108.9112         0.6943       -36.9844     -0.3990364              1
      8692.0000         0.8393       1570.201       108.7883         0.6952       -37.0759     -0.4905357              1
      8692.5000          0.839       1541.389       108.8074         0.6985       -37.1676     -0.5822334              1
      8693.0000         0.8513       1517.563       109.5925         0.7017       -37.2591     -0.6737366              1
      8693.5000         0.8636       1501.836       110.7561          0.705       -37.3506     -0.7652359              1
      8694.0000         0.8759       1486.422       111.0941         0.7082       -37.2606     -0.6752357              1
      8694.5000         0.8856       1472.238       111.9623         0.7115       -37.0897     -0.5043335              1
      8695.0000          0.891       1458.033       113.7655         0.7147       -36.9184     -0.3330345              1
      8695.5000         0.8964       1447.316       114.9372         0.7179       -36.7474     -0.1620331              1
      8696.0000         0.9018       1437.652       113.8208         0.7212       -36.5762    0.009166718              1
      8696.5000         0.9015       1427.977       112.4948         0.7244       -36.4052      0.1801643              1
      8697.0000         0.8994       1418.525        109.423         0.7277       -36.3378      0.2475662              1
      8697.5000         0.8974       1409.252       108.7954         0.7309       -36.4735       0.111866              1
      8698.0000         0.8954       1400.785       108.9382         0.7319       -36.6093    -0.02393341              1
      8698.5000         0.8934       1410.125       109.4955         0.7315       -36.7449     -0.1595345              1
      8699.0000         0.8914       1419.475        104.749         0.7311       -36.8804     -0.2950363              1
      8699.5000         0.8893       1445.236        -999.25         0.7306       -37.0161     -0.4307365              1
      8700.0000         0.8873       1472.865        -999.25         0.7302       -37.1249     -0.5395355              1
      8700.5000         0.8857       1489.195        -999.25         0.7298       -37.2297     -0.6443329              1
      8701.0000         0.8848       1500.063        -999.25         0.7294       -37.3345     -0.7491341              1
      8701.5000         0.8839       1503.027        -999.25          0.729       -37.4393     -0.8539352              1
      8702.0000         0.8829        1505.99        -999.25         0.7286       -37.3608     -0.7754364              1
      8702.5000          0.882       1508.592        -999.25         0.7282       -37.2592     -0.6738358              1
      8703.0000          0.881       1495.393        -999.25         0.7278       -37.1575     -0.5721359              1
      8703.5000         0.8801       1484.777        -999.25         0.7273        -37.056     -0.4706345              1
      8704.0000         0.8791       1479.816        -999.25         0.7269       -36.9543     -0.3689346              1
      8704.5000         0.8782       1474.855        -999.25         0.7269       -36.8527      -0.267334              1
      8705.0000         0.8804       1471.953        -999.25          0.727       -36.7704     -0.1850357              1
      8705.5000         0.8867       1472.055        -999.25         0.7271       -36.9029     -0.3175354              1
      8706.0000         0.8931       1472.154        -999.25         0.7271       -37.0355     -0.4501343              1
      8706.5000         0.8962       1472.254        -999.25         0.7272        -37.168      -0.582634              1
      8707.0000         0.8919       1472.354        -999.25         0.7273       -37.3005     -0.7151337              1
      8707.5000         0.8876       1472.453        -999.25         0.7273        -37.433     -0.8476334              1
      8708.0000         0.8833       1472.547        -999.25         0.7274       -37.5656     -0.9802361              1
      8708.5000          0.879       1472.611        -999.25         0.7275        -37.577     -0.9916344              1
      8709.0000         0.8747       1472.676        -999.25         0.7272       -37.5809      -0.995533              1
      8709.5000         0.8703        1472.74        -999.25         0.7269       -37.5848     -0.9994354              1
      8710.0000         0.8705       1472.805        -999.25         0.7266       -37.5887      -1.003334      0.9999435
      8710.5000         0.8712       1472.869        -999.25         0.7263       -37.5926      -1.007236      0.9998773
      8711.0000          0.872       1472.936        -999.25         0.7259       -37.5965      -1.011135      0.9998113
