#------------------------------------------------------------------------------
# Created by    : vladimir.rabinovich
# Created on    : 09/19/2023 17:20:24
#------------------------------------------------------------------------------
~Version Information Section
VERS.           2.0     :   CWLS log ASCII Standard - VERSION 2.0
WRAP.           NO      :   One line per depth step
~Well Information Section
#MNEM       .UNIT                                         VALUE :DESCRIPTION
#------------------------------------------------------------------------------
STRT        .FT                                            1590 :START DEPTH
STOP        .FT                                            8991 :STOP DEPTH
STEP        .FT                                             0.5 :STEP      
NULL        .                                           -999.25 :NULL      
COMP        .                                 C & K OFFSHORE CO :COMPANY   
WELL        .                                OCS 00507 ST00BP00 :WELL      
FLD         .                                           WILDCAT :FIELD     
LOC         .                                                   :LOCATION  
CNTY        .                           HIGH ISLAND LARGE BLOCK :LOCATION  
STAT        .                                             TEXAS :STATE     
CTRY        .                                     UNITED STATES :COUNTRY   
SRVC        .                                                   :SERVICE COMPANY
DATE        .                             9/13/2023 11:19:15 AM :LOG DATE  
API         .                                    42708300260000 :API NUMBER
UWI         .                                    42708300260000 :UNIQUE WELL ID
XCOORD      .                                  1287575.74118613 :SURFACE X 
YCOORD      .                                  10681645.7296129 :SURFACE Y 
LAT         .                                         29.428295 :LATITUDE  
LON         .                                        -94.108714 :LONGITUDE 
ELEV        .FT                                              73 :ELEVATION VALUE
ELEV_TYPE   .                                                KB :ELEVATION REFERENCE TYPE
~Curve Information Section
#MNEM       .UNIT                                      API CODE :CURVE DESCRIPTION
#------------------------------------------------------------------------------
DEPT        .FT                                                 :DEPTH     
ASN         .OHMM                                               :          
CALI        .IN                                                 :          
CILD        .MMHO                                               :          
DT          .US/F                                               :          
GR          .GAPI                                               :          
GR_NORM     .GAPI                                               :GammaRay Normalized
ILD         .OHMM                                               :          
SP          .MV                                                 :          
SP_NORM     .MV                                                 :SP Normalized
VSH_GR      .V/V                                                :Volume of Shale from GR
VSH_SP      .V/V                                                :Volume of Shale from SP
~A        DEPTH            ASN           CALI           CILD             DT             GR        GR_NORM            ILD             SP        SP_NORM         VSH_GR         VSH_SP
# ...
      5527.5000         0.6876        10.3855       1910.908       134.4419        79.9624       86.91737         0.5859       -46.8557      -4.680008              1      0.9331427
      5528.0000         0.6844        10.4649       1920.717       131.7236        79.6332       86.50512         0.5847       -46.4354       -4.25906              1      0.9391563
      5528.5000         0.6807        10.4473       1926.283       128.5088        77.1205       83.36349         0.5835       -46.2693      -4.092312              1      0.9415384
      5529.0000         0.6771        10.4004       1928.297        126.123        74.2662       79.79485         0.5833        -46.143       -3.96537      0.9956352      0.9433519
      5529.5000         0.6735          10.34       1922.709       124.4674        71.9951       76.95523         0.5877       -46.0347      -3.856419      0.9352177      0.9449083
      5530.0000         0.6692        10.2848       1912.943       123.2764        69.9653       74.41723         0.5922       -45.9263      -3.747375      0.8812177      0.9464661
      5530.5000         0.6678         10.242       1903.168       121.5602        67.0698        70.7971         0.5981        -45.818      -3.638428      0.8041937      0.9480225
      5531.0000         0.6768        10.2163       1888.621       119.9701        64.2863       67.31697         0.6052       -45.7096      -3.529381      0.7301483      0.9495803
      5531.5000         0.6872        10.2031        1866.32       118.9545        64.0841       67.06346         0.6124       -45.6012      -3.420334      0.7247545      0.9511381
      5532.0000            0.7        10.1966        1844.02       119.7218        66.7656       70.41459         0.6195       -45.5531       -3.37159      0.7960551      0.9518344
      5532.5000         0.7127        10.2059       1804.412       120.8491        69.7946       74.20007         0.6262       -45.6808      -3.498642      0.8765973      0.9500194
      5533.0000         0.7249        10.2265       1752.818       121.1686        75.1064       80.83907         0.6327       -46.2164      -4.033596              1      0.9423772
      5533.5000         0.7355        10.2233       1690.686       120.0652        76.4536       82.52232         0.6363       -46.7379      -4.554447              1      0.9349365
      5534.0000          0.746        10.2252       1644.611       119.2078        75.5442       81.38481         0.6332       -46.7904        -4.6063              1      0.9341957
      5534.5000         0.7556         10.253       1607.576        118.333        75.0139       80.72119           0.63       -46.7595      -4.574753              1      0.9346464
      5535.0000         0.7648        10.2806       1585.551       118.2095         75.131       80.86681         0.6225       -46.6962      -4.510807              1      0.9355599
      5535.5000         0.7594        10.3078       1605.779       119.5463        75.8357       81.74693         0.6127       -46.7679       -4.58186              1      0.9345449
      5536.0000         0.7485        10.3335       1647.883       117.6906        77.0616       83.27855          0.603       -47.1349      -4.948212              1      0.9293113
      5536.5000         0.7401        10.3515       1722.551        114.436        78.5731       85.16717         0.5933       -47.6659      -5.478569              1      0.9217348
      5537.0000         0.7317        10.3581       1783.686       113.2914        79.2642       86.03029         0.5836       -48.5018       -6.31382              1      0.9098026
      5537.5000         0.7254        10.3405        1833.98       112.9139        77.0381       83.24692         0.5739        -49.852      -7.663376              1      0.8905232
      5538.0000         0.7223        10.2984       1933.621       114.9365        75.5099       81.33591         0.5619       -51.2853      -9.096027              1      0.8700567
      5538.5000         0.7207        10.2597        1967.41       115.4042        74.8567       80.51865         0.5472       -52.8107      -10.62078              1      0.8482745
      5539.0000           0.72        10.2309       1987.938       114.8945        74.2535       79.76391         0.5325       -54.2453      -12.05473      0.9949768      0.8277895
      5539.5000         0.7194        10.1988       2017.836       113.6713        72.6311       77.73515         0.5153       -55.4302      -13.23899      0.9518118      0.8108716
      5540.0000         0.7179        10.1642       2076.395       112.0515        67.3839        71.1754         0.4952        -56.481      -14.28914      0.8122426      0.7958695
      5540.5000         0.7163        10.1348       2195.867       114.2063        61.8816       64.29677         0.4813       -57.8014      -15.60889      0.6658887      0.7770158
      5541.0000         0.7147        10.1637       2240.191       114.8401        61.0814       63.29577         0.4703       -59.4546      -17.26145      0.6445908      0.7534079
      5541.5000         0.7119        10.2271       2273.879       111.0322         62.498       65.06577         0.4593       -61.4892       -19.2954      0.6822503      0.7243514
      5542.0000         0.7069        10.2968        2307.02       110.8412        65.1775       68.41438         0.4482        -63.792      -21.59755      0.7534975      0.6914635
      5542.5000          0.702        10.3008       2339.211       110.9409        67.4388       71.24025           0.44       -65.9283      -23.73321      0.8136224      0.6609542
      5543.0000         0.6951        10.3253       2376.418       113.2153        69.1815       73.41788          0.433       -68.2698      -26.07406      0.8599548      0.6275135
      5543.5000         0.6878        10.4863       2431.707       119.0792        68.5922        72.6805         0.4261       -69.6335      -27.43711      0.8442659      0.6080412
      5544.0000         0.6789          10.63       2564.363        123.463        66.6654       70.27123         0.4191       -71.6047      -29.40767      0.7930049      0.5798905
      5544.5000         0.6691         10.466       3154.145       121.8716        64.3157       67.33336         0.4122       -73.3673      -31.16962       0.730497      0.5547196
      5545.0000         0.6597        10.3508       2775.621       117.7721        61.9641        64.3931         0.4054       -75.4727      -33.27438      0.6679384      0.5246518
      5545.5000         0.6512        10.3471       2762.785       115.3899        60.4614       62.51398          0.399       -81.4049      -39.20593       0.627957      0.4399153
      5546.0000         0.6445        10.3588        2749.91       116.0745        62.5628       65.13998         0.3925       -82.0769      -39.87728      0.6838293      0.4303246
      5546.5000         0.6421        10.2943       2736.949        118.375        66.3199       69.83559          0.386       -81.1118      -38.91154      0.7837361      0.4441209
      5547.0000         0.6419        10.2331       2723.988       113.4797        68.2428       72.23846         0.3796       -80.1454      -37.94449      0.8348609      0.4579359
      5547.5000         0.6467        10.1946       2691.102       111.4745        68.8669       73.01784         0.3731       -77.7407      -35.53914      0.8514434       0.492298
      5548.0000         0.6516        10.1859       2626.297       110.4843        65.7899       69.17084          0.372       -74.2032        -32.001      0.7695923      0.5428429
      5548.5000         0.6564        10.1892       2476.684       109.3667        61.8914       64.29696         0.3719        -71.334      -29.13115      0.6658927      0.5838407
      5549.0000         0.6619        10.2062       2461.688       105.4438        59.5991       61.43082         0.3718        -68.733       -26.5295      0.6049111      0.6210071
      5549.5000         0.6692        10.2371       2450.012        96.2186        59.3216        61.0832         0.3762       -69.8013      -27.59716      0.5975149      0.6057549
