#------------------------------------------------------------------------------
# Created by    : vladimir.rabinovich
# Created on    : 09/19/2023 17:22:41
#------------------------------------------------------------------------------
~Version Information Section
VERS.           2.0     :   CWLS log ASCII Standard - VERSION 2.0
WRAP.           NO      :   One line per depth step
~Well Information Section
#MNEM       .UNIT                                         VALUE :DESCRIPTION
#------------------------------------------------------------------------------
STRT        .FT                                            2948 :START DEPTH
STOP        .FT                                            8770 :STOP DEPTH
STEP        .FT                                             0.5 :STEP      
NULL        .                                           -999.25 :NULL      
COMP        .                 BROOKLYN UNION EXPLORATION CO INC :COMPANY   
WELL        .                               OCS G07238 ST00BP00 :WELL      
FLD         .                                           WILDCAT :FIELD     
LOC         .                                                   :LOCATION  
CNTY        .                             GALVESTON LARGE BLOCK :LOCATION  
STAT        .                                             TEXAS :STATE     
CTRY        .                                     UNITED STATES :COUNTRY   
SRVC        .                                                   :SERVICE COMPANY
DATE        .                             9/13/2023 11:19:34 AM :LOG DATE  
API         .                                    42706402470000 :API NUMBER
UWI         .                                    42706402470000 :UNIQUE WELL ID
XCOORD      .                                  1057740.92261072 :SURFACE X 
YCOORD      .                                   10547901.298013 :SURFACE Y 
LAT         .                                         29.052568 :LATITUDE  
LON         .                                        -94.824133 :LONGITUDE 
ELEV        .FT                                              85 :ELEVATION VALUE
ELEV_TYPE   .                                                KB :ELEVATION REFERENCE TYPE
~Curve Information Section
#MNEM       .UNIT                                      API CODE :CURVE DESCRIPTION
#------------------------------------------------------------------------------
DEPT        .FT                                                 :DEPTH     
DCAL        .IN                                                 :          
DT          .US/F                                               :          
GR          .GAPI                                               :          
GR_NORM     .GAPI                                               :GammaRay Normalized
ILD         .OHMM                                               :          
ILM         .OHMM                                               :          
SFL         .OHMM                                               :          
SP          .MV                                                 :          
SP_NORM     .MV                                                 :SP Normalized
VSH_GR      .V/V                                                :Volume of Shale from GR
VSH_SP      .V/V                                                :Volume of Shale from SP
~A        DEPTH           DCAL             DT             GR        GR_NORM            ILD            ILM            SFL             SP        SP_NORM         VSH_GR         VSH_SP
# ...
      6840.5000         1.2565       110.6234        72.9181       78.71091          0.866          0.864         0.9148       -48.5385      -2.210819      0.9725725      0.9598033
      6841.0000         1.2013       111.8806        72.6453       78.27094         0.8428         0.8436         0.8615       -48.6175      -2.289818      0.9632115      0.9583669
      6841.5000         1.1623       112.7872        71.7372       76.80632         0.8264         0.8262         0.8276       -48.2631      -1.935417      0.9320494      0.9648106
      6842.0000         1.1751       113.7375        72.1847       77.52806         0.8241         0.8135         0.7984       -47.7606      -1.432919      0.9474056      0.9739469
      6842.5000         1.1914       114.7003        72.8107        78.5377         0.8274          0.813         0.7675       -47.2728      -0.945118      0.9688873       0.982816
      6843.0000         1.2203       115.0638        73.0233       78.88058         0.8382         0.8222         0.7409        -46.933     -0.6053162      0.9761826      0.9889942
      6843.5000         1.2532       114.5432        71.3673       76.20974         0.8613         0.8384         0.7555       -46.6848     -0.3571167      0.9193562       0.993507
      6844.0000         1.3135        112.317        66.5571       68.45169         0.8921         0.8628         0.8627       -46.5188     -0.1911163      0.7542913      0.9965252
      6844.5000         1.3824       108.9648        62.8679       62.50164          0.926         0.8972         1.0098       -46.5045     -0.1768188      0.6276944      0.9967851
      6845.0000         1.5254       105.6675         60.627       58.88744         0.9618         0.9353          1.083       -46.5372     -0.2095184      0.5507966      0.9961905
      6845.5000         1.6598       103.3715         60.062       57.97619         0.9997         0.9789         1.0849       -46.6472      -0.319519      0.5314084      0.9941906
      6846.0000          1.717       102.3719        60.2094       58.21393         1.0453         1.0348         1.1108       -46.9145     -0.5868187      0.5364667      0.9893306
      6846.5000         1.6244       101.5944        60.9221       59.36338         1.0989         1.1049         1.1699        -47.242     -0.9143181      0.5609229       0.983376
      6847.0000         1.5864       100.5692        61.9678       61.04992         1.1726          1.183         1.2186       -47.6439      -1.316219      0.5968069      0.9760687
      6847.5000         1.6023        99.1151        62.8506       62.47374         1.2401         1.2561         1.2561       -48.1643      -1.836617      0.6271008       0.966607
      6848.0000          1.624        97.1571        62.9707       62.66742         1.3071         1.3084         1.2813       -48.8248      -2.497116      0.6312218      0.9545979
      6848.5000         1.6499        95.4934        61.8505       60.86075         1.3315         1.3421         1.3001       -49.5206      -3.192917       0.592782       0.941947
      6849.0000         1.7141        94.0718         60.956       59.41807         1.3407         1.3426         1.3029       -50.0086      -3.680916      0.5620865      0.9330742
      6849.5000         1.7391        92.8396         62.011       61.11961         1.3243         1.3356         1.3029       -50.2636      -3.935917      0.5982895      0.9284379
      6850.0000         1.7305         91.903        63.9346       64.22205         1.2752         1.3107         1.3022         -50.35      -4.022316      0.6642988       0.926867
      6850.5000         1.6793        93.5978        65.8484       67.30867            1.2         1.2664         1.2898       -50.4762      -4.148518      0.7299717      0.9245724
      6851.0000         1.5874        97.3317        66.5243        68.3988         1.1153         1.2046         1.2121       -50.6574      -4.329716      0.7531659      0.9212779
      6851.5000         1.4667       100.8087          66.83       68.89183         1.0382         1.1265         1.0997       -51.2195      -4.891819       0.763656      0.9110578
      6852.0000         1.3464       105.7323         68.298       71.25946         0.9728         1.0344         0.9888        -51.627      -5.299316      0.8140311      0.9036488
      6852.5000         1.2516       110.2817        70.3871       74.62882         0.9259         0.9228         0.8819       -51.9301      -5.602417      0.8857196      0.8981379
      6853.0000         1.1568       109.8502        70.5402       74.87575          0.903         0.8976         0.8488       -52.1807      -5.853016      0.8909733      0.8935815
      6853.5000         1.1229       107.6204        67.0905       69.31198         0.8934          0.894         0.8588       -52.5604      -6.232716      0.7725953      0.8866779
      6854.0000         1.0976        105.847        63.4383        63.4216         0.8979          0.899         0.8781       -53.0197      -6.692017      0.6472681       0.878327
      6854.5000         1.1392       105.2053        61.3937       60.12401         0.9163         0.9084         0.9164       -53.3292      -7.001518      0.5771065      0.8726997
      6855.0000         1.1984       105.3032        60.5609       58.78084         0.9337         0.9214         0.9517       -53.4827      -7.155018      0.5485285      0.8699088
      6855.5000         1.2669       104.9017        59.9886       57.85782         0.9487          0.936         1.0223       -53.4833      -7.155617      0.5288898      0.8698979
      6856.0000         1.3247       102.7192        59.2577       56.67899         0.9584          0.948          1.081        -53.382      -7.054317      0.5038084      0.8717397
      6856.5000         1.3603       100.1403        58.3268       55.17762         0.9684         0.9591         1.1223       -53.0851      -6.757416      0.4718642      0.8771379
      6857.0000         1.3616        98.5614        58.0045        54.6578         0.9711         0.9666         1.1384        -52.736      -6.408318      0.4608043      0.8834851
      6857.5000         1.3113       101.4821        59.9664         57.822         0.9639         0.9635          1.096       -52.3492      -6.021519      0.5281277      0.8905178
      6858.0000         1.1792       106.3558        63.5396       63.58499         0.9425         0.9446         0.9953       -51.9584      -5.630718      0.6507445      0.8976233
      6858.5000          1.057       109.6831        67.0115       69.18456         0.9188         0.9136         0.8978       -51.5516      -5.223919      0.7698842      0.9050196
      6859.0000         0.9536       111.4192         68.637       71.80623         0.8951         0.8826         0.8285       -51.1537      -4.826019      0.8256645      0.9122542
      6859.5000         1.0122       111.2321        67.7645       70.39902         0.8723         0.8547         0.8265        -50.792      -4.464317      0.7957238      0.9188306
      6860.0000         1.0338       109.6407        64.6754       65.41682         0.8459         0.8324         0.8785       -50.4633      -4.135616      0.6897197       0.924807
      6860.5000         1.0253       109.1101        62.3345       61.64134         0.8188         0.8115         0.8945       -50.3018      -3.974117      0.6093902      0.9277433
      6861.0000         0.9883        109.657         61.039       59.55193         0.7918         0.7922         0.8454       -50.8824      -4.554718      0.5649347      0.9171869
      6861.5000         0.9771       110.5911        63.2581       63.13095         0.7654         0.7722         0.7917       -51.9689      -5.641216      0.6410841      0.8974324
      6862.0000         1.0139       111.4515        67.6288       70.18015         0.7388         0.7524         0.7966       -52.9888      -6.661118      0.7910671      0.8788888
      6862.5000         1.0755       111.7069        70.4019        74.6527         0.7121         0.7338         0.8092       -53.1714      -6.843716      0.8862277      0.8755688
