#------------------------------------------------------------------------------
# Created by    : vladimir.rabinovich
# Created on    : 09/19/2023 17:19:43
#------------------------------------------------------------------------------
~Version Information Section
VERS.           2.0     :   CWLS log ASCII Standard - VERSION 2.0
WRAP.           NO      :   One line per depth step
~Well Information Section
#MNEM       .UNIT                                         VALUE :DESCRIPTION
#------------------------------------------------------------------------------
STRT        .FT                                            1054 :START DEPTH
STOP        .FT                                           13910 :STOP DEPTH
STEP        .FT                                             0.5 :STEP      
NULL        .                                           -999.25 :NULL      
COMP        .                                            MTS LP :COMPANY   
WELL        .                                ST TR 00061-L SW/4 :WELL      
FLD         .                                           WILDCAT :FIELD     
LOC         .                                                   :LOCATION  
CNTY        .                           HIGH ISLAND LARGE BLOCK :LOCATION  
STAT        .                                             TEXAS :STATE     
CTRY        .                                     UNITED STATES :COUNTRY   
SRVC        .                                                   :SERVICE COMPANY
DATE        .                             9/13/2023 11:19:15 AM :LOG DATE  
API         .                                    42708302730000 :API NUMBER
UWI         .                                    42708302730000 :UNIQUE WELL ID
XCOORD      .                                  1164861.29381137 :SURFACE X 
YCOORD      .                                   10674042.082625 :SURFACE Y 
LAT         .                                        29.4036169 :LATITUDE  
LON         .                                       -94.4939126 :LONGITUDE 
ELEV        .FT                                              78 :ELEVATION VALUE
ELEV_TYPE   .                                                KB :ELEVATION REFERENCE TYPE
~Curve Information Section
#MNEM       .UNIT                                      API CODE :CURVE DESCRIPTION
#------------------------------------------------------------------------------
DEPT        .FT                                                 :DEPTH     
ASFL        .OHMM                                               :          
CILD        .MMHO                                               :          
ILD         .OHMM                                               :          
SP          .MV                                                 :          
SP_NORM     .MV                                                 :SP Normalized
VSH_SP      .V/V                                                :Volume of Shale from SP
~A        DEPTH           ASFL           CILD            ILD             SP        SP_NORM         VSH_SP
# ...
      5310.0000         1.0123       889.4531          0.998       -82.4341      -30.51236      0.6684004
      5310.5000         0.9629       1072.768         0.8786       -84.6292       -32.7188       0.643609
      5311.0000         0.9719       1256.082         0.8014       -96.6812      -44.78212       0.508066
      5311.5000         1.0114       1391.945           0.75      -101.6035      -49.71576       0.452632
      5312.0000         1.1746       1456.195         0.6987      -109.8936      -58.01719      0.3593575
      5312.5000          1.272       1485.643         0.6723      -111.8781      -60.01301      0.3369325
      5313.0000         1.3139       1485.082         0.6612      -110.7854      -58.93164      0.3490826
      5313.5000         1.3069       1479.342         0.6501      -108.5115      -56.66907      0.3745048
      5314.0000         1.2526       1473.668         0.6448      -105.9124       -54.0813      0.4035809
      5314.5000         1.1178       1470.316          0.645      -102.7466      -50.92683      0.4390244
      5315.0000         0.9537       1480.215         0.6452       -96.1885      -44.38006      0.5125836
      5315.5000         0.7172       1501.924         0.6455       -86.4818      -34.68469      0.6215203
      5316.0000         0.6877       1532.576         0.6457       -82.6029      -30.81712      0.6649762
      5316.5000         0.6754       1563.227          0.646       -80.9325      -29.15805      0.6836174
      5317.0000         0.6705       1589.334         0.6462       -80.0265      -28.26337        0.69367
      5317.5000         0.6764       1615.293         0.6464       -79.5431      -27.79131      0.6989741
      5318.0000         0.6951       1642.627         0.6467       -80.0703      -28.32983      0.6929232
      5318.5000         0.7169       1672.346         0.6469       -80.5974      -28.86826      0.6868734
      5319.0000         0.7466       1698.869         0.6457       -81.5472       -29.8294      0.6760741
      5319.5000         0.8089       1678.633         0.6429       -82.5228      -30.81632      0.6649851
      5320.0000         0.8619       1639.164         0.6401       -83.4984      -31.80325       0.653896
      5320.5000         0.9028       1580.074         0.6373       -84.0121      -32.32829      0.6479968
      5321.0000         1.0115       1527.221         0.6368       -82.5154      -30.84292      0.6646863
      5321.5000          0.938       1457.127         0.6379       -81.0175      -29.35635      0.6813894
      5322.0000         0.9031       1447.734          0.639       -70.4733      -18.82347      0.7997363
      5322.5000         0.8671       1471.127         0.6401       -64.6714      -13.03291      0.8647988
      5323.0000         0.8187       1527.025         0.6411       -61.3295      -9.702332       0.902221
      5323.5000         0.7197       1729.201         0.6373       -59.7874      -8.171562      0.9194207
      5324.0000         0.6936       1798.508         0.6332       -60.0103      -8.405792      0.9167889
      5324.5000         0.6772       1849.299         0.6224       -63.7969      -12.20372      0.8741155
      5325.0000          0.671       1894.242         0.5921       -67.0612      -15.47935      0.8373106
      5325.5000         0.6735       1919.883         0.5657       -70.2195      -18.64898      0.8016968
      5326.0000         0.6815       1901.402         0.5586       -73.0107      -21.45151      0.7702078
      5326.5000         0.6985        1882.92         0.5711       -75.9178      -24.36994      0.7374164
      5327.0000          0.755       1817.518         0.5836       -80.3917      -28.85517      0.6870205
      5327.5000         0.9657       1672.813         0.6243       -87.1617       -35.6365      0.6108259
      5328.0000         1.0451       1512.879         0.6825      -100.3274      -48.81353      0.4627693
      5328.5000         1.0826       1353.143         0.7953      -102.0999      -50.59736      0.4427263
      5329.0000         1.2117       1193.404         0.9646      -103.0638      -51.57259      0.4317687
      5329.5000         1.4531       1033.668         1.1525      -103.9525      -52.47261       0.421656
      5330.0000         1.6945       873.9316         1.3123      -104.5327      -53.06414      0.4150096
      5330.5000         2.0897       730.9941         1.4953      -104.1115      -52.65428      0.4196149
      5331.0000          2.265       661.5391         1.6519      -102.1036       -50.6577      0.4420483
      5331.5000         2.3036       607.8018          1.755       -99.6498      -48.21524      0.4694917
      5332.0000         2.2811       564.1104         1.8394       -97.0458      -45.62256      0.4986229
      5332.5000         2.2481       541.6875         1.9121        -93.035       -41.6231      0.5435607
      5333.0000         2.2034       520.0742         1.9795       -90.4852      -39.08462      0.5720829
      5333.5000         2.1465       502.9443         1.9824       -88.7212      -37.33195      0.5917758
      5334.0000         2.0966       508.3599         1.9692       -87.7321      -36.35418       0.602762
      5334.5000         2.0631       513.7754          1.956       -86.8452      -35.47861      0.6125998
      5335.0000         2.0297       519.1963         1.9429       -86.4628      -35.10754      0.6167692
      5335.5000         1.9239       522.6807         1.9356       -86.4658      -35.12187      0.6166082
      5336.0000         1.9011       525.9629         1.9307       -87.5486        -36.216      0.6043146
      5336.5000         1.8869        529.248         1.9259       -88.6313      -37.31003      0.5920221
      5337.0000         1.8726       532.0947         1.9211       -89.0037      -37.69376      0.5877106
      5337.5000         1.8497       533.2275         1.8898       -88.7341      -37.43549      0.5906125
      5338.0000         1.8141       534.3604         1.8529        -87.965      -36.67772      0.5991268
      5338.5000         1.7413        539.458          1.816       -86.9105      -35.63455      0.6108478
      5339.0000         1.6302       546.4824         1.7461       -85.5013      -34.23668      0.6265542
      5339.5000          1.504       580.4424         1.6715        -83.454      -32.20071      0.6494302
      5340.0000         1.3779       646.7051         1.5837       -80.3228      -29.08084       0.684485
      5340.5000         1.2518       742.5859         1.4559       -74.9176      -23.68697      0.7450902
      5341.0000         0.9385       838.4678         1.2382       -69.3843        -18.165      0.8071349
      5341.5000         0.9069       934.4473         1.0745        -65.174      -13.96603      0.8543143
      5342.0000         0.8731       1030.328         0.9682       -62.0058      -10.80915      0.8897848
      5342.5000         0.8627        1143.99         0.9112       -63.2241      -12.03878      0.8759688
      5343.0000         0.8727       1220.471         0.8566       -63.3003      -12.12631      0.8749853
      5343.5000          0.884       1256.426         0.8349       -63.1748      -12.01214      0.8762681
      5344.0000         0.8967       1269.209         0.8153       -63.0491      -11.89777      0.8775532
      5344.5000         0.9035       1263.289         0.8134       -62.9236       -11.7836       0.878836
      5345.0000         0.9053       1251.992         0.8115       -62.7996      -11.67093      0.8801019
      5345.5000         0.9008       1240.068         0.8096       -62.7685      -11.65116       0.880324
      5346.0000         0.8962       1228.145         0.8093       -62.7374      -11.63139      0.8805462
      5346.5000         0.8911       1218.082         0.8113       -62.7063      -11.61162      0.8807684
      5347.0000          0.886       1210.449         0.8132       -62.6823      -11.59895      0.8809107
      5347.5000         0.8888       1202.824         0.8151       -62.6943      -11.62228      0.8806486
