#------------------------------------------------------------------------------
# Created by    : vladimir.rabinovich
# Created on    : 09/19/2023 17:21:25
#------------------------------------------------------------------------------
~Version Information Section
VERS.           2.0     :   CWLS log ASCII Standard - VERSION 2.0
WRAP.           NO      :   One line per depth step
~Well Information Section
#MNEM       .UNIT                                         VALUE :DESCRIPTION
#------------------------------------------------------------------------------
STRT        .FT                                            3400 :START DEPTH
STOP        .FT                                            8653 :STOP DEPTH
STEP        .FT                                             0.5 :STEP      
NULL        .                                           -999.25 :NULL      
COMP        .                          KING RANCH OIL & GAS INC :COMPANY   
WELL        .                               OCS G13784 ST00BP00 :WELL      
FLD         .                                           WILDCAT :FIELD     
LOC         .                                                   :LOCATION  
CNTY        .                             GALVESTON LARGE BLOCK :LOCATION  
STAT        .                                             TEXAS :STATE     
CTRY        .                                     UNITED STATES :COUNTRY   
SRVC        .                                                   :SERVICE COMPANY
DATE        .                             9/13/2023 11:19:54 AM :LOG DATE  
API         .                                    42706403430000 :API NUMBER
UWI         .                                    42706403430000 :UNIQUE WELL ID
XCOORD      .                                   967589.17441186 :SURFACE X 
YCOORD      .                                  10424680.8833423 :SURFACE Y 
LAT         .                                         28.709654 :LATITUDE  
LON         .                                        -95.099391 :LONGITUDE 
ELEV        .FT                                             106 :ELEVATION VALUE
ELEV_TYPE   .                                                KB :ELEVATION REFERENCE TYPE
~Curve Information Section
#MNEM       .UNIT                                      API CODE :CURVE DESCRIPTION
#------------------------------------------------------------------------------
DEPT        .FT                                                 :DEPTH     
CALI        .IN                                                 :          
DPHI        .%                                                  :          
DRHO        .G/C3                                               :          
DTLN        .US/F                                               :          
GR          .GAPI                                               :          
GR_1        .GAPI                                               :          
GR_NORM     .GAPI                                               :GammaRay Normalized
ILD         .OHMM                                               :          
ILM         .OHMM                                               :          
NPHI        .%                                                  :          
SFL         .OHMM                                               :          
SP          .MV                                                 :          
SP_NORM     .MV                                                 :SP Normalized
VSH_GR      .V/V                                                :Volume of Shale from GR
VSH_SP      .V/V                                                :Volume of Shale from SP
~A        DEPTH           CALI           DPHI           DRHO           DTLN             GR           GR_1        GR_NORM            ILD            ILM           NPHI            SFL             SP        SP_NORM         VSH_GR         VSH_SP
# ...
      6885.0000        -999.25        -999.25        -999.25       100.3243        -999.25        40.1495       39.33659         0.3933         0.4445        -999.25         0.8957       -97.1566      -52.27481      0.1348211      0.1331929
      6885.5000        -999.25        -999.25        -999.25       100.5251        -999.25        38.2674       36.98418         0.3866         0.4339        -999.25         0.8613       -97.7571      -52.87653      0.0847698      0.1228185
      6886.0000        -999.25        -999.25        -999.25       100.1636        -999.25        36.8065       35.15827         0.3794         0.4237        -999.25         0.8207       -98.3563      -53.47693      0.0459206      0.1124667
      6886.5000        -999.25        -999.25        -999.25       100.0145        -999.25        37.4101       35.91299         0.3706         0.4119        -999.25         0.7772       -98.9452      -54.06703     0.06197844      0.1022926
      6887.0000        -999.25        -999.25        -999.25         99.884        -999.25        38.2563       36.97095         0.3627         0.3992        -999.25         0.7315       -99.5161      -54.63914     0.08448824     0.09242867
      6887.5000        -999.25        -999.25        -999.25        99.7518        -999.25        39.3624       38.35379         0.3562         0.3862        -999.25         0.6888       -99.9989      -55.12315      0.1139104     0.08408369
      6888.0000        -999.25        -999.25        -999.25        99.6169        -999.25        40.6903       40.01388         0.3517         0.3781        -999.25         0.6626      -100.2952      -55.42065      0.1492314      0.0789543
      6888.5000        -999.25        -999.25        -999.25         99.124        -999.25        41.8667        41.4846         0.3487         0.3726        -999.25         0.6575      -100.4623      -55.58896      0.1805233     0.07605237
      6889.0000        -999.25        -999.25        -999.25         98.354        -999.25        42.7511        42.5903         0.3466         0.3714        -999.25         0.6536      -100.5585      -55.68637       0.204049     0.07437298
      6889.5000        -999.25        -999.25        -999.25         97.093        -999.25        43.3467       43.33502         0.3497         0.3739        -999.25          0.636      -100.5781      -55.70717      0.2198941     0.07401427
      6890.0000        -999.25        -999.25        -999.25        94.7148        -999.25        41.9357       41.57148         0.3528         0.3777        -999.25         0.5761      -100.4901      -55.62037       0.182372     0.07551081
      6890.5000        -999.25        -999.25        -999.25        91.7699        -999.25        40.2136       39.41908         0.3625         0.3838        -999.25         0.5378       -100.208      -55.33949      0.1365761     0.08035371
      6891.0000        -999.25        -999.25        -999.25        90.0272        -999.25        39.3372       38.32379         0.3725          0.393        -999.25         0.5795       -99.9408      -55.07349      0.1132721     0.08493976
      6891.5000        -999.25        -999.25        -999.25        89.9287        -999.25        38.4349       37.19612         0.3784         0.4074        -999.25         0.6839        -99.869       -55.0029     0.08927917     0.08615691
      6892.0000        -999.25        -999.25        -999.25         92.568        -999.25        36.8385       35.20084         0.3816         0.4254        -999.25         0.8018       -99.9452       -55.0803     0.04682646     0.08482242
      6892.5000        -999.25        -999.25        -999.25        95.6381        -999.25        35.3641       33.35806         0.3807         0.4355        -999.25         0.8304      -100.3069      -55.44321    0.007618194      0.0785654
      6893.0000        -999.25        -999.25        -999.25        98.0687        -999.25        36.8755       35.24752         0.3754         0.4361        -999.25         0.8542      -100.6428      -55.78032     0.04781958     0.07275318
      6893.5000        -999.25        -999.25        -999.25        99.1821        -999.25        39.4327       38.44423         0.3702         0.4312        -999.25         0.8696       -100.913      -56.05172      0.1158347     0.06807373
      6894.0000        -999.25        -999.25        -999.25        99.7371        -999.25        40.7088       40.03958         0.3655         0.4168        -999.25          0.825      -101.1008      -56.24073      0.1497782     0.06481506
      6894.5000        -999.25        -999.25        -999.25       100.1836        -999.25        40.9545       40.34691          0.361         0.4013        -999.25         0.7041      -101.2383      -56.37943      0.1563172     0.06242364
      6895.0000        -999.25        -999.25        -999.25       100.0167        -999.25        40.6509       39.96763         0.3565         0.3867        -999.25         0.6105      -101.3326      -56.47494      0.1482475     0.06077687
      6895.5000        -999.25        -999.25        -999.25        99.8806        -999.25        40.0042       39.15947         0.3526         0.3766        -999.25         0.5605      -101.4285      -56.57204      0.1310525     0.05910268
      6896.0000        -999.25        -999.25        -999.25        99.8481        -999.25        39.1025       38.03256         0.3488         0.3701        -999.25         0.6038      -101.5286      -56.67336      0.1070758     0.05735595
      6896.5000        -999.25        -999.25        -999.25       100.0985        -999.25        38.2329       36.94577          0.346         0.3678        -999.25         0.6791      -101.6287      -56.77466     0.08395248     0.05560934
      6897.0000        -999.25        -999.25        -999.25       100.6521        -999.25        38.8698       37.74212          0.344         0.3672        -999.25          0.726      -101.6628      -56.80997      0.1008961     0.05500057
      6897.5000        -999.25        -999.25        -999.25       101.0753        -999.25        39.7677        38.8647         0.3477         0.3708        -999.25         0.6529      -101.6715      -56.81987      0.1247809     0.05482983
      6898.0000        -999.25        -999.25        -999.25       101.1611        -999.25        41.0131       40.42167         0.3558         0.3834        -999.25         0.5672      -101.5909      -56.74047      0.1579079     0.05619871
      6898.5000        -999.25        -999.25        -999.25       100.0717        -999.25        42.2498       41.96775         0.3743         0.4105        -999.25         0.5101      -100.0341      -55.18489      0.1908033     0.08301919
      6899.0000        -999.25        -999.25        -999.25        97.6797        -999.25        43.4077       43.41534            0.4         0.4507        -999.25         0.5864       -98.4081      -53.56009      0.2216031       0.111033
      6899.5000        -999.25        -999.25        -999.25        94.2144        -999.25        44.3174       44.55268         0.4285         0.4945        -999.25          0.728       -96.7797       -51.9329      0.2458018       0.139088
      6900.0000        -999.25        -999.25        -999.25        90.3062        -999.25        44.2219       44.43353         0.4599         0.5426        -999.25         0.9285       -95.1537       -50.3081      0.2432665      0.1671017
      6900.5000        -999.25        -999.25        -999.25         88.531        -999.25          43.59       43.64386         0.4977         0.5897        -999.25         1.1524       -93.6658      -48.82141      0.2264651      0.1927344
      6901.0000        -999.25        -999.25        -999.25        90.1686        -999.25        43.1635       43.11096          0.506         0.6345        -999.25         1.4849       -93.8027      -48.95951      0.2151268      0.1903533
      6901.5000        -999.25        -999.25        -999.25        92.2603        -999.25        44.2219       44.43417         0.5172         0.6547        -999.25         1.5024       -94.0956      -49.25362      0.2432801      0.1852825
