#------------------------------------------------------------------------------
# Created by    : vladimir.rabinovich
# Created on    : 09/19/2023 17:22:45
#------------------------------------------------------------------------------
~Version Information Section
VERS.           2.0     :   CWLS log ASCII Standard - VERSION 2.0
WRAP.           NO      :   One line per depth step
~Well Information Section
#MNEM       .UNIT                                         VALUE :DESCRIPTION
#------------------------------------------------------------------------------
STRT        .FT                                            3370 :START DEPTH
STOP        .FT                                           10136 :STOP DEPTH
STEP        .FT                                             0.5 :STEP      
NULL        .                                           -999.25 :NULL      
COMP        .                                  W&T OFFSHORE INC :COMPANY   
WELL        .                               OCS G04565 ST00BP00 :WELL      
FLD         .                              GALVESTON BLOCK 0303 :FIELD     
LOC         .                                                   :LOCATION  
CNTY        .                             GALVESTON LARGE BLOCK :LOCATION  
STAT        .                                             TEXAS :STATE     
CTRY        .                                     UNITED STATES :COUNTRY   
SRVC        .                                                   :SERVICE COMPANY
DATE        .                             9/13/2023 11:19:27 AM :LOG DATE  
API         .                                    42706401000000 :API NUMBER
UWI         .                                    42706401000000 :UNIQUE WELL ID
XCOORD      .                                  988505.563749319 :SURFACE X 
YCOORD      .                                  10486369.8338556 :SURFACE Y 
LAT         .                                        28.8802688 :LATITUDE  
LON         .                                       -95.0374578 :LONGITUDE 
ELEV        .FT                                              93 :ELEVATION VALUE
ELEV_TYPE   .                                                KB :ELEVATION REFERENCE TYPE
~Curve Information Section
#MNEM       .UNIT                                      API CODE :CURVE DESCRIPTION
#------------------------------------------------------------------------------
DEPT        .FT                                                 :DEPTH     
DPHI        .DEC                                                :          
DRHO        .G/C3                                               :          
DT          .US/F                                               :          
GR          .GAPI                                               :          
GR_1        .GAPI                                               :          
GR_NORM     .GAPI                                               :GammaRay Normalized
ILD         .OHMM                                               :          
NPHI        .DEC                                                :          
RHOB        .G/C3                                               :          
SP          .MV                                                 :          
SP_NORM     .MV                                                 :SP Normalized
VSH_GR      .V/V                                                :Volume of Shale from GR
VSH_SP      .V/V                                                :Volume of Shale from SP
~A        DEPTH           DPHI           DRHO             DT             GR           GR_1        GR_NORM            ILD           NPHI           RHOB             SP        SP_NORM         VSH_GR         VSH_SP
# ...
      7018.0000         0.2418        -0.0165       103.1334        36.8926        -999.25       25.85719         0.4455         0.3204         2.2505       -85.9027      -55.71402              0      0.2040854
      7018.5000         0.2362        -0.0153       102.6825        37.6187        -999.25       26.76523         0.4457         0.3186         2.2613       -79.8079      -49.61922              0      0.2911541
      7019.0000         0.2305        -0.0158       101.9701        40.1797        -999.25       29.96689          0.471         0.3154         2.2763       -74.2523      -44.06361              0      0.3705198
      7019.5000         0.2203        -0.0161       101.4164        45.6886        -999.25       36.85344         0.5126         0.3112         2.3059       -69.3247      -39.13602     0.08198807       0.440914
      7020.0000         0.2035        -0.0153        101.114         51.733        -999.25       44.40936         0.5617         0.3074         2.3429       -62.1512      -31.96252      0.2427524      0.5433926
      7020.5000         0.1781        -0.0148       101.4188        56.8749        -999.25       50.83715         0.6299         0.3087         2.3787       -53.6628      -23.47412      0.3795139      0.6646554
      7021.0000         0.1545        -0.0142        101.959        61.4863        -999.25       56.60183         0.7262         0.3097         2.4056       -46.9622      -16.77352      0.5021665      0.7603783
      7021.5000         0.1396        -0.0133        102.317        63.3978        -999.25       58.99162         0.8137         0.3116         2.4209        -43.176      -12.98732      0.5530131      0.8144669
      7022.0000         0.1359        -0.0121       102.5419        64.4081        -999.25       60.25491         0.9087         0.3152         2.4256        -40.775      -10.58632      0.5798916      0.8487669
      7022.5000         0.1369        -0.0107       102.6727        64.2798        -999.25       60.09496         1.0149         0.3186         2.4237       -39.2198      -9.031118      0.5764884       0.870984
      7023.0000         0.1386        -0.0086       103.2732        63.3941        -999.25       58.98824         1.0791         0.3195         2.4212        -38.264      -8.075319      0.5529413      0.8846383
      7023.5000           0.14        -0.0052       103.6246        62.8862        -999.25       58.35379         1.1051         0.3189         2.4191       -37.2778      -7.089121      0.5394422      0.8987268
      7024.0000         0.1414        -0.0016       103.7258        62.9376        -999.25       58.41846         1.1277         0.3217         2.4168       -36.7616       -6.57292      0.5408182      0.9061012
      7024.5000         0.1423          0.002       104.7332         63.236        -999.25       58.79188         1.1281         0.3309         2.4135       -36.4203      -6.231619      0.5487633      0.9109769
      7025.0000         0.1415         0.0058        106.201        64.2506        -999.25       60.06055         1.1432         0.3418         2.4151       -36.0967      -5.908018      0.5757563      0.9155998
      7025.5000         0.1389         0.0067       107.8857        65.2572        -999.25       61.31922         1.1554         0.3491         2.4148       -35.7485       -5.55982      0.6025366       0.920574
      7026.0000         0.1357         0.0066         107.99         66.239        -999.25       62.54688          1.143         0.3452         2.4176       -35.3662      -5.177519      0.6286571      0.9260355
      7026.5000         0.1333         0.0028       107.6061         67.222        -999.25       63.77605         1.1548         0.3386         2.4216       -34.9641      -4.775419      0.6548097      0.9317797
      7027.0000         0.1321         0.0004       106.3888        68.2039        -999.25       65.00385         1.2014         0.3299         2.4228       -34.6422       -4.45352      0.6809329      0.9363783
      7027.5000         0.1343        -0.0009        104.764        69.1855        -999.25       66.23126         1.2382         0.3204         2.4201        -34.421      -4.232321      0.7070481      0.9395383
      7028.0000         0.1417        -0.0024       103.3182        70.1686        -999.25       67.46056         1.2553         0.3225         2.4119       -34.3877      -4.199018      0.7332033       0.940014
      7028.5000         0.1488        -0.0033       103.3442        71.0537        -999.25       68.56735         1.2466         0.3354         2.4012       -34.4539      -4.265219      0.7567522      0.9390683
      7029.0000         0.1553        -0.0038       105.1443         70.295        -999.25       67.61939         1.2325         0.3537         2.3907       -34.5938      -4.405119      0.7365828      0.9370697
      7029.5000          0.161        -0.0039        108.769        70.2765        -999.25       67.59668         1.2135          0.376         2.3814       -34.5811       -4.39242      0.7360995      0.9372512
      7030.0000         0.1632         -0.003       111.6827        70.9204        -999.25       68.40199         1.1805         0.3935         2.3752       -34.5533      -4.364618      0.7532337      0.9376483
      7030.5000         0.1632        -0.0021        114.626         71.588        -999.25        69.2369          1.147         0.3992         2.3754       -34.5901      -4.401419      0.7709979      0.9371226
      7031.0000         0.1622        -0.0014       116.3149        71.9357        -999.25       69.67194         1.1132         0.3997         2.3776       -34.6253      -4.436621      0.7802539      0.9366197
      7031.5000         0.1604         -0.001        116.377        71.7271        -999.25       69.41161         1.0955         0.3909         2.3798       -34.6586      -4.469919       0.774715       0.936144
      7032.0000         0.1575        -0.0029       115.8533        71.4495        -999.25       69.06503          1.101         0.3776         2.3819       -34.5728      -4.384119       0.767341      0.9373697
      7032.5000         0.1552        -0.0049       113.8087        71.1661        -999.25        68.7112         1.1327         0.3642         2.3844       -34.4328       -4.24412      0.7598127      0.9393697
      7033.0000         0.1519        -0.0054        111.016        70.7184        -999.25       68.15199          1.181         0.3517         2.3881       -34.1472      -3.958521      0.7479147      0.9434497
      7033.5000         0.1474        -0.0041       108.6259        69.8785        -999.25       67.10254         1.2206         0.3397         2.3935       -33.7709       -3.58222      0.7255859      0.9488254
      7034.0000         0.1389        -0.0006        105.885        69.0059        -999.25        66.0122         1.2498         0.3208          2.406       -33.3203       -3.13162      0.7023872      0.9552625
      7034.5000         0.1351          0.003       103.8208        68.4127        -999.25       65.27112         1.2557         0.3117         2.4169       -32.9357      -2.747019      0.6866195      0.9607569
      7035.0000         0.1383         0.0057       102.4503        69.1868        -999.25       66.23916         1.2355           0.31         2.4237       -32.5981      -2.409418      0.7072161      0.9655797
      7035.5000         0.1519         0.0055       102.4528        72.6677        -999.25       70.59071         1.2098         0.3177         2.4016       -32.3779      -2.189219      0.7998022      0.9687254
      7036.0000         0.1672         0.0049       105.1542        75.6254        -999.25       74.28825         1.1777          0.358         2.3736       -32.1911       -2.00242      0.8784733       0.971394
      7036.5000         0.1775         0.0043       111.7272        77.3398        -999.25       76.43166         1.1465         0.3842         2.3586        -32.021      -1.832319      0.9240779       0.973824
