#------------------------------------------------------------------------------
# Created by    : vladimir.rabinovich
# Created on    : 09/19/2023 17:20:57
#------------------------------------------------------------------------------
~Version Information Section
VERS.           2.0     :   CWLS log ASCII Standard - VERSION 2.0
WRAP.           NO      :   One line per depth step
~Well Information Section
#MNEM       .UNIT                                         VALUE :DESCRIPTION
#------------------------------------------------------------------------------
STRT        .FT                                             727 :START DEPTH
STOP        .FT                                            8206 :STOP DEPTH
STEP        .FT                                             0.5 :STEP      
NULL        .                                           -999.25 :NULL      
COMP        .                              PHOENIX RESOURCES CO :COMPANY   
WELL        .                                          BLK 335L :WELL      
FLD         .                                 BRAZOS BLOCK 0309 :FIELD     
LOC         .                                                   :LOCATION  
CNTY        .                                BRAZOS LARGE BLOCK :LOCATION  
STAT        .                                             TEXAS :STATE     
CTRY        .                                     UNITED STATES :COUNTRY   
SRVC        .                                                   :SERVICE COMPANY
DATE        .                             9/13/2023 11:18:52 AM :LOG DATE  
API         .                                    42704300210000 :API NUMBER
UWI         .                                    42704300210000 :UNIQUE WELL ID
XCOORD      .                                  898426.347293712 :SURFACE X 
YCOORD      .                                  10460523.5569112 :SURFACE Y 
LAT         .                                        28.8046676 :LATITUDE  
LON         .                                       -95.3172337 :LONGITUDE 
ELEV        .FT                                              70 :ELEVATION VALUE
ELEV_TYPE   .                                                DF :ELEVATION REFERENCE TYPE
~Curve Information Section
#MNEM       .UNIT                                      API CODE :CURVE DESCRIPTION
#------------------------------------------------------------------------------
DEPT        .FT                                                 :DEPTH     
ASN         .OHMM                                               :          
CALI        .IN                                                 :          
DT          .US/F                                               :          
ILD         .OHMM                                               :          
SP          .MV                                                 :          
SP_NORM     .MV                                                 :SP Normalized
VSH_SP      .V/V                                                :Volume of Shale from SP
~A        DEPTH            ASN           CALI             DT            ILD             SP        SP_NORM         VSH_SP
# ...
      6187.5000         0.9382        10.2901       109.1095           0.82       -38.3347       0.745079              1
      6188.0000         0.9485         10.278       111.1235         0.8253       -37.9481       1.127022              1
      6188.5000          0.957        10.2487       109.7977         0.8325       -37.2241       1.846367              1
      6189.0000         0.9638        10.2113       108.4237         0.8397       -36.5745        2.49131              1
      6189.5000         0.9677        10.2068       107.9216         0.8482        -36.946       2.115154              1
      6190.0000         0.9705        10.2622       108.3408         0.8599       -37.1709       1.885601              1
      6190.5000         0.9715        10.3327       109.7891         0.8716        -36.624       2.427841              1
      6191.0000         0.9724        10.2703       107.4388         0.8833       -36.2735       2.773689              1
      6191.5000         0.9717        10.2213        107.825         0.8941       -36.4822       2.560329              1
      6192.0000          0.971        10.2582       107.7577         0.9029       -37.2811       1.756775              1
      6192.5000         0.9788        10.3094       106.0499           0.91       -38.1353      0.8979187              1
      6193.0000         0.9915        10.3147       104.7043         0.9064       -38.5049      0.5236626              1
      6193.5000         1.0111        10.2685       103.4952         0.9029       -39.9628     -0.9388924              1
      6194.0000         1.0288        10.2112        103.974         0.8993       -41.2534       -2.23415      0.9821138
      6194.5000         1.0464        10.1458       109.2429         0.8957       -41.6682      -2.653606      0.9760347
      6195.0000         1.0545        10.0873       113.4244         0.8916       -41.6785      -2.668564      0.9758179
      6195.5000         1.0458        10.0912       111.3485         0.8866       -41.4274      -2.422115      0.9793896
      6196.0000         1.0371        10.1047        109.917         0.8817       -40.6738      -1.673176      0.9902439
      6196.5000         1.0275        10.0776       109.7513         0.8769       -39.7534     -0.7574272              1
      6197.0000         1.0147        10.0203       109.9207         0.8745        -38.874      0.1173134              1
      6197.5000         1.0019         9.9835       109.7059         0.8722       -38.1856      0.8010597              1
      6198.0000         0.9887         9.9585       110.7628         0.8699       -38.7291       0.252903              1
      6198.5000         0.9758         9.9306       111.4559         0.8682       -38.7718      0.2055435              1
      6199.0000         0.9645         9.9018       112.5594          0.868       -38.1234      0.8492889              1
      6199.5000         0.9531           9.91       113.9014         0.8678       -37.5927       1.375332              1
      6200.0000         0.9438         9.9983       113.8989         0.8675       -37.2449       1.718479              1
      6200.5000         0.9515        10.0851       112.7756         0.8676       -37.0216       1.937122              1
      6201.0000         0.9604        10.1699       111.1013         0.8684       -36.8347       2.119366              1
      6201.5000         0.9593        10.2637       109.1168         0.8693       -36.7958        2.15361              1
      6202.0000         0.9571        10.3542       107.3783         0.8701       -36.9702       1.974556              1
      6202.5000         0.9528        10.4082       106.3446         0.8708        -37.496       1.444099              1
      6203.0000         0.9443        10.4346       106.7073         0.8707       -37.1712        1.76424              1
      6203.5000         0.9359        10.4413       108.4421         0.8706       -37.3815       1.549286              1
      6204.0000         0.9293        10.4311       110.3871         0.8705       -37.9853      0.9408302              1
      6204.5000         0.9228        10.4123       111.9688         0.8666       -38.8381     0.08337402              1
      6205.0000         0.9162        10.3919       113.2947         0.8615       -38.7155      0.2013168              1
      6205.5000         0.9095        10.3612       112.8386         0.8532       -38.3058      0.6063614              1
      6206.0000         0.9031        10.3038        112.264         0.8397       -37.8775       1.030006              1
      6206.5000          0.904         10.258       112.2771         0.8262       -37.3554       1.547451              1
      6207.0000          0.911        10.3186        113.066         0.8091       -36.8674       2.030792              1
      6207.5000          0.918        10.3649       113.9872         0.7875       -36.4054       2.488136              1
      6208.0000          0.925         10.419       113.8235         0.7658         -36.04       2.848881              1
      6208.5000         0.9288        10.4804       113.0289         0.7575       -35.7426       3.141624              1
      6209.0000         0.9324        10.5637       112.2109         0.7551       -35.5611        3.31847              1
      6209.5000         0.9272        10.5156       111.3776          0.774       -35.4832       3.391712              1
      6210.0000         0.9191        10.4257       111.6438         0.7949       -35.6492       3.221058              1
      6210.5000         0.9047        10.4291       111.9811         0.8158       -35.8581         3.0075              1
      6211.0000         0.9081        10.4536       110.6355         0.8382       -36.1812       2.679749              1
      6211.5000         0.9285        10.4786       111.7902         0.8612       -36.8687       1.987591              1
      6212.0000         0.9499        10.5024       110.3376         0.8813       -37.5307        1.32093              1
      6212.5000         0.9753        10.5252       107.9208         0.8958       -37.8761      0.9708786              1
      6213.0000         0.9973        10.5455       108.8302         0.9103       -37.9388      0.9035187              1
      6213.5000          1.017         10.552       107.4314         0.9248       -37.4409       1.396767              1
      6214.0000         1.0343        10.5331       106.3341         0.9356       -36.8476       1.985409              1
      6214.5000         1.0468        10.4936       106.8396         0.9435       -36.3385       2.489853              1
      6215.0000         1.0568        10.4315       105.4469         0.9513       -36.0931       2.730595              1
      6215.5000          1.063        10.4254        103.376         0.9591        -36.699       2.120041              1
      6216.0000         1.0684        10.4492       103.4218         0.9593       -37.1754       1.638985              1
      6216.5000         1.0739        10.4594       102.4839         0.9542       -37.3641       1.445629              1
      6217.0000          1.074        10.5221       101.7424         0.9491       -38.3724      0.4326744              1
      6217.5000         1.0537        10.5897       105.8918         0.9389       -39.1471     -0.3466835              1
      6218.0000         1.0087        10.5824       108.0728          0.922        -39.486      -0.690239              1
      6218.5000         0.9856         10.571       110.1277         0.9051       -39.4422     -0.6510963              1
      6219.0000         0.9642        10.5642       112.8263         0.8883       -39.1787     -0.3922501              1
      6219.5000         0.9464        10.5623       110.8468         0.8673       -38.9705     -0.1887093              1
      6220.0000         0.9389        10.5578        110.077         0.8458       -38.9894     -0.2122612              1
      6220.5000          0.936        10.4988       110.8555         0.8243       -38.9326     -0.1601181              1
