#------------------------------------------------------------------------------
# Created by    : vladimir.rabinovich
# Created on    : 09/19/2023 17:21:23
#------------------------------------------------------------------------------
~Version Information Section
VERS.           2.0     :   CWLS log ASCII Standard - VERSION 2.0
WRAP.           NO      :   One line per depth step
~Well Information Section
#MNEM       .UNIT                                         VALUE :DESCRIPTION
#------------------------------------------------------------------------------
STRT        .FT                                            1005 :START DEPTH
STOP        .FT                                            8973 :STOP DEPTH
STEP        .FT                                             0.5 :STEP      
NULL        .                                           -999.25 :NULL      
COMP        .                            MARITECH RESOURCES INC :COMPANY   
WELL        .                               OCS G06113 ST00BP00 :WELL      
FLD         .                              GALVESTON BLOCK 0343 :FIELD     
LOC         .                                                   :LOCATION  
CNTY        .                             GALVESTON LARGE BLOCK :LOCATION  
STAT        .                                             TEXAS :STATE     
CTRY        .                                     UNITED STATES :COUNTRY   
SRVC        .                                                   :SERVICE COMPANY
DATE        .                             9/13/2023 11:19:36 AM :LOG DATE  
API         .                                    42706402140000 :API NUMBER
UWI         .                                    42706402140000 :UNIQUE WELL ID
XCOORD      .                                  914498.553138379 :SURFACE X 
YCOORD      .                                  10427492.1426863 :SURFACE Y 
LAT         .                                         28.714711 :LATITUDE  
LON         .                                        -95.265111 :LONGITUDE 
ELEV        .FT                                              84 :ELEVATION VALUE
ELEV_TYPE   .                                                KB :ELEVATION REFERENCE TYPE
~Curve Information Section
#MNEM       .UNIT                                      API CODE :CURVE DESCRIPTION
#------------------------------------------------------------------------------
DEPT        .FT                                                 :DEPTH     
CALI        .IN                                                 :          
DPHI        .%                                                  :          
DRHO        .G/C3                                               :          
DT          .US/F                                               :          
GR          .GAPI                                               :          
ILD         .OHMM                                               :          
ILM         .OHMM                                               :          
NPHI        .%                                                  :          
SGRD        .OHMM                                               :          
SP          .MV                                                 :          
SP_NORM     .MV                                                 :SP Normalized
VSH_SP      .V/V                                                :Volume of Shale from SP
~A        DEPTH           CALI           DPHI           DRHO             DT             GR            ILD            ILM           NPHI           SGRD             SP        SP_NORM         VSH_SP
# ...
      4736.0000        -999.25        -999.25        -999.25        -999.25        -999.25         0.2591         0.2971        -999.25         0.3608      -115.8081      -18.43674      0.1696792
      4736.5000        -999.25        -999.25        -999.25        -999.25        -999.25         0.2607         0.2879        -999.25         0.3512      -115.3507       -17.9942      0.1907523
      4737.0000        -999.25        -999.25        -999.25        -999.25        -999.25         0.2748         0.2867        -999.25         0.3449      -114.6733      -17.33167      0.2223017
      4737.5000        -999.25        -999.25        -999.25        -999.25        -999.25         0.2942          0.298        -999.25         0.3436      -113.9098      -16.58302      0.2579513
      4738.0000        -999.25        -999.25        -999.25        -999.25        -999.25         0.3126         0.3167        -999.25         0.3566       -113.171      -15.85909      0.2924245
      4738.5000        -999.25        -999.25        -999.25        -999.25        -999.25         0.3281         0.3409        -999.25         0.3787      -112.6324      -15.33535      0.3173643
      4739.0000        -999.25        -999.25        -999.25        -999.25        -999.25         0.3386          0.363        -999.25         0.4032      -112.4817      -15.19951      0.3238329
      4739.5000        -999.25        -999.25        -999.25        -999.25        -999.25         0.3447         0.3805        -999.25         0.4165       -113.194      -15.92667       0.289206
      4740.0000        -999.25        -999.25        -999.25        -999.25        -999.25          0.349         0.3915        -999.25         0.4158      -114.1875      -16.93504      0.2411888
      4740.5000        -999.25        -999.25        -999.25        -999.25        -999.25         0.3469         0.3842        -999.25         0.3941      -114.9835       -17.7459      0.2025764
      4741.0000        -999.25        -999.25        -999.25        -999.25        -999.25         0.3313         0.3648        -999.25         0.3747      -115.4409      -18.21816      0.1800875
      4741.5000        -999.25        -999.25        -999.25        -999.25        -999.25         0.3088         0.3472        -999.25         0.3708      -115.6279      -18.42002      0.1704752
      4742.0000        -999.25        -999.25        -999.25        -999.25        -999.25         0.2864         0.3299        -999.25         0.3831      -115.6748      -18.48178      0.1675342
      4742.5000        -999.25        -999.25        -999.25        -999.25        -999.25         0.2724         0.3148        -999.25         0.3921      -115.6538      -18.47565      0.1678263
      4743.0000        -999.25        -999.25        -999.25        -999.25        -999.25         0.2592         0.3035        -999.25         0.3908      -115.5668      -18.40351      0.1712614
      4743.5000        -999.25        -999.25        -999.25        -999.25        -999.25         0.2541         0.2983        -999.25          0.375      -115.4725      -18.32407      0.1750441
      4744.0000        -999.25        -999.25        -999.25        -999.25        -999.25         0.2516         0.2947        -999.25         0.3599      -115.3958      -18.26223      0.1779891
      4744.5000        -999.25        -999.25        -999.25        -999.25        -999.25         0.2511         0.2907        -999.25         0.3517      -115.4048      -18.28609      0.1768526
      4745.0000        -999.25        -999.25        -999.25        -999.25        -999.25         0.2523         0.2864        -999.25         0.3489      -115.4637      -18.35986      0.1733402
      4745.5000        -999.25        -999.25        -999.25        -999.25        -999.25         0.2528         0.2826        -999.25         0.3496      -115.6929      -18.60392      0.1617181
      4746.0000        -999.25        -999.25        -999.25        -999.25        -999.25          0.253         0.2807        -999.25          0.351      -116.1412      -19.06708       0.139663
      4746.5000        -999.25        -999.25        -999.25        -999.25        -999.25         0.2512         0.2782        -999.25         0.3517      -116.6198      -19.56054      0.1161648
      4747.0000        -999.25        -999.25        -999.25        -999.25        -999.25         0.2465         0.2748        -999.25         0.3506      -116.9185      -19.87411       0.101233
      4747.5000        -999.25        -999.25        -999.25        -999.25        -999.25         0.2399         0.2724        -999.25         0.3484      -116.9292      -19.89967      0.1000159
      4748.0000        -999.25        -999.25        -999.25        -999.25        -999.25          0.233         0.2711        -999.25         0.3478       -116.744      -19.72933      0.1081271
      4748.5000        -999.25        -999.25        -999.25        -999.25        -999.25         0.2257         0.2682        -999.25         0.3476      -116.3774      -19.37759      0.1248765
      4749.0000        -999.25        -999.25        -999.25        -999.25        -999.25           0.22         0.2633        -999.25         0.3449      -115.8651      -18.88015      0.1485643
      4749.5000        -999.25        -999.25        -999.25        -999.25        -999.25         0.2189          0.255        -999.25         0.3367      -115.0081      -18.03802      0.1886658
      4750.0000        -999.25        -999.25        -999.25        -999.25        -999.25         0.2214          0.257        -999.25         0.3325      -114.1849      -17.22968       0.227158
      4750.5000        -999.25        -999.25        -999.25        -999.25        -999.25         0.2372         0.2538        -999.25         0.3257       -112.463      -15.52264      0.3084455
      4751.0000        -999.25        -999.25        -999.25        -999.25        -999.25         0.2629         0.2645        -999.25         0.3226      -109.4406      -12.51511      0.4516616
      4751.5000        -999.25        -999.25        -999.25        -999.25        -999.25         0.2944         0.2903        -999.25         0.3346      -105.6216      -8.710968      0.6328111
      4752.0000        -999.25        -999.25        -999.25        -999.25        -999.25         0.3303         0.3393        -999.25         0.3627      -102.9849      -6.089134      0.7576603
      4752.5000        -999.25        -999.25        -999.25        -999.25        -999.25         0.3709         0.3842        -999.25         0.4032      -102.3422      -5.461296      0.7875573
      4753.0000        -999.25        -999.25        -999.25        -999.25        -999.25         0.4133         0.4252        -999.25         0.4461      -102.1927       -5.32666      0.7939686
      4753.5000        -999.25        -999.25        -999.25        -999.25        -999.25         0.4521         0.4663        -999.25         0.4796      -102.3202      -5.469017      0.7871897
      4754.0000        -999.25        -999.25        -999.25        -999.25        -999.25         0.4869         0.4949        -999.25         0.4814      -102.4065      -5.570183      0.7823722
      4754.5000        -999.25        -999.25        -999.25        -999.25        -999.25         0.5143         0.5128        -999.25         0.4722      -102.4221      -5.600639      0.7809219
      4755.0000        -999.25        -999.25        -999.25        -999.25        -999.25         0.5173         0.5182        -999.25          0.468      -102.3198      -5.513206      0.7850854
      4755.5000        -999.25        -999.25        -999.25        -999.25        -999.25         0.5065         0.5131        -999.25         0.4691      -102.0243      -5.232567      0.7984492
      4756.0000        -999.25        -999.25        -999.25        -999.25        -999.25         0.5003         0.4949        -999.25         0.4748      -101.9644      -5.187531      0.8005938
