#------------------------------------------------------------------------------
# Created by    : vladimir.rabinovich
# Created on    : 09/19/2023 17:20:34
#------------------------------------------------------------------------------
~Version Information Section
VERS.           2.0     :   CWLS log ASCII Standard - VERSION 2.0
WRAP.           NO      :   One line per depth step
~Well Information Section
#MNEM       .UNIT                                         VALUE :DESCRIPTION
#------------------------------------------------------------------------------
STRT        .FT                                             495 :START DEPTH
STOP        .FT                                            9652 :STOP DEPTH
STEP        .FT                                             0.5 :STEP      
NULL        .                                           -999.25 :NULL      
COMP        .                                      SHELL OIL CO :COMPANY   
WELL        .                                OCS 00714 ST00BP00 :WELL      
FLD         .                                FEDERAL BLOCK 0288 :FIELD     
LOC         .                                                   :LOCATION  
CNTY        .                             GALVESTON LARGE BLOCK :LOCATION  
STAT        .                                             TEXAS :STATE     
CTRY        .                                     UNITED STATES :COUNTRY   
SRVC        .                                                   :SERVICE COMPANY
DATE        .                             9/13/2023 11:19:25 AM :LOG DATE  
API         .                                    42706000490000 :API NUMBER
UWI         .                                    42706000490000 :UNIQUE WELL ID
XCOORD      .                                  1093419.85109126 :SURFACE X 
YCOORD      .                                  10468907.9519753 :SURFACE Y 
LAT         .                                         28.836806 :LATITUDE  
LON         .                                        -94.708909 :LONGITUDE 
ELEV        .FT                                              83 :ELEVATION VALUE
ELEV_TYPE   .                                                KB :ELEVATION REFERENCE TYPE
~Curve Information Section
#MNEM       .UNIT                                      API CODE :CURVE DESCRIPTION
#------------------------------------------------------------------------------
DEPT        .FT                                                 :DEPTH     
ASN         .OHMM                                               :          
ASN_1       .OHMM                                               :          
CALI        .IN                                                 :          
CALI_1      .IN                                                 :          
DRHO        .G/C3                                               :          
DT          .US/F                                               :          
ILD         .OHMM                                               :          
LAT         .OHMM                                               :          
LN          .OHMM                                               :          
RHOB        .G/C3                                               :          
SP          .MV                                                 :          
SP_1        .MV                                                 :          
SP_NORM     .MV                                                 :SP Normalized
VSH_SP      .V/V                                                :Volume of Shale from SP
~A        DEPTH            ASN          ASN_1           CALI         CALI_1           DRHO             DT            ILD            LAT             LN           RHOB             SP           SP_1        SP_NORM         VSH_SP
# ...
      8649.0000         1.2636        -999.25        11.1834        -999.25         0.1743         91.366         1.2218        -999.25        -999.25         2.3993        -999.25       -47.0597      -3.194454      0.9573409
      8649.5000         1.3331        -999.25        11.1506        -999.25         0.1535        93.3456         1.2972        -999.25        -999.25         2.4036        -999.25       -47.3615       -3.49184        0.94672
      8650.0000         1.4082        -999.25        11.1295        -999.25         0.1363        93.6694         1.3331        -999.25        -999.25         2.3947        -999.25        -47.511      -3.636932      0.9415382
      8650.5000         1.4136        -999.25        11.1875        -999.25         0.1347        96.3046         1.3106        -999.25        -999.25         2.3969        -999.25       -47.0765      -3.198017      0.9572137
      8651.0000         1.3837        -999.25        11.3179        -999.25         0.1684       100.6045         1.2649        -999.25        -999.25          2.406        -999.25       -47.0096      -3.126709      0.9597604
      8651.5000         1.3507        -999.25          11.29        -999.25         0.2086       101.9297         1.2188        -999.25        -999.25         2.4014        -999.25       -47.0621      -3.174797       0.958043
      8652.0000         1.3209        -999.25        10.9285        -999.25         0.2431       101.6952         1.1727        -999.25        -999.25         2.4082        -999.25       -47.0541      -3.162384      0.9584863
      8652.5000           1.29        -999.25        10.7869        -999.25         0.2645       100.8519         1.1284        -999.25        -999.25         2.4153        -999.25       -46.8141      -2.917973      0.9672152
      8653.0000         1.2565        -999.25        11.0058        -999.25         0.2644       101.2942          1.086        -999.25        -999.25         2.3992        -999.25       -46.5212      -2.620659      0.9778336
      8653.5000         1.2166        -999.25        11.0189        -999.25         0.2375        102.406         1.0436        -999.25        -999.25         2.3782        -999.25       -46.2947      -2.389751      0.9860803
      8654.0000         1.1782        -999.25        10.8718        -999.25         0.1999       100.3976         1.0124        -999.25        -999.25         2.3707        -999.25       -46.4128      -2.503437      0.9820201
      8654.5000         1.1493        -999.25        10.8476        -999.25         0.1662        100.645         0.9812        -999.25        -999.25         2.3514        -999.25       -46.4512      -2.537426      0.9808062
      8655.0000         1.1267        -999.25        10.8891        -999.25         0.1489       102.9344         0.9644        -999.25        -999.25         2.3408        -999.25        -46.252      -2.333813      0.9880781
      8655.5000         1.1116        -999.25         10.872        -999.25         0.1819       105.5139         0.9499        -999.25        -999.25         2.3525        -999.25       -45.8091      -1.886505              1
      8656.0000         1.1024        -999.25        10.7776        -999.25         0.2301       106.4366         0.9483        -999.25        -999.25          2.373        -999.25       -45.6602      -1.733192              1
      8656.5000         1.0977        -999.25        10.6489        -999.25          0.269       105.4263         0.9473        -999.25        -999.25         2.4026        -999.25       -45.6371      -1.705681              1
      8657.0000          1.092        -999.25          10.73        -999.25         0.2736       103.4966         0.9455        -999.25        -999.25         2.4066        -999.25       -46.0497      -2.113873      0.9959331
      8657.5000         1.0853        -999.25        10.8725        -999.25         0.2315       103.9712          0.943        -999.25        -999.25         2.3851        -999.25        -46.564      -2.623756       0.977723
      8658.0000          1.078        -999.25        10.9707        -999.25         0.2193       103.7507         0.9392        -999.25        -999.25          2.381        -999.25       -47.1271      -3.182449      0.9577697
      8658.5000         1.0723        -999.25        10.9386        -999.25         0.2242       104.0116         0.9307        -999.25        -999.25         2.3759        -999.25       -46.8613      -2.912235      0.9674202
      8659.0000         1.0698        -999.25        10.8739        -999.25         0.2545       105.1339         0.9222        -999.25        -999.25         2.3997        -999.25       -47.1518      -3.198322      0.9572028
      8659.5000         1.0709        -999.25        11.0914        -999.25         0.2773       105.9823         0.9139        -999.25        -999.25         2.4135        -999.25       -46.8444      -2.886509       0.968339
      8660.0000         1.0704        -999.25        11.1831        -999.25         0.2769       105.9609         0.9055        -999.25        -999.25         2.4126        -999.25       -46.0513      -2.089001      0.9968214
      8660.5000         1.0597        -999.25        11.1661        -999.25         0.2693       105.5262         0.8988        -999.25        -999.25         2.4057        -999.25       -45.6703       -1.70359              1
      8661.0000         1.0492        -999.25        11.2253        -999.25         0.2634       105.5991         0.8945        -999.25        -999.25         2.4056        -999.25       -45.5924      -1.621277              1
      8661.5000         1.0464        -999.25        11.1695        -999.25         0.2737       105.9772         0.8942        -999.25        -999.25         2.3968        -999.25       -45.7127      -1.737167              1
      8662.0000         1.0515        -999.25        11.0875        -999.25         0.2813       107.3052         0.9078        -999.25        -999.25         2.3885        -999.25       -45.9114      -1.931454              1
      8662.5000         1.0573        -999.25        11.2052        -999.25          0.241       107.6346          0.926        -999.25        -999.25          2.378        -999.25       -45.7085      -1.724144              1
      8663.0000         1.0695        -999.25        11.3208        -999.25         0.2089       105.2643         0.9558        -999.25        -999.25         2.3689        -999.25       -45.3137      -1.324932              1
      8663.5000         1.0903        -999.25        11.3537        -999.25         0.2251       100.9734         0.9853        -999.25        -999.25          2.378        -999.25         -45.79      -1.796822              1
      8664.0000         1.1353        -999.25        11.3055        -999.25         0.2616        89.4949         1.0118        -999.25        -999.25          2.373        -999.25       -46.1298      -2.132206      0.9952784
      8664.5000         1.1821        -999.25        11.1576        -999.25         0.2588        91.9507         1.0383        -999.25        -999.25         2.3602        -999.25       -45.8395      -1.837498              1
      8665.0000         1.2145        -999.25        10.9953        -999.25          0.196        99.2281         1.0508        -999.25        -999.25         2.3358        -999.25       -45.5175      -1.511089              1
      8665.5000         1.2296        -999.25        10.9825        -999.25         0.1167        97.7349         1.0609        -999.25        -999.25         2.3265        -999.25       -45.9327      -1.921875              1
      8666.0000         1.2203        -999.25        10.6608        -999.25         0.1724        95.7963         1.0384        -999.25        -999.25         2.3437        -999.25       -46.4611      -2.445866      0.9840762
      8666.5000         1.1663        -999.25        10.7419        -999.25         0.1629       101.2972         1.0134        -999.25        -999.25         2.3148        -999.25       -46.6845      -2.664852      0.9762553
