#------------------------------------------------------------------------------
# Created by    : vladimir.rabinovich
# Created on    : 09/19/2023 17:21:24
#------------------------------------------------------------------------------
~Version Information Section
VERS.           2.0     :   CWLS log ASCII Standard - VERSION 2.0
WRAP.           NO      :   One line per depth step
~Well Information Section
#MNEM       .UNIT                                         VALUE :DESCRIPTION
#------------------------------------------------------------------------------
STRT        .FT                                             682 :START DEPTH
STOP        .FT                                            8542 :STOP DEPTH
STEP        .FT                                             0.5 :STEP      
NULL        .                                           -999.25 :NULL      
COMP        .                       CORPUS CHRISTI OIL & GAS CO :COMPANY   
WELL        .                               OCS G08551 ST00BP00 :WELL      
FLD         .                                           WILDCAT :FIELD     
LOC         .                                                   :LOCATION  
CNTY        .                             GALVESTON LARGE BLOCK :LOCATION  
STAT        .                                             TEXAS :STATE     
CTRY        .                                     UNITED STATES :COUNTRY   
SRVC        .                                                   :SERVICE COMPANY
DATE        .                             9/13/2023 11:19:36 AM :LOG DATE  
API         .                                    42706401950000 :API NUMBER
UWI         .                                    42706401950000 :UNIQUE WELL ID
XCOORD      .                                   976199.22633255 :SURFACE X 
YCOORD      .                                  10415950.2633902 :SURFACE Y 
LAT         .                                         28.686063 :LATITUDE  
LON         .                                        -95.072067 :LONGITUDE 
ELEV        .FT                                              81 :ELEVATION VALUE
ELEV_TYPE   .                                                KB :ELEVATION REFERENCE TYPE
~Curve Information Section
#MNEM       .UNIT                                      API CODE :CURVE DESCRIPTION
#------------------------------------------------------------------------------
DEPT        .FT                                                 :DEPTH     
CALI        .IN                                                 :          
DPHI        .%                                                  :          
DRHO        .G/C3                                               :          
DT          .US/F                                               :          
GR          .GAPI                                               :          
GR_1        .GAPI                                               :          
GR_NORM     .GAPI                                               :GammaRay Normalized
ILD         .OHMM                                               :          
ILM         .OHMM                                               :          
NPHI        .%                                                  :          
SFL         .OHMM                                               :          
SP_NORM     .MV                                                 :SP Normalized
SPS         .MV                                                 :          
VSH_GR      .V/V                                                :Volume of Shale from GR
VSH_SP      .V/V                                                :Volume of Shale from SP
~A        DEPTH           CALI           DPHI           DRHO             DT             GR           GR_1        GR_NORM            ILD            ILM           NPHI            SFL        SP_NORM            SPS         VSH_GR         VSH_SP
# ...
      4235.0000        -999.25        -999.25        -999.25       136.6602        70.7698        -999.25       85.70362         0.5354         0.5502        -999.25          0.585      -3.908051       -75.3555              1       0.950711
      4235.5000        -999.25        -999.25        -999.25       136.1802        68.9706        -999.25       83.45462         0.5391         0.5588        -999.25         0.5889      -4.199677       -75.6442              1      0.9457682
      4236.0000        -999.25        -999.25        -999.25       136.2996        67.4462        -999.25       81.54912         0.5458         0.5659        -999.25         0.6343      -4.461098       -75.9027              1      0.9413373
      4236.5000        -999.25        -999.25        -999.25       136.7229        67.4261        -999.25         81.524         0.5532         0.5716        -999.25         0.6461      -4.756523       -76.1952              1      0.9363301
      4237.0000        -999.25        -999.25        -999.25       135.9314        69.5327        -999.25       84.15725         0.5583         0.5766        -999.25         0.6188      -5.113251        -76.549              1      0.9302839
      4237.5000        -999.25        -999.25        -999.25       134.7307          71.52        -999.25       86.64137          0.562         0.5753        -999.25         0.5952      -5.614265       -77.0471              1      0.9217921
      4238.0000        -999.25        -999.25        -999.25       133.4309        73.2427        -999.25       88.79475         0.5641         0.5739        -999.25         0.6116      -6.486588       -77.9165              1       0.907007
      4238.5000        -999.25        -999.25        -999.25       132.2266        71.2842        -999.25       86.34663         0.5654         0.5751        -999.25         0.6673      -7.553513       -78.9805              1      0.8889235
      4239.0000        -999.25        -999.25        -999.25        131.606        69.5785        -999.25       84.21449         0.5652         0.5783        -999.25          0.696      -8.565239       -79.9893              1      0.8717756
      4239.5000        -999.25        -999.25        -999.25       131.6235        69.3124        -999.25       83.88187         0.5609         0.5825        -999.25         0.6764      -9.484062       -80.9052              1      0.8562024
      4240.0000        -999.25        -999.25        -999.25       131.1052         68.874        -999.25       83.33388         0.5572         0.5877        -999.25         0.6484      -10.32008       -81.7383              1      0.8420325
      4240.5000        -999.25        -999.25        -999.25       130.2808        66.9543        -999.25       80.93425         0.5536         0.5902        -999.25         0.6285      -10.81081       -82.2261              1      0.8337151
      4241.0000        -999.25        -999.25        -999.25       130.7471        65.1652        -999.25       78.69788         0.5508         0.5895        -999.25         0.6562      -10.14963        -81.562      0.9722952      0.8449216
      4241.5000        -999.25        -999.25        -999.25       132.7595        64.8114        -999.25       78.25562         0.5481         0.5861        -999.25         0.6942       -8.30825       -79.7177      0.9628856      0.8761314
      4242.0000        -999.25        -999.25        -999.25       135.1619        66.8427        -999.25       80.79475         0.5461         0.5791        -999.25         0.6865      -6.552078       -77.9586              1       0.905897
      4242.5000        -999.25        -999.25        -999.25       137.4072        69.1752        -999.25       83.71037          0.544         0.5716        -999.25         0.6563      -5.290199       -76.6938              1      0.9272848
      4243.0000        -999.25        -999.25        -999.25       138.6492        70.0107        -999.25       84.75475         0.5407         0.5651        -999.25         0.6264      -4.374825       -75.7755              1      0.9427996
      4243.5000        -999.25        -999.25        -999.25       139.0894        67.2805        -999.25         81.342         0.5374         0.5597        -999.25         0.6046      -3.629547       -75.0273              1      0.9554314
      4244.0000        -999.25        -999.25        -999.25        139.082        63.9858        -999.25       77.22363         0.5345         0.5544        -999.25         0.5912       -3.07077       -74.4656      0.9409282      0.9649022
      4244.5000        -999.25        -999.25        -999.25       139.3965        61.3122        -999.25       73.88162         0.5317         0.5494        -999.25          0.576      -2.708893       -74.1008      0.8698217      0.9710357
      4245.0000        -999.25        -999.25        -999.25       139.8643        63.2381        -999.25       76.28899         0.5297         0.5447        -999.25         0.5673      -2.561218       -73.9502      0.9210424      0.9735387
      4245.5000        -999.25        -999.25        -999.25        138.624        65.8704        -999.25       79.57938         0.5281         0.5447        -999.25         0.5705      -2.610634       -73.9967      0.9910505      0.9727011
      4246.0000        -999.25        -999.25        -999.25       136.5183        68.6356        -999.25       83.03587           0.53         0.5446        -999.25         0.5799      -2.817764       -74.2009              1      0.9691904
      4246.5000        -999.25        -999.25        -999.25       134.2014         70.776        -999.25       85.71137         0.5326         0.5509        -999.25         0.5973      -3.020386       -74.4006              1      0.9657562
      4247.0000        -999.25        -999.25        -999.25       132.1475        70.9316        -999.25       85.90588         0.5393         0.5575        -999.25         0.6209      -3.229309       -74.6066              1      0.9622151
      4247.5000        -999.25        -999.25        -999.25       133.4221        70.0708        -999.25       84.82987         0.5461         0.5629        -999.25         0.6631      -3.487534       -74.8619              1      0.9578384
      4248.0000        -999.25        -999.25        -999.25       136.4692        70.0591        -999.25       84.81525         0.5529         0.5702        -999.25         0.6658      -3.864159       -75.2356              1      0.9514549
      4248.5000        -999.25        -999.25        -999.25       138.8679        71.0326        -999.25       86.03212          0.557         0.5802        -999.25         0.6152      -4.440781       -75.8093              1      0.9416817
      4249.0000        -999.25        -999.25        -999.25       139.2024        70.7616        -999.25       85.69337         0.5619         0.5857        -999.25         0.5731      -5.470108       -76.8357              1      0.9242355
      4249.5000        -999.25        -999.25        -999.25       136.0217        68.9442        -999.25       83.42162         0.5677         0.5932        -999.25         0.5417      -8.035027       -79.3977              1      0.8807623
      4250.0000        -999.25        -999.25        -999.25       130.7244         65.913        -999.25       79.63263         0.5755         0.6053        -999.25         0.5409      -12.35395       -83.7137      0.9921836      0.8075601
      4250.5000        -999.25        -999.25        -999.25       124.9518        61.9019        -999.25       74.61875         0.5834         0.6289        -999.25         0.6247      -16.50227       -87.8591      0.8855054      0.7372496
      4251.0000        -999.25        -999.25        -999.25       121.8015        59.9327        -999.25       72.15725         0.5917         0.6504        -999.25         0.7193      -19.13239       -90.4863       0.833133      0.6926713
      4251.5000        -999.25        -999.25        -999.25       119.9277        61.0726        -999.25       73.58212         0.5976         0.6664        -999.25         0.8634      -20.79282       -92.1438      0.8634494      0.6645285
