#------------------------------------------------------------------------------
# Created by    : vladimir.rabinovich
# Created on    : 09/19/2023 17:20:36
#------------------------------------------------------------------------------
~Version Information Section
VERS.           2.0     :   CWLS log ASCII Standard - VERSION 2.0
WRAP.           NO      :   One line per depth step
~Well Information Section
#MNEM       .UNIT                                         VALUE :DESCRIPTION
#------------------------------------------------------------------------------
STRT        .FT                                             498 :START DEPTH
STOP        .FT                                            9565 :STOP DEPTH
STEP        .FT                                             0.5 :STEP      
NULL        .                                           -999.25 :NULL      
COMP        .                       BLUE DOLPHIN EXPLORATION CO :COMPANY   
WELL        .                                OCS 00714 ST00BP00 :WELL      
FLD         .                              GALVESTON BLOCK 0288 :FIELD     
LOC         .                                                   :LOCATION  
CNTY        .                             GALVESTON LARGE BLOCK :LOCATION  
STAT        .                                             TEXAS :STATE     
CTRY        .                                     UNITED STATES :COUNTRY   
SRVC        .                                                   :SERVICE COMPANY
DATE        .                             9/13/2023 11:19:25 AM :LOG DATE  
API         .                                    42706000390000 :API NUMBER
UWI         .                                    42706000390000 :UNIQUE WELL ID
XCOORD      .                                  1097340.72850425 :SURFACE X 
YCOORD      .                                  10481267.2561277 :SURFACE Y 
LAT         .                                        28.8709496 :LATITUDE  
LON         .                                       -94.6972159 :LONGITUDE 
ELEV        .FT                                              85 :ELEVATION VALUE
ELEV_TYPE   .                                                KB :ELEVATION REFERENCE TYPE
~Curve Information Section
#MNEM       .UNIT                                      API CODE :CURVE DESCRIPTION
#------------------------------------------------------------------------------
DEPT        .FT                                                 :DEPTH     
ASN         .OHMM                                               :          
CALI        .IN                                                 :          
DT          .US/F                                               :          
ILD         .OHMM                                               :          
SP          .MV                                                 :          
SP_1        .MV                                                 :          
SP_NORM     .MV                                                 :SP Normalized
VSH_SP      .V/V                                                :Volume of Shale from SP
~A        DEPTH            ASN           CALI             DT            ILD             SP           SP_1        SP_NORM         VSH_SP
# ...
      1088.0000         2.9219        -999.25        -999.25        -999.25        -999.25       -50.3856      -1.605114              1
      1088.5000         2.8742        -999.25        -999.25        -999.25        -999.25       -50.5688      -1.788315              1
      1089.0000         2.8451        -999.25        -999.25        -999.25        -999.25       -50.2039      -1.423412              1
      1089.5000          2.827        -999.25        -999.25        -999.25        -999.25       -49.8389      -1.058414              1
      1090.0000         2.8077        -999.25        -999.25        -999.25        -999.25       -50.1018      -1.321312              1
      1090.5000         2.7868        -999.25        -999.25        -999.25        -999.25       -50.3901      -1.609612              1
      1091.0000         2.7658        -999.25        -999.25        -999.25        -999.25       -50.6607      -1.880215              1
      1091.5000         2.7335        -999.25        -999.25        -999.25        -999.25       -50.6696      -1.889114              1
      1092.0000         2.6977        -999.25        -999.25        -999.25        -999.25       -50.2432      -1.462711              1
      1092.5000         2.6432        -999.25        -999.25        -999.25        -999.25       -49.7979      -1.017414              1
      1093.0000         2.6147        -999.25        -999.25        -999.25        -999.25       -49.3525     -0.5720139              1
      1093.5000         2.5894        -999.25        -999.25        -999.25        -999.25       -48.9528     -0.1723137              1
      1094.0000         2.5957        -999.25        -999.25        -999.25        -999.25       -48.6049      0.1755867              1
      1094.5000         2.6053        -999.25        -999.25        -999.25        -999.25       -48.4768       0.303688              1
      1095.0000         2.6143        -999.25        -999.25        -999.25        -999.25       -48.6598      0.1206856              1
      1095.5000          2.623        -999.25        -999.25        -999.25        -999.25       -49.0442     -0.2637138              1
      1096.0000         2.6233        -999.25        -999.25        -999.25        -999.25       -49.2112     -0.4307137              1
      1096.5000         2.6042        -999.25        -999.25        -999.25        -999.25       -49.0944     -0.3139114              1
      1097.0000          2.585        -999.25        -999.25        -999.25        -999.25       -49.3392      -0.558712              1
      1097.5000         2.5659        -999.25        -999.25        -999.25        -999.25       -49.8068      -1.026314              1
      1098.0000         2.5311        -999.25        -999.25        -999.25        -999.25       -50.0044      -1.223911              1
      1098.5000         2.4503        -999.25        -999.25        -999.25        -999.25       -50.1915      -1.411015              1
      1099.0000         2.3667        -999.25        -999.25        -999.25        -999.25        -50.096      -1.315514              1
      1099.5000          2.283        -999.25        -999.25        -999.25        -999.25       -50.0005      -1.220013              1
      1100.0000         2.1993        -999.25        -999.25        -999.25        -999.25       -50.1271      -1.346615              1
      1100.5000         2.1383        -999.25        -999.25        -999.25        -999.25       -50.3326      -1.552113              1
      1101.0000         2.1095        -999.25        -999.25        -999.25        -999.25       -50.1481      -1.367615              1
      1101.5000         2.0848        -999.25        -999.25        -999.25        -999.25       -49.7948      -1.014313              1
      1102.0000         2.0702        -999.25        -999.25        -999.25        -999.25       -49.4887     -0.7082138              1
      1102.5000         2.0633        -999.25        -999.25        -999.25        -999.25       -49.4498     -0.6693115              1
      1103.0000         2.0564        -999.25        -999.25        -999.25        -999.25       -49.5563     -0.7758141              1
      1103.5000         2.0779        -999.25        -999.25        -999.25        -999.25       -49.7823      -1.001812              1
      1104.0000         2.1114        -999.25        -999.25        -999.25        -999.25       -50.3254      -1.544914              1
      1104.5000         2.1944        -999.25        -999.25        -999.25        -999.25       -50.7793      -1.998814              1
      1105.0000         2.2854        -999.25        -999.25        -999.25        -999.25       -51.1416      -2.361115      0.9759257
      1105.5000         2.3903        -999.25        -999.25        -999.25        -999.25       -51.3048      -2.524311      0.9650459
      1106.0000          2.482        -999.25        -999.25        -999.25        -999.25       -51.4485      -2.668015      0.9554657
      1106.5000         2.5709        -999.25        -999.25        -999.25        -999.25       -51.5922      -2.811714      0.9458857
      1107.0000         2.6354        -999.25        -999.25        -999.25        -999.25       -51.7348      -2.954311      0.9363793
      1107.5000         2.6761        -999.25        -999.25        -999.25        -999.25       -51.8713      -3.090813      0.9272792
      1108.0000          2.603        -999.25        -999.25        -999.25        -999.25       -52.0079      -3.227413      0.9181725
      1108.5000         2.4947        -999.25        -999.25        -999.25        -999.25       -52.1445      -3.364014      0.9090658
      1109.0000         2.4341        -999.25        -999.25        -999.25        -999.25       -51.7076      -2.927113      0.9381925
      1109.5000         2.3879        -999.25        -999.25        -999.25        -999.25       -51.2631      -2.482613      0.9678258
      1110.0000         2.3685        -999.25        -999.25        -999.25        -999.25       -50.8193      -2.038815      0.9974124
      1110.5000          2.349        -999.25        -999.25        -999.25        -999.25       -50.4097      -1.629211              1
      1111.0000          2.338        -999.25        -999.25        -999.25        -999.25       -50.0002      -1.219711              1
      1111.5000          2.338        -999.25        -999.25        -999.25        -999.25       -49.7411     -0.9606133              1
      1112.0000         2.3392        -999.25        -999.25        -999.25        -999.25       -49.6475      -0.867012              1
      1112.5000         2.3616        -999.25        -999.25        -999.25        -999.25       -49.7163     -0.9358139              1
      1113.0000         2.3839        -999.25        -999.25        -999.25        -999.25       -49.8049      -1.024414              1
      1113.5000         2.4316        -999.25        -999.25        -999.25        -999.25       -49.8963      -1.115814              1
      1114.0000         2.4956        -999.25        -999.25        -999.25        -999.25       -49.9954      -1.214912              1
      1114.5000         2.5688        -999.25        -999.25        -999.25        -999.25        -50.159      -1.378513              1
      1115.0000         2.6473        -999.25        -999.25        -999.25        -999.25       -50.4174      -1.636913              1
      1115.5000         2.7117        -999.25        -999.25        -999.25        -999.25       -51.5151      -2.734612      0.9510259
      1116.0000         2.7669        -999.25        -999.25        -999.25        -999.25       -53.4136      -4.633114      0.8244591
      1116.5000         2.8025        -999.25        -999.25        -999.25        -999.25       -55.2907      -6.510212      0.6993192
      1117.0000         2.8431        -999.25        -999.25        -999.25        -999.25       -56.9352      -8.154713      0.5896858
