#------------------------------------------------------------------------------
# Created by    : vladimir.rabinovich
# Created on    : 09/19/2023 17:20:10
#------------------------------------------------------------------------------
~Version Information Section
VERS.           2.0     :   CWLS log ASCII Standard - VERSION 2.0
WRAP.           NO      :   One line per depth step
~Well Information Section
#MNEM       .UNIT                                         VALUE :DESCRIPTION
#------------------------------------------------------------------------------
STRT        .FT                                             409 :START DEPTH
STOP        .FT                                           13135 :STOP DEPTH
STEP        .FT                                             0.5 :STEP      
NULL        .                                           -999.25 :NULL      
COMP        .                         ATLANTIC RICHFIELD CO THE :COMPANY   
WELL        .                               OCS G04547 ST00BP00 :WELL      
FLD         .                                           WILDCAT :FIELD     
LOC         .                                                   :LOCATION  
CNTY        .                      MATAGORDA ISLAND LARGE BLOCK :LOCATION  
STAT        .                                             TEXAS :STATE     
CTRY        .                                     UNITED STATES :COUNTRY   
SRVC        .                                                   :SERVICE COMPANY
DATE        .                             9/13/2023 11:12:03 AM :LOG DATE  
API         .                                    42703401300000 :API NUMBER
UWI         .                                    42703401300000 :UNIQUE WELL ID
XCOORD      .                                  517134.995430583 :SURFACE X 
YCOORD      .                                  10172294.5320476 :SURFACE Y 
LAT         .                                         27.987424 :LATITUDE  
LON         .                                        -96.480505 :LONGITUDE 
ELEV        .FT                                              99 :ELEVATION VALUE
ELEV_TYPE   .                                                KB :ELEVATION REFERENCE TYPE
~Curve Information Section
#MNEM       .UNIT                                      API CODE :CURVE DESCRIPTION
#------------------------------------------------------------------------------
DEPT        .FT                                                 :DEPTH     
ASFL        .OHMM                                               :          
CILD        .MMHO                                               :          
GR          .GAPI                                               :          
GR_NORM     .GAPI                                               :GammaRay Normalized
ILD         .OHMM                                               :          
SP          .MV                                                 :          
SP_NORM     .MV                                                 :SP Normalized
VSH_GR      .V/V                                                :Volume of Shale from GR
VSH_SP      .V/V                                                :Volume of Shale from SP
~A        DEPTH           ASFL           CILD             GR        GR_NORM            ILD             SP        SP_NORM         VSH_GR         VSH_SP
# ...
      4649.0000         0.5966       2022.738        -999.25        -999.25         0.4587       -42.0106       0.548481        -999.25              1
      4649.5000         0.5972       2010.477        -999.25        -999.25         0.4631       -41.9655      0.5885925        -999.25              1
      4650.0000         0.5971       1997.813        -999.25        -999.25         0.4715        -41.869      0.6801071        -999.25              1
      4650.5000         0.5968       1971.061        -999.25        -999.25         0.4872       -41.7726      0.7715225        -999.25              1
      4651.0000         0.5965       1939.965        -999.25        -999.25         0.5029       -41.7657      0.7734337        -999.25              1
      4651.5000         0.5996       1908.846        -999.25        -999.25         0.5185       -41.8407      0.6934471        -999.25              1
      4652.0000         0.6135       1836.777        -999.25        -999.25         0.5342       -41.9212      0.6079597        -999.25              1
      4652.5000         0.6294       1764.174        -999.25        -999.25         0.5499       -42.0095      0.5146751        -999.25              1
      4653.0000         0.6531       1702.031        -999.25        -999.25         0.5655       -42.0977      0.4214897        -999.25              1
      4653.5000         0.6713       1649.428        -999.25        -999.25         0.5756        -42.186      0.3282013        -999.25              1
      4654.0000         0.6736       1611.154        -999.25        -999.25         0.5856       -42.2504       0.258812        -999.25              1
      4654.5000          0.676       1576.094        -999.25        -999.25         0.5957       -42.2787      0.2255249        -999.25              1
      4655.0000         0.6776       1544.609        -999.25        -999.25         0.6057        -42.307      0.1922417        -999.25              1
      4655.5000          0.679       1520.961        -999.25        -999.25         0.6148       -42.3622      0.1320534        -999.25              1
      4656.0000         0.6814       1504.951        -999.25        -999.25         0.6227       -42.4446     0.04466629        -999.25              1
      4656.5000         0.6844       1506.406        -999.25        -999.25         0.6307       -42.6231     -0.1388206        -999.25              1
      4657.0000         0.6876       1510.193        -999.25        -999.25         0.6387       -42.8702     -0.3909073        -999.25              1
      4657.5000         0.6963       1512.594        -999.25        -999.25         0.6467       -43.1815     -0.7071915        -999.25              1
      4658.0000         0.7045       1514.209        -999.25        -999.25         0.6509       -43.5488      -1.079483        -999.25      0.9981936
      4658.5000         0.7104       1515.828        -999.25        -999.25         0.6542       -43.9219      -1.457569        -999.25      0.9896007
      4659.0000         0.7163       1516.891        -999.25        -999.25         0.6574       -44.3008      -1.841454        -999.25       0.980876
      4659.5000         0.7145       1509.244        -999.25        -999.25         0.6607       -44.6446      -2.190239        -999.25      0.9729491
      4660.0000         0.7122       1501.605        -999.25        -999.25         0.6639       -44.4221      -1.972729        -999.25      0.9778925
      4660.5000         0.7098       1493.965        -999.25        -999.25         0.6662       -44.0909      -1.646515        -999.25      0.9853065
      4661.0000         0.7061       1485.947        -999.25        -999.25         0.6669       -43.6873      -1.247902        -999.25      0.9943659
      4661.5000         0.7106       1477.213        -999.25        -999.25         0.6676       -43.2839     -0.8494873        -999.25              1
      4662.0000         0.7172       1468.473        -999.25        -999.25         0.6682       -42.8803     -0.4508743        -999.25              1
      4662.5000         0.7225       1471.922        -999.25        -999.25         0.6684       -42.4766    -0.05216217        -999.25              1
      4663.0000         0.7249       1484.086        -999.25        -999.25          0.668       -42.0869      0.3325539        -999.25              1
      4663.5000         0.7183       1496.264        -999.25        -999.25         0.6677       -41.6974      0.7170677        -999.25              1
      4664.0000         0.7074       1508.648        -999.25        -999.25         0.6673       -42.0609      0.3485756        -999.25              1
      4664.5000         0.6932       1521.119        -999.25        -999.25         0.6656       -42.5286     -0.1241074        -999.25              1
      4665.0000         0.6807         1533.6        -999.25        -999.25         0.6631       -43.5966      -1.197094        -999.25      0.9955206
      4665.5000         0.6689        1546.07        -999.25        -999.25         0.6606       -44.6083      -2.213779        -999.25      0.9724141
      4666.0000         0.6716       1566.484        -999.25        -999.25         0.6581       -45.3854      -2.995869        -999.25      0.9546394
      4666.5000         0.6886       1583.521        -999.25        -999.25         0.6465       -45.9602      -3.575657        -999.25      0.9414623
      4667.0000         0.7056       1594.391        -999.25        -999.25         0.6347       -46.3896       -4.01004        -999.25        0.93159
      4667.5000         0.7369       1606.678        -999.25        -999.25         0.6228       -47.0067      -4.632126        -999.25      0.9174517
      4668.0000          0.766        1627.02        -999.25        -999.25         0.6112       -46.4933      -4.123718        -999.25      0.9290064
      4668.5000         0.7869       1647.457        -999.25        -999.25         0.5997       -45.7773      -3.412704        -999.25      0.9451658
      4669.0000         0.8027       1669.939        -999.25        -999.25         0.5882       -45.3325      -2.972889        -999.25      0.9551616
      4669.5000          0.799       1692.396        -999.25        -999.25         0.5767        -45.025      -2.670376        -999.25      0.9620369
      4670.0000         0.7836       1710.377        -999.25        -999.25         0.5653       -46.0119      -3.662266        -999.25       0.939494
      4670.5000          0.768       1644.563        -999.25        -999.25         0.5797       -47.5153       -5.17065        -999.25      0.9052125
      4671.0000         0.7473       1530.012        -999.25        -999.25         0.6379       -48.5893      -6.249634        -999.25      0.8806902
      4671.5000         0.8309       1301.787        -999.25        -999.25         0.7296       -48.8391      -6.504421        -999.25      0.8748995
      4672.0000         1.0613       1141.201        -999.25        -999.25         0.8622       -49.0471      -6.717411        -999.25      0.8700588
      4672.5000         1.1655       1013.318        -999.25        -999.25         0.9483       -49.2832      -6.958496        -999.25      0.8645796
      4673.0000         1.2585       931.1885        -999.25        -999.25         1.0504       -49.1626      -6.842884        -999.25      0.8672072
      4673.5000         1.3095       927.8799        -999.25        -999.25         1.0317       -48.4175      -6.102768        -999.25       0.884028
      4674.0000         1.3491       945.8242        -999.25        -999.25         0.9732       -47.9141      -5.604359        -999.25      0.8953555
      4674.5000         1.3224       963.7559        -999.25        -999.25         0.9147        -47.456      -5.151245        -999.25      0.9056535
      4675.0000         0.8318       1023.051        -999.25        -999.25         0.8516       -47.1827      -4.882931        -999.25      0.9117516
