#------------------------------------------------------------------------------
# Created by    : vladimir.rabinovich
# Created on    : 09/19/2023 17:20:34
#------------------------------------------------------------------------------
~Version Information Section
VERS.           2.0     :   CWLS log ASCII Standard - VERSION 2.0
WRAP.           NO      :   One line per depth step
~Well Information Section
#MNEM       .UNIT                                         VALUE :DESCRIPTION
#------------------------------------------------------------------------------
STRT        .FT                                             495 :START DEPTH
STOP        .FT                                            9652 :STOP DEPTH
STEP        .FT                                             0.5 :STEP      
NULL        .                                           -999.25 :NULL      
COMP        .                                      SHELL OIL CO :COMPANY   
WELL        .                                OCS 00714 ST00BP00 :WELL      
FLD         .                                FEDERAL BLOCK 0288 :FIELD     
LOC         .                                                   :LOCATION  
CNTY        .                             GALVESTON LARGE BLOCK :LOCATION  
STAT        .                                             TEXAS :STATE     
CTRY        .                                     UNITED STATES :COUNTRY   
SRVC        .                                                   :SERVICE COMPANY
DATE        .                             9/13/2023 11:19:25 AM :LOG DATE  
API         .                                    42706000490000 :API NUMBER
UWI         .                                    42706000490000 :UNIQUE WELL ID
XCOORD      .                                  1093419.85109126 :SURFACE X 
YCOORD      .                                  10468907.9519753 :SURFACE Y 
LAT         .                                         28.836806 :LATITUDE  
LON         .                                        -94.708909 :LONGITUDE 
ELEV        .FT                                              83 :ELEVATION VALUE
ELEV_TYPE   .                                                KB :ELEVATION REFERENCE TYPE
~Curve Information Section
#MNEM       .UNIT                                      API CODE :CURVE DESCRIPTION
#------------------------------------------------------------------------------
DEPT        .FT                                                 :DEPTH     
ASN         .OHMM                                               :          
ASN_1       .OHMM                                               :          
CALI        .IN                                                 :          
CALI_1      .IN                                                 :          
DRHO        .G/C3                                               :          
DT          .US/F                                               :          
ILD         .OHMM                                               :          
LAT         .OHMM                                               :          
LN          .OHMM                                               :          
RHOB        .G/C3                                               :          
SP          .MV                                                 :          
SP_1        .MV                                                 :          
SP_NORM     .MV                                                 :SP Normalized
VSH_SP      .V/V                                                :Volume of Shale from SP
~A        DEPTH            ASN          ASN_1           CALI         CALI_1           DRHO             DT            ILD            LAT             LN           RHOB             SP           SP_1        SP_NORM         VSH_SP
# ...
      8559.0000         1.3373        -999.25        10.5917        -999.25         0.2939       101.3646         1.1737        -999.25        -999.25         2.4158        -999.25       -50.1133      -7.042122      0.8199242
      8559.5000         1.3194        -999.25        10.8109        -999.25         0.2706        99.9253         1.1598        -999.25        -999.25         2.4153        -999.25       -49.4074      -6.331806      0.8452926
      8560.0000         1.3129        -999.25         10.835        -999.25         0.2651        97.9373         1.1476        -999.25        -999.25          2.417        -999.25       -48.8583      -5.778297      0.8650608
      8560.5000          1.318        -999.25        10.6895        -999.25          0.294        96.1168         1.1354        -999.25        -999.25         2.4215        -999.25       -48.4879      -5.403488      0.8784469
      8561.0000         1.3234        -999.25        10.6751        -999.25         0.2264        94.4874         1.1285        -999.25        -999.25         2.3915        -999.25       -48.3531      -5.264275      0.8834187
      8561.5000         1.3276        -999.25        10.8035        -999.25         0.1541        91.5369         1.1219        -999.25        -999.25         2.3673        -999.25       -48.3271      -5.233864      0.8845049
      8562.0000         1.3294        -999.25        10.8381        -999.25          0.134        94.2175         1.1166        -999.25        -999.25          2.349        -999.25        -48.467       -5.36935       0.879666
      8562.5000         1.3307        -999.25        10.6567        -999.25         0.1258        97.7169         1.1124        -999.25        -999.25         2.3479        -999.25       -48.6677      -5.565643      0.8726556
      8563.0000         1.3345        -999.25        10.4744        -999.25         0.1443        95.4769          1.111        -999.25        -999.25         2.3624        -999.25       -48.8268      -5.720329      0.8671311
      8563.5000         1.3462        -999.25        10.3159        -999.25          0.138        88.3074         1.1147        -999.25        -999.25         2.3574        -999.25       -48.6818      -5.570919      0.8724672
      8564.0000         1.3753        -999.25        10.4591        -999.25         0.1789        74.9218         1.1184        -999.25        -999.25          2.355        -999.25       -47.9753      -4.860004       0.897857
      8564.5000         1.3916        -999.25        10.4062        -999.25         0.2448         80.562         1.1208        -999.25        -999.25         2.3691        -999.25       -47.7718      -4.652096      0.9052823
      8565.0000         1.3909        -999.25        10.6205        -999.25         0.3148         91.114          1.123        -999.25        -999.25         2.3866        -999.25       -48.1608      -5.036686      0.8915469
      8565.5000         1.3725        -999.25        10.6938        -999.25         0.3837        94.3615         1.1226        -999.25        -999.25          2.388        -999.25       -48.2238      -5.095272      0.8894545
      8566.0000         1.3499        -999.25        10.7329        -999.25         0.3399        95.1172         1.1191        -999.25        -999.25         2.3879        -999.25       -48.0624      -4.929462      0.8953763
      8566.5000         1.3284        -999.25        10.8115        -999.25         0.2916        97.2379         1.1155        -999.25        -999.25         2.3905        -999.25       -47.6807      -4.543346      0.9091662
      8567.0000         1.3096        -999.25        10.8545        -999.25         0.2506        98.2083          1.116        -999.25        -999.25         2.3873        -999.25       -47.9592       -4.81744      0.8993772
      8567.5000         1.3002        -999.25        10.8597        -999.25         0.2177        98.2666         1.1168        -999.25        -999.25         2.3941        -999.25       -47.8286      -4.682426      0.9041991
      8568.0000         1.2966        -999.25        10.8603        -999.25         0.1983        97.8384         1.1172        -999.25        -999.25         2.3904        -999.25       -47.3851      -4.234516      0.9201959
      8568.5000         1.2917        -999.25        10.8544        -999.25         0.1883        93.0347         1.1116        -999.25        -999.25         2.3829        -999.25       -47.6718        -4.5168      0.9101143
      8569.0000         1.2841        -999.25        10.8327        -999.25         0.1839        95.4769          1.106        -999.25        -999.25         2.3836        -999.25        -48.045       -4.88559      0.8969432
      8569.5000         1.2731        -999.25        10.8174        -999.25         0.1914        99.1877         1.1009        -999.25        -999.25          2.399        -999.25       -48.3493      -5.185482      0.8862328
      8570.0000         1.2521        -999.25        10.8431        -999.25         0.2114       101.1831         1.0977        -999.25        -999.25         2.4216        -999.25       -48.6154      -5.447166      0.8768869
      8570.5000         1.2301        -999.25        10.8947        -999.25         0.2249       100.5011         1.0945        -999.25        -999.25         2.4346        -999.25        -48.743      -5.570358      0.8724872
      8571.0000         1.2163        -999.25        10.8965        -999.25         0.2174        99.5397         1.0913        -999.25        -999.25         2.4421        -999.25       -48.2866      -5.109543      0.8889449
      8571.5000         1.2109        -999.25        10.7941        -999.25         0.1978         99.163         1.0881        -999.25        -999.25         2.4325        -999.25       -47.5571      -4.375633      0.9151559
      8572.0000           1.21        -999.25         10.745        -999.25         0.1761        98.0048         1.0848        -999.25        -999.25         2.4176        -999.25       -47.0634      -3.877522      0.9329457
      8572.5000         1.2101        -999.25        10.7485        -999.25         0.1512        97.6302         1.0779        -999.25        -999.25         2.4053        -999.25       -46.9417      -3.751411      0.9374496
      8573.0000         1.2103        -999.25        10.7557        -999.25         0.1271        98.9392         1.0699        -999.25        -999.25          2.394        -999.25       -46.9344      -3.739697       0.937868
      8573.5000         1.2108        -999.25        10.7629        -999.25          0.106        99.0685         1.0655        -999.25        -999.25         2.3865        -999.25        -47.015      -3.815887      0.9351469
      8574.0000         1.2116        -999.25        10.7538        -999.25          0.122        98.3331         1.0625        -999.25        -999.25          2.395        -999.25       -47.1671      -3.963577      0.9298722
      8574.5000         1.2128        -999.25        10.7426        -999.25         0.1172        97.5641         1.0626        -999.25        -999.25         2.3823        -999.25       -47.4424      -4.234467      0.9201976
      8575.0000         1.2136        -999.25        10.7321        -999.25         0.0999        97.1862         1.0659        -999.25        -999.25         2.3863        -999.25       -47.7086      -4.496254      0.9108481
      8575.5000          1.216        -999.25        10.7243        -999.25         0.1234        96.7341           1.08        -999.25        -999.25         2.4068        -999.25       -47.7774      -4.560642      0.9085485
      8576.0000         1.2252        -999.25        10.7254        -999.25         0.1122        93.5294         1.1108        -999.25        -999.25         2.4152        -999.25       -47.2729      -4.051731      0.9267239
      8576.5000         1.2502        -999.25        10.7182        -999.25         0.1421        90.7317         1.1642        -999.25        -999.25         2.4282        -999.25       -47.1812      -3.955616      0.9301566
