#------------------------------------------------------------------------------
# Created by    : vladimir.rabinovich
# Created on    : 09/19/2023 17:22:15
#------------------------------------------------------------------------------
~Version Information Section
VERS.           2.0     :   CWLS log ASCII Standard - VERSION 2.0
WRAP.           NO      :   One line per depth step
~Well Information Section
#MNEM       .UNIT                                         VALUE :DESCRIPTION
#------------------------------------------------------------------------------
STRT        .FT                                              41 :START DEPTH
STOP        .FT                                            7991 :STOP DEPTH
STEP        .FT                                             0.5 :STEP      
NULL        .                                           -999.25 :NULL      
COMP        .                           ENERGY DEVELOPMENT CORP :COMPANY   
WELL        .                               OCS G11200 ST00BP00 :WELL      
FLD         .                                           WILDCAT :FIELD     
LOC         .                                                   :LOCATION  
CNTY        .                    NORTH PADRE ISLAND LARGE BLOCK :LOCATION  
STAT        .                                             TEXAS :STATE     
CTRY        .                                     UNITED STATES :COUNTRY   
SRVC        .                                                   :SERVICE COMPANY
DATE        .                             9/13/2023 11:18:55 AM :LOG DATE  
API         .                                    42701400410000 :API NUMBER
UWI         .                                    42701400410000 :UNIQUE WELL ID
XCOORD      .                                   309944.09600436 :SURFACE X 
YCOORD      .                                  9740515.29665267 :SURFACE Y 
LAT         .                                          26.78454 :LATITUDE  
LON         .                                        -97.077486 :LONGITUDE 
ELEV        .FT                                              91 :ELEVATION VALUE
ELEV_TYPE   .                                                KB :ELEVATION REFERENCE TYPE
~Curve Information Section
#MNEM       .UNIT                                      API CODE :CURVE DESCRIPTION
#------------------------------------------------------------------------------
DEPT        .FT                                                 :DEPTH     
CALI        .IN                                                 :          
DRHO        .G/C3                                               :          
DT          .US/F                                               :          
GR          .GAPI                                               :          
GR_NORM     .GAPI                                               :GammaRay Normalized
ILD         .OHMM                                               :          
ILM         .OHMM                                               :          
NPHI        .%                                                  :          
RFOC        .OHMM                                               :          
RHOB        .G/C3                                               :          
SP          .MV                                                 :          
SP_NORM     .MV                                                 :SP Normalized
VSH_GR      .V/V                                                :Volume of Shale from GR
VSH_SP      .V/V                                                :Volume of Shale from SP
~A        DEPTH           CALI           DRHO             DT             GR        GR_NORM            ILD            ILM           NPHI           RFOC           RHOB             SP        SP_NORM         VSH_GR         VSH_SP
# ...
      5963.0000         9.9478          0.027        96.0508        48.2007       45.21537         0.4746         0.6093        31.3827         1.1041         2.2645       -85.1823      -39.39916      0.2599016      0.2163436
      5963.5000         9.9741         0.0219        96.6226        48.5991       45.72143         0.4543         0.5844        32.3123         1.0729         2.2545       -87.2546      -41.47147      0.2706688      0.1740517
      5964.0000        10.0797         0.0183        96.9309        48.7692       45.93508           0.44         0.5615        32.8963         1.0606          2.247       -89.0427      -43.25957      0.2752145      0.1375598
      5964.5000          10.08         0.0161        96.8792        48.1017       45.07591         0.4292         0.5461        33.4089         1.0755         2.2503       -90.2518      -44.46867      0.2569343      0.1128844
      5965.0000        10.0751         0.0138        96.2366        46.7159       43.29673         0.4231          0.538        33.8723         1.1069         2.2538       -90.7252      -44.94206      0.2190793      0.1032232
      5965.5000         10.075         0.0109        95.4167        45.9479       42.30883         0.4231         0.5355         34.105         1.0883         2.2524       -90.2292      -44.44607      0.1980603      0.1133456
      5966.0000        10.0733          0.014         94.533        48.3887       45.43084         0.4267         0.5368        34.3423         1.0261         2.2474       -88.9236      -43.14046       0.264486      0.1399905
      5966.5000        10.0716         0.0267        93.4932        52.7039       50.95362         0.4332         0.5482        34.2657         0.9363         2.2448       -86.5229      -40.73977      0.3819919      0.1889843
      5967.0000        10.0701         0.0458        94.4777        54.9028        53.7658         0.4459         0.5753         33.012         0.8555         2.2496       -84.1298      -38.34666      0.4418256      0.2378232
      5967.5000        10.0686         0.0558        98.0601        55.3614       54.34896         0.4656         0.6128        31.4454         0.7804         2.2524        -81.674      -35.89087      0.4542332      0.2879415
      5968.0000        10.0656         0.0736        99.8451        50.8846       48.61076         0.4963         0.6582        30.1805         0.7829         2.2651       -79.4336      -33.65047      0.3321439      0.3336639
      5968.5000        10.0645         0.0879         96.924        43.8779        39.6322         0.5661         0.7322        29.2837         0.9021          2.333       -77.3988      -31.61567      0.1411107      0.3751904
      5969.0000        10.1946         0.0852        89.4111         41.778       36.93839         0.6518         0.8073        28.7852         1.2803         2.3769       -75.1935      -29.41036     0.08379543      0.4201967
      5969.5000        10.3681         0.0487        84.6925        46.7197        43.2636         0.7279         0.8528        29.1612         1.5978         2.4074       -72.7502      -26.96706      0.2183745      0.4700599
      5970.0000        10.3568         0.0376        81.3737         52.343       50.46183         0.8055          0.885        30.7883         1.6331         2.3936       -69.1792      -23.39606      0.3715282      0.5429375
      5970.5000        10.3043         0.0513         81.657        56.4452        55.7118         0.9208         0.9164        32.5491         1.3526         2.3436       -67.4426      -21.65946      0.4832298      0.5783783
      5971.0000         10.255         0.0868        86.8853        59.2769       59.33448         1.0119         0.9484        33.2685         1.1485         2.3081       -68.6868      -22.90366      0.5603082      0.5529864
      5971.5000        10.2313         0.1095        92.2999        61.4697       62.13883         1.1025         0.9739        32.9265         1.0223         2.2813       -70.0513      -24.26817      0.6199751      0.5251395
      5972.0000        10.2728         0.0798        96.1582        63.1035       64.22723         1.1993         1.0048        31.2916         0.9556         2.2793       -69.4148      -23.63167       0.664409      0.5381292
      5972.5000        10.3823         0.0427        96.4865        61.5122       62.18484         1.2316         1.0778        28.5526         0.9488         2.3508       -63.7313      -17.94817       0.620954      0.6541191
      5973.0000        10.4377         0.0394        91.6536        59.6002       59.73169         1.2361         1.1591        26.6754         1.1544         2.3961       -59.8822      -14.09906      0.5687594      0.7326722
      5973.5000        10.5401         0.0485         86.761        58.6354       58.49173         1.2188         1.1834        26.2938         1.4128         2.3875       -55.7975      -10.01437      0.5423772      0.8160334
      5974.0000        10.9048         0.1009         79.427        60.8658       61.34425         1.1711         1.1246          26.65         1.6053         2.3342       -51.4296      -5.646465      0.6030691      0.9051742
      5974.5000        11.0366         0.1231        77.8558        65.3739       67.11411         1.1132         1.0817        28.8827         1.3284         2.3137       -49.6028      -3.819664       0.725832      0.9424558
      5975.0000        10.9253         0.1078        83.3302        70.9171       74.20972         1.0389         1.0242        33.2226         1.1203         2.3104       -49.3077      -3.524567      0.8768026      0.9484782
      5975.5000        10.7221          0.074         92.101        76.1244       80.87511         0.9323         0.9378        36.6993         0.9489         2.3118       -49.9467      -4.163567              1      0.9354374
      5976.0000        10.5478         0.0562       103.8253        80.8356       86.90511         0.7952         0.8325        38.6355         0.8707         2.3045       -51.8105      -6.027367              1      0.8974007
      5976.5000        10.4374         0.0628       108.3997        81.2335       87.41052         0.6472         0.7316        37.7672         0.8426         2.2837       -55.8576      -10.07447              1      0.8148068
      5977.0000        10.3714         0.0683       110.1188        78.9436       84.47336         0.5454          0.631        36.0422         0.8279         2.2553       -61.5511      -15.76797              1      0.6986129
      5977.5000        10.3205         0.0438        109.772        75.6733       80.28046         0.4769         0.5639        34.7474         0.8455         2.2412       -66.8788      -21.09566              1      0.5898844
      5978.0000        10.2858         0.0295       107.6936        71.8793       75.41682          0.441          0.515        33.0688         0.8802         2.2337       -72.7477      -26.96457      0.9024855      0.4701108
      5978.5000        10.2654         0.0216       104.1436        69.6892       72.60747         0.4354         0.4913        30.7943         0.8486         2.2381        -76.682      -30.89886      0.8427121      0.3898191
      5979.0000        10.2532         0.0154        99.5791          66.89       69.01797         0.4749         0.5381        26.7859         0.7821         2.2576       -80.2756      -34.49246      0.7663399      0.3164804
      5979.5000         10.257         0.0083        94.6169         63.259       64.36308         0.5139         0.5932        21.7859         0.8002         2.3388       -81.1915      -35.40836      0.6672994      0.2977885
      5980.0000        10.2766        -0.0041        86.2239        59.1392       59.08213         0.5473         0.6851         19.078         1.0773         2.4436       -79.7544      -33.97127       0.554939       0.327117
      5980.5000        10.3248        -0.0182        69.7463        55.8713       54.89231         0.5922         0.7784        18.7772         2.1958         2.5151       -73.7551      -27.97196      0.4657939      0.4495518
