#------------------------------------------------------------------------------
# Created by    : vladimir.rabinovich
# Created on    : 09/19/2023 17:20:25
#------------------------------------------------------------------------------
~Version Information Section
VERS.           2.0     :   CWLS log ASCII Standard - VERSION 2.0
WRAP.           NO      :   One line per depth step
~Well Information Section
#MNEM       .UNIT                                         VALUE :DESCRIPTION
#------------------------------------------------------------------------------
STRT        .FT                                            2998 :START DEPTH
STOP        .FT                                           12526 :STOP DEPTH
STEP        .FT                                             0.5 :STEP      
NULL        .                                           -999.25 :NULL      
COMP        .                                 CALIFORNIA CO THE :COMPANY   
WELL        .                               OCS G01117 ST00BP00 :WELL      
FLD         .                                       HIGH ISLAND :FIELD     
LOC         .                                                   :LOCATION  
CNTY        .                           HIGH ISLAND LARGE BLOCK :LOCATION  
STAT        .                                             TEXAS :STATE     
CTRY        .                                     UNITED STATES :COUNTRY   
SRVC        .                                                   :SERVICE COMPANY
DATE        .                             9/13/2023 11:19:15 AM :LOG DATE  
API         .                                    42708000660000 :API NUMBER
UWI         .                                    42708000660000 :UNIQUE WELL ID
XCOORD      .                                  1214371.69372255 :SURFACE X 
YCOORD      .                                  10618355.5582238 :SURFACE Y 
LAT         .                                         29.252113 :LATITUDE  
LON         .                                        -94.336419 :LONGITUDE 
ELEV        .FT                                              77 :ELEVATION VALUE
ELEV_TYPE   .                                                KB :ELEVATION REFERENCE TYPE
~Curve Information Section
#MNEM       .UNIT                                      API CODE :CURVE DESCRIPTION
#------------------------------------------------------------------------------
DEPT        .FT                                                 :DEPTH     
ASN         .OHMM                                               :          
CILD        .OHMM                                               :          
ILD         .OHMM                                               :          
SP          .MV                                                 :          
SP_NORM     .MV                                                 :SP Normalized
VSH_SP      .V/V                                                :Volume of Shale from SP
~A        DEPTH            ASN           CILD            ILD             SP        SP_NORM         VSH_SP
# ...
      8052.0000         1.4025       1992.793         0.4029      -100.0847      -56.11707      0.2551747
      8052.5000         1.5177       1993.063         0.4076      -101.7073      -57.75008       0.233107
      8053.0000         1.6504       1993.334         0.3987      -103.9368      -59.98999      0.2028379
      8053.5000         1.6867       1993.604         0.3857      -106.6554      -62.71901      0.1659593
      8054.0000         1.5457       1993.875         0.3726      -108.5851      -64.65912      0.1397416
      8054.5000         1.0803       1994.145         0.3595      -109.5449      -65.62933      0.1266306
      8055.0000         0.9675       1994.416         0.3465      -110.5049      -66.59975      0.1135169
      8055.5000         0.8993       1994.686         0.3503      -111.4659      -67.57115      0.1003898
      8056.0000         0.8517       1994.957         0.3572       -103.922      -60.03766      0.2021938
      8056.5000         0.8196       1995.227         0.3641        -98.996      -55.12208      0.2686205
      8057.0000         0.7902       1995.498          0.371       -94.0699      -50.20639      0.3350488
      8057.5000         0.7689        1995.77         0.3779       -89.7682      -45.91511      0.3930391
      8058.0000         0.7556       1996.039         0.3963       -85.5353      -41.69262      0.4500998
      8058.5000         0.7688       1996.311         0.4279       -81.3025      -37.47023      0.5071591
      8059.0000         0.7997       1830.627         0.4595       -76.0126      -32.19074      0.5785035
      8059.5000         0.8305       1512.715         0.4911       -69.8574      -26.04595      0.6615412
      8060.0000         0.8596       1361.643         0.5227       -63.5254      -19.72436      0.7469681
      8060.5000         0.8604       1335.045         0.5543       -56.9671      -13.17647      0.8354531
      8061.0000         0.8612       1353.855         0.5859       -51.7411      -7.960888       0.905934
      8061.5000          0.862       1394.301         0.6181       -47.0732      -3.303398       0.968873
      8062.0000         0.8621       1434.697         0.6509       -44.7454     -0.9860077              1
      8062.5000         0.8613        1466.43         0.6838       -43.3983      0.3506775              1
      8063.0000         0.8605       1491.836         0.7167       -43.7375    0.001068115              1
      8063.5000         0.8597        1517.24         0.7495       -44.0768     -0.3486481              1
      8064.0000         0.8608       1495.875         0.7825       -44.4153     -0.6975555              1
      8064.5000         0.8747       1461.416         0.7846       -44.7546      -1.047272      0.9993612
      8065.0000         0.8887       1426.957          0.754       -45.0938      -1.396881      0.9946367
      8065.5000         0.9027         1392.5         0.7235       -45.4324      -1.745892      0.9899204
      8066.0000         0.9264       1369.211         0.7091       -45.8011      -2.125008      0.9847972
      8066.5000         0.9502       1348.988         0.7218       -46.2448      -2.579117      0.9786606
      8067.0000          0.974       1328.766         0.7345       -46.6885       -3.03323      0.9725239
      8067.5000         1.0271        1308.52         0.7465       -47.1322      -3.487339      0.9663873
      8068.0000         1.0808       1295.215         0.7586       -47.5759      -3.941452      0.9602507
      8068.5000         1.1267        1289.24         0.7706       -49.4109      -5.786865      0.9353126
      8069.0000         1.1666       1283.271         0.7826       -51.3085      -7.694874      0.9095287
      8069.5000         1.1518       1266.541         0.7947       -53.2062      -9.602989      0.8837434
      8070.0000         1.1378       1243.885         0.8067       -54.2017       -10.6089        0.87015
      8070.5000         1.1677       1223.055         0.8188        -54.965      -11.38261      0.8596944
      8071.0000         1.2953       1247.779         0.8308       -55.7294      -12.15742       0.849224
      8071.5000         1.4206       1272.527         0.8138       -58.9385      -15.37693      0.8057171
      8072.0000         1.4897       1306.451         0.7882       -62.4536      -18.90245       0.758075
      8072.5000         1.4308       1359.988         0.7625       -65.4869      -21.94616      0.7169438
      8073.0000          1.349       1416.348         0.7379       -68.3875      -24.85717      0.6776058
      8073.5000         1.2665       1475.238         0.7287        -70.467      -26.94709      0.6493637
      8074.0000         1.1757       1514.271         0.7195        -66.947      -23.43749      0.6967906
      8074.5000          1.061       1546.576         0.7104       -63.2894      -19.79031      0.7460769
      8075.0000         0.9508       1555.799         0.7012       -59.8726      -16.38392      0.7921092
      8075.5000         0.9105       1541.479          0.692       -56.6476      -13.16933      0.8355496
      8076.0000           0.95       1513.494         0.6829       -54.4869      -11.01904      0.8646075
      8076.5000         1.0033       1485.508         0.6737       -52.6876      -9.230152      0.8887817
      8077.0000         1.0534       1457.523         0.6843       -51.6502      -8.203167      0.9026599
      8077.5000         1.0983       1424.719         0.6956       -53.7445      -10.30788      0.8742179
      8078.0000         1.1115       1389.141         0.7068       -55.4308      -12.00459      0.8512893
      8078.5000         1.1247       1353.611         0.7181       -57.1171       -13.7013      0.8283608
      8079.0000         1.1379       1326.941         0.7294       -58.7787      -15.37332       0.805766
      8079.5000         1.1544        1359.16         0.7407       -59.7939      -16.39893      0.7919064
      8080.0000          1.173       1414.303         0.7519       -60.8079      -17.42334       0.778063
      8080.5000         1.1915        1464.02         0.7558       -60.9634      -17.58925      0.7758209
      8081.0000         1.2101       1479.766         0.7539       -60.3704      -17.00666      0.7836938
      8081.5000         1.2287       1495.533          0.752       -61.1385      -17.78518      0.7731733
      8082.0000         1.2638       1511.279         0.7501       -62.4979      -19.15498      0.7546624
      8082.5000         1.3302       1517.369         0.7483       -63.8597      -20.52719       0.736119
      8083.0000         1.2712       1523.166         0.7413       -65.1459      -21.82381      0.7185972
      8083.5000         1.2139       1532.305         0.7271       -65.7278      -22.41612       0.710593
      8084.0000         1.1995       1551.092         0.7129       -65.6646      -22.36333      0.7113063
      8084.5000         1.1851       1569.902         0.6987       -65.3591      -22.06824       0.715294
      8085.0000         1.1752       1588.689         0.6846       -64.4459      -21.16546      0.7274938
      8085.5000         1.1837        1585.83         0.6753        -63.282      -20.01197      0.7430815
      8086.0000         1.1921       1581.352         0.6667       -63.9518      -20.69218      0.7338895
      8086.5000         1.2006       1576.867         0.6581       -65.0088      -21.75959       0.719465
      8087.0000          1.208        1572.67         0.6495       -66.0646       -22.8258      0.7050567
      8087.5000         1.2144       1568.746         0.6409       -67.1216      -23.89322      0.6906322
      8088.0000         1.2209       1564.822         0.6323       -68.1724      -24.95443      0.6762915
      8088.5000         1.2273       1560.893         0.6237       -69.0574      -25.84984      0.6641913
      8089.0000         1.2338       1556.967         0.6151        -69.941      -26.74385      0.6521101
      8089.5000         1.2286       1553.043         0.6065       -68.6628      -25.47607      0.6692423
