#------------------------------------------------------------------------------
# Created by    : vladimir.rabinovich
# Created on    : 09/19/2023 17:19:36
#------------------------------------------------------------------------------
~Version Information Section
VERS.           2.0     :   CWLS log ASCII Standard - VERSION 2.0
WRAP.           NO      :   One line per depth step
~Well Information Section
#MNEM       .UNIT                                         VALUE :DESCRIPTION
#------------------------------------------------------------------------------
STRT        .FT                                            4496 :START DEPTH
STOP        .FT                                            7801 :STOP DEPTH
STEP        .FT                                             0.5 :STEP      
NULL        .                                           -999.25 :NULL      
COMP        .                             HELIS WM G CO LLC THE :COMPANY   
WELL        .                               OCS G12508 ST00BP00 :WELL      
FLD         .                              GALVESTON BLOCK 0395 :FIELD     
LOC         .                                                   :LOCATION  
CNTY        .                             GALVESTON LARGE BLOCK :LOCATION  
STAT        .                                             TEXAS :STATE     
CTRY        .                                     UNITED STATES :COUNTRY   
SRVC        .                                                   :SERVICE COMPANY
DATE        .                             9/13/2023 11:19:03 AM :LOG DATE  
API         .                                    42706404300000 :API NUMBER
UWI         .                                    42706404300000 :UNIQUE WELL ID
XCOORD      .                                  908236.382466376 :SURFACE X 
YCOORD      .                                  10386259.9403327 :SURFACE Y 
LAT         .                                         28.601028 :LATITUDE  
LON         .                                        -95.282181 :LONGITUDE 
ELEV        .FT                                             103 :ELEVATION VALUE
ELEV_TYPE   .                                                KB :ELEVATION REFERENCE TYPE
~Curve Information Section
#MNEM       .UNIT                                      API CODE :CURVE DESCRIPTION
#------------------------------------------------------------------------------
DEPT        .FT                                                 :DEPTH     
AHT10       .OHMM                                               :          
AHT20       .OHMM                                               :          
AHT30       .OHMM                                               :          
AHT60       .OHMM                                               :          
AHT90       .OHMM                                               :          
CPCHM       .MMHO                                               :          
DCAL        .IN                                                 :          
DPHZ        .FRAC                                               :          
GR          .GAPI                                               :          
GR_NORM     .GAPI                                               :GammaRay Normalized
GRAM        .GAPI                                               :          
HDRA        .G/CC                                               :          
NPOR        .FRAC                                               :          
RACHM       .OHMM                                               :          
ROPS        .F/HR                                               :          
RPCHM       .OHMM                                               :          
RWA         .OHMM                                               :          
SP          .MV                                                 :          
SP_NORM     .MV                                                 :SP Normalized
TENS        .LB/F                                               :          
VSH_GR      .V/V                                                :Volume of Shale from GR
VSH_SP      .V/V                                                :Volume of Shale from SP
~A        DEPTH          AHT10          AHT20          AHT30          AHT60          AHT90          CPCHM           DCAL           DPHZ             GR        GR_NORM           GRAM           HDRA           NPOR          RACHM           ROPS          RPCHM            RWA             SP        SP_NORM           TENS         VSH_GR         VSH_SP
# ...
      5600.0000         0.4452         0.3559         0.3223         0.2856         0.2771       3908.655        -0.5673         0.3143        33.2803       35.43067         34.328        -0.0212         0.3485          0.254        218.853          0.257         0.0371       -74.4375      -54.74087           2761     0.05171642      0.1578328
      5600.5000          0.429         0.3393         0.3066         0.2729         0.2681       3908.655        -0.6154         0.3089        35.5971       38.74815         34.931        -0.0206         0.3448          0.254        218.853          0.254         0.0346       -73.3125      -53.17183           2709       0.122301      0.1819719
      5601.0000         0.4051         0.3179         0.2886         0.2594         0.2579       3908.655        -0.6154         0.3035        36.0673       39.41888         36.157        -0.0179          0.326          0.261        218.853          0.259          0.032       -72.9375      -52.65278           2675      0.1365719      0.1899572
      5601.5000         0.3951          0.306         0.2797         0.2523         0.2531       3867.398        -0.6274         0.3041        32.2764       33.98218         36.585        -0.0156         0.3064          0.259        207.299           0.26         0.0316        -73.125      -52.92124           2667      0.0208974      0.1858271
      5602.0000         0.4117         0.3113         0.2828         0.2551         0.2581       3840.025        -0.6154         0.3051        36.2779       39.71434         36.383         -0.013          0.301          0.264        207.299          0.262         0.0324       -72.6875       -52.3147           2695      0.1428583      0.1951585
      5602.5000         0.4637         0.3374         0.3037         0.2743         0.2791       3835.722        -0.5673         0.3092         37.734       41.79816         35.809        -0.0125          0.332          0.257        207.299          0.259         0.0361        -73.375      -53.28315           2743      0.1871949      0.1802592
      5603.0000         0.5414         0.3729         0.3304         0.2935         0.2944       3859.264        -0.5673         0.3104        39.4189       44.20994         35.515        -0.0129           0.36          0.256        207.299          0.257         0.0384         -73.75      -53.81411           2776      0.2385093      0.1720907
      5603.5000         0.6201         0.4031         0.3512           0.31         0.3109       3866.069        -0.6394         0.3054        38.4765       42.85599         34.965        -0.0105         0.3452          0.256        197.103          0.261         0.0392         -74.25      -54.52007           2755      0.2097019      0.1612297
      5604.0000          0.618          0.408         0.3546         0.3129         0.3093       3866.069        -0.6154         0.2901        39.4947       44.31218         33.975        -0.0024         0.3353          0.257        197.103          0.264         0.0349        -74.625      -55.05102           2714      0.2406847      0.1530612
      5604.5000         0.5444         0.3804         0.3326         0.2929         0.2892       3859.798        -0.4711         0.2823         37.178       40.98845         33.618         0.0065         0.3428          0.253        197.103          0.262         0.0308          -75.5      -56.28198           2754       0.169967      0.1341233
      5605.0000         0.4829         0.3458         0.3047         0.2728         0.2738       3847.258         -0.375          0.292        35.2671       38.24637         34.413         0.0091         0.3227          0.248        197.103          0.264         0.0313         -76.75      -58.03794           2724      0.1116249      0.1071087
      5605.5000         0.4436         0.3263         0.2887         0.2607         0.2609       3834.717        -0.2547         0.3081        33.3611       35.51129         37.384         0.0051         0.3296          0.271        103.381          0.293         0.0335        -76.875      -58.21889           2720     0.05343173      0.1043248
      5606.0000         0.4292         0.3123         0.2762         0.2509         0.2526       3823.952        -0.0864         0.3131        34.9904       37.84337          39.14         0.0008         0.3066          0.297        103.381          0.313         0.0336        -77.375      -58.92485           2724      0.1030505     0.09346384
      5606.5000         0.4222         0.3049         0.2699         0.2463         0.2482       3619.909        -0.5553         0.3077        33.8421       36.19431         39.142        -0.0015         0.3011          0.346        103.381          0.318         0.0318         -77.25      -58.75581           2751     0.06796402     0.09606452
      5607.0000         0.4211         0.3008         0.2672         0.2446         0.2464       3415.866        -0.5433         0.3028        33.0101       34.99862          40.42         -0.001         0.3069          0.373        103.381          0.339         0.0305       -75.8125      -56.74926           2723     0.04252373      0.1269345
      5607.5000         0.4234         0.3005         0.2677         0.2449         0.2474       3211.823        -0.5433         0.3005        35.8844       39.11514         40.243        -0.0004         0.3205          0.388        173.193          0.346         0.0301       -75.4375      -56.23022           2698      0.1301094      0.1349197
      5608.0000         0.4302         0.3026           0.27         0.2476         0.2499        3143.64        -0.4952         0.3021        36.7268       40.31935         41.228        -0.0015         0.3179          0.382        173.193          0.404         0.0307        -75.875      -56.84867           2694      0.1557309       0.125405
      5608.5000         0.4366         0.3072         0.2742         0.2516         0.2539        3011.26        -0.4952         0.3033        38.9282       43.47142         39.445        -0.0031         0.3239          0.393        173.193          0.379         0.0315        -75.125      -55.80463           2732      0.2227963      0.1414672
      5609.0000         0.4468         0.3129         0.2793         0.2561         0.2578       2878.879        -0.5914         0.3063        36.5307       40.03189         37.825        -0.0042         0.2916          0.377        173.193          0.368         0.0327       -75.1875      -55.89809           2720      0.1496146      0.1400294
      5609.5000         0.4506         0.3156         0.2823         0.2598         0.2604       2886.615        -0.5914         0.3103        34.8989       37.68983         35.375        -0.0054         0.3184          0.335         269.52          0.324         0.0339       -75.1875      -55.90405           2708     0.09978364      0.1399378
      5610.0000         0.4401         0.3121         0.2804          0.259         0.2585       2904.413        -0.6394         0.3142        34.3824       36.94633         35.543        -0.0066         0.3524          0.319         269.52          0.286         0.0346        -75.375       -56.1725           2742     0.08396449      0.1358076
      5610.5000         0.4256         0.3065         0.2768         0.2573         0.2562        2922.21        -0.6394         0.3168        36.0673        39.3581         35.548        -0.0075         0.3207          0.295         269.52          0.303         0.0349       -75.6875      -56.61596           2714      0.1352787      0.1289852
      5611.0000          0.418         0.3043          0.276         0.2579         0.2558       2940.008        -0.5914         0.3169        35.1155       37.99069         34.672        -0.0068         0.3331          0.294         269.52          0.323         0.0349       -74.9375      -55.57191           2697      0.1061849      0.1450475
      5611.5000         0.4182         0.3046         0.2771         0.2602         0.2577       2957.806        -0.6635         0.3183         34.273       36.77993         32.915        -0.0064         0.3809          0.332        107.526          0.402         0.0355         -74.75      -55.31538           2699     0.08042412      0.1489942
