#------------------------------------------------------------------------------
# Created by    : vladimir.rabinovich
# Created on    : 09/19/2023 17:20:09
#------------------------------------------------------------------------------
~Version Information Section
VERS.           2.0     :   CWLS log ASCII Standard - VERSION 2.0
WRAP.           NO      :   One line per depth step
~Well Information Section
#MNEM       .UNIT                                         VALUE :DESCRIPTION
#------------------------------------------------------------------------------
STRT        .FT                                             880 :START DEPTH
STOP        .FT                                           10998 :STOP DEPTH
STEP        .FT                                             0.5 :STEP      
NULL        .                                           -999.25 :NULL      
COMP        .                        HUGHES TEXAS PETROLEUM LTD :COMPANY   
WELL        .                                ST TR 00564-L NE/4 :WELL      
FLD         .                       MATAGORDA ISLAND BLOCK 0565 :FIELD     
LOC         .                                                   :LOCATION  
CNTY        .                      MATAGORDA ISLAND LARGE BLOCK :LOCATION  
STAT        .                                             TEXAS :STATE     
CTRY        .                                     UNITED STATES :COUNTRY   
SRVC        .                                                   :SERVICE COMPANY
DATE        .                             9/13/2023 11:12:01 AM :LOG DATE  
API         .                                    42703303560000 :API NUMBER
UWI         .                                    42703303560000 :UNIQUE WELL ID
XCOORD      .                                  580856.659723482 :SURFACE X 
YCOORD      .                                  10268633.8274002 :SURFACE Y 
LAT         .                                         28.256926 :LATITUDE  
LON         .                                       -96.2914173 :LONGITUDE 
ELEV        .FT                                              25 :ELEVATION VALUE
ELEV_TYPE   .                                                KB :ELEVATION REFERENCE TYPE
~Curve Information Section
#MNEM       .UNIT                                      API CODE :CURVE DESCRIPTION
#------------------------------------------------------------------------------
DEPT        .FT                                                 :DEPTH     
ASFL        .OHMM                                               :          
GR          .GAPI                                               :          
GR_NORM     .GAPI                                               :GammaRay Normalized
ILD         .OHMM                                               :          
SP          .MV                                                 :          
SP_NORM     .MV                                                 :SP Normalized
VSH_GR      .V/V                                                :Volume of Shale from GR
VSH_SP      .V/V                                                :Volume of Shale from SP
~A        DEPTH           ASFL             GR        GR_NORM            ILD             SP        SP_NORM         VSH_GR         VSH_SP
# ...
      4302.0000          0.682        65.9458       95.26136         0.6779       -51.8445      -3.215954              1      0.9285176
      4302.5000         0.6878        64.1487       91.92651          0.685       -52.1317      -3.524624              1      0.9185605
      4303.0000         0.6948        62.4623       88.79717         0.6921       -52.4335      -3.847897              1      0.9081324
      4303.5000         0.7037        61.5082       87.02743         0.6993       -52.7194       -4.15527              1      0.8982171
      4304.0000         0.7066        60.5535       85.25658         0.7064       -52.9103      -4.367645              1      0.8913663
      4304.5000         0.7035        59.6675       83.61327         0.7132       -53.1013      -4.580112              1      0.8845125
      4305.0000         0.6995        58.9579       82.29749         0.7196       -53.2922      -4.792484              1      0.8776618
      4305.5000         0.6948        58.2488       80.98261          0.726        -53.483      -5.004761              1      0.8708141
      4306.0000         0.6901        58.9261       82.24177         0.7324       -53.5135      -5.056732              1      0.8691376
      4306.5000         0.6891        59.7733       83.81635         0.7388       -53.5169      -5.081604              1      0.8683354
      4307.0000         0.6897        60.6198       85.38963         0.7408       -53.5204      -5.106579              1      0.8675297
      4307.5000         0.6896        61.4669         86.964         0.7398       -53.5238      -5.131447              1      0.8667275
      4308.0000         0.6879        62.5992       89.06792         0.7388       -53.5273      -5.156422              1      0.8659219
      4308.5000         0.6862        63.7352        91.1787         0.7377       -53.5307      -5.181293              1      0.8651196
      4309.0000         0.6831        63.6019       90.93285         0.7367       -53.2939      -4.965965              1      0.8720657
      4309.5000         0.6748        63.0619       89.93193         0.7356       -53.0233      -4.716839              1       0.880102
      4310.0000         0.6665        62.4485       88.79475         0.7317       -52.7525       -4.46751              1      0.8881449
      4310.5000         0.6594        61.8352       87.65775         0.7251       -52.4817      -4.218185              1      0.8961875
      4311.0000         0.6541        61.2218       86.52056         0.7186       -52.1523      -3.910255              1      0.9061208
      4311.5000         0.6489        60.8347       85.80353          0.712       -51.4307      -3.210125              1      0.9287056
      4312.0000         0.6437        60.6108       85.38949         0.7054       -50.7091      -2.509998              1      0.9512904
      4312.5000         0.6384        60.3871       84.97584         0.6881       -50.0085      -1.830872              1      0.9731977
      4313.0000         0.6346        60.1532       84.54321         0.6687        -49.587      -1.430847              1      0.9861017
      4313.5000         0.6361        59.8934       84.06252         0.6494       -49.2754      -1.140717              1      0.9954607
      4314.0000         0.6375        59.6339       83.58239           0.63       -49.4753      -1.362087              1      0.9883198
      4314.5000         0.6389        59.3741        83.1017         0.6107       -49.7042      -1.612461              1      0.9802432
      4315.0000         0.6401        58.8329       82.09855         0.5913       -50.7187      -2.648434              1      0.9468247
      4315.5000         0.6414        58.2898       81.09187         0.5674       -51.7338      -3.685005              1      0.9133869
      4316.0000         0.6405         57.903       80.37541         0.5383         -52.71      -4.682678              1      0.8812039
      4316.5000         0.6346        57.5267       79.67841         0.5092       -53.5273      -5.521454      0.9931576      0.8541467
      4317.0000         0.6287        56.8362       78.39807         0.4802       -54.3445      -6.360126      0.9659164      0.8270927
      4317.5000         0.6206        55.2938       75.53611         0.4715       -55.0834      -7.120495      0.9050236      0.8025647
      4318.0000         0.6125        53.8506        72.8583         0.4666       -55.3347      -7.393269      0.8480489      0.7937655
      4318.5000         0.6044         53.923       72.99435         0.4633       -55.2121      -7.292141      0.8509437      0.7970277
      4319.0000         0.6015        54.9728       74.94512         0.4735       -54.9824      -7.083912      0.8924494      0.8037448
      4319.5000            0.6        56.3376       77.48067         0.4979       -54.7526      -6.875587      0.9463972      0.8104649
      4320.0000         0.5985        58.5675       81.62238         0.5235       -54.7982      -6.942657              1      0.8083014
      4320.5000         0.6039        60.7388       85.65531          0.544        -55.023      -7.188927              1      0.8003572
      4321.0000         0.6104        62.1998        88.3724         0.5598       -55.6179      -7.805302              1      0.7804741
      4321.5000         0.6162        63.4111       90.62898         0.5756       -55.7887      -7.997574              1      0.7742718
      4322.0000         0.6209        63.9419       91.62214         0.5913       -55.6409      -7.871246              1      0.7783469
      4322.5000         0.6223          63.76       91.29211         0.6071       -55.2469      -7.498718              1      0.7903639
      4323.0000         0.6238        63.5013       90.81949         0.6229       -54.8527      -7.125992              1      0.8023874
      4323.5000         0.6292        62.6973        89.3344         0.6386       -54.4587      -6.753464              1      0.8144044
      4324.0000         0.6393        61.8926       87.84803         0.6544       -54.0779      -6.394135              1      0.8259957
      4324.5000         0.6494        61.0885       86.36282         0.6614       -53.7033      -6.041008              1      0.8373868
      4325.0000         0.6595        60.3627       85.02296         0.6657       -53.3291      -5.688282              1      0.8487651
      4325.5000         0.6687        59.7195       83.83646         0.6699       -52.8798      -5.260452              1      0.8625661
      4326.0000         0.6766        59.1243       82.73908         0.6741       -52.2676      -4.669727              1      0.8816217
      4326.5000         0.6845         58.586       81.74731         0.6783       -51.6561        -4.0797              1      0.9006549
      4327.0000         0.6914         58.002       80.67072         0.6826       -51.0457      -3.490768              1      0.9196526
      4327.5000         0.6899        55.9018       76.77914         0.6868       -50.4515      -2.918041      0.9314712      0.9381277
      4328.0000         0.6885        55.3028        75.6747         0.6893       -49.8578      -2.345814      0.9079723      0.9565867
      4328.5000          0.687        54.9958       75.11239         0.6899       -49.2753      -1.784786      0.8960083      0.9746843
      4329.0000         0.6856         55.099       75.31166         0.6904       -48.8445      -1.375462      0.9002481      0.9878883
      4329.5000         0.6841        55.2022       75.51093          0.691       -48.4138     -0.9662323      0.9044879              1
      4330.0000         0.6827        55.3518       75.79635         0.6916        -47.983     -0.5569077      0.9105606              1
      4330.5000         0.6812        55.7078       76.46497         0.6921       -47.5891     -0.1844749      0.9247865              1
      4331.0000         0.6806        56.0638       77.13361         0.6927       -47.2899     0.09325027      0.9390129              1
