#------------------------------------------------------------------------------
# Created by    : vladimir.rabinovich
# Created on    : 09/19/2023 17:20:03
#------------------------------------------------------------------------------
~Version Information Section
VERS.           2.0     :   CWLS log ASCII Standard - VERSION 2.0
WRAP.           NO      :   One line per depth step
~Well Information Section
#MNEM       .UNIT                                         VALUE :DESCRIPTION
#------------------------------------------------------------------------------
STRT        .FT                                             945 :START DEPTH
STOP        .FT                                           12004 :STOP DEPTH
STEP        .FT                                             0.5 :STEP      
NULL        .                                           -999.25 :NULL      
COMP        .                                    EXXON CO U S A :COMPANY   
WELL        .                                     ST TR 00819-L :WELL      
FLD         .                                           WILDCAT :FIELD     
LOC         .                                                   :LOCATION  
CNTY        .                        MUSTANG ISLAND LARGE BLOCK :LOCATION  
STAT        .                                             TEXAS :STATE     
CTRY        .                                     UNITED STATES :COUNTRY   
SRVC        .                                                   :SERVICE COMPANY
DATE        .                             9/13/2023 11:18:55 AM :LOG DATE  
API         .                                    42702301310000 :API NUMBER
UWI         .                                    42702301310000 :UNIQUE WELL ID
XCOORD      .                                  274042.524369281 :SURFACE X 
YCOORD      .                                  9990401.22532542 :SURFACE Y 
LAT         .                                        27.4671591 :LATITUDE  
LON         .                                       -97.2129423 :LONGITUDE 
ELEV        .FT                                              93 :ELEVATION VALUE
ELEV_TYPE   .                                                KB :ELEVATION REFERENCE TYPE
~Curve Information Section
#MNEM       .UNIT                                      API CODE :CURVE DESCRIPTION
#------------------------------------------------------------------------------
DEPT        .FT                                                 :DEPTH     
ASFL        .OHMM                                               :          
CILD        .MMHO                                               :          
GR          .GAPI                                               :          
GR_NORM     .GAPI                                               :GammaRay Normalized
ILD         .OHMM                                               :          
SP          .MV                                                 :          
SP_NORM     .MV                                                 :SP Normalized
VSH_GR      .V/V                                                :Volume of Shale from GR
VSH_SP      .V/V                                                :Volume of Shale from SP
~A        DEPTH           ASFL           CILD             GR        GR_NORM            ILD             SP        SP_NORM         VSH_GR         VSH_SP
# ...
      3144.5000         0.5736       2074.238        43.9902       45.95141         0.4734       -45.5931      -15.76711       0.275562     0.01663521
      3145.0000         0.5893       1925.063        43.8429       45.47703         0.4932       -45.5318      -15.70983      0.2654687     0.02072634
      3145.5000          0.605       1778.465        44.2893       46.91467          0.513       -45.4626      -15.64466      0.2960568      0.0253815
      3146.0000         0.6207       1635.836         44.759       48.42736         0.5328       -45.3603      -15.54638      0.3282417     0.03240122
      3146.5000         0.6364       1569.854        45.2287       49.94001         0.5526       -45.2579      -15.44801      0.3604257     0.03942776
      3147.0000         0.6553       1514.779        45.6981       51.45171         0.5724       -45.1556      -15.34974      0.3925896     0.04644721
      3147.5000         0.6758       1459.707         45.446       50.63985         0.5918       -45.0533      -15.25146      0.3753161     0.05346693
      3148.0000         0.6963       1408.205        45.0964       49.51395          0.611       -44.9509      -15.15309      0.3513606     0.06049347
      3148.5000         0.7168       1360.818        44.7469       48.38837         0.6301       -44.8486      -15.05482      0.3274121     0.06751319
      3149.0000         0.7373       1313.408        44.3973       47.26252         0.6493       -44.7462      -14.95644      0.3034578     0.07453973
      3149.5000         0.7525       1417.627        44.1116        46.3424         0.6359       -44.6439      -14.85817      0.2838808     0.08155918
      3150.0000         0.7085       1601.121         43.855       45.51602         0.6087       -44.5415       -14.7598      0.2662983     0.08858599
      3150.5000         0.6417        1707.15        43.5983       44.68932         0.5814       -44.4391      -14.66142      0.2487088      0.0956128
      3151.0000         0.6035       1783.574        43.3416       43.86259         0.5541       -44.3368      -14.56315      0.2311189      0.1026322
      3151.5000         0.5792       1859.996        43.0849       43.03588         0.5269       -44.3292      -14.55958      0.2135294      0.1028874
      3152.0000         0.5732       1924.592        42.8282       42.20918         0.4996        -44.355       -14.5894      0.1959401      0.1007571
      3152.5000          0.578       1943.486        42.5715       41.38245         0.4723       -44.3808      -14.61923        0.17835     0.09862668
      3153.0000         0.5829       1908.076        42.3149        40.5561         0.4609       -44.4066      -14.64906       0.160768     0.09649604
      3153.5000         0.5877       1872.668        42.0581       39.72904         0.4579       -44.4324      -14.67888       0.143171     0.09436566
      3154.0000         0.5815       1837.232         42.394       40.81083         0.4549       -44.4583      -14.70881      0.1661878     0.09222794
      3154.5000         0.5699       1801.824        42.9249       42.52061         0.4519       -44.4841      -14.73863      0.2025661     0.09009756
      3155.0000         0.5582       1768.783        43.4559       44.23067         0.4489       -44.5099      -14.76846      0.2389504     0.08796733
      3155.5000         0.5465       1814.645        43.9871       45.94146         0.4459       -44.5356      -14.79818      0.2753503     0.08584404
      3156.0000         0.5357       1862.525        44.5594       47.78454         0.4429       -44.5615      -14.82811      0.3145646     0.08370631
      3156.5000         0.5253       1911.623          45.15       49.68659         0.4399       -44.6132      -14.88384      0.3550338     0.07972581
      3157.0000         0.5149       1999.203        45.3291       50.26336         0.4369       -44.6841      -14.95877      0.3673056     0.07437392
      3157.5000         0.5045       2086.785        43.8028        45.3479         0.4339       -44.7551      -15.03379      0.2627214     0.06901496
      3158.0000         0.4941       2166.754        42.2765       40.43239         0.4309       -44.8262      -15.10892       0.158136      0.0636489
      3158.5000         0.4837       2225.422        41.0157       36.37197         0.4249       -44.8972      -15.18394     0.07174407     0.05828967
      3159.0000         0.4733        2284.09        40.2348       33.85706         0.4176       -44.9682      -15.25897     0.01823531     0.05293069
      3159.5000         0.4629       2342.758        39.6398       31.94085         0.4104       -45.0392        -15.334              0     0.04757173
      3160.0000         0.4704       2396.617        39.9628       32.98107         0.4031       -45.1102      -15.40902              0     0.04221276
      3160.5000         0.4647       2446.359        40.2858       34.02132         0.3959       -45.1812      -15.48405     0.02173022     0.03685379
      3161.0000          0.459       2496.074        40.6086        35.0609         0.3886       -45.2523      -15.55918     0.04384889     0.03148746
      3161.5000         0.4533       2542.445        40.9316       36.10115         0.3814       -45.3118       -15.6227     0.06598184     0.02695002
      3162.0000         0.4475       2582.613        41.2546       37.14136         0.3741       -45.3102      -15.62513     0.08811407     0.02677659
      3162.5000         0.4413       2622.785        41.5774       38.18095         0.3669       -45.3086      -15.62756      0.1102329     0.02660315
      3163.0000         0.4348        2703.77        41.9003       39.22084         0.3596        -45.307      -15.62998      0.1323583     0.02642999
      3163.5000         0.4282       2869.063        42.2232       40.26075         0.3524       -45.3054      -15.63241       0.154484     0.02625656
      3164.0000         0.4213       3000.234        42.5461       41.30069         0.3452       -45.3038      -15.63483      0.1766105      0.0260834
      3164.5000         0.4142       3114.844        42.8691       42.34088         0.3381       -45.3022      -15.63726      0.1987422     0.02590997
      3165.0000         0.4072       3190.625         43.192       43.38081         0.3311       -45.2428      -15.58189      0.2208684     0.02986513
      3165.5000         0.4001       3210.523        43.5232       44.44745          0.324       -45.1547      -15.49781      0.2435627     0.03587041
      3166.0000         0.4024        3230.41        43.8992       45.65837          0.317       -45.0665      -15.41364       0.269327     0.04188279
      3166.5000         0.4149        3121.84        44.2751       46.86895           0.31       -44.9784      -15.32957      0.2950841     0.04788807
      3167.0000         0.4275       3035.844        44.6511       48.07987         0.3029       -44.8903      -15.24549      0.3208483     0.05389336
      3167.5000         0.4408       2949.852        45.0271       49.29079         0.2959       -44.8022      -15.16142      0.3466126     0.05989865
      3168.0000         0.4555       2863.855         45.403       50.50138         0.2888       -44.7141      -15.07734      0.3723699     0.06590394
      3168.5000           0.47        2777.91        45.7789       51.71194         0.2818       -44.6259      -14.99317      0.3981265      0.0719163
      3169.0000         0.4819       2712.895        45.5062       50.83372         0.2748       -44.5378       -14.9091       0.379441     0.07792159
      3169.5000         0.4938       2665.336        45.1483       49.68113         0.2677       -44.4505      -14.82582      0.3549176     0.08386966
      3170.0000         0.5007       2617.777        44.7905       48.52881         0.2696       -44.4369      -14.81625      0.3304003     0.08455344
      3170.5000         0.4942       2570.215        44.4327       47.37652         0.2753       -44.4233      -14.80668      0.3058834     0.08523723
