#------------------------------------------------------------------------------
# Created by    : vladimir.rabinovich
# Created on    : 09/19/2023 17:21:45
#------------------------------------------------------------------------------
~Version Information Section
VERS.           2.0     :   CWLS log ASCII Standard - VERSION 2.0
WRAP.           NO      :   One line per depth step
~Well Information Section
#MNEM       .UNIT                                         VALUE :DESCRIPTION
#------------------------------------------------------------------------------
STRT        .FT                                            4296 :START DEPTH
STOP        .FT                                         10848.5 :STOP DEPTH
STEP        .FT                                             0.5 :STEP      
NULL        .                                           -999.25 :NULL      
COMP        .                                 CHEVRON U S A INC :COMPANY   
WELL        .                               OCS G07271 ST00BP00 :WELL      
FLD         .                                           WILDCAT :FIELD     
LOC         .                                                   :LOCATION  
CNTY        .                           HIGH ISLAND LARGE BLOCK :LOCATION  
STAT        .                                             TEXAS :STATE     
CTRY        .                                     UNITED STATES :COUNTRY   
SRVC        .                                                   :SERVICE COMPANY
DATE        .                             9/13/2023 11:19:59 AM :LOG DATE  
API         .                                    42708403180000 :API NUMBER
UWI         .                                    42708403180000 :UNIQUE WELL ID
XCOORD      .                                  1325118.04890174 :SURFACE X 
YCOORD      .                                  10672078.9744079 :SURFACE Y 
LAT         .                                          29.40291 :LATITUDE  
LON         .                                        -93.990507 :LONGITUDE 
ELEV        .FT                                              89 :ELEVATION VALUE
ELEV_TYPE   .                                                KB :ELEVATION REFERENCE TYPE
~Curve Information Section
#MNEM       .UNIT                                      API CODE :CURVE DESCRIPTION
#------------------------------------------------------------------------------
DEPT        .FT                                                 :DEPTH     
CALI        .IN                                                 :          
DRHO        .G/C3                                               :          
DTLN        .US/F                                               :          
GR          .GAPI                                               :          
GR_1        .GAPI                                               :          
GR_NORM     .GAPI                                               :GammaRay Normalized
ILD         .OHMM                                               :          
ILM         .OHMM                                               :          
NPHI        .%                                                  :          
RHOB        .G/C3                                               :          
SFL         .OHMM                                               :          
SP          .MV                                                 :          
SP_NORM     .MV                                                 :SP Normalized
VSH_GR      .V/V                                                :Volume of Shale from GR
VSH_SP      .V/V                                                :Volume of Shale from SP
~A        DEPTH           CALI           DRHO           DTLN             GR           GR_1        GR_NORM            ILD            ILM           NPHI           RHOB            SFL             SP        SP_NORM         VSH_GR         VSH_SP
# ...
      4551.0000        -999.25        -999.25        -999.25        28.8539        30.2495       67.53822        -999.25        -999.25        59.9425        -999.25        -999.25        -999.25        -999.25      0.7348557        -999.25
      4551.5000        -999.25        -999.25        -999.25        29.3477        29.8112       66.68866        -999.25        -999.25        59.5765        -999.25        -999.25        -999.25        -999.25        0.71678        -999.25
      4552.0000        -999.25        -999.25        -999.25        28.4127        26.9475       61.57776        -999.25        -999.25        57.9743        -999.25        -999.25        -999.25        -999.25      0.6080375        -999.25
      4552.5000        -999.25        -999.25        -999.25        27.3848         25.262       58.53691        -999.25        -999.25        55.3312        -999.25        -999.25        -999.25        -999.25      0.5433386        -999.25
      4553.0000        -999.25        -999.25        -999.25        26.5606        24.4438       57.01989        -999.25        -999.25        52.7465        -999.25        -999.25        -999.25        -999.25      0.5110615        -999.25
      4553.5000        -999.25        -999.25        -999.25        26.1076         24.203       56.51732        -999.25        -999.25        52.6214        -999.25        -999.25        -999.25        -999.25      0.5003685        -999.25
      4554.0000        15.8215        -0.2449         89.928        27.2546        27.5974       62.40166        -999.25        -999.25        53.0441         2.3714         0.2006        -999.25        -999.25      0.6255672        -999.25
      4554.5000        15.9657         -0.238        87.8853        28.0657        32.2769       70.54384        -999.25        -999.25        52.6533         2.1038         0.2106        -999.25        -999.25      0.7988051        -999.25
      4555.0000        16.6291        -0.1903        86.6583        29.4181        34.3687       74.13956        -999.25        -999.25        51.3613         2.0259         0.3166        -999.25        -999.25      0.8753097        -999.25
      4555.5000        18.1824         -0.132        87.6241        31.1592        34.9329       75.05135        -999.25        -999.25        50.1693         1.9638         0.7505        -999.25        -999.25      0.8947095        -999.25
      4556.0000        -999.25        -0.1206        87.3735        32.4514         33.181       71.89385         3.7979         5.0617         48.824         1.9523         0.7538        -999.25        -999.25      0.8275288        -999.25
      4556.5000        -999.25        -0.1094       110.8495        32.6938        31.4574       68.78606          0.697         0.9115         48.379         1.9902         0.6116        -999.25        -999.25      0.7614056        -999.25
      4557.0000        22.5058        -0.0832       151.8125        32.0818        30.1318       66.37756         0.3822         0.4308        50.0227         2.1085         0.5806        -999.25        -999.25      0.7101608        -999.25
      4557.5000        20.5657        -0.0728       177.7642        30.8703        29.6606       65.47018         0.2107         0.3413         51.395         2.1391         0.6067        -999.25        -999.25       0.690855        -999.25
      4558.0000         19.691        -0.0701       170.4197        29.4615        29.9007       65.81255         0.2117           0.34        54.0951         2.0784         0.6428        -999.25        -999.25      0.6981393        -999.25
      4558.5000        20.5589         -0.077       142.4062        27.6732        30.9377       67.55502         0.3024         0.3569        53.3943         2.0451         0.6567        -999.25        -999.25      0.7352133        -999.25
      4559.0000        22.0999         -0.082       117.5828        26.2873        31.2888       68.09239         0.3641          0.394        52.2653         2.0182         0.6557        -999.25        -999.25      0.7466466        -999.25
      4559.5000        22.5191        -0.0856       111.4122        26.8683        31.0667       67.62269         0.4068         0.4476        51.7655         2.0219         0.6379        -999.25        -999.25       0.736653        -999.25
      4560.0000        22.3289         -0.085        125.875        29.4305        30.8044       67.08236         0.4443         0.4947        51.4594         2.0685         0.6048        -999.25        -999.25      0.7251566        -999.25
      4560.5000        21.0159        -0.0825       148.3437        32.4167        32.0496       69.19061         0.4605         0.5158        50.0568         2.1391         0.5812        -999.25        -999.25       0.770013        -999.25
      4561.0000        19.1092        -0.0779       168.8777        34.5708        33.1224       70.99599          0.462         0.5271        48.5212         2.1652         0.5828        -999.25        -999.25      0.8084254        -999.25
      4561.5000        17.9141        -0.0717       167.5859        34.5944        32.6743        70.1292         0.4498         0.5376         47.726         2.1846         0.6204        -999.25        -999.25      0.7899829        -999.25
      4562.0000         17.546        -0.0682       160.6875        32.5729        32.0269       68.91226         0.4271          0.536        47.2167         2.1922         0.6691        -999.25        -999.25      0.7640907        -999.25
      4562.5000        17.3335        -0.0666         140.25        30.8095        32.1835       69.10791         0.3943         0.5191        47.1028         2.1834         0.7226        -999.25        -999.25      0.7682534        -999.25
      4563.0000        17.1071        -0.0714       124.2963        30.0171        33.4366       71.23009         0.3538         0.4604        47.3967         2.1576         0.7405        -999.25        -999.25      0.8134061        -999.25
      4563.5000        17.1807        -0.0756       117.1365        30.3713        32.5127       69.52734         0.3244         0.3803        47.5469          2.126         0.6594        -999.25        -999.25      0.7771774        -999.25
      4564.0000        17.6944        -0.0788       115.6285        30.4025        29.8923       64.84389         0.2996         0.3341        46.1905          2.118          0.549        -999.25        -999.25      0.6775297        -999.25
      4564.5000        18.0758        -0.0791       117.1675        30.2629         28.587       62.47106         0.2796         0.3196        44.4543         2.1326         0.3526        -999.25        -999.25      0.6270438        -999.25
      4565.0000        18.2423        -0.0773        118.391        29.9943        27.8167       61.03819         0.2632         0.3199        44.2511         2.1622         0.3246        -999.25        -999.25      0.5965571        -999.25
      4565.5000         18.262        -0.0724       118.5586        29.8988        28.2891       61.78869         0.2509         0.3268        44.2081         2.1933         0.4055        -999.25        -999.25      0.6125253        -999.25
      4566.0000        17.9568        -0.0692       118.8055        29.8345        29.9119       64.56039         0.2446          0.337        43.7843         2.2179         0.4787        -999.25        -999.25      0.6714978        -999.25
      4566.5000        17.5089        -0.0678       119.3597        30.0389        31.5963       67.44033         0.2462         0.3471        41.7142         2.2072         0.5591        -999.25        -999.25       0.732773        -999.25
      4567.0000        17.3412         -0.072        118.911         30.931        31.8653       67.83346         0.2566         0.3583        39.4498         2.1821         0.6005        -999.25        -999.25      0.7411374        -999.25
      4567.5000        17.3447        -0.0766       117.5245        33.0591        31.0078       66.24738         0.2781         0.3668        39.3794         2.1664          0.548        -999.25        -999.25       0.707391        -999.25
