#------------------------------------------------------------------------------
# Created by    : vladimir.rabinovich
# Created on    : 09/19/2023 17:19:22
#------------------------------------------------------------------------------
~Version Information Section
VERS.           2.0     :   CWLS log ASCII Standard - VERSION 2.0
WRAP.           NO      :   One line per depth step
~Well Information Section
#MNEM       .UNIT                                         VALUE :DESCRIPTION
#------------------------------------------------------------------------------
STRT        .FT                                            2350 :START DEPTH
STOP        .FT                                            7008 :STOP DEPTH
STEP        .FT                                             0.5 :STEP      
NULL        .                                           -999.25 :NULL      
COMP        .                                  W&T OFFSHORE INC :COMPANY   
WELL        .                               OCS G04565 ST00BP00 :WELL      
FLD         .                              GALVESTON BLOCK 0303 :FIELD     
LOC         .                                                   :LOCATION  
CNTY        .                             GALVESTON LARGE BLOCK :LOCATION  
STAT        .                                             TEXAS :STATE     
CTRY        .                                     UNITED STATES :COUNTRY   
SRVC        .                                                   :SERVICE COMPANY
DATE        .                             9/13/2023 11:19:03 AM :LOG DATE  
API         .                                    42706403950000 :API NUMBER
UWI         .                                    42706403950000 :UNIQUE WELL ID
XCOORD      .                                  979190.041446607 :SURFACE X 
YCOORD      .                                   10483081.623763 :SURFACE Y 
LAT         .                                        28.8707847 :LATITUDE  
LON         .                                       -95.0663777 :LONGITUDE 
ELEV        .FT                                              91 :ELEVATION VALUE
ELEV_TYPE   .                                                KB :ELEVATION REFERENCE TYPE
~Curve Information Section
#MNEM       .UNIT                                      API CODE :CURVE DESCRIPTION
#------------------------------------------------------------------------------
DEPT        .FT                                                 :DEPTH     
AF20        .OHMM                                               :          
AFCO        .MMHO                                               :          
AO90        .OHMM                                               :          
AT10        .OHMM                                               :          
AT20        .OHMM                                               :          
AT30        .OHMM                                               :          
AT60        .OHMM                                               :          
AT90        .OHMM                                               :          
DCAL        .IN                                                 :          
DPHI        .%                                                  :          
DRHO        .G/C3                                               :          
GR          .GAPI                                               :          
GR_NORM     .GAPI                                               :GammaRay Normalized
GRN         .GAPI                                               :          
NPOR        .%                                                  :          
RWA         .OHMM                                               :          
SP          .MV                                                 :          
SP_NORM     .MV                                                 :SP Normalized
TENR        .LBF                                                :          
TPHI        .%                                                  :          
VSH_GR      .V/V                                                :Volume of Shale from GR
VSH_SP      .V/V                                                :Volume of Shale from SP
~A        DEPTH           AF20           AFCO           AO90           AT10           AT20           AT30           AT60           AT90           DCAL           DPHI           DRHO             GR        GR_NORM            GRN           NPOR            RWA             SP        SP_NORM           TENR           TPHI         VSH_GR         VSH_SP
# ...
      4006.0000           0.68           1250            0.8           0.75           0.74           0.72           0.67           0.65          4.625           22.9          -0.03           70.1       70.70862        -999.25         33.227           0.05          -13.2      -8.759323           2190        -999.25       0.802311      0.8407396
      4006.5000           0.66       1369.861           0.73           0.75           0.71           0.69           0.65           0.64          4.725           22.9          -0.03           68.1       68.90816        -999.25        32.5071           0.05          -15.1      -10.65785           2190        -999.25      0.7640035      0.8062209
      4007.0000           0.64       1388.889           0.72           0.72           0.66           0.64           0.62           0.61          4.825             24          -0.03           63.7       64.94771        -999.25        35.0995           0.05          -17.7      -13.25638           2190        -999.25      0.6797385       0.758975
      4007.5000           0.61       1470.588           0.68            0.7           0.62           0.59           0.57           0.57          4.825           24.9          -0.04           61.7       63.14725        -999.25        38.2201           0.06          -21.6      -17.15318           2190        -999.25      0.6414309      0.6881241
      4008.0000           0.58       1724.137           0.58           0.67           0.58           0.53           0.51           0.51          4.925             26          -0.05           53.1       55.40679        -999.25        38.0943           0.05          -27.1      -22.64779           2155        -999.25      0.4767402      0.5882219
      4008.5000           0.55       2040.814           0.49           0.65           0.54           0.48           0.45           0.46          5.025           26.7          -0.05             54       56.21634        -999.25        36.6059           0.05          -31.4      -26.94241           2155        -999.25      0.4939646      0.5101379
      4009.0000           0.52       2380.949           0.42           0.63           0.51           0.44           0.41           0.41          5.125        30.8999          -0.05           47.3       50.18587        -999.25          37.17           0.05          -35.6      -31.13703           2155        -999.25      0.3656569      0.4338722
      4009.5000            0.5       2702.699           0.37           0.62           0.49           0.42           0.37           0.38          5.225           37.2          -0.04           50.6       53.15542        -999.25        40.5411           0.07          -38.1      -33.63165           2155        -999.25      0.4288388      0.3885155
      4010.0000           0.48       2941.176           0.34           0.62           0.48            0.4           0.35           0.36          5.825        43.3999          -0.03           46.8       49.73496        -999.25        45.2708           0.09          -40.2      -35.72627           2170        -999.25       0.356063      0.3504315
      4010.5000           0.46       3030.301           0.33           0.64           0.48           0.39           0.33           0.34          7.325           44.2          -0.02             48       50.81451        -999.25        49.5989           0.09          -42.2      -37.72089           2170        -999.25      0.3790321      0.3141656
      4011.0000           0.44       3030.301           0.33           0.66           0.47           0.38           0.32           0.33          7.925           40.8          -0.01           48.4       51.17405        -999.25          48.84           0.08          -43.1      -38.61551           2170        -999.25       0.386682      0.2978999
      4011.5000           0.42       3225.805           0.31           0.64           0.45           0.36           0.31           0.31          5.725           35.6          -0.01           47.8       50.63359        -999.25        44.1029           0.06          -44.4      -39.91013           2170        -999.25      0.3751828      0.2743613
      4012.0000           0.39       3448.273           0.29           0.58           0.41           0.34           0.29            0.3          5.625        33.2999          -0.02           44.5       47.66314        -999.25        41.2294           0.04          -45.1      -40.60474           2180        -999.25      0.3119816      0.2617319
      4012.5000           0.37           4000           0.25           0.52           0.37           0.31           0.27           0.28          5.825        33.2999          -0.03           42.9       46.22268        -999.25        41.4602           0.04          -45.4      -40.89936           2180        -999.25      0.2813336      0.2563752
      4013.0000           0.35       4545.453           0.22           0.46           0.33           0.28           0.25           0.26          6.625        33.2999          -0.02           40.8       44.33222        -999.25        42.3721           0.03          -45.6      -41.09398           2180        -999.25      0.2411111      0.2528367
      4013.5000           0.33       4761.898           0.21           0.44           0.31           0.27           0.24           0.25          5.825        33.4999          -0.03           38.9       42.62177        -999.25        42.5759           0.03          -45.3       -40.7886           2180        -999.25      0.2047184      0.2583891
      4014.0000           0.32       4761.898           0.21           0.42           0.31           0.26           0.24           0.25          5.725           32.2          -0.02             39       42.71131        -999.25        42.3959           0.03          -45.4      -40.88322           2180        -999.25      0.2066236      0.2566687
      4014.5000           0.32       4761.898           0.21           0.42           0.31           0.26           0.24           0.25          5.825           32.2          -0.03           41.4       44.87085        -999.25        42.6843           0.03          -45.6      -41.07784           2165        -999.25      0.2525713      0.2531303
      4015.0000           0.32       4761.898           0.21           0.43           0.31           0.26           0.24           0.25          5.925           32.4          -0.03           42.5       45.86039        -999.25         43.452           0.03          -45.6      -41.07245           2165        -999.25      0.2736253      0.2532281
      4015.5000           0.32       4761.898           0.21           0.43           0.31           0.26           0.24           0.25          6.025        32.9999          -0.03           38.7       42.43994        -999.25        43.2958           0.03          -45.6      -41.06707           2165        -999.25      0.2008497       0.253326
      4016.0000           0.32       4761.898           0.21           0.45           0.32           0.27           0.25           0.25          6.125        33.2999          -0.03           38.6       42.34948        -999.25        41.6036           0.03          -45.4      -40.86169           2165        -999.25       0.198925      0.2570601
      4016.5000           0.33       4761.898           0.21           0.46           0.33           0.28           0.25           0.26          6.325        33.2999          -0.03           40.1       43.69902        -999.25         40.296           0.03          -45.2      -40.65631           2160        -999.25      0.2276388      0.2607943
      4017.0000           0.33       4761.898           0.21           0.48           0.34           0.29           0.26           0.26          6.425           33.9          -0.03           42.6       45.94856        -999.25        41.0284           0.03          -45.1      -40.55093           2160        -999.25      0.2755013      0.2627104
      4017.5000           0.34       4545.453           0.22           0.49           0.35           0.29           0.26           0.27          6.625           33.4          -0.02           43.3       46.57811        -999.25        43.1435           0.03          -45.3      -40.74555           2160        -999.25       0.288896      0.2591718
