#------------------------------------------------------------------------------
# Created by    : vladimir.rabinovich
# Created on    : 09/19/2023 17:21:33
#------------------------------------------------------------------------------
~Version Information Section
VERS.           2.0     :   CWLS log ASCII Standard - VERSION 2.0
WRAP.           NO      :   One line per depth step
~Well Information Section
#MNEM       .UNIT                                         VALUE :DESCRIPTION
#------------------------------------------------------------------------------
STRT        .FT                                            3683 :START DEPTH
STOP        .FT                                            9328 :STOP DEPTH
STEP        .FT                                             0.5 :STEP      
NULL        .                                           -999.25 :NULL      
COMP        .                                SHELL OFFSHORE INC :COMPANY   
WELL        .                               OCS G11316 ST00BP00 :WELL      
FLD         .                                           WILDCAT :FIELD     
LOC         .                                                   :LOCATION  
CNTY        .                             GALVESTON LARGE BLOCK :LOCATION  
STAT        .                                             TEXAS :STATE     
CTRY        .                                     UNITED STATES :COUNTRY   
SRVC        .                                                   :SERVICE COMPANY
DATE        .                             9/13/2023 11:19:34 AM :LOG DATE  
API         .                                    42706402670000 :API NUMBER
UWI         .                                    42706402670000 :UNIQUE WELL ID
XCOORD      .                                  1097534.45360284 :SURFACE X 
YCOORD      .                                  10461685.9172371 :SURFACE Y 
LAT         .                                         28.817107 :LATITUDE  
LON         .                                        -94.695737 :LONGITUDE 
ELEV        .FT                                              91 :ELEVATION VALUE
ELEV_TYPE   .                                                KB :ELEVATION REFERENCE TYPE
~Curve Information Section
#MNEM       .UNIT                                      API CODE :CURVE DESCRIPTION
#------------------------------------------------------------------------------
DEPT        .FT                                                 :DEPTH     
CALI        .IN                                                 :          
CALI_1      .IN                                                 :          
CILD        .MMHO                                               :          
DRHO        .G/C3                                               :          
DT          .US/F                                               :          
GR          .GAPI                                               :          
GR_1        .GAPI                                               :          
GR_NORM     .GAPI                                               :GammaRay Normalized
ILD         .OHMM                                               :          
ILM         .OHMM                                               :          
NPHI        .%                                                  :          
RHOB        .G/C3                                               :          
SFL         .OHMM                                               :          
SP          .MV                                                 :          
SP_NORM     .MV                                                 :SP Normalized
VSH_GR      .V/V                                                :Volume of Shale from GR
VSH_SP      .V/V                                                :Volume of Shale from SP
~A        DEPTH           CALI         CALI_1           CILD           DRHO             DT             GR           GR_1        GR_NORM            ILD            ILM           NPHI           RHOB            SFL             SP        SP_NORM         VSH_GR         VSH_SP
# ...
      8588.0000        13.3317        13.3446       1487.357          0.047       110.9037        69.7157        70.2664       84.65107         0.6661         0.6152        46.2205         2.4139         0.9219       -36.7302      -1.430099              1      0.9779985
      8588.5000        13.3299        13.3399       1491.193         0.0581       110.6653        69.5312        70.3732       84.81795         0.6662         0.6111        46.5448         2.4257         0.9317       -36.6369      -1.308893              1      0.9798632
      8589.0000        13.3286        13.3306       1480.533         0.0669       110.4629        71.4847        71.4463       86.49466         0.6663         0.6126        46.4993         2.4355         0.9415       -36.4866      -1.115137              1      0.9828441
      8589.5000        13.3289        13.3235       1434.664         0.0621       110.2721        72.6119        72.5685       88.24809         0.6664         0.6356        46.2249         2.4467         0.9441       -36.3916     -0.9917693              1       0.984742
      8590.0000        13.3277        13.3252       1399.035         0.0429       110.1487        71.9805        72.1195       87.54653         0.6704         0.6581        45.8638         2.4502         0.9423       -36.3889     -0.9858752              1      0.9848327
      8590.5000        13.3222        13.3329       1428.348         0.0339        109.879        70.6437        70.8936       85.63107         0.6765         0.6645        45.4337          2.439         0.9398       -36.6154      -1.271683              1      0.9804356
      8591.0000        13.3218        13.3422        1444.51         0.0289        109.566        69.6781        70.0878       84.37201         0.6782         0.6603        45.0057         2.4293          0.942        -36.744      -1.432896              1      0.9779555
      8591.5000        13.3259        13.3492       1430.852          0.031        109.236        70.2244        70.2861       84.68185         0.6787         0.6445        44.6193         2.4239         0.9531       -36.5743      -1.214457              1       0.981316
      8592.0000        13.3317        13.3535       1462.893         0.0345       108.8733        70.7664        71.1581       86.04434         0.6781         0.6292        44.7044         2.4214         0.9686       -36.1821      -0.712831              1      0.9890333
      8592.5000        13.3365        13.3539       1495.807         0.0359       108.4705        71.3491        72.1195       87.54653         0.6791         0.6129        45.0291         2.4242         0.9831       -35.9804     -0.4536625              1      0.9930206
      8593.0000        13.3405        13.3521       1433.775         0.0367       108.0726        71.9978        72.9448       88.83607         0.6818         0.6296        45.2416          2.428         0.9941       -36.0823     -0.5808896              1      0.9910632
      8593.5000        13.3418        13.3435       1365.971         0.0341        107.754        72.7223        73.0629        89.0206          0.702         0.6744        45.2327         2.4311         0.9971        -36.406     -0.9904147              1      0.9847628
      8594.0000        13.3394         13.335        1344.16         0.0289       107.5464        72.2765        72.5524       88.22295         0.7293         0.6847        45.0215         2.4303         0.9973       -36.7359      -1.407829              1      0.9783411
      8594.5000        13.3349         13.327       1399.578         0.0298       107.7185        72.4812         72.615       88.32076         0.7378          0.672        45.0087          2.429         0.9793        -37.083      -1.847131              1      0.9715826
      8595.0000        13.3289        13.3266       1442.018         0.0331       108.1997        72.9905        73.2876       89.37168         0.7281         0.6574        45.3578         2.4273         0.9668       -37.4092      -2.259831              1      0.9652334
      8595.5000        13.3205         13.331        1467.58         0.0352       108.1719        73.3827        73.6329       89.91121         0.7126         0.6468        46.1655         2.4268         0.9608       -37.5984      -2.498176              1      0.9615665
      8596.0000        13.3128        13.3356       1410.484         0.0353         107.75        73.6484        73.9528       90.41106         0.7026         0.6484        47.0099         2.4265         0.9747       -37.5868       -2.48095              1      0.9618315
      8596.5000        13.3151        13.3393       1364.639         0.0341       107.0764        74.0579        74.4825       91.23872         0.6953         0.6657        47.0556         2.4283         0.9835       -37.3839      -2.220252              1      0.9658422
      8597.0000        13.3174        13.3416       1353.301         0.0325       106.3657        74.6283        74.9744       92.00732          0.714         0.6981        45.7999         2.4309         0.9856        -36.993      -1.720287              1       0.973534
      8597.5000          13.32        13.3354       1319.682         0.0337       105.4528        73.6454        75.1302       92.25076         0.7633         0.7425        43.8563          2.436         0.9881       -36.8564       -1.54397              1      0.9762466
      8598.0000        13.3232        13.3308       1236.283         0.0386       104.5139        71.9731        73.0237       88.95934         0.8306          0.797        40.8011         2.4463         1.0268       -37.1478      -1.912383              1      0.9705787
      8598.5000        13.3275        13.3299       1093.963          0.044       103.4233        69.3538        70.5222       85.05075          0.916         0.8434         38.165         2.4628         1.1915        -37.371      -2.193991              1      0.9662463
      8599.0000        13.3338        13.3345       972.7627         0.0508       101.4469        66.7047        67.3474       80.09012         1.0151         0.9255         36.049         2.4745         1.4926       -37.4441      -2.284572              1      0.9648528
      8599.5000        13.3437        13.3396       897.7529         0.0513        99.0387        64.8672        64.6199       75.82841         1.0787         1.0239        35.1381         2.4818          1.589       -37.3732      -2.191875      0.9112428      0.9662789
      8600.0000        13.3511        13.3439       880.0703         0.0436         96.902        62.7584        63.1245       73.49184         1.1081         1.0786        34.6321         2.4843         1.6078       -37.2036      -1.973561      0.8615285      0.9696375
      8600.5000        13.3533        13.3467       883.0723         0.0315        94.8219        60.4498        61.1645       70.42935         1.1058         1.0717        34.3483         2.4742         1.6032       -37.0056      -1.719097      0.7963692      0.9735523
      8601.0000        13.3544        13.3506       891.8555         0.0204        93.0317        58.6641        59.4405        67.7356         1.0983         1.0235        33.9426         2.4664         1.5738       -37.1382      -1.885403      0.7390552      0.9709938
      8601.5000        13.3544        13.3522       902.9473         0.0126        92.0658        57.0239        57.5004       64.70419         1.0836         0.9716        33.4819         2.4614         1.5323       -37.2715      -2.052597      0.6745573      0.9684216
      8602.0000         13.352        13.3492       906.9746          0.007        91.7543        56.3553        56.5223       63.17591         1.0746         0.9461        32.9879         2.4597         1.4753       -37.3583      -2.160608      0.6420406      0.9667599
      8602.5000        13.3498        13.3463       901.9912          0.009        92.0383        56.5266         56.812       63.62856         1.0713         0.9483        32.7542         2.4622         1.4339       -37.4371      -2.258442      0.6516715      0.9652547
