#------------------------------------------------------------------------------
# Created by    : vladimir.rabinovich
# Created on    : 09/19/2023 17:22:48
#------------------------------------------------------------------------------
~Version Information Section
VERS.           2.0     :   CWLS log ASCII Standard - VERSION 2.0
WRAP.           NO      :   One line per depth step
~Well Information Section
#MNEM       .UNIT                                         VALUE :DESCRIPTION
#------------------------------------------------------------------------------
STRT        .FT                                            3512 :START DEPTH
STOP        .FT                                           11028 :STOP DEPTH
STEP        .FT                                             0.5 :STEP      
NULL        .                                           -999.25 :NULL      
COMP        .                          SEAGULL ENERGY E & P INC :COMPANY   
WELL        .                   ST TR 147-L NE/4 /ST LSE 88034/ :WELL      
FLD         .                                           WILDCAT :FIELD     
LOC         .                                                   :LOCATION  
CNTY        .                             GALVESTON LARGE BLOCK :LOCATION  
STAT        .                                             TEXAS :STATE     
CTRY        .                                     UNITED STATES :COUNTRY   
SRVC        .                                                   :SERVICE COMPANY
DATE        .                             9/13/2023 11:18:53 AM :LOG DATE  
API         .                                    42706302000000 :API NUMBER
UWI         .                                    42706302000000 :UNIQUE WELL ID
XCOORD      .                                  1107149.67333588 :SURFACE X 
YCOORD      .                                  10638300.0198507 :SURFACE Y 
LAT         .                                        29.3031745 :LATITUDE  
LON         .                                         -94.67354 :LONGITUDE 
ELEV        .FT                                              25 :ELEVATION VALUE
ELEV_TYPE   .                                                KB :ELEVATION REFERENCE TYPE
~Curve Information Section
#MNEM       .UNIT                                      API CODE :CURVE DESCRIPTION
#------------------------------------------------------------------------------
DEPT        .FT                                                 :DEPTH     
DT          .US/F                                               :          
GR          .GAPI                                               :          
GR_NORM     .GAPI                                               :GammaRay Normalized
ILD         .OHMM                                               :          
ILM         .OHMM                                               :          
SFL         .OHMM                                               :          
SP          .MV                                                 :          
SP_NORM     .MV                                                 :SP Normalized
VSH_GR      .V/V                                                :Volume of Shale from GR
VSH_SP      .V/V                                                :Volume of Shale from SP
~A        DEPTH             DT             GR        GR_NORM            ILD            ILM            SFL             SP        SP_NORM         VSH_GR         VSH_SP
# ...
      5006.5000        103.256        60.8005       68.41709         0.5253         0.6134         0.7248       -63.9036      -35.04801      0.7535551      0.6299129
      5007.0000       104.8657        59.5291       66.56545         0.4769         0.5714         0.7587       -71.6917      -42.83924      0.7141586      0.5452256
      5007.5000       107.1476        58.6398       65.26817         0.4178         0.5177         0.7917       -80.5804      -51.73107      0.6865569      0.4485753
      5008.0000       109.3583        55.2358       60.32256         0.3625         0.4535         0.8212       -88.9828       -60.1366       0.581331      0.3572109
      5008.5000       111.8129        52.0874       55.74775         0.2949           0.39         0.8512       -95.0168      -66.17372      0.4839947        0.29159
      5009.0000       114.0371        50.4302        53.3364         0.2359         0.3337         0.8592       -98.7537      -69.91376      0.4326893      0.2509374
      5009.5000       115.4937        49.5848       52.10282         0.1944         0.2798         0.7822      -100.5994      -71.76258       0.406443      0.2308415
      5010.0000       115.4882        50.5212       53.45426         0.1803         0.2389         0.6747       -97.5375       -68.7038      0.4351971      0.2640891
      5010.5000       114.1696        53.9976       58.49077         0.1829         0.2195         0.5363       -91.6804      -62.84983      0.5423568      0.3277192
      5011.0000       112.6659        60.5524       67.99344         0.1937         0.2322         0.4348       -80.8507      -52.02326      0.7445412      0.4453993
      5011.5000       110.9735        70.0652       81.78759         0.2212         0.2728         0.3968       -67.3677      -38.54339              1      0.5919197
      5012.0000       108.7529        78.3939       93.86385         0.2586         0.3123         0.4509        -49.934      -21.11282              1      0.7813824
      5012.5000       105.3044        80.0178       96.21274          0.315          0.363         0.6372       -44.1187      -15.30064              1      0.8445582
      5013.0000       102.3923        78.0905       93.40952         0.3921         0.4221         0.7757       -40.0674      -11.25248              1      0.8885601
      5013.5000        102.998         76.582       91.21388         0.4664         0.5101         0.8104        -36.871        -8.0592              1      0.9232696
      5014.0000       106.7308        76.7775       91.49043         0.5711         0.5755         0.7664        -34.343      -5.534328              1      0.9507138
      5014.5000       112.3386        76.4935       91.07133         0.6812         0.6051          0.715       -32.3161      -3.510559              1      0.9727113
      5015.0000        117.868        76.2002       90.63873         0.7176         0.6161         0.6897       -31.5803      -2.777884              1      0.9806752
      5015.5000       121.3851        77.0475       91.86093         0.7086         0.6131         0.6832       -31.7286      -2.929312              1      0.9790292
      5016.0000       121.7584        79.1776       94.94421         0.6915         0.6066         0.6836       -32.5163       -3.72014              1      0.9704332
      5016.5000        121.403        79.6837       95.67139         0.6746         0.6049         0.6898       -33.3253      -4.532267              1      0.9616058
      5017.0000       120.5848        78.4565       93.88387         0.6544         0.6033         0.6962       -34.2244      -5.434496              1       0.951799
      5017.5000       119.5837        77.1249       91.94489         0.6389         0.6038         0.7098       -35.0773      -6.290525              1      0.9424943
      5018.0000       118.2871        76.3705       90.84333          0.629         0.6074         0.7407       -35.4747      -6.691051              1      0.9381407
      5018.5000       117.5093         76.606       91.17792         0.6193           0.61         0.7732       -35.7337      -6.953178              1      0.9352915
      5019.0000       117.3752         77.416       92.34601         0.6079         0.6073         0.7771       -35.3184      -6.541008              1      0.9397717
      5019.5000       117.7565        78.1786       93.44529         0.5937         0.5949         0.7495       -34.6298      -5.855534              1      0.9472225
      5020.0000       119.0947        78.1006       93.32507         0.5742          0.574         0.7137       -34.0782      -5.307064              1      0.9531841
      5020.5000       120.4967        77.5321        92.4932         0.5559         0.5606         0.6833       -33.8485      -5.080488              1      0.9556469
      5021.0000        122.042        77.0502       91.78696         0.5411         0.5475          0.633        -34.199      -5.434118              1      0.9518031
      5021.5000       123.5677        77.3246       92.17799         0.5324         0.5347          0.595       -34.4764      -5.714643              1      0.9487539
      5022.0000       124.8177        78.0493       93.22232         0.5294         0.5222         0.5682       -34.8098      -6.051172              1       0.945096
      5022.5000       124.8306        78.7483       94.22934         0.5264         0.5159         0.5646       -35.3069      -6.551401              1      0.9396587
      5023.0000       124.0377        79.0697       94.68856         0.5217         0.5176         0.5997       -35.8039      -7.051531              1      0.9342225
      5023.5000       123.0297        79.0468       94.64824         0.5191         0.5222         0.6522       -36.3521      -7.602856              1      0.9282298
      5024.0000       121.7723        80.6086       96.90703         0.5217         0.5279         0.7054       -36.6843      -7.938183              1       0.924585
      5024.5000       120.8171        81.7992        98.6273         0.5254         0.5327         0.6977       -36.8511      -8.108112              1      0.9227379
      5025.0000       120.6122        81.5017        98.1886         0.5256         0.5298         0.6697       -36.9473      -8.207439              1      0.9216583
      5025.5000       121.3214        78.2169       93.41591          0.523         0.5256         0.6537       -37.0736      -8.336868              1      0.9202514
      5026.0000       122.0917        76.4054        90.7807         0.5154         0.5151           0.66       -37.1362      -8.402594              1       0.919537
      5026.5000       122.7975         77.948       93.01163         0.5041         0.5011         0.6663       -36.5363      -7.805822              1      0.9260237
      5027.0000       122.7822        79.7623       95.63675         0.4841         0.4917         0.6637       -35.4572      -6.729849              1       0.937719
      5027.5000       121.9685        80.5154       96.72227         0.4646         0.4855         0.6364       -34.3976      -5.673376              1      0.9492024
      5028.0000       121.4597        81.2462       97.77545         0.4568         0.4833         0.6027       -33.7561      -5.035006              1      0.9561412
      5028.5000       121.7908        82.2596       99.23862         0.4563         0.4854         0.5766       -34.1593      -5.441336              1      0.9517246
      5029.0000        122.402          82.71       99.88496           0.46         0.4872         0.5591       -36.2544      -7.539558              1      0.9289178
      5029.5000       122.3655        82.5619       99.66302         0.4772         0.4964          0.563       -38.6793      -9.967587              1      0.9025263
      5030.0000       121.3398        81.8494       98.62225         0.5026         0.5147         0.5787       -40.5784      -11.86982              1      0.8818498
      5030.5000       119.2356        77.1508       91.79843         0.5425         0.5526         0.5857       -42.5034      -13.79794              1      0.8608919
