#------------------------------------------------------------------------------
# Created by    : vladimir.rabinovich
# Created on    : 09/19/2023 17:19:36
#------------------------------------------------------------------------------
~Version Information Section
VERS.           2.0     :   CWLS log ASCII Standard - VERSION 2.0
WRAP.           NO      :   One line per depth step
~Well Information Section
#MNEM       .UNIT                                         VALUE :DESCRIPTION
#------------------------------------------------------------------------------
STRT        .FT                                            4496 :START DEPTH
STOP        .FT                                            7801 :STOP DEPTH
STEP        .FT                                             0.5 :STEP      
NULL        .                                           -999.25 :NULL      
COMP        .                             HELIS WM G CO LLC THE :COMPANY   
WELL        .                               OCS G12508 ST00BP00 :WELL      
FLD         .                              GALVESTON BLOCK 0395 :FIELD     
LOC         .                                                   :LOCATION  
CNTY        .                             GALVESTON LARGE BLOCK :LOCATION  
STAT        .                                             TEXAS :STATE     
CTRY        .                                     UNITED STATES :COUNTRY   
SRVC        .                                                   :SERVICE COMPANY
DATE        .                             9/13/2023 11:19:03 AM :LOG DATE  
API         .                                    42706404300000 :API NUMBER
UWI         .                                    42706404300000 :UNIQUE WELL ID
XCOORD      .                                  908236.382466376 :SURFACE X 
YCOORD      .                                  10386259.9403327 :SURFACE Y 
LAT         .                                         28.601028 :LATITUDE  
LON         .                                        -95.282181 :LONGITUDE 
ELEV        .FT                                             103 :ELEVATION VALUE
ELEV_TYPE   .                                                KB :ELEVATION REFERENCE TYPE
~Curve Information Section
#MNEM       .UNIT                                      API CODE :CURVE DESCRIPTION
#------------------------------------------------------------------------------
DEPT        .FT                                                 :DEPTH     
AHT10       .OHMM                                               :          
AHT20       .OHMM                                               :          
AHT30       .OHMM                                               :          
AHT60       .OHMM                                               :          
AHT90       .OHMM                                               :          
CPCHM       .MMHO                                               :          
DCAL        .IN                                                 :          
DPHZ        .FRAC                                               :          
GR          .GAPI                                               :          
GR_NORM     .GAPI                                               :GammaRay Normalized
GRAM        .GAPI                                               :          
HDRA        .G/CC                                               :          
NPOR        .FRAC                                               :          
RACHM       .OHMM                                               :          
ROPS        .F/HR                                               :          
RPCHM       .OHMM                                               :          
RWA         .OHMM                                               :          
SP          .MV                                                 :          
SP_NORM     .MV                                                 :SP Normalized
TENS        .LB/F                                               :          
VSH_GR      .V/V                                                :Volume of Shale from GR
VSH_SP      .V/V                                                :Volume of Shale from SP
~A        DEPTH          AHT10          AHT20          AHT30          AHT60          AHT90          CPCHM           DCAL           DPHZ             GR        GR_NORM           GRAM           HDRA           NPOR          RACHM           ROPS          RPCHM            RWA             SP        SP_NORM           TENS         VSH_GR         VSH_SP
# ...
      5816.0000          0.519         0.5546          0.574          0.589         0.5986       1772.753         1.0437          0.264        77.7847       92.40993         63.197         0.0378         0.4628          0.597         85.035          0.525         0.0551       -32.8125      0.9608391           2765              1              1
      5816.5000         0.5229         0.5589         0.5784         0.5931         0.6023       1957.748         0.5988         0.2566        74.6697       88.29945         63.491         0.0431         0.4994          0.592         85.035          0.496         0.0522        -31.625       2.617384           2762              1              1
      5817.0000         0.5293         0.5672         0.5835         0.5998         0.6071       1964.987         1.1158         0.2502        76.7059       90.98151         65.545         0.0472         0.4727          0.605         85.035          0.516         0.0498       -30.6875       3.923924           2737              1              1
      5817.5000         0.5353         0.5712         0.5895         0.6064         0.6147       1913.212         1.0437         0.2503        69.3346       81.25851         66.545         0.0498         0.4877          0.629         87.005          0.542         0.0505       -30.9375        3.56797           2755              1              1
      5818.0000         0.5473          0.584         0.6017         0.6216         0.6274       1775.125         1.1398         0.2443        69.6011       81.60695         67.485         0.0569         0.4101          0.689         87.005          0.638         0.0489            -30       4.874515           2729              1              1
      5818.5000         0.5591         0.5966         0.6137         0.6369         0.6421       1580.911         0.9715         0.2444        67.2844       78.54915         66.936          0.061         0.3841          0.759         87.005           0.71         0.0501       -30.6875       3.906055           2739      0.9691308              1
      5819.0000         0.5709         0.6069         0.6252         0.6509          0.657       1439.502         1.0557         0.2482        70.7293       83.08877         66.543           0.06         0.4051          0.844         87.005          0.981          0.053       -31.5625         2.6751           2771              1              1
      5819.5000         0.5821         0.6163         0.6352         0.6634         0.6704       1187.536         1.0917         0.2578        69.5763       81.56544         68.397         0.0537          0.418          0.846         60.658          1.046         0.0587        -33.375      0.1316399           2735              1              1
      5820.0000         0.6013         0.6351         0.6548         0.6848         0.6886       1088.698         1.0437         0.2506         69.155       81.00694         68.823         0.0519         0.4113          0.815         60.658          0.818         0.0567       -32.9375      0.7381851           2751              1              1
      5820.5000         0.6217          0.654         0.6736         0.7065         0.7194       1191.937         1.4764         0.2467        66.2897       77.22572         72.882         0.0476         0.4184          0.755         60.658          0.681         0.0573        -33.625     -0.2302696           2773      0.9409729      0.9967104
      5821.0000         0.6165         0.6478         0.6627         0.6933         0.7159       1437.936         0.9956         0.2524        63.7431       73.86475         83.882         0.0404         0.4298          0.733         60.658           0.66         0.0598       -33.8125     -0.4987297           2782      0.8694627      0.9928753
      5821.5000           0.62         0.6455         0.6559         0.6854         0.7097       1532.784         1.3202          0.268        63.7224        73.8345         83.127         0.0289         0.3938           0.71           45.5          0.652         0.0675       -34.0625     -0.8546845           2774      0.8688192      0.9877902
      5822.0000         0.6172         0.6356         0.6425         0.6686         0.6948       1531.996         1.1158         0.2676        66.0913       76.95527         80.332         0.0226         0.3631          0.691           45.5          0.666         0.0659       -35.3125      -2.610639           2776      0.9352185      0.9627051
      5822.5000         0.5984         0.6069         0.6072         0.6293         0.6606        1535.57         1.4764          0.262        64.0045       74.20059         77.117         0.0177         0.3871          0.613           45.5          0.617         0.0598         -36.75      -4.629099           2758      0.8766083        0.93387
      5823.0000         0.6062         0.6062         0.6045         0.6203         0.6434       1698.666         0.9835         0.2538        63.9796       74.16483         75.193          0.019         0.3871          0.568           45.5          0.458         0.0544        -37.375      -5.510054           2856      0.8758473      0.9212849
      5823.5000         0.6576         0.6478         0.6357         0.6503         0.6701       2146.703         0.7792         0.2474        62.0841       71.66239         74.392         0.0247         0.4145          0.477         54.811          0.429         0.0536        -38.875      -7.616009           2882      0.8226041      0.8911999
      5824.0000         0.7165         0.7116         0.6894          0.694         0.7013       2412.071         0.2742         0.2367        64.2587       74.52697         75.237         0.0303         0.3773          0.487         54.811           0.41         0.0511         -40.75      -10.24697           2791      0.8835526      0.8536147
      5824.5000         0.7514         0.7479         0.7191         0.7168         0.7124       2190.994         0.2261         0.2244        59.8815       68.75209         74.244         0.0281         0.3809          0.522         54.811          0.558         0.0463       -42.3125      -12.44042           2789      0.7606828      0.8222796
      5825.0000         0.7864         0.7632         0.7339         0.7192         0.7008       1894.041         0.4666         0.2304        59.6709       68.47145          68.65         0.0115         0.3711           0.52         54.811          0.516         0.0481       -45.3125      -16.64638           2801      0.7547117      0.7621945
      5825.5000         0.8004         0.7772         0.7449         0.7165         0.6842       2032.316         1.1038         0.2278        56.0408       63.68171         64.468        -0.0049         0.4066          0.465          57.03          0.471         0.0459        -50.875      -24.43984           2786      0.6528022      0.6508595
      5826.0000         0.7911         0.7533         0.7124         0.6819         0.6523        2289.73         0.6109         0.2033        52.4604       58.95753         61.592        -0.0099         0.3819           0.41          57.03          0.351         0.0342        -50.875      -24.44579           2812      0.5522878      0.6507744
      5826.5000         0.7115         0.6899         0.6583         0.6346         0.6092       2846.483         0.1059          0.182        48.8264       54.16267         64.569        -0.0065         0.3585          0.425          57.03          0.434         0.0252       -52.3125      -26.46425           2796      0.4502695      0.6219392
      5827.0000         0.6548         0.6327         0.6097         0.5898          0.564       2265.013        -0.0504         0.1912        53.2306       59.96725         67.622         -0.002         0.3317          0.441          57.03          0.429         0.0259       -54.5625      -29.62021           2808      0.5737714      0.5768542
      5827.5000         0.6298         0.6084         0.5923         0.5761         0.5519       2390.176        -0.0864         0.2213        56.3897       64.13001         71.749        -0.0023          0.334          0.466         60.714          0.441         0.0348       -53.3125      -27.87616           2852      0.6623407      0.6017691
