#------------------------------------------------------------------------------
# Created by    : vladimir.rabinovich
# Created on    : 09/19/2023 17:20:38
#------------------------------------------------------------------------------
~Version Information Section
VERS.           2.0     :   CWLS log ASCII Standard - VERSION 2.0
WRAP.           NO      :   One line per depth step
~Well Information Section
#MNEM       .UNIT                                         VALUE :DESCRIPTION
#------------------------------------------------------------------------------
STRT        .FT                                             495 :START DEPTH
STOP        .FT                                            8683 :STOP DEPTH
STEP        .FT                                             0.5 :STEP      
NULL        .                                           -999.25 :NULL      
COMP        .                                      SHELL OIL CO :COMPANY   
WELL        .                                OCS 00706 ST00BP00 :WELL      
FLD         .                                           WILDCAT :FIELD     
LOC         .                                                   :LOCATION  
CNTY        .                             GALVESTON LARGE BLOCK :LOCATION  
STAT        .                                             TEXAS :STATE     
CTRY        .                                     UNITED STATES :COUNTRY   
SRVC        .                                                   :SERVICE COMPANY
DATE        .                             9/13/2023 11:19:25 AM :LOG DATE  
API         .                                    42706000290000 :API NUMBER
UWI         .                                    42706000290000 :UNIQUE WELL ID
XCOORD      .                                  1097630.70361638 :SURFACE X 
YCOORD      .                                  10500448.3193905 :SURFACE Y 
LAT         .                                          28.92371 :LATITUDE  
LON         .                                        -94.697168 :LONGITUDE 
ELEV        .FT                                              92 :ELEVATION VALUE
ELEV_TYPE   .                                                KB :ELEVATION REFERENCE TYPE
~Curve Information Section
#MNEM       .UNIT                                      API CODE :CURVE DESCRIPTION
#------------------------------------------------------------------------------
DEPT        .FT                                                 :DEPTH     
ASN         .OHMM                                               :          
CILD        .MMHO                                               :          
ILD         .OHMM                                               :          
SP          .MV                                                 :          
SP_NORM     .MV                                                 :SP Normalized
VSH_SP      .V/V                                                :Volume of Shale from SP
~A        DEPTH            ASN           CILD            ILD             SP        SP_NORM         VSH_SP
       495.0000         0.2975        -999.25           1.27       -33.7454       5.278992              1
       495.5000         0.3179        -999.25         1.2805       -33.7975       5.226891              1
       496.0000         0.3386        -999.25         1.2871       -33.8519       5.172493              1
       496.5000         0.3593        -999.25         1.2936       -33.9063       5.118092              1
       497.0000         0.4002        -999.25         1.3002       -33.9607        5.06369              1
       497.5000         0.4412        -999.25         1.3068       -34.0151       5.009293              1
       498.0000         0.7018        -999.25         1.3133       -34.0695       4.954891              1
       498.5000          0.741        -999.25         1.3199       -34.1239        4.90049              1
       499.0000         0.7744       651.0996         1.3281       -34.1783       4.846092              1
       499.5000          0.872        625.167         1.3369       -34.2327       4.791691              1
       500.0000         0.9698       610.3203         1.3457       -34.3301        4.69429              1
       500.5000         1.0676       596.5781         1.3545       -34.4911       4.533291              1
       501.0000         1.1654       587.8252         1.3633        -34.652       4.372391              1
       501.5000         1.2632       579.0723         1.3721       -34.8129       4.211491              1
       502.0000         1.3435       577.1777         1.3821       -34.9738       4.050591              1
       502.5000         1.3623       576.5146          1.394       -35.1348       3.889591              1
       503.0000         1.3811       582.6191         1.4059       -35.2957       3.728691              1
       503.5000         1.3939       592.0205         1.4178       -35.5311        3.49329              1
       504.0000         1.3987       604.1279         1.4298        -35.795       3.229393              1
       504.5000         1.4034       615.4756         1.4417        -36.059       2.965393              1
       505.0000         1.4082       626.2422         1.4536       -36.3229       2.701492              1
       505.5000         1.4129       635.0439         1.4639       -36.5868       2.437592              1
       506.0000         1.4181       641.0342         1.4735       -36.8507       2.173691              1
       506.5000         1.4246       646.6729          1.483       -37.1713       1.853092              1
       507.0000          1.431       647.2354         1.4926       -37.5223        1.50209              1
       507.5000         1.4375       647.7969         1.5022       -37.8734        1.15099              1
       508.0000          1.444       648.3594         1.5118       -38.2245      0.7998924              1
       508.5000         1.4538       646.8193         1.5213       -38.5756      0.4487915              1
       509.0000         1.4741       641.4863         1.5309       -38.9266     0.09778976              1
       509.5000         1.4942       636.1533          1.542       -39.2777     -0.2533073              1
       510.0000          1.513       630.8203         1.5561       -39.6287     -0.6043091              1
       510.5000         1.5318       620.4814         1.5702       -39.9798       -0.95541              1
       511.0000          1.546         617.25         1.5843       -40.3309      -1.306507              1
       511.5000         1.5599       636.8857         1.5984       -40.7386      -1.714211              1
       512.0000         1.5637       654.0283          1.609        -41.264      -2.239609              1
       512.5000          1.564       657.2236         1.6176       -41.7893      -2.764908              1
       513.0000         1.5644        655.665         1.6261       -42.0863      -3.061909      0.9952378
       513.5000         1.5648       646.2471         1.6346       -42.2824      -3.258007      0.9801533
       514.0000         1.5651       636.8281          1.639       -42.4786      -3.454208      0.9650609
       514.5000         1.5693       624.9316         1.6403       -42.6565      -3.632111      0.9513761
       515.0000         1.5771       610.1357         1.6408       -42.4846      -3.460209      0.9645993
       515.5000         1.5862       595.3398         1.6371       -42.3128       -3.28841      0.9778146
       516.0000         1.5961        587.373         1.6334        -42.141      -3.116608      0.9910302
       516.5000         1.6061       579.8545         1.6244       -41.9495       -2.92511              1
       517.0000         1.6145       581.0439         1.5836       -41.6808       -2.65641              1
       517.5000         1.6095       598.7979         1.5408       -41.4122       -2.38781              1
       518.0000         1.5965       629.7871         1.4904       -41.1436      -2.119209              1
       518.5000         1.5836       661.2734         1.4401       -41.0728      -2.048409              1
       519.0000         1.5706       694.2002         1.4086       -41.1583      -2.133907              1
       519.5000         1.5492       717.9687         1.3835       -41.2438       -2.21941              1
       520.0000         1.5178       737.3496         1.3584       -41.3292       -2.30481              1
       520.5000         1.4686       755.9258         1.3422        -41.465      -2.440609              1
       521.0000         1.4425       772.7588         1.3315       -41.7138      -2.689407              1
       521.5000         1.4356       787.6816         1.3208       -41.9627      -2.938309              1
       522.0000         1.4334       799.0977           1.31       -42.2116       -3.18721      0.9855992
       522.5000         1.4311       809.1182         1.3002       -42.4605      -3.436108      0.9664533
       523.0000          1.429       813.4316         1.2931       -42.7094      -3.685009       0.947307
       523.5000         1.4275       815.3867         1.2859       -42.8539       -3.82951      0.9361916
       524.0000          1.426        809.958         1.2788       -42.8636      -3.839211      0.9354454
       524.5000         1.4244       804.5293         1.2716       -42.8734       -3.84901      0.9346915
       525.0000         1.4229       803.6846         1.2716       -42.8831      -3.858707      0.9339456
       525.5000         1.4213       803.3164         1.2753       -42.8928      -3.868408      0.9331993
       526.0000         1.4198        810.541          1.279       -42.8312      -3.806808      0.9379378
       526.5000         1.4177       816.8174         1.2827       -42.7175      -3.693108       0.946684
       527.0000         1.4154       817.6426         1.2864       -42.6038      -3.579411        0.95543
       527.5000          1.413       818.4678         1.2916       -42.4901       -3.46571      0.9641762
       528.0000         1.4106       815.1904         1.3027       -42.3763       -3.35191        0.97293
       528.5000         1.4082       808.4805         1.3139       -42.2896      -3.265209      0.9795993
       529.0000         1.4036       790.0078         1.3251       -42.4179      -3.393509      0.9697301
       529.5000          1.399       771.5332         1.3362       -42.5463      -3.521908      0.9598532
       530.0000          1.394       757.7676         1.3474       -42.6746      -3.650208       0.949984
       530.5000         1.3854       745.3779         1.3543       -42.7925      -3.768108      0.9409148
       531.0000         1.3769       738.1367         1.3606       -42.8985      -3.874107       0.932761
       531.5000         1.3681       737.3564          1.367       -43.0045       -3.98011      0.9246069
       532.0000         1.3528       736.5762         1.3733       -43.1104       -4.08601      0.9164608
       532.5000         1.3374       740.4893         1.3793       -43.2164      -4.192009       0.908307
