#------------------------------------------------------------------------------
# Created by    : vladimir.rabinovich
# Created on    : 09/19/2023 17:19:43
#------------------------------------------------------------------------------
~Version Information Section
VERS.           2.0     :   CWLS log ASCII Standard - VERSION 2.0
WRAP.           NO      :   One line per depth step
~Well Information Section
#MNEM       .UNIT                                         VALUE :DESCRIPTION
#------------------------------------------------------------------------------
STRT        .FT                                            1054 :START DEPTH
STOP        .FT                                           13910 :STOP DEPTH
STEP        .FT                                             0.5 :STEP      
NULL        .                                           -999.25 :NULL      
COMP        .                                            MTS LP :COMPANY   
WELL        .                                ST TR 00061-L SW/4 :WELL      
FLD         .                                           WILDCAT :FIELD     
LOC         .                                                   :LOCATION  
CNTY        .                           HIGH ISLAND LARGE BLOCK :LOCATION  
STAT        .                                             TEXAS :STATE     
CTRY        .                                     UNITED STATES :COUNTRY   
SRVC        .                                                   :SERVICE COMPANY
DATE        .                             9/13/2023 11:19:15 AM :LOG DATE  
API         .                                    42708302730000 :API NUMBER
UWI         .                                    42708302730000 :UNIQUE WELL ID
XCOORD      .                                  1164861.29381137 :SURFACE X 
YCOORD      .                                   10674042.082625 :SURFACE Y 
LAT         .                                        29.4036169 :LATITUDE  
LON         .                                       -94.4939126 :LONGITUDE 
ELEV        .FT                                              78 :ELEVATION VALUE
ELEV_TYPE   .                                                KB :ELEVATION REFERENCE TYPE
~Curve Information Section
#MNEM       .UNIT                                      API CODE :CURVE DESCRIPTION
#------------------------------------------------------------------------------
DEPT        .FT                                                 :DEPTH     
ASFL        .OHMM                                               :          
CILD        .MMHO                                               :          
ILD         .OHMM                                               :          
SP          .MV                                                 :          
SP_NORM     .MV                                                 :SP Normalized
VSH_SP      .V/V                                                :Volume of Shale from SP
~A        DEPTH           ASFL           CILD            ILD             SP        SP_NORM         VSH_SP
# ...
     12150.0000         0.5862       2274.633         0.4355       -40.8246     -0.8246002              1
     12150.5000         0.5928       2264.035         0.4338       -40.8989     -0.8988991              1
     12151.0000         0.5932       2249.715         0.4303       -41.0468      -1.046799      0.9993218
     12151.5000         0.5921        2237.41         0.4232       -41.1947      -1.194698      0.9971783
     12152.0000         0.5856       2225.473         0.4162       -41.3989      -1.398899      0.9942188
     12152.5000         0.5765       2223.715         0.4091       -41.6116      -1.611599      0.9911363
     12153.0000         0.5673       2246.348          0.402       -41.8323      -1.832298      0.9879377
     12153.5000         0.5546       2292.527         0.3946       -42.0695        -2.0695         0.9845
     12154.0000         0.5402       2442.555         0.3869       -42.3061      -2.306099      0.9810711
     12154.5000          0.527       2531.965         0.3792       -42.5005        -2.5005      0.9782536
     12155.0000         0.5172       2596.121         0.3715        -42.632         -2.632      0.9763478
     12155.5000         0.5075       2622.012         0.3637        -42.753      -2.752998      0.9745942
     12156.0000         0.5017       2643.762         0.3567       -42.7296      -2.729599      0.9749333
     12156.5000         0.5011       2651.684         0.3569       -42.7061        -2.7061      0.9752739
     12157.0000          0.501       2643.797         0.3571       -42.6827      -2.682701       0.975613
     12157.5000         0.5054       2631.641         0.3573       -42.6494      -2.649399      0.9760957
     12158.0000         0.5098       2619.457         0.3576       -42.5823      -2.582298      0.9770681
     12158.5000         0.5142       2609.789         0.3578       -42.5153      -2.515301      0.9780391
     12159.0000         0.5181       2603.945         0.3582       -42.4572      -2.457199      0.9788812
     12159.5000         0.5209       2598.109         0.3604       -42.4422        -2.4422      0.9790986
     12160.0000         0.5237       2589.344         0.3626       -42.4271      -2.427101      0.9793174
     12160.5000         0.5266       2580.277         0.3647       -42.4121      -2.412102      0.9795347
     12161.0000         0.5294       2566.645         0.3675       -42.4146        -2.4146      0.9794986
     12161.5000         0.5323       2547.391         0.3769       -42.4189        -2.4189      0.9794362
     12162.0000         0.5329       2525.184         0.3864       -42.4231        -2.4231      0.9793754
     12162.5000         0.5335       2498.508         0.3958       -42.4274      -2.427399      0.9793131
     12163.0000         0.5338       2478.023         0.4046       -42.4316      -2.431599      0.9792522
     12163.5000         0.5334        2459.75         0.4112       -42.4403        -2.4403      0.9791261
     12164.0000         0.5312       2444.055         0.4178       -42.4529        -2.4529      0.9789435
     12164.5000         0.5277       2434.082         0.4244       -42.4655        -2.4655      0.9787609
     12165.0000         0.5263       2424.086         0.4311       -42.4781        -2.4781      0.9785783
     12165.5000         0.5264        2415.91         0.4377       -42.4908      -2.490799      0.9783942
     12166.0000         0.5266       2412.496         0.4435       -42.4911        -2.4911      0.9783899
     12166.5000         0.5273       2409.082         0.4438       -42.4805      -2.480499      0.9785435
     12167.0000          0.528       2408.363          0.444       -42.4699      -2.469898      0.9786971
     12167.5000         0.5287       2411.617         0.4442       -42.4594        -2.4594      0.9788493
     12168.0000         0.5294       2417.305         0.4427       -42.4488      -2.448799      0.9790029
     12168.5000         0.5284       2449.777         0.4364       -42.4273      -2.427299      0.9793145
     12169.0000         0.5257       2482.641         0.4302       -42.3853        -2.3853      0.9799232
     12169.5000          0.523       2516.734         0.4239       -42.3434      -2.343399      0.9805304
     12170.0000         0.5202       2547.684         0.4177       -42.3015      -2.301498      0.9811377
     12170.5000         0.5144       2574.113         0.4142       -42.2557      -2.255699      0.9818015
     12171.0000         0.5081       2599.313         0.4144       -42.2015        -2.2015       0.982587
     12171.5000         0.5126       2612.285         0.4146       -42.1474        -2.1474       0.983371
     12172.0000          0.517       2583.055         0.4149       -42.0933        -2.0933      0.9841551
     12172.5000         0.5215       2548.176         0.4185       -42.0397        -2.0397      0.9849319
     12173.0000         0.5332       2503.273         0.4232       -41.9868      -1.986801      0.9856985
     12173.5000         0.5475       2431.355         0.4279       -41.9341      -1.934101      0.9864623
     12174.0000         0.5638       2339.195         0.4325       -41.8814      -1.881401      0.9872261
     12174.5000         0.5812        2246.84         0.4387       -41.8287      -1.828701      0.9879898
     12175.0000         0.5954        2176.59         0.4474       -41.7758      -1.775799      0.9887565
     12175.5000         0.6057       2147.805         0.4562        -41.723         -1.723      0.9895217
     12176.0000          0.612       2127.023          0.465        -41.691      -1.691002      0.9899855
     12176.5000         0.6053       2119.766         0.4737       -41.6879      -1.687901      0.9900304
     12177.0000         0.5984       2115.527         0.4766       -41.6849      -1.684898      0.9900739
     12177.5000         0.5916       2119.891         0.4776       -41.6819        -1.6819      0.9901174
     12178.0000         0.5847       2125.156         0.4787       -41.6788      -1.678799      0.9901623
     12178.5000         0.5787       2141.613         0.4797       -41.6719      -1.671902      0.9902623
     12179.0000         0.5802       2166.273         0.4807       -41.6596      -1.659599      0.9904406
     12179.5000         0.5817       2191.133         0.4771       -41.6473      -1.647301      0.9906188
     12180.0000          0.584       2217.367         0.4733        -41.635      -1.634998      0.9907971
     12180.5000         0.5864       2223.652         0.4695        -41.613      -1.612999      0.9911159
     12181.0000         0.5887       2213.926         0.4656       -41.5516      -1.551601      0.9920058
     12181.5000         0.5875       2204.199         0.4618         -41.49      -1.490002      0.9928985
     12182.0000         0.5833       2194.473          0.458       -41.4534        -1.4534       0.993429
     12182.5000         0.5792       2193.883         0.4545       -41.4396      -1.439602       0.993629
     12183.0000          0.575       2193.754         0.4528       -41.4258        -1.4258       0.993829
     12183.5000         0.5698       2203.879         0.4511        -41.412      -1.411999       0.994029
     12184.0000          0.564       2219.648         0.4494       -41.3992        -1.3992      0.9942145
     12184.5000         0.5586       2241.289         0.4477       -41.3864      -1.386398         0.9944
     12185.0000         0.5572       2269.488         0.4463       -41.3737      -1.373699      0.9945841
     12185.5000         0.5558       2296.703         0.4449        -41.361         -1.361      0.9947681
     12186.0000         0.5545        2321.02         0.4435        -41.335      -1.334999       0.995145
     12186.5000         0.5534       2335.391         0.4421       -41.3063      -1.306301      0.9955608
     12187.0000         0.5534       2344.207         0.4404       -41.2778      -1.277802      0.9959739
     12187.5000         0.5535       2346.285         0.4381       -41.2479      -1.247898      0.9964073
