#------------------------------------------------------------------------------
# Created by    : vladimir.rabinovich
# Created on    : 09/19/2023 17:19:55
#------------------------------------------------------------------------------
~Version Information Section
VERS.           2.0     :   CWLS log ASCII Standard - VERSION 2.0
WRAP.           NO      :   One line per depth step
~Well Information Section
#MNEM       .UNIT                                         VALUE :DESCRIPTION
#------------------------------------------------------------------------------
STRT        .FT                                            1601 :START DEPTH
STOP        .FT                                            6340 :STOP DEPTH
STEP        .FT                                             0.5 :STEP      
NULL        .                                           -999.25 :NULL      
COMP        .                 FAIRWAYS OFFSHORE EXPLORATION INC :COMPANY   
WELL        .                                ST TR 00629-L SE/4 :WELL      
FLD         .                                       BLOCK 630-L :FIELD     
LOC         .                                                   :LOCATION  
CNTY        .                      MATAGORDA ISLAND LARGE BLOCK :LOCATION  
STAT        .                                             TEXAS :STATE     
CTRY        .                                     UNITED STATES :COUNTRY   
SRVC        .                                                   :SERVICE COMPANY
DATE        .                             9/13/2023 11:19:05 AM :LOG DATE  
API         .                                    42703302840100 :API NUMBER
UWI         .                                    42703302840100 :UNIQUE WELL ID
XCOORD      .                                  449566.970470722 :SURFACE X 
YCOORD      .                                  10204940.3648147 :SURFACE Y 
LAT         .                                        28.0716107 :LATITUDE  
LON         .                                       -96.6925833 :LONGITUDE 
ELEV        .FT                                              82 :ELEVATION VALUE
ELEV_TYPE   .                                                KB :ELEVATION REFERENCE TYPE
~Curve Information Section
#MNEM       .UNIT                                      API CODE :CURVE DESCRIPTION
#------------------------------------------------------------------------------
DEPT        .FT                                                 :DEPTH     
ASFL        .OHMM                                               :          
CILD        .MMHO                                               :          
GR          .GAPI                                               :          
GR_NORM     .GAPI                                               :GammaRay Normalized
ILD         .OHMM                                               :          
SP          .MV                                                 :          
SP_NORM     .MV                                                 :SP Normalized
VSH_GR      .V/V                                                :Volume of Shale from GR
VSH_SP      .V/V                                                :Volume of Shale from SP
~A        DEPTH           ASFL           CILD             GR        GR_NORM            ILD             SP        SP_NORM         VSH_GR         VSH_SP
# ...
      3509.0000         0.8663       1148.492        61.6171       69.84013         0.9588       -44.2496     0.06177902      0.7838326              1
      3509.5000         0.9213       1130.598        59.4857       66.36253         0.9914       -46.0277       -1.71632      0.7098411      0.9859545
      3510.0000         0.9864       1090.016         50.738       52.03091         1.0246       -48.7358      -4.424423      0.4049129      0.9328545
      3510.5000          1.044       977.0742        54.6243        58.4254         1.0578       -52.2897      -7.978321       0.540966      0.8631701
      3511.0000          2.166       907.1943        58.7109       65.14849         1.0799       -59.7933      -15.48192      0.6840104      0.7160407
      3511.5000         2.6714       886.6885        61.3629       69.51811         1.0938       -72.0729      -27.76152      0.7769811      0.4752643
      3512.0000         2.7614       881.0293        61.5844       69.90049         1.0919       -82.0084      -37.69702      0.7851168      0.2804506
      3512.5000         2.8306        884.333          60.83       68.68189         1.0796       -84.7777      -40.46632      0.7591892      0.2261505
      3513.0000         2.9264       890.3623        59.7308       66.89767         1.0673       -87.5494      -43.23802      0.7212271      0.1718035
      3513.5000         2.9685       896.3955        58.5936       65.05109         1.0531       -88.8607      -44.54932       0.681938      0.1460917
      3514.0000         2.9386        909.918        56.7861       62.10489         1.0194       -89.2057      -44.89433       0.619253       0.139327
      3514.5000         2.8687       938.5273        54.6805       58.66966         0.9857       -89.4149      -45.10352       0.546163       0.135225
      3515.0000         2.7547       995.5752        51.9454        54.2017         0.9519       -89.3557      -45.04432         0.4511      0.1363859
      3515.5000         2.6374       1069.723        50.3701       51.63641         0.9182        -89.173      -44.86162      0.3965195      0.1399683
      3516.0000         2.5513       1168.557        49.5645       50.33384         0.8874        -88.571      -44.25962      0.3688051      0.1517721
      3516.5000         2.4345       1224.352          49.39       50.06657           0.86       -87.6068      -43.29542      0.3631185      0.1706781
      3517.0000         2.2774       1258.531        49.7631       50.69765         0.8326       -84.8217      -40.51032      0.3765457      0.2252878
      3517.5000         2.1195       1284.221        50.2064       51.44389         0.8106       -79.6168      -35.30542      0.3924232      0.3273447
      3518.0000         2.0049        1310.34        50.6497       52.19012         0.7957       -76.8867      -32.57533      0.4083004       0.380876
      3518.5000         1.8866       1332.006        51.3533       53.36338         0.7848       -73.2656      -28.95422      0.4332635       0.451878
      3519.0000         1.7684       1349.488        52.0597       54.54124          0.775       -67.4607      -23.14932      0.4583243      0.5656996
      3519.5000         1.6501       1362.008        52.7657       55.71844         0.7666       -58.2584      -13.94702      0.4833711      0.7461368
      3520.0000         1.5319       1361.469        54.7794       59.04092         0.7579       -56.1258      -11.81442      0.5540622      0.7879525
      3520.5000         1.0119       1360.928        57.7173       63.87957          0.745       -55.8698      -11.55842      0.6570121      0.7929721
      3521.0000           0.94       1342.336        53.6221       57.18037         0.7321       -62.4526      -18.14122      0.5144761      0.6638976
      3521.5000         0.9545       1318.057        45.2618       43.48428         0.7132        -70.577      -26.26563      0.2230699      0.5045956
      3522.0000         0.9749       1285.092        42.6429       39.20697         0.6829       -75.9786      -31.66722      0.1320633      0.3986819
      3522.5000         0.9993       1312.537        39.8565       34.65488         0.6425       -82.9153      -38.60392     0.03521023      0.2626682
      3523.0000         1.0356       1428.447        38.4444       32.35733         0.6001       -87.0752      -42.76382              0      0.1811015
      3523.5000         1.0288       1595.197        38.1523       31.89714         0.5641       -91.6984      -47.38702              0     0.09045051
      3524.0000         0.9663       1616.543        39.2723       33.75351         0.5325       -94.5935      -50.28212      0.0160322     0.03368393
      3524.5000         0.9597        1715.77        41.0908       36.75576         0.5098       -93.2468      -48.93542     0.07990988     0.06008971
      3525.0000         0.9468       1827.703        43.5998       40.89079         0.5004       -92.2312      -47.91982       0.167889     0.08000348
      3525.5000         0.9013       1986.455        44.4387       42.28602          0.495       -91.5896      -47.27822      0.1975749      0.0925839
      3526.0000         0.8714       2033.295        44.0669       41.69508         0.4983       -90.9835      -46.67212      0.1850016      0.1044682
      3526.5000          0.905       2054.223        42.7809        39.6044          0.507       -90.8065      -46.49512      0.1405192      0.1079387
      3527.0000         1.0091       2057.762        41.3224       37.23073         0.5157       -90.7883      -46.47692     0.09001558      0.1082957
      3527.5000         1.3579       2034.203         39.876        34.8769         0.5302       -90.6622      -46.35082     0.03993412      0.1107682
      3528.0000         1.4619       1965.844        40.5922       36.07084         0.5512       -90.5132      -46.20182     0.06533708      0.1136898
      3528.5000         1.5326       1857.049        44.8976       43.15287         0.5722        -90.364      -46.05262      0.2160184      0.1166153
      3529.0000         1.5855       1702.961        47.5605       47.54037         0.5994       -90.2148      -45.90342      0.3093695      0.1195408
      3529.5000         1.6308       1552.797        48.4163       48.96332         0.6402       -90.0657      -45.75432      0.3396451      0.1224644
      3530.0000         1.7298        1501.32        45.9694       44.96817         0.6811       -89.9202      -45.60882       0.254642      0.1253173
      3530.5000         2.0878       1449.867        42.6038       39.46589          0.724       -89.7764      -45.46502      0.1375721      0.1281369
      3531.0000         2.1149       1390.611         41.422       37.54616         0.7671       -89.6326      -45.32122     0.09672684      0.1309565
      3531.5000         2.1287        1330.84        43.4666       40.91933         0.7843       -89.4889      -45.17752      0.1684964      0.1337741
      3532.0000         2.1417       1273.475        45.7873       44.74545         0.7992       -89.3834      -45.07202      0.2499032      0.1358427
      3532.5000         2.1529       1221.383        47.2667       47.19142         0.8117       -89.2991      -44.98772      0.3019451      0.1374956
      3533.0000         2.1641       1175.855        47.3632       47.36872         0.8223       -89.2147      -44.90332      0.3057175      0.1391506
      3533.5000         2.1775       1161.742        46.6706       46.25153         0.8329       -89.1304      -44.81902      0.2819474      0.1408035
      3534.0000         2.2054        1151.35         45.978        45.1343         0.8511        -89.046      -44.73462      0.2581767      0.1424585
      3534.5000         2.3127       1140.959          45.45       44.28713         0.8744       -88.9335      -44.62212      0.2401517      0.1446642
      3535.0000          2.483       1127.844        44.9467       43.48048         0.8986        -88.808      -44.49662      0.2229889      0.1471251
