#------------------------------------------------------------------------------
# Created by    : vladimir.rabinovich
# Created on    : 09/19/2023 17:19:44
#------------------------------------------------------------------------------
~Version Information Section
VERS.           2.0     :   CWLS log ASCII Standard - VERSION 2.0
WRAP.           NO      :   One line per depth step
~Well Information Section
#MNEM       .UNIT                                         VALUE :DESCRIPTION
#------------------------------------------------------------------------------
STRT        .FT                                            3520 :START DEPTH
STOP        .FT                                           13769 :STOP DEPTH
STEP        .FT                                             0.5 :STEP      
NULL        .                                           -999.25 :NULL      
COMP        .                           WILLIAMS EXPLORATION CO :COMPANY   
WELL        .                                          SL 73414 :WELL      
FLD         .                                           WILDCAT :FIELD     
LOC         .                                                   :LOCATION  
CNTY        .                           HIGH ISLAND LARGE BLOCK :LOCATION  
STAT        .                                             TEXAS :STATE     
CTRY        .                                     UNITED STATES :COUNTRY   
SRVC        .                                                   :SERVICE COMPANY
DATE        .                             9/13/2023 11:19:15 AM :LOG DATE  
API         .                                    42708301040000 :API NUMBER
UWI         .                                    42708301040000 :UNIQUE WELL ID
XCOORD      .                                  1272749.25589155 :SURFACE X 
YCOORD      .                                  10699068.0748216 :SURFACE Y 
LAT         .                                        29.4758188 :LATITUDE  
LON         .                                       -94.1558378 :LONGITUDE 
ELEV        .FT                                             106 :ELEVATION VALUE
ELEV_TYPE   .                                                KB :ELEVATION REFERENCE TYPE
~Curve Information Section
#MNEM       .UNIT                                      API CODE :CURVE DESCRIPTION
#------------------------------------------------------------------------------
DEPT        .FT                                                 :DEPTH     
ASFL        .OHMM                                               :          
CILD        .MMHO                                               :          
ILD         .OHMM                                               :          
SP          .MV                                                 :          
SP_NORM     .MV                                                 :SP Normalized
VSH_SP      .V/V                                                :Volume of Shale from SP
~A        DEPTH           ASFL           CILD            ILD             SP        SP_NORM         VSH_SP
# ...
     11690.0000         0.5957       1908.723         0.4362       -74.0559      -2.816826      0.9736692
     11690.5000         0.5665       1889.875         0.4306       -73.5679      -2.333359      0.9806759
     11691.0000         0.4931       1817.277         0.4277       -73.0789        -1.8489      0.9876971
     11691.5000         0.5216       1751.359         0.4639       -73.0186      -1.793129      0.9885054
     11692.0000         0.5504       1685.443         0.5002       -73.3832       -2.16227      0.9831555
     11692.5000         0.5791       1619.527         0.5364       -74.2814      -3.065002      0.9700724
     11693.0000         0.6078        1571.66         0.5726       -75.1794      -3.967537      0.9569922
     11693.5000         0.6379       1528.879         0.6088       -76.0795      -4.872169      0.9438816
     11694.0000         0.6687         1486.1         0.6451       -76.9775      -5.774704      0.9308014
     11694.5000         0.6754       1447.406         0.6759       -77.7886       -6.59034      0.9189806
     11695.0000         0.6575       1416.344          0.679       -77.0592      -5.865471      0.9294859
     11695.5000         0.6395       1494.775         0.6247         -76.33      -5.140816      0.9399882
     11696.0000         0.6215       1601.877         0.5703       -75.6007      -4.416046      0.9504921
     11696.5000         0.6035       1698.807         0.5256       -74.8715      -3.691383      0.9609944
     11697.0000         0.5856       1788.158         0.4866        -74.144      -2.968414      0.9714723
     11697.5000         0.5676       1877.309         0.4476       -73.4147      -2.243652       0.981976
     11698.0000         0.5497       1949.908         0.4086       -72.8005      -1.633987      0.9908118
     11698.5000         0.5347       2022.105         0.3697       -72.3422      -1.180222      0.9973881
     11699.0000         0.5196       2080.043         0.3306       -71.8848     -0.7273636              1
     11699.5000         0.5046       2117.641         0.2932       -71.4264     -0.2734909              1
     11700.0000         0.4896       2155.234          0.259        -70.969      0.1793747              1
     11700.5000          0.479       2187.145         0.3172       -70.5106      0.6332397              1
     11701.0000         0.4752       2208.586         0.3216       -70.0532       1.086105              1
     11701.5000         0.4714       2230.027         0.3233       -69.9025       1.232269              1
     11702.0000         0.4675       2227.832          0.325       -70.2068      0.9234314              1
     11702.5000         0.4637       2215.344         0.3267       -70.5111      0.6145935              1
     11703.0000         0.4636       2202.477         0.3284       -70.8154      0.3057632              1
     11703.5000         0.4647       2186.223         0.3301       -70.9894      0.1272278              1
     11704.0000         0.4658       2169.992         0.3319         -70.48      0.6320877              1
     11704.5000         0.4669       2153.738         0.3336       -69.9706       1.136963              1
     11705.0000          0.468       2137.484         0.3353       -70.1377      0.9653168              1
     11705.5000         0.4691       2121.254          0.337       -70.8002      0.2982864              1
     11706.0000         0.4703           2105         0.3387       -71.4635      -0.369545              1
     11706.5000         0.4714        2088.77         0.3409       -71.2278      -0.138382              1
     11707.0000         0.4725       2072.516         0.3439       -70.6526      0.4322815              1
     11707.5000         0.4736       2056.262         0.3469       -70.5709      0.5094452              1
     11708.0000         0.4752       2038.311         0.3499       -70.9031      0.1727142              1
     11708.5000         0.4792       2019.164         0.3529       -71.2352     -0.1639252              1
     11709.0000         0.4833       2000.018          0.356       -70.9819     0.08483887              1
     11709.5000         0.4873       1980.871          0.359       -70.4401      0.6221085              1
     11710.0000         0.4914       1961.674          0.362       -69.5345        1.52317              1
     11710.5000         0.4954       1942.627         0.3647       -69.4237        1.62944              1
     11711.0000         0.4994       1927.869         0.3674        -69.684       1.364601              1
     11711.5000         0.5035       1913.084           0.37       -70.1357       0.908371              1
     11712.0000         0.5073       1921.412         0.3727       -70.5876      0.4519272              1
     11712.5000         0.4978       1934.375         0.3754       -71.0404   -0.005401611              1
     11713.0000         0.4882       1947.365         0.3781       -71.4923     -0.4618378              1
     11713.5000         0.4787       1960.328         0.3799       -71.9441     -0.9181747              1
     11714.0000         0.4733       1973.316         0.3763        -70.531      0.4903946              1
     11714.5000         0.4695       1986.281         0.3728       -69.8481       1.168755              1
     11715.0000         0.4657       1999.244         0.3692       -69.2924       1.719925              1
     11715.5000         0.4619       2012.234         0.3656       -69.1115       1.896286              1
     11716.0000         0.4609       2025.322          0.362       -69.7776       1.225647              1
     11716.5000          0.463       2039.357         0.3591       -70.4438      0.5549164              1
     11717.0000         0.4652       2053.367         0.3615         -71.11     -0.1158218              1
     11717.5000         0.4673       2067.406          0.364       -70.7593      0.2303467              1
     11718.0000         0.4694       2081.414         0.3664       -70.1246      0.8605042              1
     11718.5000         0.4715       2064.738         0.3688        -69.491       1.489578              1
     11719.0000         0.4737       2041.951         0.3711       -68.8563       2.119743              1
     11719.5000         0.4758       2019.164         0.3735       -68.2217       2.749802              1
     11720.0000         0.4779       1996.379         0.3758        -67.587       3.379974              1
     11720.5000         0.4801       1973.592         0.3769       -67.4144       3.548035              1
     11721.0000         0.4836       1951.803          0.375       -67.7048       3.253098              1
     11721.5000         0.4885       1930.113         0.3732       -67.9952       2.958168              1
     11722.0000         0.4933       1908.424         0.3714       -68.2856       2.663231              1
     11722.5000         0.4982       1919.094         0.3789       -68.0653       2.878998              1
     11723.0000          0.503       1939.785         0.3905       -67.7643       3.175461              1
     11723.5000         0.5079       1967.857         0.4022       -67.1185       3.816727              1
     11724.0000         0.5127        1995.93         0.4139       -66.4208       4.509888              1
     11724.5000         0.5093       2023.951         0.4034        -65.723       5.203156              1
     11725.0000            0.5       2052.023         0.3715       -65.7972        5.12442              1
     11725.5000         0.4864       2075.355         0.3396       -66.0079       4.909187              1
     11726.0000         0.4713       2020.211         0.3403        -66.219        4.69355              1
     11726.5000         0.4572       1962.074         0.3808       -66.4296       4.478409              1
     11727.0000         0.4768       1903.936         0.4213       -66.6398        4.26368              1
     11727.5000         0.4964       1827.848         0.4618       -66.8467       4.052238              1
