#------------------------------------------------------------------------------
# Created by    : vladimir.rabinovich
# Created on    : 09/19/2023 17:21:51
#------------------------------------------------------------------------------
~Version Information Section
VERS.           2.0     :   CWLS log ASCII Standard - VERSION 2.0
WRAP.           NO      :   One line per depth step
~Well Information Section
#MNEM       .UNIT                                         VALUE :DESCRIPTION
#------------------------------------------------------------------------------
STRT        .FT                                             692 :START DEPTH
STOP        .FT                                            6716 :STOP DEPTH
STEP        .FT                                             0.5 :STEP      
NULL        .                                           -999.25 :NULL      
COMP        .                                  FMP OPERATING CO :COMPANY   
WELL        .                                          SL 89457 :WELL      
FLD         .                                           WILDCAT :FIELD     
LOC         .                                                   :LOCATION  
CNTY        .                      MATAGORDA ISLAND LARGE BLOCK :LOCATION  
STAT        .                                             TEXAS :STATE     
CTRY        .                                     UNITED STATES :COUNTRY   
SRVC        .                                                   :SERVICE COMPANY
DATE        .                             9/13/2023 11:12:01 AM :LOG DATE  
API         .                                    42703303600000 :API NUMBER
UWI         .                                    42703303600000 :UNIQUE WELL ID
XCOORD      .                                  499223.886875127 :SURFACE X 
YCOORD      .                                  10221285.9321665 :SURFACE Y 
LAT         .                                        28.1205561 :LATITUDE  
LON         .                                       -96.5403272 :LONGITUDE 
ELEV        .FT                                              81 :ELEVATION VALUE
ELEV_TYPE   .                                                KB :ELEVATION REFERENCE TYPE
~Curve Information Section
#MNEM       .UNIT                                      API CODE :CURVE DESCRIPTION
#------------------------------------------------------------------------------
DEPT        .FT                                                 :DEPTH     
CALI        .IN                                                 :          
CILD        .MMHO                                               :          
DT          .US/F                                               :          
DTL         .US/F                                               :          
GR          .GAPI                                               :          
GR_NORM     .GAPI                                               :GammaRay Normalized
ILD         .OHMM                                               :          
ILM         .OHMM                                               :          
SFLU        .OHMM                                               :          
SP          .MV                                                 :          
SP_NORM     .MV                                                 :SP Normalized
TENS        .LBS                                                :          
VSH_GR      .V/V                                                :Volume of Shale from GR
VSH_SP      .V/V                                                :Volume of Shale from SP
~A        DEPTH           CALI           CILD             DT            DTL             GR        GR_NORM            ILD            ILM           SFLU             SP        SP_NORM           TENS         VSH_GR         VSH_SP
# ...
      6308.0000        -999.25       589.8529        93.2043        94.3983        77.0894       77.82452          1.675         1.6116         1.2608        -53.947       -28.5243       3141.379      0.9537133      0.4995415
      6308.5000        -999.25       581.5746        88.4233        88.3317         69.995       68.73786         1.6754         1.6388         1.3447       -55.2318       -29.8155       3140.213        0.76038      0.4751793
      6309.0000        -999.25        573.535        84.0404        83.9705        60.5119       56.59171         1.7707         1.6663          1.795       -56.7153       -31.3053       3139.048      0.5019512      0.4470698
      6309.5000        -999.25        573.336        81.6474        81.4484        57.9324       53.28783         1.7547         1.6837         2.4295       -58.0965       -32.6928       3137.883       0.431656      0.4208906
      6310.0000        -999.25        581.097        81.0454        81.0454        57.6394       52.91255         1.6997         1.6311         2.9323       -58.4905       -33.0931       3136.718      0.4236712      0.4133377
      6310.5000        -999.25       588.8579        87.0325        86.9477        62.2171       58.77576         1.6389         1.5655         2.5443       -58.4835       -33.0924       3135.552      0.5484204      0.4133509
      6311.0000        -999.25       620.4988        93.0195         92.905        65.1303       62.50705         1.6095         1.4533         2.0516       -57.3277        -31.943       3134.387      0.6278096      0.4350377
      6311.5000        -999.25       644.1797        99.0065        98.8622        70.4329       69.29874         1.5734         1.3655         1.6544       -56.0711       -30.6927       3133.222      0.7723135      0.4586283
      6312.0000        -999.25       707.6603       105.7024       105.5248        77.9314       78.90298         1.4426         1.2864          1.334       -54.8145       -29.4424       3132.056      0.9766591      0.4822189
      6312.5000        -999.25       731.3412       108.4834        108.292         80.024       81.58323         1.3657         1.2179         1.0566       -53.3879       -28.0221       3130.891              1       0.509017
      6313.0000        -999.25       726.9632       109.8724       109.6741        79.7317       81.20884         1.3536         1.2471         0.9687       -53.0844       -27.7249       3129.726              1      0.5146245
      6313.5000        -999.25       722.9833       105.8865        105.708        77.9494       78.92603         1.3536         1.2932         0.9298       -53.7729       -28.4198        3128.56      0.9771497      0.5015132
      6314.0000        -999.25       706.8644        98.3186        98.1777        74.9752       75.11662         1.4047          1.354         1.0381       -55.0574       -29.7106       3127.395      0.8960984      0.4771585
      6314.5000        -999.25       698.7054        91.9456        91.8364        70.1139       68.89016         1.4641         1.4654         1.1969       -56.4411       -31.1006       3126.229      0.7636204      0.4509321
      6315.0000        -999.25       706.3868        86.7667        86.6832        63.7623       60.75489         1.4102         1.6275         1.4916       -58.2221       -32.8879       3125.064      0.5905297      0.4172094
      6315.5000        -999.25       722.1873        81.7867        81.7281        59.4942       55.28821         1.3582         1.5909         1.8847        -60.301       -34.9731       3123.867      0.4742173      0.3778661
      6316.0000        -999.25       761.7881        79.5927         79.545        54.7362       49.19407         1.3082         1.4854         2.3705       -61.7845        -36.463       3127.672      0.3445548      0.3497547
      6316.5000        -999.25        785.469        84.3638        84.2923        54.5439       48.94777         1.2714         1.2723         2.3511       -65.3531       -40.0379       3131.477      0.3393142      0.2823038
      6317.0000        -999.25       809.1499        89.1357        89.2366        57.2319       52.39061         1.2777         1.0933         1.6139       -66.8321       -41.5232       3135.282      0.4125662      0.2542792
      6317.5000        -999.25       832.8307        91.9158        91.4107         60.317       56.34207         1.2385         1.0257         1.0256        -68.021       -42.7184       3139.087      0.4966398      0.2317283
      6318.0000        -999.25       848.5517        92.5078        91.2087        63.3045       60.16853         1.2006         1.0352         0.9107       -68.6097       -43.3134       3141.329      0.5780539      0.2205019
      6318.5000        -999.25       880.1925        87.2863        87.2003        61.9568       58.44237         1.1638          1.135         0.9801       -69.5956       -44.3057       3140.832      0.5413269      0.2017793
      6319.0000        -999.25       967.5531        82.9449        82.8805        57.4558       52.67739         1.1281         1.0609         1.3091       -70.7801       -45.4965       3140.334      0.4186678      0.1793113
      6319.5000        -999.25       1078.793        81.9459        82.4805        54.7802       49.25042         1.0995          0.903         1.7954       -72.7589       -47.4816       3139.837      0.3457537      0.1418566
      6320.0000        -999.25       1174.114        85.1249        89.0099        53.8929       48.11395         0.9217         0.8907         2.0137       -75.1376       -49.8666       3139.339      0.3215734      0.0968566
      6320.5000        -999.25       1260.711        90.2478        95.6553         53.031       47.01001         0.8316         0.8087         1.3834        -77.012       -51.7473       3147.752      0.2980853     0.06137171
      6321.0000        -999.25       1361.492       100.0581       100.5026        52.3066       46.08218         0.7108         0.7356         0.9498       -77.7158       -52.4575       3157.146      0.2783443     0.04797169
      6321.5000        -999.25       1532.773       102.4503         103.08        50.6193       43.92105         0.6553         0.6692         0.6766       -78.0404       -52.7884       3130.743      0.2323629     0.04172833
      6322.0000        -999.25       1700.086       104.8415       103.6782        49.8258       42.90472         0.6089         0.6087         0.6425       -78.3649       -53.1192         3111.2      0.2107387     0.03548676
      6322.5000        -999.25       1907.188       103.2546       102.6931        49.0323       41.88839         0.5406         0.5537         0.6345       -78.7089       -53.4695       3111.556      0.1891147     0.02887733
      6323.0000        -999.25       2074.482       102.0648       101.9053        48.7353       41.50799         0.4842         0.5455         0.6673       -78.7088       -53.4757       3111.823       0.181021     0.02876037
      6323.5000        -999.25       2138.301        101.671       101.1175        48.2397       40.87321         0.4776         0.5283         0.6954       -78.3115       -53.0848       3112.288      0.1675152     0.03613583
      6324.0000        -999.25       2098.653       101.0783        99.7358        48.5386       41.25605         0.4798         0.5234         0.7246       -78.1128       -52.8924       3112.753      0.1756606     0.03976606
      6324.5000        -999.25       1931.759        98.6949        97.5623        50.3273       43.54705         0.5046         0.5356         0.7414       -78.0135       -52.7994       3113.219      0.2244053     0.04152075
      6325.0000        -999.25       1772.744          94.72        92.4193        52.8116         46.729          0.553         0.5867         0.7414       -77.9141       -52.7063       3113.684      0.2921063     0.04327738
      6325.5000        -999.25       1693.223        89.3525        89.2562        54.0027       48.25459         0.5896         0.6428         0.7629       -78.0134       -52.8119        3114.15      0.3245657     0.04128489
