#------------------------------------------------------------------------------
# Created by    : vladimir.rabinovich
# Created on    : 09/19/2023 17:22:54
#------------------------------------------------------------------------------
~Version Information Section
VERS.           2.0     :   CWLS log ASCII Standard - VERSION 2.0
WRAP.           NO      :   One line per depth step
~Well Information Section
#MNEM       .UNIT                                         VALUE :DESCRIPTION
#------------------------------------------------------------------------------
STRT        .FT                                             410 :START DEPTH
STOP        .FT                                            7624 :STOP DEPTH
STEP        .FT                                             0.5 :STEP      
NULL        .                                           -999.25 :NULL      
COMP        .                                      SHELL OIL CO :COMPANY   
WELL        .                                     ST TR 00249-L :WELL      
FLD         .                                           WILDCAT :FIELD     
LOC         .                                                   :LOCATION  
CNTY        .                             GALVESTON LARGE BLOCK :LOCATION  
STAT        .                                             TEXAS :STATE     
CTRY        .                                     UNITED STATES :COUNTRY   
SRVC        .                                                   :SERVICE COMPANY
DATE        .                             9/13/2023 11:19:42 AM :LOG DATE  
API         .                                    42706000200000 :API NUMBER
UWI         .                                    42706000200000 :UNIQUE WELL ID
XCOORD      .                                  981084.037319939 :SURFACE X 
YCOORD      .                                  10535303.7769946 :SURFACE Y 
LAT         .                                         29.014458 :LATITUDE  
LON         .                                       -95.0633058 :LONGITUDE 
ELEV        .FT                                              11 :ELEVATION VALUE
ELEV_TYPE   .                                                KB :ELEVATION REFERENCE TYPE
~Curve Information Section
#MNEM       .UNIT                                      API CODE :CURVE DESCRIPTION
#------------------------------------------------------------------------------
DEPT        .FT                                                 :DEPTH     
LAT         .OHMM                                               :          
SN          .OHMM                                               :          
SP          .MV                                                 :          
SP_NORM     .MV                                                 :SP Normalized
VSH_SP      .V/V                                                :Volume of Shale from SP
~A        DEPTH            LAT             SN             SP        SP_NORM         VSH_SP
# ...
      7582.0000          0.496         0.5904       -41.3364        2.56604              1
      7582.5000         0.4963         0.5896       -41.6277       2.274738              1
      7583.0000         0.4965         0.5888       -41.7365       2.165939              1
      7583.5000         0.4968          0.588       -41.7771        2.12534              1
      7584.0000          0.497         0.5873       -41.8177        2.08474              1
      7584.5000         0.4965         0.5865       -41.8583        2.04414              1
      7585.0000         0.4939         0.5857       -41.8989        2.00354              1
      7585.5000         0.4914         0.5856       -41.7141       2.188339              1
      7586.0000         0.4888         0.5866       -41.3788        2.52364              1
      7586.5000         0.4862         0.5877       -41.0436       2.858841              1
      7587.0000         0.4837         0.5888       -41.2246       2.677837              1
      7587.5000         0.4811         0.5898       -41.8295       2.072941              1
      7588.0000         0.4786         0.5909       -42.4344        1.46804              1
      7588.5000          0.476         0.5919       -43.0393      0.8631401              1
      7589.0000         0.4734          0.593       -43.6453      0.2571373              1
      7589.5000         0.4717         0.5941       -44.4197     -0.5172615              1
      7590.0000         0.4719         0.5951       -45.5146       -1.61216       0.990435
      7590.5000         0.4722         0.5962       -46.6085      -2.706062      0.9733428
      7591.0000         0.4724         0.5972       -47.7023      -3.799862      0.9562522
      7591.5000         0.4727         0.5983       -47.9884       -4.08596      0.9517819
      7592.0000         0.4729         0.5994       -47.6296      -3.727161      0.9573881
      7592.5000         0.4731         0.6005       -47.2714      -3.368961       0.962985
      7593.0000         0.4734         0.6016         -46.83      -2.927563      0.9698818
      7593.5000         0.4736         0.6027       -46.3553      -2.452862       0.977299
      7594.0000         0.4739         0.6038       -45.8806      -1.978161      0.9847162
      7594.5000         0.4741         0.6049       -45.4655      -1.563061      0.9912022
      7595.0000         0.4742         0.6061       -45.9194       -2.01696        0.98411
      7595.5000         0.4737         0.6072       -46.3728       -2.47036      0.9770256
      7596.0000         0.4732         0.6083       -46.8267      -2.924259      0.9699335
      7596.5000         0.4727         0.6094       -47.2802      -3.377762      0.9628475
      7597.0000         0.4723         0.6124       -47.7341      -3.831661      0.9557553
      7597.5000         0.4718          0.616       -48.0658      -4.163361      0.9505725
      7598.0000         0.4713         0.6196       -48.3387       -4.43626      0.9463084
      7598.5000         0.4708         0.6232       -48.6116       -4.70916      0.9420444
      7599.0000         0.4704         0.6268       -48.8845      -4.982059      0.9377803
      7599.5000         0.4699         0.6304       -49.1572      -5.254761      0.9335194
      7600.0000         0.4702          0.634       -49.4301       -5.52766      0.9292553
      7600.5000         0.4712         0.6376        -49.703       -5.80056      0.9249913
      7601.0000         0.4721         0.6411       -49.7635      -5.861061      0.9240459
      7601.5000         0.4731         0.6439       -49.7756      -5.873161      0.9238569
      7602.0000          0.474         0.6455       -49.7876      -5.885162      0.9236693
      7602.5000          0.475         0.6471       -49.7997      -5.897263      0.9234803
      7603.0000         0.4759         0.6487       -49.8118      -5.909359      0.9232913
      7603.5000         0.4769         0.6504       -49.8238       -5.92136      0.9231037
      7604.0000         0.4778          0.652        -49.674      -5.771561      0.9254444
      7604.5000         0.4788         0.6536       -49.5091      -5.606663      0.9280209
      7605.0000         0.4798         0.6553       -49.3439       -5.44146      0.9306022
      7605.5000         0.4808         0.6569       -49.1695      -5.267059      0.9333272
      7606.0000         0.4819         0.6585       -48.9693       -5.06686      0.9364553
      7606.5000         0.4829         0.6594       -48.7814       -4.87896      0.9393913
      7607.0000         0.4839         0.6603       -48.9313      -5.028862       0.937049
      7607.5000         0.4849         0.6611        -49.081      -5.178562        0.93471
      7608.0000          0.486          0.662       -49.2308      -5.328362      0.9323694
      7608.5000          0.487         0.6629       -49.4599      -5.557461      0.9287897
      7609.0000          0.488         0.6638       -49.7495      -5.847061      0.9242647
      7609.5000          0.489         0.6647       -50.0391      -6.136662      0.9197397
      7610.0000           0.49         0.6655       -50.3287      -6.426262      0.9152147
      7610.5000         0.4911         0.6664       -50.6183      -6.715862      0.9106897
      7611.0000         0.4921         0.6661       -50.5688      -6.666363      0.9114631
      7611.5000         0.4931         0.6649        -50.111      -6.208561      0.9186162
      7612.0000         0.4941         0.6638       -49.6532      -5.750759      0.9257694
      7612.5000         0.4951         0.6626       -49.1954      -5.292961      0.9329225
      7613.0000         0.4962         0.6614       -48.7371       -4.83466      0.9400834
      7613.5000         0.5002         0.6602       -48.2794      -4.376961       0.947235
      7614.0000         0.5068          0.659       -48.1806       -4.27816      0.9487787
      7614.5000         0.5134         0.6579       -48.1689       -4.26646      0.9489616
      7615.0000           0.52         0.6567       -48.1573       -4.25486      0.9491428
      7615.5000         0.5266         0.6555       -48.1456       -4.24316      0.9493256
      7616.0000         0.5331         0.6547        -48.468      -4.565559      0.9442881
      7616.5000         0.5397         0.6548        -48.811      -4.908562      0.9389287
      7617.0000         0.5463         0.6548       -49.1539      -5.251461      0.9335709
      7617.5000         0.5529         0.6548       -49.4968       -5.59436      0.9282131
      7618.0000         0.5569         0.6549       -49.8397       -5.93726      0.9228553
      7618.5000         0.5598         0.6549        -50.025      -6.122562        0.91996
      7619.0000         0.5628          0.655       -49.9868      -6.084362      0.9205568
      7619.5000         0.5658          0.655       -49.9487      -6.046261      0.9211522
      7620.0000         0.5688         0.6551       -49.9105       -6.00806      0.9217491
      7620.5000         0.5717         0.6573       -49.8723       -5.96986      0.9223459
      7621.0000         0.5747         0.6598       -49.8146      -5.912163      0.9232475
      7621.5000         0.5766         0.6624       -49.6226      -5.720161      0.9262475
      7622.0000         0.5776         0.6649       -49.4306       -5.52816      0.9292475
      7622.5000         0.5787         0.6674        -49.239      -5.336559      0.9322413
      7623.0000         0.5797         0.6699       -49.0469      -5.144463      0.9352428
      7623.5000         0.5807         0.6724       -48.8099      -4.907459      0.9389459
      7624.0000         0.5817         0.6749       -48.5217      -4.619263       0.943449
