#------------------------------------------------------------------------------
# Created by    : vladimir.rabinovich
# Created on    : 09/19/2023 17:22:52
#------------------------------------------------------------------------------
~Version Information Section
VERS.           2.0     :   CWLS log ASCII Standard - VERSION 2.0
WRAP.           NO      :   One line per depth step
~Well Information Section
#MNEM       .UNIT                                         VALUE :DESCRIPTION
#------------------------------------------------------------------------------
STRT        .FT                                             873 :START DEPTH
STOP        .FT                                           11612 :STOP DEPTH
STEP        .FT                                             0.5 :STEP      
NULL        .                                           -999.25 :NULL      
COMP        .                                   MARATHON OIL CO :COMPANY   
WELL        .                               OCS G04137 ST00BP04 :WELL      
FLD         .                       MATAGORDA ISLAND BLOCK 0527 :FIELD     
LOC         .                                                   :LOCATION  
CNTY        .                      MATAGORDA ISLAND LARGE BLOCK :LOCATION  
STAT        .                                             TEXAS :STATE     
CTRY        .                                     UNITED STATES :COUNTRY   
SRVC        .                                                   :SERVICE COMPANY
DATE        .                             9/13/2023 11:19:05 AM :LOG DATE  
API         .                                    42703400590000 :API NUMBER
UWI         .                                    42703400590000 :UNIQUE WELL ID
XCOORD      .                                  609906.580547661 :SURFACE X 
YCOORD      .                                  10277311.7025511 :SURFACE Y 
LAT         .                                         28.282909 :LATITUDE  
LON         .                                        -96.202007 :LONGITUDE 
ELEV        .FT                                              95 :ELEVATION VALUE
ELEV_TYPE   .                                                KB :ELEVATION REFERENCE TYPE
~Curve Information Section
#MNEM       .UNIT                                      API CODE :CURVE DESCRIPTION
#------------------------------------------------------------------------------
DEPT        .FT                                                 :DEPTH     
GR          .GAPI                                               :          
GR_NORM     .GAPI                                               :GammaRay Normalized
ILD         .OHMM                                               :          
SP          .MV                                                 :          
SP_NORM     .MV                                                 :SP Normalized
VSH_GR      .V/V                                                :Volume of Shale from GR
VSH_SP      .V/V                                                :Volume of Shale from SP
~A        DEPTH             GR        GR_NORM            ILD             SP        SP_NORM         VSH_GR         VSH_SP
# ...
     11593.0000         41.445       50.75782         0.7303       -40.6443     -0.9668388       0.377826              1
     11593.5000        42.5579       52.33027         0.7371       -40.4304     -0.6101036      0.4112822              1
     11594.0000        42.9584       52.89616          0.739       -40.2919     -0.3287621      0.4233225              1
     11594.5000         43.018       52.98036         0.7452       -40.1534    -0.04742432      0.4251141              1
     11595.0000        41.4896       50.82084         0.7645        -40.108      0.1408119      0.3791669              1
     11595.5000        40.4113       49.29729         0.7843       -40.0753      0.3163528      0.3467509              1
     11596.0000         39.845       48.49715         0.8046       -40.2271      0.3073883      0.3297265              1
     11596.5000        40.4064       49.29036         0.8425       -40.4456      0.2317276      0.3466035              1
     11597.0000        41.3337       50.60057         0.8846       -40.6608      0.1593628      0.3744802              1
     11597.5000        42.8225       52.70413         0.9338       -40.8752     0.08780289      0.4192368              1
     11598.0000        44.2865       54.77266         0.9929       -41.0898     0.01603699      0.4632482              1
     11598.5000        44.7112       55.37273         1.0559       -41.3016    -0.05292511      0.4760155              1
     11599.0000        44.2791       54.76221         1.1332        -41.513     -0.1214867      0.4630257              1
     11599.5000        43.8469       54.15153           1.22       -41.5388   -0.004447937      0.4500326              1
     11600.0000        44.0405       54.42508         1.3009       -41.5237       0.153492      0.4558528              1
     11600.5000        44.7811        55.4715         1.3802       -41.8024     0.01763153       0.478117              1
     11601.0000        45.8841       57.02995         1.4642       -42.1523     -0.1894341      0.5112756              1
     11601.5000        47.1305       58.79102         1.5534       -42.5034     -0.3976936      0.5487452              1
     11602.0000        48.1667        60.2551         1.6478       -42.8564     -0.6078568      0.5798959              1
     11602.5000         48.048       60.08739         1.7425       -43.2101      -0.818718      0.5763276              1
     11603.0000        46.8461       58.38918         1.8302        -43.565      -1.030781      0.5401954        0.99943
     11603.5000        45.6096        56.6421         1.9224       -43.9223      -1.245243      0.5030234      0.9954585
     11604.0000        44.4077       54.94391         2.0078       -44.3026      -1.482708      0.4668918       0.991061
     11604.5000         43.902       54.22939         2.0934       -44.7514       -1.78867      0.4516891       0.985395
     11605.0000        43.0871       53.07799         2.1366       -45.1199      -2.014332      0.4271913      0.9812161
     11605.5000        42.0583       51.62437         2.1248       -45.3223      -2.073895      0.3962632      0.9801131
     11606.0000        40.9801       50.10096         2.0691       -45.2394      -1.848152      0.3638501      0.9842935
     11606.5000        41.6923       51.10724         2.0014       -45.8618      -2.327717      0.3852604      0.9754127
     11607.0000        42.8225       52.70413         1.8932       -46.1193      -2.442379      0.4192368      0.9732893
     11607.5000        43.9477       54.29395         1.7908       -45.9734      -2.153641      0.4530628      0.9786363
     11608.0000        45.0408       55.83844         1.6931        -45.319      -1.356403      0.4859243      0.9933999
     11608.5000        46.0226       57.22565         1.5983       -44.6624     -0.5569649      0.5154393              1
     11609.0000        47.0043       58.61272         1.5089       -44.3205    -0.07222748      0.5449515              1
     11609.5000        47.0341       58.65482         1.4244       -44.2107      0.1006775      0.5458471              1
     11610.0000        45.1941       56.05502         1.3723       -44.2014      0.1099777      0.4905324              1
     11610.5000        43.1761       53.20375         1.3232        -44.192      0.1193771      0.4298671              1
     11611.0000        41.3832       50.67051          1.284       -43.9353      0.3760796      0.3759683              1
     11611.5000        40.2308       49.04226         1.2759       -43.6627      0.6486778      0.3413247              1
     11612.0000        38.5764        46.7047         1.2678       -43.6648      0.6465797      0.2915894              1
