#------------------------------------------------------------------------------
# Created by    : vladimir.rabinovich
# Created on    : 09/19/2023 17:22:34
#------------------------------------------------------------------------------
~Version Information Section
VERS.           2.0     :   CWLS log ASCII Standard - VERSION 2.0
WRAP.           NO      :   One line per depth step
~Well Information Section
#MNEM       .UNIT                                         VALUE :DESCRIPTION
#------------------------------------------------------------------------------
STRT        .FT                                            2432 :START DEPTH
STOP        .FT                                            8088 :STOP DEPTH
STEP        .FT                                             0.5 :STEP      
NULL        .                                           -999.25 :NULL      
COMP        .                                  XTO OFFSHORE INC :COMPANY   
WELL        .                               OCS G23162 ST00BP00 :WELL      
FLD         .                                 BRAZOS BLOCK 0398 :FIELD     
LOC         .                                                   :LOCATION  
CNTY        .                                BRAZOS LARGE BLOCK :LOCATION  
STAT        .                                             TEXAS :STATE     
CTRY        .                                     UNITED STATES :COUNTRY   
SRVC        .                                                   :SERVICE COMPANY
DATE        .                             9/13/2023 11:09:58 AM :LOG DATE  
API         .                                    42704403400000 :API NUMBER
UWI         .                                    42704403400000 :UNIQUE WELL ID
XCOORD      .                                  869002.191083907 :SURFACE X 
YCOORD      .                                  10369331.9113669 :SURFACE Y 
LAT         .                                        28.5523806 :LATITUDE  
LON         .                                       -95.4033279 :LONGITUDE 
ELEV        .FT                                             100 :ELEVATION VALUE
ELEV_TYPE   .                                                KB :ELEVATION REFERENCE TYPE
~Curve Information Section
#MNEM       .UNIT                                      API CODE :CURVE DESCRIPTION
#------------------------------------------------------------------------------
DEPT        .FT                                                 :DEPTH     
CO12        .MMHO                                               :          
DCAL        .IN                                                 :          
DPHI        .FRAC                                               :          
DRHO        .G/CC                                               :          
GR          .GAPI                                               :          
GR_NORM     .GAPI                                               :GammaRay Normalized
HO01        .OHMM                                               :          
HO02        .OHMM                                               :          
HO03        .OHMM                                               :          
HO06        .OHMM                                               :          
HO09        .OHMM                                               :          
HO12        .OHMM                                               :          
NPHI        .FRAC                                               :          
RWA         .OHMM                                               :          
SP          .MV                                                 :          
SP_NORM     .MV                                                 :SP Normalized
TENS        .LB/F                                               :          
VSH_GR      .V/V                                                :Volume of Shale from GR
VSH_SP      .V/V                                                :Volume of Shale from SP
~A        DEPTH           CO12           DCAL           DPHI           DRHO             GR        GR_NORM           HO01           HO02           HO03           HO06           HO09           HO12           NPHI            RWA             SP        SP_NORM           TENS         VSH_GR         VSH_SP
# ...
      8061.5000       1922.414        -999.25        -999.25        -999.25        -999.25        -999.25         0.4428         0.4769          0.502         0.4939           0.53         0.5178        -999.25         0.3753        79.4673      -1.928047       5772.123        -999.25              1
      8062.0000       1969.818        -999.25        -999.25        -999.25        -999.25        -999.25          0.426         0.4675         0.4932         0.4745         0.5148         0.5032        -999.25         0.3691        79.5204      -1.874947        5766.02        -999.25              1
      8062.5000       1992.079        -999.25        -999.25        -999.25        -999.25        -999.25         0.4368         0.4698         0.4906         0.4707          0.514         0.5023        -999.25         0.3648        79.1619      -2.233444       5745.224        -999.25      0.9927049
      8063.0000       1984.568        -999.25        -999.25        -999.25        -999.25        -999.25         0.4487         0.4752         0.4914         0.4733         0.5124         0.5005        -999.25         0.3626        78.7702      -2.625145        5719.68        -999.25      0.9804642
      8063.5000        1994.51        -999.25        -999.25        -999.25        -999.25        -999.25         0.4445         0.4762         0.4925         0.4738         0.5217          0.509        -999.25         0.3607        78.5809      -2.814445       5711.995        -999.25      0.9745486
      8064.0000       2013.185        -999.25        -999.25        -999.25        -999.25        -999.25         0.4408         0.4701         0.4827         0.4696         0.5071         0.4949        -999.25         0.3583        78.4648       -2.93055       5732.339        -999.25      0.9709203
      8064.5000        2039.09        -999.25        -999.25        -999.25        -999.25        -999.25         0.4439         0.4581         0.4708         0.4608         0.4983         0.4868        -999.25         0.3557        78.3552      -3.040146       5768.958        -999.25      0.9674954
      8065.0000       2050.113        -999.25        -999.25        -999.25        -999.25        -999.25         0.4284         0.4511          0.467          0.455         0.5004         0.4896        -999.25         0.3541        77.9635      -3.431847       5796.536        -999.25      0.9552548
      8065.5000       2041.069        -999.25        -999.25        -999.25        -999.25        -999.25         0.4219         0.4498         0.4675         0.4645         0.4967         0.4869        -999.25         0.3542        77.5585      -3.836845        5789.98        -999.25      0.9425986
      8066.0000       2033.283        -999.25        -999.25        -999.25        -999.25        -999.25         0.4274         0.4537          0.473         0.4732         0.5024         0.4933        -999.25         0.3558        77.2896      -4.105751       5759.464        -999.25      0.9341953
      8066.5000       2014.331        -999.25        -999.25        -999.25        -999.25        -999.25         0.4439         0.4543         0.4789         0.4764         0.5035         0.4953        -999.25         0.3581         77.366       -4.02935        5727.14        -999.25      0.9365828
      8067.0000       1999.016        -999.25        -999.25        -999.25        -999.25        -999.25         0.4298         0.4671         0.4895          0.477         0.5086         0.5008        -999.25         0.3603        77.6548      -3.740547       5714.708        -999.25      0.9456079
      8067.5000       1988.642        -999.25        -999.25        -999.25        -999.25        -999.25         0.4265         0.4713         0.4927         0.4781         0.5122         0.5048        -999.25         0.3618        78.0498      -3.345551         5729.4        -999.25      0.9579515
      8068.0000       1983.304        -999.25        -999.25        -999.25        -999.25        -999.25         0.4273         0.4721         0.4935         0.4793         0.5101          0.503        -999.25         0.3626        78.3419      -3.053444       5737.312        -999.25      0.9670799
      8068.5000       1989.794        -999.25        -999.25        -999.25        -999.25        -999.25         0.4298           0.47         0.4914         0.4783         0.5116         0.5048        -999.25         0.3629        78.6805      -2.714851       5724.653        -999.25      0.9776609
      8069.0000       1987.816        -999.25        -999.25        -999.25        -999.25        -999.25         0.4249          0.465         0.4874         0.4754         0.5061         0.4999        -999.25         0.3632         78.893       -2.50235       5684.417        -999.25      0.9843016
      8069.5000       1987.858        -999.25        -999.25        -999.25        -999.25        -999.25         0.4355         0.4646         0.4841          0.474         0.5107         0.5045        -999.25          0.364        78.9428      -2.452545       5684.644        -999.25       0.985858
      8070.0000       1975.378        -999.25        -999.25        -999.25        -999.25        -999.25         0.4545         0.4736         0.4879         0.4767         0.5108         0.5048        -999.25          0.365         78.883      -2.512344       5748.615        -999.25      0.9839892
      8070.5000        1970.91        -999.25        -999.25        -999.25        -999.25        -999.25         0.4552         0.4777         0.4929         0.4806         0.5154         0.5094        -999.25          0.366        78.8166      -2.578751       5855.534        -999.25       0.981914
      8071.0000       1955.226        -999.25        -999.25        -999.25        -999.25        -999.25         0.4519         0.4768         0.4929         0.4791          0.514          0.508        -999.25          0.368        78.7104      -2.684944       5964.261        -999.25      0.9785955
      8071.5000       1948.418        -999.25        -999.25        -999.25        -999.25        -999.25          0.451         0.4764          0.492         0.4805         0.5164         0.5171        -999.25         0.3698        78.7337      -2.661644       6017.382        -999.25      0.9793236
      8072.0000       1939.933        -999.25        -999.25        -999.25        -999.25        -999.25         0.4497         0.4761         0.4925         0.4817         0.5143         0.5147        -999.25         0.3714        78.6639      -2.731445       6015.348        -999.25      0.9771423
      8072.5000       1940.896        -999.25        -999.25        -999.25        -999.25        -999.25          0.448         0.4757          0.493          0.482         0.5128         0.5146        -999.25         0.3725        78.6274      -2.767944       5964.261        -999.25      0.9760017
      8073.0000       1935.283        -999.25        -999.25        -999.25        -999.25        -999.25         0.4479         0.4757         0.4932         0.4819         0.5148         0.5163        -999.25         0.3725        78.4946      -2.900749       5898.935        -999.25      0.9718516
      8073.5000       1939.241        -999.25        -999.25        -999.25        -999.25        -999.25          0.448         0.4757         0.4954         0.4734         0.5182         0.5192        -999.25         0.3725         78.498      -2.897346       5849.431        -999.25      0.9719579
      8074.0000       1930.348        -999.25        -999.25        -999.25        -999.25        -999.25         0.4477         0.4757         0.4958         0.4739         0.5115         0.5115        -999.25         0.3726        78.3851      -3.010246       5813.941        -999.25      0.9684298
      8074.5000       1964.933        -999.25        -999.25        -999.25        -999.25        -999.25         0.4472         0.4755         0.5017         0.5026         0.5251         0.5235        -999.25         0.3738        78.3353      -3.060051       5790.433        -999.25      0.9668734
