#------------------------------------------------------------------------------
# Created by    : vladimir.rabinovich
# Created on    : 09/19/2023 17:20:32
#------------------------------------------------------------------------------
~Version Information Section
VERS.           2.0     :   CWLS log ASCII Standard - VERSION 2.0
WRAP.           NO      :   One line per depth step
~Well Information Section
#MNEM       .UNIT                                         VALUE :DESCRIPTION
#------------------------------------------------------------------------------
STRT        .FT                                             642 :START DEPTH
STOP        .FT                                           11989 :STOP DEPTH
STEP        .FT                                             0.5 :STEP      
NULL        .                                           -999.25 :NULL      
COMP        .                       CORPUS CHRISTI OIL & GAS CO :COMPANY   
WELL        .                               OCS G05177 ST00BP00 :WELL      
FLD         .                              GALVESTON BLOCK 0151 :FIELD     
LOC         .                                                   :LOCATION  
CNTY        .                             GALVESTON LARGE BLOCK :LOCATION  
STAT        .                                             TEXAS :STATE     
CTRY        .                                     UNITED STATES :COUNTRY   
SRVC        .                                                   :SERVICE COMPANY
DATE        .                             9/13/2023 11:19:27 AM :LOG DATE  
API         .                                    42706401010000 :API NUMBER
UWI         .                                    42706401010000 :UNIQUE WELL ID
XCOORD      .                                   1130272.6689428 :SURFACE X 
YCOORD      .                                  10609756.0111422 :SURFACE Y 
LAT         .                                         29.225567 :LATITUDE  
LON         .                                        -94.599775 :LONGITUDE 
ELEV        .FT                                              83 :ELEVATION VALUE
ELEV_TYPE   .                                                KB :ELEVATION REFERENCE TYPE
~Curve Information Section
#MNEM       .UNIT                                      API CODE :CURVE DESCRIPTION
#------------------------------------------------------------------------------
DEPT        .FT                                                 :DEPTH     
ASN         .OHMM                                               :          
CILD        .MMHO                                               :          
DT          .US/F                                               :          
ILD         .OHMM                                               :          
RHOB        .G/CC                                               :          
SP          .MV                                                 :          
SP_NORM     .MV                                                 :SP Normalized
VSH_SP      .V/V                                                :Volume of Shale from SP
~A        DEPTH            ASN           CILD             DT            ILD           RHOB             SP        SP_NORM         VSH_SP
       642.0000         0.9518       265.1538        -999.25         2.2595        -999.25      -127.4091      -8.765038      0.1543703
       642.5000         0.9791       829.4219        -999.25         1.1559        -999.25      -126.5132      -7.869133      0.2663584
       643.0000         1.0048       1178.061        -999.25         1.1146        -999.25      -125.8411      -7.197037      0.3503704
       643.5000         1.0222       1069.703        -999.25         1.1146        -999.25      -124.9645      -6.320435      0.4599457
       644.0000         1.0364       933.8496        -999.25         1.1168        -999.25      -123.7955      -5.151436      0.6060705
       644.5000         1.0494       890.9189        -999.25         1.1214        -999.25      -122.7662      -4.122131      0.7347336
       645.0000         1.0638       875.6201        -999.25          1.146        -999.25      -122.0326      -3.388535      0.8264332
       645.5000         1.0785       867.6914        -999.25         1.2924        -999.25      -123.9634      -5.319336       0.585083
       646.0000         1.0942       852.4209        -999.25         1.5903        -999.25        -124.83      -6.185936       0.476758
       646.5000         1.1089       820.2471        -999.25         1.8382        -999.25      -125.5944      -6.950333      0.3812084
       647.0000         1.1238       757.4297        -999.25         2.0019        -999.25      -126.4791      -7.835037      0.2706203
       647.5000         1.1496       391.4985        -999.25          2.189        -999.25      -127.0791      -8.435036      0.1956205
       648.0000         1.1863       341.8394       190.2439         2.4763        -999.25      -127.8959      -9.251831     0.09352112
       648.5000         1.2542       307.9751        188.704         2.9921        -999.25      -128.8135      -10.16944              0
       649.0000         1.3279       286.6079       187.3174         3.1822        -999.25      -129.9683      -11.32424              0
       649.5000         1.3797       276.0718       186.0854         3.4459        -999.25      -130.0979      -11.45383              0
       650.0000         1.4356        282.605       184.3895         3.5934        -999.25      -129.1272      -10.48313              0
       650.5000         1.4782       289.1372       182.8196         3.7239        -999.25      -128.1079      -9.463829     0.06702137
       651.0000         1.5155       295.6699       180.9549         3.7532        -999.25      -127.0864      -8.442337      0.1947079
       651.5000          1.542       307.8931       178.8389         3.6272        -999.25      -126.0773      -7.433235      0.3208456
       652.0000         1.5568       320.5591       176.9883         3.4238        -999.25      -125.0917      -6.447632       0.444046
       652.5000         1.5707       333.2256       173.7455         2.8931        -999.25      -124.3196      -5.678009      0.5402489
       653.0000         1.5837       345.8906       170.6574         2.7856        -999.25      -123.5522       -4.98333      0.6270838
       653.5000         1.5937       357.7866       166.7959         2.7069        -999.25      -122.3389      -3.842751      0.7696562
       654.0000         1.6017       369.5732       166.1814         2.5811        -999.25      -120.7721      -2.348679      0.9564152
       654.5000         1.5996       381.3618       166.3429         2.4651        -999.25      -120.1661      -1.815399              1
       655.0000         1.5698       393.1504       167.4312         2.4099        -999.25      -119.3541      -1.076126              1
       655.5000         1.5465       400.8667       168.9835         2.5015        -999.25      -118.8062     -0.6009521              1
       656.0000         1.5345       396.4219       170.5358         2.5931        -999.25      -118.1747    -0.04217529              1
       656.5000         1.5229        391.856       170.5438         2.6686        -999.25      -117.4933      0.5664978              1
       657.0000         1.5118       386.5972       169.2815         2.7312        -999.25      -116.4529       1.534172              1
       657.5000         1.5008       381.3394       168.6961         2.6654        -999.25      -115.9884       1.925949              1
       658.0000         1.4918       385.3057       169.4764         2.5717        -999.25      -115.3535       2.488129              1
       658.5000         1.4841       399.5327       171.6474         2.4479        -999.25      -114.8057       2.963203              1
       659.0000         1.4765       413.7578       174.1278         2.3645        -999.25      -114.3672       3.328972              1
       659.5000         1.4694       427.0815       172.4318         2.2929        -999.25      -114.0879       3.535553              1
       660.0000         1.4651       440.1382       169.3437         2.2286        -999.25      -113.7704       3.780327              1
       660.5000         1.4608       453.3716       165.9463          2.168        -999.25      -113.4171       4.060905              1
       661.0000         1.4565       468.9102       165.6411         2.1073        -999.25      -114.1644       3.240883              1
       661.5000         1.4521       484.4497       167.9681          2.052        -999.25       -114.704       2.628555              1
       662.0000         1.4486       499.9897       177.4091         2.0729        -999.25      -115.2734       1.986435              1
       662.5000         1.4464       510.1108       179.4254         2.1088        -999.25      -115.9008       1.286308              1
       663.0000         1.4442       518.6836       179.7402         2.1761        -999.25      -116.3898      0.7245789              1
       663.5000         1.4421       492.7622       179.9004         2.2823        -999.25      -117.2629     -0.2212448              1
       664.0000         1.4549       446.8574       178.0992         2.5349        -999.25      -119.6008      -2.631866      0.9210167
       664.5000         1.4801       412.8369       174.3444         2.6336        -999.25      -119.7563      -2.860092      0.8924885
       665.0000         1.6012       403.1938       171.2563         2.6935        -999.25      -119.0486      -2.225113      0.9718609
       665.5000         1.6266       393.5503       170.7964         2.7543        -999.25      -118.3064      -1.555634              1
       666.0000         1.6491       390.4224       172.1954          2.782        -999.25      -117.2845     -0.6064606              1
       666.5000         1.6672       389.3853       172.9743         2.8098        -999.25      -116.1641      0.4412079              1
       667.0000         1.6864       388.3477       173.1344         2.7939        -999.25      -115.5027       1.029884              1
       667.5000         1.7018       387.3105        173.604         2.7645        -999.25      -115.0933       1.366562              1
       668.0000         1.7107       387.9326       174.0735         2.7266        -999.25      -114.8613       1.525841              1
       668.5000         1.6542       389.9424       174.3884         2.6792        -999.25      -114.5439       1.770515              1
       669.0000         1.6247       391.9517       174.2392         2.6319        -999.25      -114.2235       2.018188              1
       669.5000         1.6048       393.9614       173.3166         2.6005        -999.25      -113.9031       2.265869              1
       670.0000         1.5829       395.9717       172.7034         2.5734        -999.25      -113.9532       2.143044              1
       670.5000         1.5591       398.9365       172.7091         2.5452        -999.25      -114.0699       1.953613              1
       671.0000         1.5192       402.6582       172.7158         2.5148        -999.25      -114.1686       1.782188              1
