#------------------------------------------------------------------------------
# Created by    : vladimir.rabinovich
# Created on    : 09/19/2023 17:20:11
#------------------------------------------------------------------------------
~Version Information Section
VERS.           2.0     :   CWLS log ASCII Standard - VERSION 2.0
WRAP.           NO      :   One line per depth step
~Well Information Section
#MNEM       .UNIT                                         VALUE :DESCRIPTION
#------------------------------------------------------------------------------
STRT        .FT                                             984 :START DEPTH
STOP        .FT                                            6595 :STOP DEPTH
STEP        .FT                                             0.5 :STEP      
NULL        .                                           -999.25 :NULL      
COMP        .                   MCMORAN OFFSHORE EXPLORATION CO :COMPANY   
WELL        .                               OCS G03106 ST00BP00 :WELL      
FLD         .                                           WILDCAT :FIELD     
LOC         .                                                   :LOCATION  
CNTY        .                      MATAGORDA ISLAND LARGE BLOCK :LOCATION  
STAT        .                                             TEXAS :STATE     
CTRY        .                                     UNITED STATES :COUNTRY   
SRVC        .                                                   :SERVICE COMPANY
DATE        .                             9/13/2023 11:12:09 AM :LOG DATE  
API         .                                    42703400570000 :API NUMBER
UWI         .                                    42703400570000 :UNIQUE WELL ID
XCOORD      .                                  467986.403229072 :SURFACE X 
YCOORD      .                                  10153243.7887249 :SURFACE Y 
LAT         .                                         27.931172 :LATITUDE  
LON         .                                        -96.630795 :LONGITUDE 
ELEV        .FT                                              95 :ELEVATION VALUE
ELEV_TYPE   .                                                KB :ELEVATION REFERENCE TYPE
~Curve Information Section
#MNEM       .UNIT                                      API CODE :CURVE DESCRIPTION
#------------------------------------------------------------------------------
DEPT        .FT                                                 :DEPTH     
ASFL        .OHMM                                               :          
CILD        .MMHO                                               :          
DT          .US/F                                               :          
GR          .GAPI                                               :          
GR_NORM     .GAPI                                               :GammaRay Normalized
ILD         .OHMM                                               :          
SFL         .OHMM                                               :          
SP          .MV                                                 :          
SP_NORM     .MV                                                 :SP Normalized
VSH_GR      .V/V                                                :Volume of Shale from GR
VSH_SP      .V/V                                                :Volume of Shale from SP
~A        DEPTH           ASFL           CILD             DT             GR        GR_NORM            ILD            SFL             SP        SP_NORM         VSH_GR         VSH_SP
# ...
      3234.0000         1.0232       1335.904       112.1028        -999.25        -999.25         0.6472         0.6735       -52.5081       -18.3207        -999.25      0.5357364
      3234.5000         0.9925       1406.244       120.5978        -999.25        -999.25          0.598         0.6257       -53.8474       -19.6578        -999.25      0.4952182
      3235.0000         0.9306       1487.684       127.2876        -999.25        -999.25         0.5487          0.674       -54.2021       -20.0103        -999.25      0.4845364
      3235.5000         0.7986       1612.775       125.7345        -999.25        -999.25          0.506         0.7766       -53.9878       -19.7938        -999.25       0.491097
      3236.0000         0.6584       1796.666       116.7524        -999.25        -999.25         0.4656          0.854       -54.5342        -20.338        -999.25      0.4746061
      3236.5000         0.6892       1861.432       111.9646        -999.25        -999.25         0.4259         0.9277       -53.0208       -18.8224        -999.25      0.5205334
      3237.0000         0.7723       1908.588       112.0439        -999.25        -999.25         0.4259         0.9794       -51.8939       -17.6933        -999.25      0.5547485
      3237.5000         0.8577       1942.637       116.4302        -999.25        -999.25         0.4259         0.8733        -50.767       -16.5642        -999.25      0.5889636
      3238.0000         0.9405       1963.674       126.3354        -999.25        -999.25         0.4259         0.7559       -49.5179       -15.3129        -999.25      0.6268818
      3238.5000          1.016       1980.248       135.9958        -999.25        -999.25         0.4283          0.731       -49.6065       -15.3993        -999.25      0.6242636
      3239.0000         1.0486       1968.176       135.0483        -999.25        -999.25         0.4331         0.8231       -51.3549       -17.1455        -999.25      0.5713485
      3239.5000         1.0051       1946.533       126.9799        -999.25        -999.25         0.4379         0.9133       -52.5468       -18.3352        -999.25       0.535297
      3240.0000         0.8969       1924.891       118.4462        -999.25        -999.25         0.4427         0.9898       -52.7602       -18.5464        -999.25       0.528897
      3240.5000         0.7342       1903.262       112.5535        -999.25        -999.25         0.4475         1.0507       -50.4587       -16.2427        -999.25      0.5987061
      3241.0000         0.9704       1881.619        108.822        -999.25        -999.25         0.4524         1.0845       -48.5418       -14.3236        -999.25      0.6568606
      3241.5000         1.0346       1850.197       107.9182        -999.25        -999.25         0.4572         1.0231       -46.8582       -12.6378        -999.25      0.7079455
      3242.0000         1.0832       1818.395       111.5382        -999.25        -999.25          0.462         0.8069       -45.2996        -11.077        -999.25      0.7552424
      3242.5000         1.1226       1769.215       117.3291        -999.25        -999.25         0.4668         0.6529       -44.1739        -9.9491        -999.25      0.7894212
      3243.0000         1.1605       1715.031       120.8534        -999.25        -999.25         0.4752         0.5979       -43.0482        -8.8212        -999.25         0.8236
      3243.5000         1.1502       1684.029       119.8297        -999.25        -999.25         0.4871          0.618       -41.9152         -7.686        -999.25          0.858
      3244.0000         1.0944       1653.803       116.4084        -999.25        -999.25          0.499         0.6974       -40.6704         -6.439        -999.25      0.8957879
      3244.5000         0.9498       1640.818       114.5906        -999.25        -999.25          0.511          0.775        -39.444        -5.2104        -999.25      0.9330182
      3245.0000         0.7455       1628.191       117.6174        -999.25        -999.25         0.5229         0.8359       -38.4135        -4.1777        -999.25      0.9643121
      3245.5000         0.6686       1615.563       122.8318        -999.25        -999.25         0.5366         0.8837       -37.3831        -3.1451        -999.25       0.995603
      3246.0000         0.6595       1602.936       127.6244        -999.25        -999.25         0.5567         0.9079       -36.3581        -2.1179        -999.25              1
      3246.5000         0.7127       1590.307       128.4954        -999.25        -999.25         0.5768          0.913       -36.0612        -1.8188        -999.25              1
      3247.0000         0.7635       1576.682       127.2665        -999.25        -999.25          0.598         0.9055       -35.8195        -1.5749        -999.25              1
      3247.5000         0.8005        1561.84       126.1555        -999.25        -999.25         0.6316          0.899       -35.4962        -1.2494        -999.25              1
      3248.0000         0.8375       1546.998       127.1604        -999.25        -999.25         0.6651         0.8927       -35.1716        -0.9226        -999.25              1
      3248.5000         0.8721       1532.164        129.811        -999.25        -999.25         0.6984         0.8876       -34.8469        -0.5957        -999.25              1
      3249.0000         0.9066        1491.68       131.6379        -999.25        -999.25           0.73         0.8825       -34.5222        -0.2688        -999.25              1
      3249.5000         0.9353       1426.123       132.2124        -999.25        -999.25         0.7616         0.8844       -34.1976          0.058        -999.25              1
      3250.0000         0.9439        1323.08       130.7598        -999.25        -999.25         0.7932         0.8899       -33.0023         1.2555        -999.25              1
      3250.5000         0.9381       1244.404       122.2987        -999.25        -999.25         0.8248         0.9315       -32.8787         1.3813        -999.25              1
      3251.0000         0.9321       1199.221       114.2399        -999.25        -999.25          0.855          1.036       -33.2064         1.0558        -999.25              1
      3251.5000          0.926       1169.662        110.907        -999.25        -999.25         0.8852         1.1646       -33.5339         0.7305        -999.25              1
      3252.0000         0.9398       1140.102       109.5031        -999.25        -999.25         0.9154         1.2911       -33.8257         0.4409        -999.25              1
      3252.5000         1.0053       1110.543       109.7809        -999.25        -999.25         0.9469          1.366       -34.0964         0.1724        -999.25              1
      3253.0000         1.0847       1072.154       110.2195        -999.25        -999.25         0.9896         1.4216       -34.3672        -0.0962        -999.25              1
      3253.5000         1.1375       1024.037       106.9976        -999.25        -999.25         1.0324         1.4622       -34.6378        -0.3646        -999.25              1
      3254.0000         1.1879       967.8291        103.678        -999.25        -999.25         1.0751          1.473       -34.9085        -0.6331        -999.25              1
      3254.5000         1.2455       908.3906       102.2672        -999.25        -999.25         1.1102         1.4538       -35.1829        -0.9053        -999.25              1
      3255.0000         1.4253       865.2539        101.252        -999.25        -999.25         1.1451         1.4422       -35.6041        -1.3243        -999.25              1
      3255.5000         1.4495       822.8828       100.4988        -999.25        -999.25          1.178         1.4418       -36.0251        -1.7431        -999.25              1
      3256.0000         1.4736       791.7939       102.1055        -999.25        -999.25         1.1407         1.3506       -37.7414        -3.4572        -999.25      0.9861454
