#------------------------------------------------------------------------------
# Created by    : vladimir.rabinovich
# Created on    : 09/19/2023 17:22:15
#------------------------------------------------------------------------------
~Version Information Section
VERS.           2.0     :   CWLS log ASCII Standard - VERSION 2.0
WRAP.           NO      :   One line per depth step
~Well Information Section
#MNEM       .UNIT                                         VALUE :DESCRIPTION
#------------------------------------------------------------------------------
STRT        .FT                                             712 :START DEPTH
STOP        .FT                                            8940 :STOP DEPTH
STEP        .FT                                             0.5 :STEP      
NULL        .                                           -999.25 :NULL      
COMP        .                                      SHELL OIL CO :COMPANY   
WELL        .                               OCS G03086 ST00BP00 :WELL      
FLD         .                                           WILDCAT :FIELD     
LOC         .                                                   :LOCATION  
CNTY        .                      MATAGORDA ISLAND LARGE BLOCK :LOCATION  
STAT        .                                             TEXAS :STATE     
CTRY        .                                     UNITED STATES :COUNTRY   
SRVC        .                                                   :SERVICE COMPANY
DATE        .                             9/13/2023 11:19:05 AM :LOG DATE  
API         .                                    42703400050000 :API NUMBER
UWI         .                                    42703400050000 :UNIQUE WELL ID
XCOORD      .                                  597395.628989583 :SURFACE X 
YCOORD      .                                    10217429.66268 :SURFACE Y 
LAT         .                                         28.117488 :LATITUDE  
LON         .                                        -96.235866 :LONGITUDE 
ELEV        .FT                                              93 :ELEVATION VALUE
ELEV_TYPE   .                                                KB :ELEVATION REFERENCE TYPE
~Curve Information Section
#MNEM       .UNIT                                      API CODE :CURVE DESCRIPTION
#------------------------------------------------------------------------------
DEPT        .FT                                                 :DEPTH     
CALI        .IN                                                 :          
DRHO        .G/C3                                               :          
DT          .US/F                                               :          
GR          .GAPI                                               :          
GR_1        .GAPI                                               :          
GR_NORM     .GAPI                                               :GammaRay Normalized
ILD         .OHMM                                               :          
NPHI        .%                                                  :          
RHOB        .G/C3                                               :          
SFL         .OHMM                                               :          
SP          .MV                                                 :          
SP_NORM     .MV                                                 :SP Normalized
VSH_GR      .V/V                                                :Volume of Shale from GR
VSH_SP      .V/V                                                :Volume of Shale from SP
~A        DEPTH           CALI           DRHO             DT             GR           GR_1        GR_NORM            ILD           NPHI           RHOB            SFL             SP        SP_NORM         VSH_GR         VSH_SP
# ...
      3466.0000        14.5337        -0.0075       173.6318        72.7123        58.7935        87.5446          0.691        -999.25          1.983         0.4512       -72.9634      -2.543091              1      0.9660568
      3466.5000        14.3878        -0.0019       169.1875        72.0602         59.941       89.42752         0.6994        -999.25         2.0087          0.452       -72.5676      -2.152412              1      0.9904742
      3467.0000         14.182          0.007       166.0806        71.4053        60.8425       90.90686          0.708        -999.25         2.0232         0.4525        -72.303      -1.892944              1              1
      3467.5000         14.212         0.0051       163.9202        71.1144        60.9668       91.11118         0.7115        -999.25         2.0177         0.4559       -72.3116       -1.90667              1              1
      3468.0000        14.4359         0.0049       162.0005        72.3601        59.2393       88.27744         0.7126        -999.25         2.0282         0.4534       -72.4875        -2.0877              1      0.9945188
      3468.5000        14.1767         0.0087       160.1489        73.1239        57.8221       85.95171         0.7088        -999.25         2.0275         0.4223       -72.9993      -2.604622              1      0.9622111
      3469.0000        14.7435         0.0414       158.1926        71.8007        57.2957       85.08733         0.7038        -999.25         2.0336         0.4192       -73.5955      -3.205948              1      0.9246283
      3469.5000        15.5288         0.0307        156.897        68.7491         56.729       84.15682         0.7031        -999.25         1.9812         0.4577       -73.8022      -3.417778              1      0.9113889
      3470.0000        16.1564         0.0129       155.1001        67.2272        55.8199       82.66462         0.7107        -999.25         1.9772         0.4636        -73.541      -3.161705              1      0.9273934
      3470.5000        15.9423         0.0129       152.1355        65.2838        55.6182       82.33292          0.728        -999.25         2.0134         0.4581       -73.3676      -2.993431              1      0.9379106
      3471.0000        15.8586         0.0148       146.8943        64.1476        55.5079       82.15115         0.7534        -999.25         2.0066         0.4508        -73.376      -3.006958              1      0.9370651
      3471.5000        15.9444         0.0267       146.0295        63.2372        54.9952       81.30926         0.7769        -999.25           2.01          0.461        -73.405      -3.041084              1      0.9349322
      3472.0000        15.3685         0.0134       149.1895        61.9834        53.6511       79.10343         0.7994        -999.25         1.9883         0.4875       -73.4349      -3.076111      0.9809241      0.9327431
      3472.5000        15.3342         0.0071       150.6699        61.8365        51.9693       76.34362         0.8045        -999.25         1.9869         0.5077       -73.6218      -3.268143      0.9222047      0.9207411
      3473.0000        15.4303        -0.0042       150.8999         61.746        50.7834        74.3973         0.8009        -999.25         2.0115         0.5182       -73.9119       -3.56337      0.8807936      0.9022894
      3473.5000        15.1425        -0.0085       148.6348        60.9704        51.8098       76.08031         0.7802        -999.25           2.04         0.5093       -74.1327      -3.789291      0.9166024      0.8881693
      3474.0000        14.7771         -0.002       146.4226        60.2682        52.8461       77.77954         0.7591        -999.25         2.0809         0.4867       -74.2712      -3.932922      0.9527562      0.8791924
      3474.5000        14.3517        -0.0022       146.4656        60.3256        52.3882       77.02754         0.7403        -999.25         2.0837         0.4561       -74.2771      -3.943947      0.9367562      0.8785033
      3475.0000        14.4941         0.0023       149.8306        60.2996        51.7751       76.02093         0.7281        -999.25         2.0156         0.4277       -74.2559      -3.927872      0.9153389       0.879508
      3475.5000        15.0793         0.0273       155.1646        60.4464        51.1569       75.00594         0.7161        -999.25         1.9749         0.4056       -74.1823      -3.859398      0.8937435      0.8837876
      3476.0000        16.2396           0.05         157.79        61.0992        51.0052       74.75628         0.7034        -999.25         1.9118         0.4344       -74.1086      -3.790825      0.8884315      0.8880734
      3476.5000        16.6208         0.0652       156.3083        62.1761        51.2446       75.14819         0.6914        -999.25         1.9099         0.4571       -74.1016      -3.788948      0.8967701      0.8881907
      3477.0000        16.1312         0.0452       152.5432         61.943        51.7034       75.90004         0.6805        -999.25         1.9084         0.4721       -74.1324      -3.824875      0.9127668      0.8859453
      3477.5000         16.577          0.033       148.5088        60.6773        52.5388        77.2697         0.6756        -999.25         1.9627         0.4878       -74.1561      -3.853699      0.9419085      0.8841438
      3478.0000         16.389           0.04       143.0142        59.3382        53.4526       78.76797         0.6957        -999.25         2.0327          0.477       -74.0404      -3.743126      0.9737865      0.8910546
      3478.5000        16.0992          0.026       135.1799        57.8162        51.4586       75.49597         0.7294        -999.25          2.025         0.4721       -73.8741      -3.581955      0.9041696      0.9011278
      3479.0000        15.6512         0.0293         133.02        56.4024        49.3737       72.07487         0.7727        -999.25         1.9992         0.4742       -73.6522      -3.365181      0.8313803      0.9146762
      3479.5000        15.5153         0.0467        132.158        54.8592         47.789       69.47437         0.8085        -999.25         2.0021         0.4794       -73.7963      -3.514412      0.7760503      0.9053493
      3480.0000         16.047         0.0887       131.4568        53.9613        46.3224       67.06757         0.8342        -999.25         2.0042         0.4885        -73.921      -3.644234       0.724842      0.8972354
      3480.5000        16.8507         0.1108       130.2043         53.834        44.8446       64.64243         0.8568        -999.25         2.0029         0.5063       -74.2291      -3.957466      0.6732433      0.8776584
      3481.0000        16.5025         0.0574       125.9401        54.1259        43.3793       62.23779         0.8564        -999.25         1.9494         0.5228       -74.2141      -3.947594      0.6220807      0.8782754
      3481.5000        16.6171         0.0323       122.8784        54.8732        42.5272       60.83908         0.8661        -999.25          1.982         0.5374       -74.1746      -3.913216      0.5923208       0.880424
      3482.0000        16.3726         0.0378       124.3516        55.2469        42.4617       60.73082          0.901        -999.25         2.0144         0.5507       -74.2476      -3.991341      0.5900174      0.8755412
      3482.5000         16.632         0.0475       129.1345         55.522        43.9042       63.09643         0.9427        -999.25         2.0188         0.5634       -74.4891      -4.237968      0.6403495       0.860127
      3483.0000          16.43         0.0164       130.7026        55.4006        46.0052        66.5423         0.9835        -999.25         2.0464         0.5763       -74.6301      -4.384094      0.7136661      0.8509941
      3483.5000        16.0281        -0.0002       127.7288        54.6962        48.4017       70.47292         1.0242        -999.25         2.0725         0.5908       -74.7137      -4.472824      0.7972962      0.8454485
