#------------------------------------------------------------------------------
# Created by    : vladimir.rabinovich
# Created on    : 09/19/2023 17:20:30
#------------------------------------------------------------------------------
~Version Information Section
VERS.           2.0     :   CWLS log ASCII Standard - VERSION 2.0
WRAP.           NO      :   One line per depth step
~Well Information Section
#MNEM       .UNIT                                         VALUE :DESCRIPTION
#------------------------------------------------------------------------------
STRT        .FT                                             609 :START DEPTH
STOP        .FT                                           12866 :STOP DEPTH
STEP        .FT                                             0.5 :STEP      
NULL        .                                           -999.25 :NULL      
COMP        .                                        SUN OIL CO :COMPANY   
WELL        .                               OCS G01769 ST00BP00 :WELL      
FLD         .                                           WILDCAT :FIELD     
LOC         .                                                   :LOCATION  
CNTY        .                             GALVESTON LARGE BLOCK :LOCATION  
STAT        .                                             TEXAS :STATE     
CTRY        .                                     UNITED STATES :COUNTRY   
SRVC        .                                                   :SERVICE COMPANY
DATE        .                             9/13/2023 11:19:24 AM :LOG DATE  
API         .                                    42706001410000 :API NUMBER
UWI         .                                    42706001410000 :UNIQUE WELL ID
XCOORD      .                                  1110717.91749569 :SURFACE X 
YCOORD      .                                  10538856.4752018 :SURFACE Y 
LAT         .                                         29.029845 :LATITUDE  
LON         .                                        -94.657945 :LONGITUDE 
ELEV        .FT                                              65 :ELEVATION VALUE
ELEV_TYPE   .                                                KB :ELEVATION REFERENCE TYPE
~Curve Information Section
#MNEM       .UNIT                                      API CODE :CURVE DESCRIPTION
#------------------------------------------------------------------------------
DEPT        .FT                                                 :DEPTH     
ASN         .OHMM                                               :          
CALI        .IN                                                 :          
CILD        .MMHO                                               :          
DT          .US/F                                               :          
ILD         .OHMM                                               :          
SP          .MV                                                 :          
SP_NORM     .MV                                                 :SP Normalized
VSH_SP      .V/V                                                :Volume of Shale from SP
~A        DEPTH            ASN           CALI           CILD             DT            ILD             SP        SP_NORM         VSH_SP
# ...
      3057.5000         0.7692        15.6167       1615.504       149.9429         0.4905       -80.6296       -2.52977      0.9607751
      3058.0000         0.7633        15.6315       1624.414       149.9424          0.488       -80.9366      -2.834427      0.9529634
      3058.5000         0.7638        15.6439       1627.447       149.9421         0.4922       -81.4944      -3.389877      0.9387211
      3059.0000         0.7649        15.6351       1618.016       153.4236         0.4989       -81.3094       -3.20253      0.9435249
      3059.5000         0.7737        15.6263       1595.998       174.1943         0.5301       -81.1245      -3.015282      0.9483261
      3060.0000         0.7854        15.6176       1570.895       178.1519         0.5634       -81.0596      -2.948036      0.9500504
      3060.5000         0.7976        15.6236         1521.6       156.1841         0.5966       -81.3556      -3.241684      0.9425209
      3061.0000         0.8129        15.6302       1477.045       164.6846         0.6322       -81.7103      -3.594032      0.9334863
      3061.5000         0.8281        15.6368       1440.711       176.3923         0.6678       -82.2394      -4.120796      0.9199796
      3062.0000         0.8433         15.627       1353.625       177.0803         0.6981       -82.7688      -4.647842      0.9064656
      3062.5000         0.8585        15.6161       1301.369       176.7021         0.7027        -83.251      -5.127693      0.8941617
      3063.0000          0.868         15.521         1284.4       176.2722         0.7072       -82.6846      -4.558952      0.9087448
      3063.5000         0.8698         15.162        1252.99       175.9487         0.7117       -82.1836      -4.055603      0.9216512
      3064.0000         0.8716        15.1864       1222.912       175.4849         0.7058       -81.6937      -3.563354      0.9342729
      3064.5000         0.8733        15.5397       1237.512       175.8806         0.6924       -81.2561      -3.123413      0.9455535
      3065.0000         0.8661        15.5437       1271.182        175.374         0.6791       -80.8437      -2.708656      0.9561883
      3065.5000         0.8571        15.4152       1303.049       173.4492         0.6657       -80.4314      -2.294006      0.9668204
      3066.0000         0.8481        15.4157       1339.063       171.9358         0.6532       -80.5383       -2.39856      0.9641395
      3066.5000         0.8377        15.5389       1370.793       171.0908         0.6409       -80.8634      -2.721321      0.9558635
      3067.0000         0.8254        15.6044       1394.934       170.7861         0.6286       -81.1884      -3.043968      0.9475905
      3067.5000         0.8131        15.6153       1414.459       169.0271         0.6163       -81.4915      -3.344719       0.939879
      3068.0000         0.8008        15.6391       1427.684       164.3882          0.604       -81.7454      -3.596275      0.9334288
      3068.5000         0.8022          15.64       1440.902       161.3162         0.5918       -81.4401      -3.288628      0.9413173
      3069.0000         0.8134        15.5534       1447.178       154.6616         0.5795       -81.0765      -2.922676      0.9507006
      3069.5000         0.8246        15.4565       1425.172       151.8545         0.5807       -80.7129      -2.556732      0.9600838
      3070.0000         0.8358        15.3842       1404.932       149.8486         0.5858       -80.4673      -2.308784      0.9664415
      3070.5000          0.847        15.4947       1384.691       144.7417         0.5908       -80.3711      -2.210236      0.9689683
      3071.0000         0.8549        15.5129       1364.463       142.6628         0.6006       -80.5544       -2.39119      0.9643285
      3071.5000         0.8609        15.5446       1348.604       138.8508         0.6136       -80.7379      -2.572342      0.9596835
      3072.0000         0.8669        15.2717       1335.045        136.022         0.6266       -80.8018      -2.633896      0.9581052
      3072.5000         0.8728        15.0442       1321.494        133.188         0.6397       -80.6405      -2.470245      0.9623014
      3073.0000         0.8788        14.8647       1307.941       129.5356         0.6527       -80.4792      -2.306602      0.9664974
      3073.5000         0.8829        14.6888       1291.053       123.8502         0.6581        -80.318      -2.143051       0.970691
      3074.0000         0.8867        14.3681       1272.662       115.7433         0.6636       -80.2518      -2.074501      0.9724487
      3074.5000         0.8904        14.1815       1254.285       111.8978          0.669       -80.6464      -2.466759      0.9623908
      3075.0000          0.895        14.1033       1244.104       115.5614         0.6745       -81.1526      -2.970612      0.9494715
      3075.5000         0.9071        14.1608       1237.041       120.4968         0.6799       -81.7428      -3.558456      0.9343985
      3076.0000         0.9191        14.3383       1229.979       125.7039         0.6823       -82.3333      -4.146614      0.9193176
      3076.5000         0.9307        14.5316       1223.855       142.9717         0.6841       -83.2858      -5.096764      0.8949548
      3077.0000         0.9421        14.7983       1223.451       149.2686         0.6859       -84.9446       -6.75322      0.8524815
      3077.5000         0.9499        15.1902       1223.049       153.4011         0.6876       -86.6417      -8.447968      0.8090265
      3078.0000           0.94        15.3134       1222.645       157.8083         0.6893       -87.7598      -9.563728      0.7804172
      3078.5000         0.9312        15.1132        1225.01       162.3428         0.6873       -87.1801      -8.981674      0.7953417
      3079.0000         0.9229        15.3277       1244.029       166.1694         0.6854       -85.9083      -7.707527      0.8280121
      3079.5000         0.9151        15.6016       1264.838       160.1204         0.6834       -84.6366      -6.433479        0.86068
      3080.0000         0.9072         15.617       1284.195       150.2974         0.6796       -83.7334      -5.527931      0.8838992
      3080.5000         0.9017        15.6103       1300.395       150.1877         0.6698       -83.1068      -4.898979      0.9000262
      3081.0000         0.8963        15.6054         1316.6       150.1313         0.6601       -82.4805       -4.27034      0.9161451
      3081.5000         0.8909        15.6058        1327.42       150.0977         0.6503       -81.9008      -3.688293      0.9310694
      3082.0000         0.8854        15.6113       1332.537       150.1165         0.6444       -81.3641      -3.149239      0.9448913
      3082.5000         0.8805        15.6169       1336.947       150.1665         0.6407       -81.4055      -3.188293      0.9438899
      3083.0000         0.8758         15.615         1340.6       150.2651          0.637       -81.4469      -3.227348      0.9428885
      3083.5000          0.871        15.6092       1344.254       170.9529         0.6333       -81.4882      -3.266296      0.9418898
      3084.0000         0.8663        15.6033       1339.586       175.9021         0.6296       -81.4435      -3.219246      0.9430963
      3084.5000         0.8615        15.5974        1330.91       174.6135         0.6259       -81.1195      -2.892906      0.9514639
      3085.0000         0.8568        15.5942       1324.145        175.179         0.6224       -80.7957      -2.566757      0.9598268
      3085.5000         0.8521        15.5917       1319.379       175.8831         0.6193       -80.4792       -2.24791      0.9680023
      3086.0000         0.8478        15.5892       1325.412       176.5288         0.6161       -80.2802      -2.046562      0.9731651
      3086.5000         0.8436        15.5879       1342.469       174.7112         0.6129       -80.0809      -1.844917      0.9783354
