#------------------------------------------------------------------------------
# Created by    : vladimir.rabinovich
# Created on    : 09/19/2023 17:22:38
#------------------------------------------------------------------------------
~Version Information Section
VERS.           2.0     :   CWLS log ASCII Standard - VERSION 2.0
WRAP.           NO      :   One line per depth step
~Well Information Section
#MNEM       .UNIT                                         VALUE :DESCRIPTION
#------------------------------------------------------------------------------
STRT        .FT                                             597 :START DEPTH
STOP        .FT                                            8696 :STOP DEPTH
STEP        .FT                                             0.5 :STEP      
NULL        .                                           -999.25 :NULL      
COMP        .                MURPHY EXPLORATION & PRODUCTION CO :COMPANY   
WELL        .                               OCS G13308 ST00BP00 :WELL      
FLD         .                                           WILDCAT :FIELD     
LOC         .                                                   :LOCATION  
CNTY        .                             GALVESTON LARGE BLOCK :LOCATION  
STAT        .                                             TEXAS :STATE     
CTRY        .                                     UNITED STATES :COUNTRY   
SRVC        .                                                   :SERVICE COMPANY
DATE        .                             9/13/2023 11:19:54 AM :LOG DATE  
API         .                                    42706403460000 :API NUMBER
UWI         .                                    42706403460000 :UNIQUE WELL ID
XCOORD      .                                  1110706.35492259 :SURFACE X 
YCOORD      .                                  10520329.8149831 :SURFACE Y 
LAT         .                                         28.978895 :LATITUDE  
LON         .                                        -94.657168 :LONGITUDE 
ELEV        .FT                                              71 :ELEVATION VALUE
ELEV_TYPE   .                                                KB :ELEVATION REFERENCE TYPE
~Curve Information Section
#MNEM       .UNIT                                      API CODE :CURVE DESCRIPTION
#------------------------------------------------------------------------------
DEPT        .FT                                                 :DEPTH     
DCAL        .IN                                                 :          
DPHI        .%                                                  :          
DRHO        .G/C3                                               :          
DTLN        .US/F                                               :          
GR          .GAPI                                               :          
GR_1        .GAPI                                               :          
GR_NORM     .GAPI                                               :GammaRay Normalized
ILD         .OHMM                                               :          
ILM         .OHMM                                               :          
NPHI        .%                                                  :          
SFL         .OHMM                                               :          
SP          .MV                                                 :          
VSH_GR      .V/V                                                :Volume of Shale from GR
~A        DEPTH           DCAL           DPHI           DRHO           DTLN             GR           GR_1        GR_NORM            ILD            ILM           NPHI            SFL             SP         VSH_GR
# ...
       711.0000        -999.25        -999.25        -999.25       186.6218        70.0375        -999.25       86.21053         1.0267         1.0072        -999.25         0.9237       -81.4364              1
       711.5000        -999.25        -999.25        -999.25       187.6106        71.8573        -999.25       87.90936         1.0383         0.9745        -999.25         0.9049       -82.8433              1
       712.0000        -999.25        -999.25        -999.25       187.4561        70.6866        -999.25       86.66869         1.0551         0.9263        -999.25         0.8889       -83.4935              1
       712.5000        -999.25        -999.25        -999.25       186.8867        65.8892        -999.25       81.86313         1.0685         0.8975        -999.25         0.8771        -84.083              1
       713.0000        -999.25        -999.25        -999.25       186.3491        62.5331        -999.25       78.47431         1.0671          0.891        -999.25         0.8758       -84.6121      0.9675385
       713.5000        -999.25        -999.25        -999.25       186.1592        62.4289        -999.25       78.28194         1.0524          0.898        -999.25         0.8875       -84.3846      0.9634456
       714.0000        -999.25        -999.25        -999.25        186.021        63.4319        -999.25       79.17789         1.0301          0.911        -999.25         0.8984        -83.203      0.9825084
       714.5000        -999.25        -999.25        -999.25        185.989        63.1829        -999.25       78.84322         1.0007          0.921        -999.25         0.8909        -82.594      0.9753876
       715.0000        -999.25        -999.25        -999.25       186.2734        61.3041        -999.25       76.90649         0.9936         0.9196        -999.25         0.8741       -83.7386      0.9341807
       715.5000        -999.25        -999.25        -999.25       187.0447        60.6023        -999.25       76.12672         0.9993         0.9057        -999.25         0.8555       -85.4922      0.9175897
       716.0000        -999.25        -999.25        -999.25       188.0986        61.3487        -999.25       76.77046         1.0068         0.8954        -999.25         0.8476       -85.5664      0.9312865
       716.5000        -999.25        -999.25        -999.25       188.7141        62.0876        -999.25       77.40681         1.0126         0.8941        -999.25         0.8478       -85.4156      0.9448258
       717.0000        -999.25        -999.25        -999.25       188.8015        61.8975        -999.25       77.13002         1.0167         0.9013        -999.25         0.8523       -85.2419      0.9389366
       717.5000        -999.25        -999.25        -999.25       188.1528        61.6334        -999.25       76.78048         1.0252         0.9127        -999.25         0.8607       -85.2356      0.9314995
       718.0000        -999.25        -999.25        -999.25       186.8967        61.7045        -999.25       76.76042         1.0379         0.9294        -999.25         0.8583       -85.3165      0.9310728
       718.5000        -999.25        -999.25        -999.25       186.7222         62.649        -999.25       77.59888         1.0485         0.9474        -999.25         0.8499       -85.3652      0.9489123
       719.0000        -999.25        -999.25        -999.25       186.2761        64.0951        -999.25       78.93039         1.0577         0.9702        -999.25         0.8558       -85.3046      0.9772424
       719.5000        -999.25        -999.25        -999.25       186.0879        64.6925        -999.25       79.42766          1.069         0.9987        -999.25         0.8845       -85.2941      0.9878225
       720.0000        -999.25        -999.25        -999.25       186.2773        65.2416        -999.25       79.87746         1.0805         1.0236        -999.25         0.9208        -86.932      0.9973928
       720.5000        -999.25        -999.25        -999.25       186.6907        66.8295        -999.25       81.34835          1.089         1.0315        -999.25          0.934       -87.9305              1
       721.0000        -999.25        -999.25        -999.25       187.2861        67.9122        -999.25       82.32265         1.0927         1.0277        -999.25         0.9339       -85.6567              1
       721.5000        -999.25        -999.25        -999.25       187.3345        66.3615        -999.25       80.70845         1.0945         1.0107        -999.25         0.9418       -84.7097              1
       722.0000        -999.25        -999.25        -999.25       186.8081        64.4766        -999.25       78.76573         1.0953         0.9909        -999.25         0.9412       -84.8315       0.973739
       722.5000        -999.25        -999.25        -999.25       186.0488        64.1819        -999.25       78.38612         1.0936         0.9738        -999.25          0.927       -85.1447      0.9656621
       723.0000        -999.25        -999.25        -999.25       185.7163        65.8058        -999.25       79.89241         1.0897         0.9644        -999.25         0.9064       -85.0161      0.9977109
       723.5000        -999.25        -999.25        -999.25       185.3291         66.548        -999.25         80.532         1.0886         0.9674        -999.25         0.8892       -85.0043              1
       724.0000        -999.25        -999.25        -999.25       185.0344        65.9805        -999.25       79.88425         1.0924         0.9778        -999.25         0.8787        -85.238      0.9975372
       724.5000        -999.25        -999.25        -999.25       184.7566         65.802        -999.25       79.61884         1.1004         0.9903        -999.25         0.8711        -85.446      0.9918901
       725.0000        -999.25        -999.25        -999.25       184.3535        67.2928        -999.25       80.99428         1.1211         1.0064        -999.25         0.8719       -85.0431              1
       725.5000        -999.25        -999.25        -999.25       183.2405        69.2468        -999.25       82.82503         1.1524         1.0383        -999.25         0.8755        -84.501              1
       726.0000        -999.25        -999.25        -999.25       179.5259        68.0796        -999.25       81.58778         1.1871         1.0767        -999.25         0.9067       -84.6907              1
       726.5000        -999.25        -999.25        -999.25        178.156        64.2096        -999.25       77.69383          1.223         1.1254        -999.25         1.0227       -85.5009      0.9509326
       727.0000        -999.25        -999.25        -999.25       176.0691        60.2719        -999.25       73.73332         1.2536         1.1819        -999.25         1.1523        -85.587      0.8666664
       727.5000        -999.25        -999.25        -999.25       173.9099        59.2425        -999.25       72.63153          1.283         1.2383        -999.25         1.2356       -85.7692       0.843224
       728.0000        -999.25        -999.25        -999.25       172.4167        60.1603        -999.25       73.44375         1.3014         1.2842        -999.25         1.2289       -86.2778      0.8605053
       728.5000        -999.25        -999.25        -999.25        171.144        63.9142        -999.25        77.0437         1.3073         1.3036        -999.25         1.1788       -86.1464      0.9371001
       729.0000        -999.25        -999.25        -999.25       171.1882        67.1534        -999.25       80.13773         1.3037         1.2851        -999.25         1.1174       -84.7856              1
       729.5000        -999.25        -999.25        -999.25       172.2114        68.6261        -999.25       81.49539         1.2906         1.2525        -999.25         1.0593       -82.2771              1
