#------------------------------------------------------------------------------
# Created by    : vladimir.rabinovich
# Created on    : 09/19/2023 17:20:36
#------------------------------------------------------------------------------
~Version Information Section
VERS.           2.0     :   CWLS log ASCII Standard - VERSION 2.0
WRAP.           NO      :   One line per depth step
~Well Information Section
#MNEM       .UNIT                                         VALUE :DESCRIPTION
#------------------------------------------------------------------------------
STRT        .FT                                             510 :START DEPTH
STOP        .FT                                            7943 :STOP DEPTH
STEP        .FT                                             0.5 :STEP      
NULL        .                                           -999.25 :NULL      
COMP        .                       BLUE DOLPHIN EXPLORATION CO :COMPANY   
WELL        .                                OCS 00709 ST00BP00 :WELL      
FLD         .                                FEDERAL BLOCK 0288 :FIELD     
LOC         .                                                   :LOCATION  
CNTY        .                             GALVESTON LARGE BLOCK :LOCATION  
STAT        .                                             TEXAS :STATE     
CTRY        .                                     UNITED STATES :COUNTRY   
SRVC        .                                                   :SERVICE COMPANY
DATE        .                             9/13/2023 11:19:25 AM :LOG DATE  
API         .                                    42706000400000 :API NUMBER
UWI         .                                    42706000400000 :UNIQUE WELL ID
XCOORD      .                                   1098851.8122004 :SURFACE X 
YCOORD      .                                  10485233.3471489 :SURFACE Y 
LAT         .                                         28.881916 :LATITUDE  
LON         .                                        -94.692672 :LONGITUDE 
ELEV        .FT                                              93 :ELEVATION VALUE
ELEV_TYPE   .                                                KB :ELEVATION REFERENCE TYPE
~Curve Information Section
#MNEM       .UNIT                                      API CODE :CURVE DESCRIPTION
#------------------------------------------------------------------------------
DEPT        .FT                                                 :DEPTH     
ASN         .OHMM                                               :          
GR          .GAPI                                               :          
ILD         .OHMM                                               :          
NEUT        .NAPI                                               :          
SP          .MV                                                 :          
SP_NORM     .MV                                                 :SP Normalized
VSH_SP      .V/V                                                :Volume of Shale from SP
~A        DEPTH            ASN             GR            ILD           NEUT             SP        SP_NORM         VSH_SP
# ...
      4965.5000         0.8418        -999.25         0.6383        -999.25       -76.6104      -25.39088      0.5747112
      4966.0000         0.8633        -999.25         0.6417        -999.25       -74.2532      -23.03368      0.6175694
      4966.5000         0.9023        -999.25         0.6521        -999.25       -72.6357      -21.41618      0.6469785
      4967.0000         0.9231        -999.25          0.663        -999.25       -69.8503      -18.63079       0.697622
      4967.5000         0.9237        -999.25          0.676        -999.25       -68.9103      -17.69079      0.7147129
      4968.0000         0.9163        -999.25         0.6924        -999.25       -71.2209      -20.00139       0.672702
      4968.5000         0.9107        -999.25         0.7189        -999.25       -72.1951      -20.97559      0.6549894
      4969.0000         0.9263        -999.25         0.7455        -999.25       -68.9487      -17.72919      0.7140148
      4969.5000         0.9533        -999.25         0.7727        -999.25       -66.3707      -15.15118      0.7608876
      4970.0000         0.9791        -999.25         0.7999        -999.25       -64.4882      -13.26868      0.7951148
      4970.5000         0.9942        -999.25         0.8157        -999.25       -63.1041      -11.88459      0.8202803
      4971.0000         1.0054        -999.25         0.8286        -999.25       -62.1158      -10.89629      0.8382493
      4971.5000         1.0109        -999.25         0.8257        -999.25       -62.6578      -11.43829      0.8283948
      4972.0000         1.0001        -999.25         0.8185        -999.25       -63.5866      -12.36709      0.8115075
      4972.5000         0.9747        -999.25         0.8093        -999.25       -63.7788      -12.55929       0.808013
      4973.0000         0.9358        -999.25         0.7991        -999.25       -62.5433      -11.32379      0.8304766
      4973.5000         0.9171        -999.25         0.7869        -999.25       -59.8917      -8.672188      0.8786875
      4974.0000         0.9032        -999.25         0.7736        -999.25       -57.2185      -5.998985      0.9272912
      4974.5000         0.8838        -999.25         0.7596        -999.25       -55.8083      -4.588787      0.9529312
      4975.0000         0.8604        -999.25         0.7446        -999.25       -56.0383      -4.818787      0.9487494
      4975.5000         0.8341        -999.25         0.7302        -999.25       -55.2997      -4.080189      0.9621784
      4976.0000         0.8148        -999.25         0.7265        -999.25       -53.2812      -2.061687      0.9988784
      4976.5000         0.8323        -999.25         0.7229        -999.25       -52.4673      -1.247787              1
      4977.0000         0.8546        -999.25         0.7288        -999.25       -52.6747      -1.455189              1
      4977.5000         0.8659        -999.25         0.7346        -999.25       -53.7773      -2.557789      0.9898584
      4978.0000         0.8731        -999.25         0.7456        -999.25       -55.3258      -4.106289      0.9617038
      4978.5000         0.8729        -999.25         0.7596        -999.25       -56.1628      -4.943287      0.9464857
      4979.0000         0.8806        -999.25         0.7729        -999.25       -54.2588      -3.039288      0.9811038
      4979.5000         0.9064        -999.25         0.7847        -999.25       -53.7355      -2.515987      0.9906184
      4980.0000         0.9308        -999.25          0.793        -999.25       -54.9894      -3.769886      0.9678202
      4980.5000         0.9375        -999.25         0.7893        -999.25       -56.9648      -5.745289      0.9319038
      4981.0000         0.9373        -999.25         0.7845        -999.25       -58.8723      -7.652786       0.897222
      4981.5000         0.9234        -999.25         0.7748        -999.25       -59.3774      -8.157887      0.8880385
      4982.0000          0.895        -999.25         0.7664        -999.25       -56.7292      -5.509686      0.9361876
      4982.5000         0.8877        -999.25         0.7608        -999.25       -55.2148      -3.995289      0.9637221
      4983.0000         0.8865        -999.25         0.7553        -999.25       -54.3205      -3.100986      0.9799821
      4983.5000         0.8747        -999.25         0.7498        -999.25       -53.5831      -2.363586      0.9933893
      4984.0000         0.8626        -999.25         0.7444        -999.25       -52.8287      -1.609188              1
      4984.5000         0.8548        -999.25         0.7389        -999.25       -52.5742      -1.354687              1
      4985.0000         0.8537        -999.25         0.7348        -999.25       -52.9714      -1.751888              1
      4985.5000         0.8612        -999.25         0.7347        -999.25       -53.7626      -2.543087      0.9901257
      4986.0000         0.8591        -999.25         0.7371        -999.25       -54.3732      -3.153687      0.9790239
      4986.5000          0.851        -999.25         0.7457        -999.25       -54.5861      -3.366589      0.9751529
      4987.0000          0.848        -999.25         0.7542        -999.25       -54.7281      -3.508587      0.9725711
      4987.5000         0.8498        -999.25          0.762        -999.25       -54.8856      -3.666088      0.9697075
      4988.0000          0.854        -999.25         0.7697        -999.25       -54.9063      -3.686787      0.9693311
      4988.5000         0.8656        -999.25         0.7789        -999.25       -54.9109      -3.691387      0.9692475
      4989.0000         0.8845        -999.25         0.7898        -999.25       -54.7526      -3.533089      0.9721256
      4989.5000         0.9095        -999.25         0.8039        -999.25       -55.0052      -3.785686       0.967533
      4990.0000         0.9371        -999.25         0.8205        -999.25       -55.8321      -4.612587      0.9524984
      4990.5000         0.9706        -999.25         0.8325        -999.25       -56.4033      -5.183788      0.9421129
      4991.0000         0.9918        -999.25         0.8428        -999.25       -56.7173      -5.497787      0.9364039
      4991.5000         1.0004        -999.25         0.8501        -999.25       -56.7609      -5.541386      0.9356112
      4992.0000         0.9833        -999.25         0.8459        -999.25       -56.6091      -5.389587      0.9383711
      4992.5000         0.9456        -999.25         0.8371        -999.25       -55.9601      -4.740585      0.9501712
      4993.0000         0.9076        -999.25         0.8243        -999.25       -54.9882      -3.768688       0.967842
      4993.5000         0.8825        -999.25         0.8135        -999.25       -54.0073      -2.787788      0.9856766
      4994.0000         0.8735        -999.25         0.8077        -999.25       -53.0944      -1.874886              1
      4994.5000         0.8849        -999.25         0.8047        -999.25       -52.6008      -1.381287              1
      4995.0000         0.9154        -999.25         0.8065        -999.25       -52.4764      -1.256886              1
      4995.5000         0.9575        -999.25         0.8065        -999.25       -52.9868      -1.767288              1
      4996.0000         0.9882        -999.25         0.8047        -999.25       -54.1466      -2.927086      0.9831439
      4996.5000         1.0012        -999.25         0.8024        -999.25        -56.804      -5.584488      0.9348275
      4997.0000          1.005        -999.25         0.7994        -999.25       -60.6574      -9.437885      0.8647657
      4997.5000         1.0075        -999.25         0.7965        -999.25        -63.761      -12.54149      0.8083366
      4998.0000         1.0023        -999.25         0.7958        -999.25       -66.0253      -14.80579      0.7671675
      4998.5000         0.9853        -999.25         0.7957        -999.25        -66.962      -15.74249      0.7501366
