#------------------------------------------------------------------------------
# Created by    : vladimir.rabinovich
# Created on    : 09/19/2023 17:20:24
#------------------------------------------------------------------------------
~Version Information Section
VERS.           2.0     :   CWLS log ASCII Standard - VERSION 2.0
WRAP.           NO      :   One line per depth step
~Well Information Section
#MNEM       .UNIT                                         VALUE :DESCRIPTION
#------------------------------------------------------------------------------
STRT        .FT                                            2979 :START DEPTH
STOP        .FT                                           11003 :STOP DEPTH
STEP        .FT                                             0.5 :STEP      
NULL        .                                           -999.25 :NULL      
COMP        .                                        TEXACO USA :COMPANY   
WELL        .                               OCS G01821 ST00BP00 :WELL      
FLD         .                                           WILDCAT :FIELD     
LOC         .                                                   :LOCATION  
CNTY        .                           HIGH ISLAND LARGE BLOCK :LOCATION  
STAT        .                                             TEXAS :STATE     
CTRY        .                                     UNITED STATES :COUNTRY   
SRVC        .                                                   :SERVICE COMPANY
DATE        .                             9/13/2023 11:19:15 AM :LOG DATE  
API         .                                    42708300170000 :API NUMBER
UWI         .                                    42708300170000 :UNIQUE WELL ID
XCOORD      .                                  1345073.13508324 :SURFACE X 
YCOORD      .                                  10640242.4404634 :SURFACE Y 
LAT         .                                         29.315788 :LATITUDE  
LON         .                                        -93.927032 :LONGITUDE 
ELEV        .FT                                              74 :ELEVATION VALUE
ELEV_TYPE   .                                                KB :ELEVATION REFERENCE TYPE
~Curve Information Section
#MNEM       .UNIT                                      API CODE :CURVE DESCRIPTION
#------------------------------------------------------------------------------
DEPT        .FT                                                 :DEPTH     
ASN         .OHMM                                               :          
CILD        .MMHO                                               :          
ILD         .OHMM                                               :          
SP          .MV                                                 :          
SP_NORM     .MV                                                 :SP Normalized
VSH_SP      .V/V                                                :Volume of Shale from SP
~A        DEPTH            ASN           CILD            ILD             SP        SP_NORM         VSH_SP
# ...
      4575.0000         1.0652       914.4248         0.9503       -46.3144      0.2172737              1
      4575.5000         1.0615       904.9121          0.958       -46.2038      0.3215408              1
      4576.0000         1.0564       915.7871         0.9657       -46.0932      0.4258118              1
      4576.5000         1.0512       928.5361         0.9734       -45.9827      0.5299797              1
      4577.0000          1.046       941.2861         0.9811       -45.9733      0.5330505              1
      4577.5000         1.0409       954.0352         0.9888       -46.2391      0.2609177              1
      4578.0000         1.0418       972.1973         0.9965       -46.5051    -0.01141357              1
      4578.5000         1.0499        964.335         1.0027       -46.7709     -0.2835426              1
      4579.0000         1.0561       947.4229         1.0085       -47.0369     -0.5558739              1
      4579.5000         1.0629       930.5234         1.0142       -47.3028     -0.8281021              1
      4580.0000         1.0746       910.2119         1.0199       -47.5688      -1.100437      0.9976643
      4580.5000         1.0863       889.1875         1.0256       -47.8346      -1.372566      0.9913357
      4581.0000          1.098       868.1758         1.0314       -48.1006      -1.644897      0.9850024
      4581.5000         1.1097       844.0146         1.0371       -48.0621      -1.612728      0.9857505
      4582.0000         1.1214       860.4639         1.0428       -47.9567      -1.513657      0.9880545
      4582.5000         1.1335       881.5752         1.0485       -47.7883      -1.351589      0.9918235
      4583.0000         1.1514       900.1621         1.0474       -47.5803      -1.149921      0.9965134
      4583.5000         1.0933       918.7617          1.046       -47.3723     -0.9482498              1
      4584.0000         1.0594       937.3486         1.0446       -47.1642     -0.7464828              1
      4584.5000         1.0471       956.0352         1.0247       -46.9562     -0.5448112              1
      4585.0000         1.0366       975.1846         0.9999       -46.7481     -0.3430443              1
      4585.5000         1.0494        994.334         0.9929         -46.54     -0.1412773              1
      4586.0000         1.0623       972.7852         0.9911        -46.332     0.06039429              1
      4586.5000         1.0752       947.2607         1.0056        -46.124      0.2620621              1
      4587.0000         1.0881       923.8867           1.02       -45.9284      0.4513359              1
      4587.5000         1.1019       900.5371         1.0345       -45.7339      0.6395035              1
      4588.0000         1.1184       877.1631         1.0436       -45.8065      0.5605698              1
      4588.5000         1.1348       857.2891         1.0452       -46.1277      0.2330399              1
      4589.0000         1.1511        840.127         1.0483       -46.4489    -0.09449005              1
      4589.5000         1.1578       834.6836         1.0563       -46.4055    -0.05741882              1
      4590.0000         1.1445       842.6455         1.0644       -46.2561     0.08564758              1
      4590.5000         1.1346       850.6074         1.0724       -46.0802      0.2552147              1
      4591.0000          1.125       860.9766         1.0794       -45.7645      0.5645866              1
      4591.5000         1.1173       871.4951         1.0862       -45.4492      0.8735542              1
      4592.0000         1.1109       882.0127          1.093       -45.1339       1.182526              1
      4592.5000         1.1079       888.6943         1.0997       -44.8185       1.491592              1
      4593.0000         1.1085       885.1563         1.1039       -44.7567       1.547062              1
      4593.5000         1.1114       881.6162         1.0991       -45.3232      0.9742317              1
      4594.0000         1.1164       878.0791         1.0943       -45.8893      0.4017982              1
      4594.5000         1.1214       873.5947         1.0904       -46.4554     -0.1706276              1
      4595.0000         1.1264       866.3701          1.087       -47.0219     -0.7434616              1
      4595.5000         1.1321       859.1387         1.0837        -47.588      -1.315895      0.9926536
      4596.0000         1.1382       850.0762         1.0803       -48.0539      -1.788124      0.9816715
      4596.5000         1.1443       839.8711         1.0731       -48.2816      -2.022156       0.976229
      4597.0000         1.1492       845.6895         1.0653        -48.509      -2.255882      0.9707934
      4597.5000         1.1458        851.877         1.0576       -48.7367      -2.489914      0.9653509
      4598.0000         1.1261       869.3135         1.0498       -48.9644      -2.723949      0.9599081
      4598.5000         1.1062       893.2373         1.0421       -49.1227      -2.888577      0.9560796
      4599.0000         1.0907       922.3369         1.0343       -48.9569      -2.729111      0.9597881
      4599.5000         1.0784       950.3604         1.0284       -48.7912      -2.569736      0.9634945
      4600.0000         1.0661       969.7979         1.0241       -48.6256      -2.410469      0.9671984
      4600.5000         1.0538       989.2217         1.0198       -48.4664      -2.257599      0.9707535
      4601.0000         1.0429       986.3096         1.0155        -48.311      -2.108532      0.9742202
      4601.5000         1.0467       960.0605         1.0111       -48.1555      -1.959362      0.9776893
      4602.0000         1.0606       925.0117         1.0173       -48.0002       -1.81039      0.9811537
      4602.5000         1.0746       898.0371         1.0281       -47.8448      -1.661324      0.9846204
      4603.0000         1.0886       877.9004         1.0389       -47.9432      -1.766052      0.9821848
      4603.5000         1.1026       857.7637         1.0497       -48.0927      -1.921886      0.9785608
      4604.0000         1.1174       839.2148         1.0615       -48.2404      -2.075916      0.9749787
      4604.5000         1.1366       821.8525         1.0737       -48.4686      -2.310448      0.9695244
      4605.0000         1.1557       804.4902         1.0859       -48.8829      -2.731079      0.9597424
      4605.5000         1.1749       789.5791         1.0981       -49.3578      -3.212307       0.948551
      4606.0000          1.194       776.1045         1.1103       -49.8516       -3.71244        0.93692
      4606.5000         1.2194       762.6172         1.1225       -50.3457      -4.212872      0.9252821
      4607.0000         1.2061       751.3047         1.1347       -50.7619      -4.635403      0.9154558
      4607.5000         1.2041       740.7871         1.1469       -51.1437      -5.023533      0.9064295
      4608.0000         1.2115       730.2617         1.1591       -51.3659       -5.25206      0.9011149
      4608.5000          1.219       720.3184         1.1713       -50.8656      -4.758095      0.9126024
      4609.0000         1.2264       712.1377         1.1751       -50.3652      -4.264027      0.9240924
      4609.5000         1.2345       703.9971          1.176       -49.8491      -3.754253      0.9359476
      4610.0000         1.2444       699.0596          1.177       -49.3267      -3.238186      0.9479492
      4610.5000         1.2542        698.376         1.1723       -48.9474      -2.865215      0.9566229
      4611.0000         1.2502        703.832         1.1587       -48.7953      -2.719448      0.9600129
      4611.5000         1.2375        709.291         1.1451       -48.7205      -2.650982      0.9616051
      4612.0000           1.22       722.8057         1.1314       -48.6545      -2.591309      0.9629928
      4612.5000         1.1986       737.2803         1.1178       -48.6774      -2.620541       0.962313
