#------------------------------------------------------------------------------
# Created by    : vladimir.rabinovich
# Created on    : 09/19/2023 17:20:25
#------------------------------------------------------------------------------
~Version Information Section
VERS.           2.0     :   CWLS log ASCII Standard - VERSION 2.0
WRAP.           NO      :   One line per depth step
~Well Information Section
#MNEM       .UNIT                                         VALUE :DESCRIPTION
#------------------------------------------------------------------------------
STRT        .FT                                            2998 :START DEPTH
STOP        .FT                                           12526 :STOP DEPTH
STEP        .FT                                             0.5 :STEP      
NULL        .                                           -999.25 :NULL      
COMP        .                                 CALIFORNIA CO THE :COMPANY   
WELL        .                               OCS G01117 ST00BP00 :WELL      
FLD         .                                       HIGH ISLAND :FIELD     
LOC         .                                                   :LOCATION  
CNTY        .                           HIGH ISLAND LARGE BLOCK :LOCATION  
STAT        .                                             TEXAS :STATE     
CTRY        .                                     UNITED STATES :COUNTRY   
SRVC        .                                                   :SERVICE COMPANY
DATE        .                             9/13/2023 11:19:15 AM :LOG DATE  
API         .                                    42708000660000 :API NUMBER
UWI         .                                    42708000660000 :UNIQUE WELL ID
XCOORD      .                                  1214371.69372255 :SURFACE X 
YCOORD      .                                  10618355.5582238 :SURFACE Y 
LAT         .                                         29.252113 :LATITUDE  
LON         .                                        -94.336419 :LONGITUDE 
ELEV        .FT                                              77 :ELEVATION VALUE
ELEV_TYPE   .                                                KB :ELEVATION REFERENCE TYPE
~Curve Information Section
#MNEM       .UNIT                                      API CODE :CURVE DESCRIPTION
#------------------------------------------------------------------------------
DEPT        .FT                                                 :DEPTH     
ASN         .OHMM                                               :          
CILD        .OHMM                                               :          
ILD         .OHMM                                               :          
SP          .MV                                                 :          
SP_NORM     .MV                                                 :SP Normalized
VSH_SP      .V/V                                                :Volume of Shale from SP
~A        DEPTH            ASN           CILD            ILD             SP        SP_NORM         VSH_SP
# ...
      4898.0000         0.8217        2092.73         0.3873      -119.1234      -64.26358      0.1213392
      4898.5000         0.8426        2117.43         0.3968      -119.2543      -64.39302      0.1195414
      4899.0000           0.87       2087.398         0.4064       -119.385      -64.52225      0.1177466
      4899.5000         0.8974       2047.313         0.4159      -119.5157      -64.65147      0.1159517
      4900.0000         0.9248       2032.922         0.4254       -119.646       -64.7803      0.1141624
      4900.5000         0.9521       2018.531         0.4349       -119.697      -64.82983      0.1134746
      4901.0000         0.9854       2004.156         0.4493      -119.7482      -64.87956      0.1127839
      4901.5000          1.036       1976.344         0.4671      -119.8203      -64.95018      0.1118031
      4902.0000         1.0868       1901.391         0.4849      -120.5411      -65.66951      0.1018124
      4902.5000         1.1352       1854.957         0.5027      -121.2626      -66.38954     0.09181193
      4903.0000          1.153       1808.574         0.5205      -121.9834      -67.10887     0.08182123
      4903.5000         1.1687       1762.189         0.5383      -122.6306       -67.7546     0.07285277
      4904.0000         1.1293       1859.533          0.512      -123.1232      -68.24573     0.06603156
      4904.5000           1.09       1953.859         0.4755      -123.6157      -68.73676     0.05921173
      4905.0000         1.0507       1979.266         0.4434      -124.1083      -69.22788     0.05239052
      4905.5000         1.0114       2004.672         0.4242      -124.6008      -69.71891     0.04557069
      4906.0000          0.972       2030.063         0.4051      -125.0311      -70.14774     0.03961478
      4906.5000         0.9376       2116.504         0.3859      -125.2422      -70.35738     0.03670311
      4907.0000         0.9047        2373.59         0.3668      -125.4532      -70.56689     0.03379313
      4907.5000         0.8718       2526.125         0.3477      -125.5077      -70.61992     0.03305668
      4908.0000          0.841       2611.398         0.3285      -125.1128      -70.22356     0.03856172
      4908.5000         0.8122       2671.605         0.3094      -124.7179      -69.82718     0.04406696
      4909.0000         0.7833       2738.625         0.2944      -123.5033      -68.61111     0.06095674
      4909.5000         0.7379       2688.785         0.3021      -121.2828      -66.38914     0.09181754
      4910.0000         0.6845       2508.699         0.3099      -119.0601      -64.16496      0.1227088
      4910.5000         0.6391       2328.813         0.3176      -116.8396      -61.94299      0.1535695
      4911.0000         0.6054       2149.699         0.3253      -114.6167      -59.71862      0.1844636
      4911.5000         0.5944       2142.105         0.3331      -113.9707      -59.07115      0.1934562
      4912.0000         0.6045       2192.531         0.3408      -114.3022      -59.40118      0.1888725
      4912.5000         0.6147        2207.68         0.3485      -113.8947      -58.99221      0.1945527
      4913.0000         0.6248       2201.168         0.3563       -111.312      -56.40803       0.230444
      4913.5000         0.6271       2171.965          0.364      -108.7269      -53.82146      0.2663686
      4914.0000         0.6089       2142.762         0.3698      -106.1417      -51.23479      0.3022946
      4914.5000         0.5908       2113.559         0.3752      -103.7501      -48.84172      0.3355317
      4915.0000         0.6231       2084.484         0.3806      -102.0275      -47.11765      0.3594772
      4915.5000         0.6579       2075.813          0.386      -100.3036      -45.39227      0.3834406
      4916.0000         0.6927       2067.141         0.3914       -98.5811       -43.6683      0.4073847
      4916.5000         0.7368       2058.469         0.3967       -97.2877      -42.37343      0.4253691
      4917.0000         0.8158       2049.805         0.4021       -97.0881      -42.17236      0.4281617
      4917.5000         0.8847       2041.133         0.4108       -97.9723      -43.05509      0.4159015
      4918.0000         0.9411       2032.461         0.4293       -99.3524      -44.43372      0.3967539
      4918.5000          0.992       2023.789         0.4478      -100.7336      -45.81344      0.3775911
      4919.0000         1.0305       2015.125         0.4664      -102.0115      -47.08987      0.3598629
      4919.5000         1.0691       2006.453         0.4849      -100.5551        -45.632      0.3801111
      4920.0000         1.1062       1997.781         0.5034       -99.0999      -44.17533      0.4003426
      4920.5000         0.9728       1989.109         0.5236       -93.2579      -38.33186       0.481502
      4921.0000         0.9176       1980.445         0.5485        -87.309      -32.38148       0.564146
      4921.5000         0.8624       1941.885         0.5734       -80.2657      -25.33672        0.66199
      4922.0000         0.8225       1781.172         0.5982        -74.026      -19.09554       0.748673
      4922.5000         0.7884       1620.459         0.6231       -69.1711      -14.23917      0.8161227
      4923.0000         0.7628       1531.049          0.648       -66.0193       -11.0859       0.859918
      4923.5000         0.7625       1652.191         0.6281       -62.8698      -7.934929      0.9036815
      4924.0000         0.7622       1728.605         0.6019        -59.814      -4.877655      0.9461437
      4924.5000         0.7619       1780.734         0.5756       -57.7156      -2.777782      0.9753086
      4925.0000         0.7617       1832.813         0.5493       -57.7316      -2.792313      0.9751068
      4925.5000         0.7627       1884.891         0.5229       -60.8663      -5.925541      0.9315897
      4926.0000         0.7652       1931.908         0.4963       -64.8437      -9.901466      0.8763685
      4926.5000         0.7676       1971.477         0.4697       -69.5211       -14.5774       0.811425
      4927.0000         0.7913       2442.898         0.4432       -74.4844      -19.53922      0.7425108
      4927.5000         0.8173       2561.754         0.4166       -84.8151      -29.86845      0.5990493
      4928.0000         0.8432       2663.867         0.3901      -103.8302      -48.88208      0.3349711
      4928.5000         0.8692        2788.27         0.3635      -108.3547      -53.40511      0.2721513
      4929.0000         0.8948       3028.223          0.337      -112.8843      -57.93324      0.2092606
      4929.5000         0.8891       3125.711         0.3104      -117.0195      -62.06697      0.1518477
      4930.0000         0.8592       3167.211         0.2859      -120.9724      -66.01839     0.09696685
      4930.5000         0.8294       3177.219         0.2868      -124.3239      -69.36842     0.05043856
      4931.0000         0.8047       3187.227         0.2878      -126.4408      -71.48386     0.02105755
      4931.5000         0.7914       3201.809         0.2888      -128.5601      -73.60168              0
      4932.0000         0.7781       3222.164         0.2897      -129.2468       -74.2869              0
      4932.5000         0.7647       3242.512         0.2907      -129.7271      -74.76573              0
      4933.0000         0.7514       3262.867         0.2917      -130.2073      -75.24447              0
      4933.5000         0.7381       3285.961         0.2926      -130.1931      -75.22879              0
      4934.0000         0.7247       3270.848         0.2936      -130.1433      -75.17752              0
      4934.5000         0.7114       3189.371         0.2946      -130.0933      -75.12605              0
      4935.0000         0.6986       3107.945         0.2955      -130.0432      -75.07448              0
      4935.5000         0.6899        3026.52         0.2976      -129.9932      -75.02299              0
