#------------------------------------------------------------------------------
# Created by    : vladimir.rabinovich
# Created on    : 09/19/2023 17:22:50
#------------------------------------------------------------------------------
~Version Information Section
VERS.           2.0     :   CWLS log ASCII Standard - VERSION 2.0
WRAP.           NO      :   One line per depth step
~Well Information Section
#MNEM       .UNIT                                         VALUE :DESCRIPTION
#------------------------------------------------------------------------------
STRT        .FT                                            2472 :START DEPTH
STOP        .FT                                            8382 :STOP DEPTH
STEP        .FT                                             0.5 :STEP      
NULL        .                                           -999.25 :NULL      
COMP        .                                 EPL OIL & GAS LLC :COMPANY   
WELL        .                               OCS G07215 ST00BP00 :WELL      
FLD         .                                 BRAZOS BLOCK 0376 :FIELD     
LOC         .                                                   :LOCATION  
CNTY        .                                BRAZOS LARGE BLOCK :LOCATION  
STAT        .                                             TEXAS :STATE     
CTRY        .                                     UNITED STATES :COUNTRY   
SRVC        .                                                   :SERVICE COMPANY
DATE        .                             9/13/2023 11:19:08 AM :LOG DATE  
API         .                                    42704402290000 :API NUMBER
UWI         .                                    42704402290000 :UNIQUE WELL ID
XCOORD      .                                  871225.230552878 :SURFACE X 
YCOORD      .                                  10399792.7272756 :SURFACE Y 
LAT         .                                         28.636239 :LATITUDE  
LON         .                                        -95.398308 :LONGITUDE 
ELEV        .FT                                              95 :ELEVATION VALUE
ELEV_TYPE   .                                                KB :ELEVATION REFERENCE TYPE
~Curve Information Section
#MNEM       .UNIT                                      API CODE :CURVE DESCRIPTION
#------------------------------------------------------------------------------
DEPT        .FT                                                 :DEPTH     
DT          .US/F                                               :          
GR          .GAPI                                               :          
GR_NORM     .GAPI                                               :GammaRay Normalized
ILD         .OHMM                                               :          
ILM         .OHMM                                               :          
SFL         .OHMM                                               :          
SP          .MV                                                 :          
SP_NORM     .MV                                                 :SP Normalized
VSH_GR      .V/V                                                :Volume of Shale from GR
VSH_SP      .V/V                                                :Volume of Shale from SP
~A        DEPTH             DT             GR        GR_NORM            ILD            ILM            SFL             SP        SP_NORM         VSH_GR         VSH_SP
# ...
      6784.0000       118.9469        75.9722       81.20169         0.8992         0.8782         0.9068       -34.6791       -2.26799              1      0.9756156
      6784.5000       118.3467        75.9369       81.16225         0.9114         0.8783         0.9259       -34.8402      -2.429672              1      0.9725063
      6785.0000       117.3936        75.7968       81.00638         0.9218         0.8769         0.9373       -35.1626      -2.752655              1      0.9662951
      6785.5000       116.3722         75.666       80.86083         0.9295         0.8748         0.9403       -35.4255      -3.016132              1      0.9612283
      6786.0000       115.9103        76.0598       81.29819         0.9341         0.8707         0.9357       -35.6086      -3.199814              1      0.9576959
      6786.5000       116.7245        77.2423       82.61186         0.9217         0.8657         0.9241         -35.21      -2.801796              1      0.9653501
      6787.0000       118.0273        79.6193       85.25276         0.9086         0.8586         0.9087       -34.8381      -2.430477              1      0.9724908
      6787.5000       119.1243        80.3828       86.10088          0.894          0.849          0.892       -34.5686      -2.161556              1      0.9776624
      6788.0000       119.9933        76.8533       82.17901         0.8833         0.8377         0.8692       -34.3503      -1.943836              1      0.9818493
      6788.5000        120.272        74.9625        80.0779         0.8779         0.8297         0.8471       -34.2468      -1.840919              1      0.9838285
      6789.0000       120.1147        74.4775        79.5388         0.8771         0.8229         0.8404       -34.1406      -1.735298      0.9901873      0.9858596
      6789.5000       119.5581        74.3311       79.37592         0.8826         0.8222         0.8571       -34.0293       -1.62458      0.9867218      0.9879888
      6790.0000       118.6721         72.726       77.59226         0.8882         0.8231         0.8821       -33.9842      -1.580059      0.9487715       0.988845
      6790.5000       118.5029        70.9469       75.61528         0.8958         0.8264         0.9019       -33.9996      -1.596043      0.9067081      0.9885377
      6791.0000       118.4011        69.5842       74.10095         0.9041         0.8309         0.9121       -34.0332      -1.630222      0.8744884      0.9878803
      6791.5000       118.3523        69.1104        73.5743         0.9115         0.8386          0.923       -34.0551      -1.652702      0.8632829       0.987448
      6792.0000       117.9652        69.7188       74.25009         0.9173         0.8429         0.9298       -33.8234      -1.421581      0.8776615      0.9918927
      6792.5000       117.5758        71.4486       76.17188         0.9173         0.8422         0.9262       -33.5686      -1.167362      0.9185506      0.9967815
      6793.0000       117.4625        74.0177       79.02621         0.9133          0.836         0.9122        -33.294     -0.8933449      0.9792812              1
      6793.5000       117.4576        76.5748       81.86723          0.902         0.8279          0.896        -33.203     -0.8029251              1              1
      6794.0000       117.7921        79.3864       84.99101         0.8899         0.8194         0.8782       -33.1985     -0.7990074              1              1
      6794.5000       118.5306        81.1157       86.91225         0.8771         0.8111         0.8628       -33.3307     -0.9317856              1              1
      6795.0000       119.3984        80.3347       86.04427           0.87         0.8031         0.8573       -33.4456      -1.047268              1       0.999091
      6795.5000       120.0383        77.2111       82.57339         0.8627         0.7957         0.8535       -33.5261      -1.128349              1      0.9975318
      6796.0000        120.379        75.2345       80.37695         0.8547         0.7887         0.8465       -33.5175      -1.120331              1       0.997686
      6796.5000       120.1882        76.3611       81.62852         0.8478         0.7864         0.8422       -33.4388       -1.04221              1      0.9991883
      6797.0000       120.1451        79.7754       85.42197         0.8421         0.7853         0.8404       -33.3834     -0.9873924              1              1
      6797.5000       120.2135        82.5293       88.48165         0.8395         0.7879         0.8416       -33.3561     -0.9606705              1              1
      6798.0000       120.1697        83.6914       89.77266         0.8413         0.7903         0.8446       -33.3835     -0.9886513              1              1
      6798.5000       120.0234        81.1775       86.97923         0.8474         0.7926         0.8538        -33.439      -1.044731              1      0.9991398
      6799.0000       119.6879        76.2603       81.51546         0.8539         0.7956         0.8706       -33.4799      -1.086216              1       0.998342
      6799.5000       119.9031        71.3838       76.09691         0.8512         0.7957         0.8889       -33.5389      -1.145794      0.9169555      0.9971963
      6800.0000       120.1946        70.7883       75.43504         0.8486         0.7911         0.8902       -33.6178      -1.225277      0.9028731      0.9956678
      6800.5000       120.3188        72.1761       76.97683         0.8385         0.7904         0.8816       -33.7048      -1.312855      0.9356772      0.9939836
      6801.0000       120.2321        73.3251       78.25328          0.829          0.786         0.8676       -33.9069      -1.515537      0.9628357      0.9900858
      6801.5000       119.7982        73.8251       78.80862         0.8225         0.7769         0.8478       -34.0884       -1.69762      0.9746516      0.9865842
      6802.0000         118.46        73.4901       78.43619         0.8154         0.7669         0.8299       -34.2208      -1.830597      0.9667274       0.984027
      6802.5000       118.1528        73.0868       77.98787         0.8076         0.7565         0.8142       -34.2704      -1.880779      0.9571887      0.9830619
      6803.0000       120.7098        72.7002       77.55811         0.8013         0.7511          0.801       -34.5131      -2.124062      0.9480448      0.9783834
      6803.5000       123.3668        72.4681       77.30001         0.8022         0.7482         0.7948       -35.2268      -2.838341      0.9425534      0.9646473
      6804.0000       125.5046        72.3634       77.18346         0.8017         0.7482         0.7902       -36.1416      -3.753723      0.9400737      0.9470438
      6804.5000       124.9855        72.5392       77.37859         0.7948         0.7433         0.7875       -36.9663      -4.579002      0.9442253       0.931173
      6805.0000       121.2852        72.3827       77.20448         0.7864         0.7411         0.7868       -37.4009      -5.014187      0.9405209      0.9228041
      6805.5000       119.7593        72.0345       76.81738         0.7864         0.7443         0.7872       -37.2283      -4.842163      0.9322847      0.9261122
      6806.0000       120.5161         71.834       76.59439         0.7937         0.7436         0.7889       -36.6998      -4.314243      0.9275402      0.9362646
      6806.5000       121.6338        72.3593       77.17784         0.8005         0.7378         0.8003       -35.9375      -3.552525       0.939954       0.950913
      6807.0000       122.0609         71.726       76.47397         0.7985         0.7314         0.8117       -35.3145      -2.930107      0.9249781      0.9628826
      6807.5000       121.7135        70.3154       74.90642         0.7892         0.7261         0.7994       -34.7334      -2.349586      0.8916259      0.9740464
      6808.0000       120.6721        69.0356       73.48421         0.7796         0.7235         0.7785        -34.147      -1.763767      0.8613661      0.9853122
