#------------------------------------------------------------------------------
# Created by    : vladimir.rabinovich
# Created on    : 09/19/2023 17:20:30
#------------------------------------------------------------------------------
~Version Information Section
VERS.           2.0     :   CWLS log ASCII Standard - VERSION 2.0
WRAP.           NO      :   One line per depth step
~Well Information Section
#MNEM       .UNIT                                         VALUE :DESCRIPTION
#------------------------------------------------------------------------------
STRT        .FT                                             609 :START DEPTH
STOP        .FT                                           12866 :STOP DEPTH
STEP        .FT                                             0.5 :STEP      
NULL        .                                           -999.25 :NULL      
COMP        .                                        SUN OIL CO :COMPANY   
WELL        .                               OCS G01769 ST00BP00 :WELL      
FLD         .                                           WILDCAT :FIELD     
LOC         .                                                   :LOCATION  
CNTY        .                             GALVESTON LARGE BLOCK :LOCATION  
STAT        .                                             TEXAS :STATE     
CTRY        .                                     UNITED STATES :COUNTRY   
SRVC        .                                                   :SERVICE COMPANY
DATE        .                             9/13/2023 11:19:24 AM :LOG DATE  
API         .                                    42706001410000 :API NUMBER
UWI         .                                    42706001410000 :UNIQUE WELL ID
XCOORD      .                                  1110717.91749569 :SURFACE X 
YCOORD      .                                  10538856.4752018 :SURFACE Y 
LAT         .                                         29.029845 :LATITUDE  
LON         .                                        -94.657945 :LONGITUDE 
ELEV        .FT                                              65 :ELEVATION VALUE
ELEV_TYPE   .                                                KB :ELEVATION REFERENCE TYPE
~Curve Information Section
#MNEM       .UNIT                                      API CODE :CURVE DESCRIPTION
#------------------------------------------------------------------------------
DEPT        .FT                                                 :DEPTH     
ASN         .OHMM                                               :          
CALI        .IN                                                 :          
CILD        .MMHO                                               :          
DT          .US/F                                               :          
ILD         .OHMM                                               :          
SP          .MV                                                 :          
SP_NORM     .MV                                                 :SP Normalized
VSH_SP      .V/V                                                :Volume of Shale from SP
~A        DEPTH            ASN           CALI           CILD             DT            ILD             SP        SP_NORM         VSH_SP
       609.0000        -999.25         12.554        -999.25       180.1355        -999.25        -999.25        -999.25        -999.25
       609.5000        -999.25        12.5591        -999.25       204.1426        -999.25        -999.25        -999.25        -999.25
       610.0000         0.0564        13.2126       2026.967       202.6887         0.7413        -91.558      -2.669106              1
       610.5000          0.086        14.6902       2138.473       210.0618         0.7617       -90.7664       -1.87751              1
       611.0000         0.1229        15.2103       2181.637        213.741         0.7824       -90.7079      -1.819008              1
       611.5000         0.1684        15.2084       2224.809        217.979         0.8031       -90.6494      -1.760506              1
       612.0000          0.222        15.2034       2267.977       218.4885         0.8258       -90.5909      -1.702003              1
       612.5000         0.2802        15.2146       2311.148        199.064         0.8525       -90.5657      -1.676804              1
       613.0000         0.3599        15.2215       2245.934       182.5779         0.8792       -90.7278      -1.838905              1
       613.5000         0.8263        15.2223       2197.465       175.3459         0.9059         -90.89      -2.001106              1
       614.0000         0.9205         15.219       2128.633       175.5896         0.9327       -91.0522      -2.163307              1
       614.5000         1.0147        15.2155        2065.82       176.0217         0.9687       -91.2145      -2.325607              1
       615.0000         1.0889        15.2126       2003.016       176.2979         1.0059       -91.4144      -2.525505              1
       615.5000         1.1351        15.2171       811.0098       176.8437         1.0431       -91.7119      -2.823006              1
       616.0000         1.1814        15.2241       823.4678       177.0881         1.0803       -92.0094      -3.120506      0.9827848
       616.5000         1.2277        15.2266       835.9268       175.1555         1.1371       -92.3068      -3.417908      0.9402989
       617.0000         1.2739        15.2266       848.3848       171.2041          1.197       -92.6492      -3.760307      0.8913847
       617.5000         1.3205        15.2243       855.0312       165.5103         1.2569        -93.001      -4.112106      0.8411277
       618.0000         1.3713        15.2303       836.9023       164.5405         1.3225       -93.3528      -4.463905      0.7908707
       618.5000         1.4229        15.2384       709.2803       162.3623         1.3893       -93.7046      -4.815704      0.7406136
       619.0000         1.4715          15.24       672.2197       159.9612         1.4713       -93.9144      -5.025505      0.7106422
       619.5000         1.4979        15.2275       615.6201        158.345         1.5761       -94.0117       -5.12281      0.6967414
       620.0000           1.52        15.2161       575.7676       152.9087         1.6933       -94.1091      -5.220207      0.6828275
       620.5000         1.5661        15.2162       543.2588       156.8267         1.9238       -94.0778      -5.188904      0.6872994
       621.0000         1.6591        15.2153       519.6953       162.1924         1.9513       -93.9956      -5.106705      0.6990422
       621.5000         1.6868        15.2112       508.8726       156.0583         1.8877       -93.9136      -5.024704      0.7107566
       622.0000         1.6969        15.2104        513.501       156.7925         1.8234       -93.8315      -4.942604      0.7224851
       622.5000         1.6865        15.2177       518.1289       161.1592         1.7591       -93.7494      -4.860504      0.7342137
       623.0000         1.6714        15.2244       525.5283       164.1865         1.6977       -93.6674      -4.778503      0.7459281
       623.5000         1.6562        15.2244       542.7793       166.4143         1.6387       -93.5852      -4.696304      0.7576708
       624.0000         1.6417         15.224       560.0312       169.5745         1.5797       -93.5045      -4.615608      0.7691988
       624.5000         1.6275         15.214       582.1172       174.9937         1.5251       -93.5045      -4.615608      0.7691988
       625.0000         1.6136        15.2054       614.2441       177.3518         1.5008       -93.5045      -4.615608      0.7691988
       625.5000          1.602        15.1985       669.3271       178.2542         1.4765       -93.5045      -4.615608      0.7691988
       626.0000         1.5905        15.1995       682.0254       178.7253         1.4522       -93.5045      -4.615608      0.7691988
       626.5000         1.5756         15.203       690.2852       178.3396          1.428       -93.5895      -4.700607      0.7570561
       627.0000         1.5534        15.2038       692.9629       177.7776         1.4071       -93.7015      -4.812607      0.7410561
       627.5000         1.5389        15.2018       695.6406        177.824         1.3866       -93.8136      -4.924706       0.725042
       628.0000         1.5274        15.1943       698.9111       177.7676         1.3661       -93.9258      -5.036903      0.7090138
       628.5000         1.5168        15.1883       704.3389       176.7141         1.3456       -94.0378      -5.148911      0.6930128
       629.0000         1.5133        15.2068       709.7666       170.5669         1.3313         -94.15      -5.261108      0.6769845
       629.5000         1.5114        15.2188       715.1943        150.095         1.3237       -94.2607      -5.371803       0.661171
       630.0000         1.5237        15.2208       720.6221       150.0037          1.316       -94.3517      -5.462807      0.6481705
       630.5000         1.5361        15.2106       726.0498       150.0359         1.3084       -94.4425      -5.553604      0.6351994
       631.0000         1.5538        15.2162         729.46       150.0642         1.3008       -94.5242      -5.635307      0.6235275
       631.5000         1.5739        15.2414       731.2539       150.0796         1.3014       -94.1127      -5.223808      0.6823131
       632.0000         1.5943        15.2414       733.0488       150.0854         1.3034        -93.701      -4.812103      0.7411281
       632.5000         1.6155        15.2337       730.3096       151.0757         1.3053       -93.2894      -4.400505      0.7999278
       633.0000         1.6362        15.2439       727.2549       159.4246         1.3073       -92.8778      -3.988907      0.8587276
       633.5000          1.656         15.191       724.2012       150.0818         1.3093       -92.4662      -3.577309      0.9175273
       634.0000         1.6758        14.8192       721.1465       150.0291         1.3113       -92.1592      -3.270309      0.9613844
       634.5000         1.6914        14.5367       718.4131       150.0994         1.3133       -92.0421      -3.153206      0.9781135
       635.0000         1.7071        14.4216       715.9785       150.0994         1.3153       -92.0052       -3.11631      0.9833843
       635.5000         1.7185        14.2027       713.5439       150.1045         1.3117       -92.1323      -3.243408      0.9652274
       636.0000         1.7227        13.6991       711.1094       151.0752         1.3066       -92.2593      -3.370407      0.9470847
       636.5000          1.727        13.0606       708.6748       168.3135         1.3016       -92.3862      -3.497307      0.9289562
       637.0000         1.7312        12.6016       707.4365       168.2898         1.2966       -92.5132      -3.624306      0.9108135
       637.5000         1.7354        12.4449       709.0547       156.1919         1.2916       -92.3817      -3.492805      0.9295992
       638.0000         1.7398        12.3577       710.6729       159.6204         1.2866       -92.1177      -3.228806      0.9673135
