#------------------------------------------------------------------------------
# Created by    : vladimir.rabinovich
# Created on    : 09/19/2023 17:19:48
#------------------------------------------------------------------------------
~Version Information Section
VERS.           2.0     :   CWLS log ASCII Standard - VERSION 2.0
WRAP.           NO      :   One line per depth step
~Well Information Section
#MNEM       .UNIT                                         VALUE :DESCRIPTION
#------------------------------------------------------------------------------
STRT        .FT                                             960 :START DEPTH
STOP        .FT                                            9172 :STOP DEPTH
STEP        .FT                                             0.5 :STEP      
NULL        .                                           -999.25 :NULL      
COMP        .                                ODECO OIL & GAS CO :COMPANY   
WELL        .                               OCS G06101 ST00BP00 :WELL      
FLD         .                                           WILDCAT :FIELD     
LOC         .                                                   :LOCATION  
CNTY        .                             GALVESTON LARGE BLOCK :LOCATION  
STAT        .                                             TEXAS :STATE     
CTRY        .                                     UNITED STATES :COUNTRY   
SRVC        .                                                   :SERVICE COMPANY
DATE        .                             9/13/2023 11:19:27 AM :LOG DATE  
API         .                                    42706401070000 :API NUMBER
UWI         .                                    42706401070000 :UNIQUE WELL ID
XCOORD      .                                  1041316.87817256 :SURFACE X 
YCOORD      .                                  10447909.9182991 :SURFACE Y 
LAT         .                                         28.776905 :LATITUDE  
LON         .                                        -94.870587 :LONGITUDE 
ELEV        .FT                                              92 :ELEVATION VALUE
ELEV_TYPE   .                                                KB :ELEVATION REFERENCE TYPE
~Curve Information Section
#MNEM       .UNIT                                      API CODE :CURVE DESCRIPTION
#------------------------------------------------------------------------------
DEPT        .FT                                                 :DEPTH     
ASFL        .OHMM                                               :          
GR          .GAPI                                               :          
GR_NORM     .GAPI                                               :GammaRay Normalized
ILD         .OHMM                                               :          
SP          .MV                                                 :          
SP_NORM     .MV                                                 :SP Normalized
VSH_GR      .V/V                                                :Volume of Shale from GR
VSH_SP      .V/V                                                :Volume of Shale from SP
~A        DEPTH           ASFL             GR        GR_NORM            ILD             SP        SP_NORM         VSH_GR         VSH_SP
# ...
      8040.0000         1.0958        71.2555       74.46447         1.2545       -59.2982      -9.585464      0.8822228      0.8402423
      8040.5000         1.0852        70.9376       74.04397           1.24       -59.2842      -9.573271      0.8732759      0.8404455
      8041.0000         1.0746        70.6002       73.59766         1.2255       -59.2703      -9.561223      0.8637801      0.8406463
      8041.5000         1.0686        70.2634       73.15216          1.211       -59.2563      -9.549025      0.8543013      0.8408496
      8042.0000         1.0651        69.9261         72.706         1.1964       -59.1032      -9.342089      0.8448085      0.8442985
      8042.5000         1.0616        69.5887        72.2597          1.175       -58.8525      -8.998518      0.8353128      0.8500247
      8043.0000         1.0581        69.2339        71.7904         1.1522       -58.6014      -8.654383      0.8253276      0.8557603
      8043.5000         1.0546         68.871       71.31037         1.1299       -58.3507      -8.310807      0.8151143      0.8614866
      8044.0000         1.0512        68.5081       70.83035          1.124          -58.1      -7.967232      0.8049011      0.8672128
      8044.5000         1.0477        68.7123       71.10046         1.1181       -57.8492      -7.623523       0.810648      0.8729413
      8045.0000         1.0442        69.2648       71.83127          1.126       -57.6497      -7.351629      0.8261972      0.8774729
      8045.5000         1.0438        69.8174       72.56223         1.1366       -57.4987       -7.14763      0.8417495      0.8808728
      8046.0000         1.0434        70.3699       73.29305         1.1473       -57.3518      -6.949377      0.8572989       0.884177
      8046.5000          1.043        70.9224       74.02386         1.1579       -57.3497      -6.953847      0.8728482      0.8841025
      8047.0000         1.0427        71.3424       74.57941         1.1639       -57.3475      -6.958167      0.8846684      0.8840305
      8047.5000         1.0423        71.7144       75.07148         1.1586       -57.3453      -6.962493      0.8951378      0.8839585
      8048.0000         1.0416        72.0863       75.56342         1.1533       -57.3431      -6.966825      0.9056046      0.8838863
      8048.5000         1.0384        72.4584        76.0556          1.148        -57.339      -6.968491      0.9160767      0.8838585
      8049.0000         1.0351        72.8309       76.54833         1.1427       -57.2982       -6.91877      0.9265603      0.8846872
      8049.5000         1.0318        72.9254       76.67333         1.1374       -57.2573      -6.868921      0.9292198       0.885518
      8050.0000         1.0286        72.7181       76.39913         1.1321       -57.2164      -6.819067      0.9233858      0.8863489
      8050.5000         1.0229        72.3635       75.93008         1.1268       -57.1756      -6.769346      0.9134061      0.8871776
      8051.0000         1.0158        71.8864       75.29899         1.1211       -57.1347      -6.719497      0.8999785      0.8880084
      8051.5000         1.0087        71.5059       74.79568         1.1097       -57.0938      -6.669642      0.8892699      0.8888393
      8052.0000         1.0033        72.4492       76.04344         1.0983        -57.053      -6.619933      0.9158179      0.8896678
      8052.5000         0.9985        73.3707       77.26235         1.0869       -57.0121      -6.570073      0.9417522      0.8904988
      8053.0000         0.9937        74.2885       78.47636         1.0701       -56.9545      -6.496838      0.9675822      0.8917194
      8053.5000         0.9886        75.2075       79.69198         1.0521       -56.8891      -6.412686      0.9934464      0.8931219
      8054.0000         0.9821        76.0511       80.80786         1.0341       -56.8237      -6.328535              1      0.8945244
      8054.5000         0.9756        76.7502       81.73259         1.0161       -56.7582      -6.244239              1      0.8959293
      8055.0000         0.9679        76.8378       81.84846         0.9981       -56.6929      -6.160226              1      0.8973296
      8055.5000          0.957        76.4614       81.35058         0.9854       -56.6274      -6.075931              1      0.8987345
      8056.0000         0.9461        76.0852       80.85296         0.9754        -56.562      -5.991774              1      0.9001371
      8056.5000         0.9368         75.709       80.35535         0.9654       -56.4971      -5.908322              1      0.9015279
      8057.0000         0.9408        75.2471       79.74436         0.9781       -56.5027       -5.92357      0.9945609      0.9012738
      8057.5000         0.9579         74.745       79.08022         0.9978       -56.5084      -5.938956      0.9804301      0.9010174
      8058.0000          0.975        74.2429       78.41605         1.0217        -56.514      -5.954198       0.966299      0.9007634
      8058.5000         0.9906        73.7408       77.75191         1.0509       -56.5197      -5.969584      0.9521682      0.9005069
      8059.0000         1.0044        73.2394       77.08868         1.0801       -56.6351      -6.138555      0.9380571      0.8976908
      8059.5000         1.0182        72.5781       76.21394         1.1092       -56.7822      -6.351894      0.9194456      0.8941351
      8060.0000         1.0321        71.8037       75.18961         1.1337       -56.9294      -6.565384      0.8976512       0.890577
      8060.5000         1.1004        70.7777       73.83247         1.1534       -57.2864      -7.072589      0.8687759      0.8821235
      8061.0000         1.0889         69.387        71.9929         1.1731       -57.7143      -7.679054      0.8296363      0.8720158
      8061.5000          1.036        64.2594       65.21037         1.1811       -58.1459        -8.2907      0.6853269      0.8618217
      8062.0000         0.9756        70.0288       72.84185         1.1453        -58.623      -8.966047      0.8476989      0.8505659
      8062.5000         0.9218        71.9957       75.44357         1.1058        -58.403      -8.665453      0.9030546      0.8555758
      8063.0000         0.8937        73.7196       77.72385         1.0586       -57.3338      -7.175982      0.9515713      0.8804003
      8063.5000         0.8657        75.3218       79.84317         1.0113       -56.9448      -6.638785      0.9966632      0.8893536
      8064.0000         0.8472        76.3466       81.19873         0.9641       -56.5558      -6.101592              1      0.8983068
      8064.5000          0.839        77.2924       82.44978         0.9168       -56.1667      -5.564256              1      0.9072624
      8065.0000         0.8507        78.1567       83.59304         0.8907       -55.9276      -5.236921              1       0.912718
      8065.5000         0.8614        78.7925       84.43405         0.8699       -55.7574      -5.006048              1      0.9165659
      8066.0000          0.863        79.4294        85.2765         0.8622       -55.5875      -4.775597              1      0.9204067
      8066.5000         0.8645        79.7429       85.69119         0.8607        -55.465      -4.611502              1      0.9231417
      8067.0000         0.8661        79.8878       85.88286         0.8593       -55.3544      -4.464065              1      0.9255989
      8067.5000         0.8655        80.0325       86.07426         0.8578       -55.2438      -4.316633              1      0.9280561
      8068.0000         0.8606        80.1708       86.25719         0.8564       -55.1332      -4.169201              1      0.9305133
      8068.5000         0.8556        80.1116       86.17889         0.8549       -55.0216      -4.020359              1       0.932994
      8069.0000         0.8507        80.0524       86.10059         0.8535       -34.9623       24.05525              1              1
