#------------------------------------------------------------------------------
# Created by    : vladimir.rabinovich
# Created on    : 09/19/2023 17:21:31
#------------------------------------------------------------------------------
~Version Information Section
VERS.           2.0     :   CWLS log ASCII Standard - VERSION 2.0
WRAP.           NO      :   One line per depth step
~Well Information Section
#MNEM       .UNIT                                         VALUE :DESCRIPTION
#------------------------------------------------------------------------------
STRT        .FT                                              40 :START DEPTH
STOP        .FT                                           13401 :STOP DEPTH
STEP        .FT                                             0.5 :STEP      
NULL        .                                           -999.25 :NULL      
COMP        .                                        TEXACO USA :COMPANY   
WELL        .                               OCS G01759 ST00BP00 :WELL      
FLD         .                                           WILDCAT :FIELD     
LOC         .                                                   :LOCATION  
CNTY        .                             GALVESTON LARGE BLOCK :LOCATION  
STAT        .                                             TEXAS :STATE     
CTRY        .                                     UNITED STATES :COUNTRY   
SRVC        .                                                   :SERVICE COMPANY
DATE        .                             9/13/2023 11:19:24 AM :LOG DATE  
API         .                                    42706001440000 :API NUMBER
UWI         .                                    42706001440000 :UNIQUE WELL ID
XCOORD      .                                   1131482.4965331 :SURFACE X 
YCOORD      .                                  10562344.6824913 :SURFACE Y 
LAT         .                                         29.095227 :LATITUDE  
LON         .                                        -94.593967 :LONGITUDE 
ELEV        .FT                                              83 :ELEVATION VALUE
ELEV_TYPE   .                                                KB :ELEVATION REFERENCE TYPE
~Curve Information Section
#MNEM       .UNIT                                      API CODE :CURVE DESCRIPTION
#------------------------------------------------------------------------------
DEPT        .FT                                                 :DEPTH     
CALI        .IN                                                 :          
DT          .US/F                                               :          
GR          .GAPI                                               :          
GR_NORM     .GAPI                                               :GammaRay Normalized
RHOB        .G/C3                                               :          
SP          .MV                                                 :          
SP_NORM     .MV                                                 :SP Normalized
VSH_GR      .V/V                                                :Volume of Shale from GR
VSH_SP      .V/V                                                :Volume of Shale from SP
~A        DEPTH           CALI             DT             GR        GR_NORM           RHOB             SP        SP_NORM         VSH_GR         VSH_SP
# ...
      4863.0000        13.6309       118.9651        39.7014       64.75654          2.225       -39.8447      -15.40026       0.675671      0.3839898
      4863.5000        13.5986       118.7373        42.3344       69.21148         2.2409        -40.207      -15.76256       0.770457      0.3694977
      4864.0000         12.879       129.7368        43.6286       71.39915         2.2684       -40.1841      -15.73966      0.8170031      0.3704138
      4864.5000        12.5356       138.2927        43.8735       71.80979         2.2826       -39.8504      -15.40595      0.8257402      0.3837618
      4865.0000        12.5397       126.3051        43.3524       70.92325         2.2902       -39.9787      -15.53425      0.8068776      0.3786298
      4865.5000        12.6093       121.8048        41.8314       68.34336         2.3051       -40.2609      -15.81645      0.7519864      0.3673418
      4866.0000        12.2231       121.7759         43.261       70.76033         2.3325       -40.5869      -16.14245      0.8034113      0.3543018
      4866.5000        11.9529       116.3524        41.5955       67.93573         2.3601        -40.499      -16.05456      0.7433134      0.3578178
      4867.0000         11.829       113.4546        38.3296       62.40083         2.3914       -40.1142      -15.66976      0.6255496      0.3732098
      4867.5000        11.8038       113.8534        35.7075       57.95623         2.4571       -39.4115      -14.96705      0.5309836      0.4013178
      4868.0000         11.783       115.3022        34.7002       56.24627         2.4709       -38.2104      -13.76595      0.4946015      0.4493618
      4868.5000        11.7617       115.8433        34.5269       55.94872         2.4271       -36.5983      -12.15386      0.4882706      0.5138457
      4869.0000         11.747       116.7144        35.8964        58.2639         2.2939         -34.71      -10.26555      0.5375299      0.5893778
      4869.5000        11.7886       117.7373        37.2947       60.62786         2.2283        -33.007      -8.562555      0.5878269      0.6574978
      4870.0000        11.8476       111.8038        37.9042         61.656         2.2247       -31.8968      -7.452354      0.6097021      0.7019058
      4870.5000        11.9172       102.1074        38.4764       62.62097         2.2391       -31.3763      -6.931856      0.6302333      0.7227257
      4871.0000          11.99        92.4014        38.5438       62.73102         2.2477       -32.3186      -7.874155      0.6325749      0.6850338
      4871.5000        12.0804        82.9369        35.0227       56.76394         2.2495       -34.3885      -9.944056      0.5056158      0.6022378
      4872.0000        12.2298        79.7588        33.2141         53.697         2.2019        -36.419      -11.97455      0.4403617      0.5210178
      4872.5000        12.1695        88.3411        31.2983       50.44851         2.1828       -38.0013      -13.55686      0.3712449      0.4577258
      4873.0000         12.089        99.0719        31.0071       49.95129         2.1928       -39.2167      -14.77226      0.3606657      0.4091097
      4873.5000        12.0459       108.8359        31.5931       50.93962         2.1981       -40.0132      -15.56875       0.381694      0.3772498
      4874.0000        12.0679       111.2516        32.6966       52.80433         2.1961       -40.3942      -15.94975      0.4213688      0.3620098
      4874.5000        12.0759        112.196        31.8483       51.36367         2.1849       -39.9412      -15.49676      0.3907163      0.3801298
      4875.0000        12.0891       113.8292        28.8567       46.29329         2.1657       -39.6598      -15.21536       0.282836      0.3913857
      4875.5000        12.1894       115.3917        28.6834       45.99574         2.1829       -39.6831      -15.23866      0.2765051      0.3904537
      4876.0000        12.3165       116.6945        29.9409       48.12125         2.1997       -39.9768      -15.53235      0.3217288      0.3787058
      4876.5000        12.2011       117.8297        30.8382       49.63678         2.1931       -40.3762      -15.93176       0.353974      0.3627297
      4877.0000          11.99       118.5784        30.8412       49.63779         2.1661       -40.7969      -16.35246      0.3539955      0.3459017
      4877.5000        11.9567       117.1439        30.8138       49.58732         2.1681       -41.1378      -16.69335      0.3529217      0.3322659
      4878.0000        11.9778       116.3125        30.9337       49.78629         2.2077       -41.3888      -16.94436      0.3571552      0.3222257
      4878.5000        12.0018        119.191        32.5679       52.54977          2.259       -41.5259      -17.08146      0.4159525      0.3167417
      4879.0000        12.0217       119.7734         33.823       54.67122         2.2823       -41.5979      -17.15346      0.4610898      0.3138618
      4879.5000        12.0394       121.2151        32.7003       52.76584         2.2361        -41.427      -16.98255      0.4205498      0.3206979
      4880.0000        12.0282        124.606        31.0348       49.94124         2.1912       -41.0126      -16.56816      0.3604519      0.3372738
      4880.5000        12.0003       124.9709        28.1154       44.99313         2.1709       -40.5979      -16.15346      0.2551731      0.3538618
      4881.0000        11.9949       115.7192        26.4115       42.10351         2.2033       -39.8871      -15.44266      0.1936917      0.3822938
      4881.5000        11.9701       106.2185        26.6073       42.43103         2.2297       -39.0954      -14.65096      0.2006601      0.4139617
      4882.0000         11.827       106.1919        26.5667        42.3582         2.2326       -38.2051      -13.76066      0.1991107      0.4495738
      4882.5000        11.6506        112.355        25.6858       40.86231         2.2411       -37.3404      -12.89596      0.1672832      0.4841618
      4883.0000        11.5771       122.9697        24.6208       39.05465         2.3198       -36.8295      -12.38505      0.1288224      0.5045978
      4883.5000        11.6237       117.7687        24.0553       38.09292         2.3446       -38.4208      -13.97635        0.10836      0.4409458
      4884.0000        11.7793       111.8474        23.5905       37.30171         2.3609       -40.7344      -16.28996      0.0915257      0.3484017
      4884.5000        11.7879       116.4612        23.1205       36.50169         2.4024        -42.753      -18.30855     0.07450396      0.2676578
      4885.0000        11.6821        120.171        22.3555       35.20208         2.4702       -44.6281      -20.18366     0.04685268      0.1926537
      4885.5000        11.5584       114.1434        21.5288       33.79799         2.5189       -45.4604      -21.01595     0.01697857      0.1593618
      4886.0000        11.5022       107.5985         21.172       33.18968         2.5439       -45.8038      -21.35935    0.004035787      0.1456258
      4886.5000        11.5246       106.2693        21.5818       33.87962         2.5059       -45.9457      -21.50126     0.01871523      0.1399497
      4887.0000        11.5309       106.7842        22.4897       35.41308         2.4668       -46.0128      -21.56835     0.05134217      0.1372659
      4887.5000        11.5257        98.9269        23.6124       37.31031           2.47       -46.0345      -21.59006     0.09170865      0.1363978
      4888.0000        11.5471        92.1403         24.241       38.37078         2.4936       -46.1638      -21.71935       0.114272      0.1312258
      4888.5000        11.5597        94.5137        23.1624       36.54009          2.516       -46.3236      -21.87916     0.07532112      0.1248338
      4889.0000        11.5066        81.2306        21.6628       33.99644         2.5205       -46.5809      -22.13645     0.02120079      0.1145419
