#------------------------------------------------------------------------------
# Created by    : vladimir.rabinovich
# Created on    : 09/19/2023 17:22:16
#------------------------------------------------------------------------------
~Version Information Section
VERS.           2.0     :   CWLS log ASCII Standard - VERSION 2.0
WRAP.           NO      :   One line per depth step
~Well Information Section
#MNEM       .UNIT                                         VALUE :DESCRIPTION
#------------------------------------------------------------------------------
STRT        .FT                                              10 :START DEPTH
STOP        .FT                                            7932 :STOP DEPTH
STEP        .FT                                             0.5 :STEP      
NULL        .                                           -999.25 :NULL      
COMP        .                                       ALLIED CORP :COMPANY   
WELL        .                               OCS G04069 ST00BP00 :WELL      
FLD         .                                           WILDCAT :FIELD     
LOC         .                                                   :LOCATION  
CNTY        .                             GALVESTON LARGE BLOCK :LOCATION  
STAT        .                                             TEXAS :STATE     
CTRY        .                                     UNITED STATES :COUNTRY   
SRVC        .                                                   :SERVICE COMPANY
DATE        .                             9/13/2023 11:18:53 AM :LOG DATE  
API         .                                    42706400790000 :API NUMBER
UWI         .                                    42706400790000 :UNIQUE WELL ID
XCOORD      .                                  993545.470392299 :SURFACE X 
YCOORD      .                                  10396443.6120929 :SURFACE Y 
LAT         .                                         28.633244 :LATITUDE  
LON         .                                        -95.016955 :LONGITUDE 
ELEV        .FT                                              82 :ELEVATION VALUE
ELEV_TYPE   .                                                KB :ELEVATION REFERENCE TYPE
~Curve Information Section
#MNEM       .UNIT                                      API CODE :CURVE DESCRIPTION
#------------------------------------------------------------------------------
DEPT        .FT                                                 :DEPTH     
CALI        .IN                                                 :          
CILD        .MMHO                                               :          
DPHI        .B                                                  :          
DRHO        .G/C3                                               :          
DT          .US/F                                               :          
GR          .GAPI                                               :          
GR_1        .GAPI                                               :          
GR_NORM     .GAPI                                               :GammaRay Normalized
ILD         .OHMM                                               :          
ILM         .OHMM                                               :          
NPHI        .%                                                  :          
SFL         .OHMM                                               :          
SP          .MV                                                 :          
SP_NORM     .MV                                                 :SP Normalized
VSH_GR      .V/V                                                :Volume of Shale from GR
VSH_SP      .V/V                                                :Volume of Shale from SP
~A        DEPTH           CALI           CILD           DPHI           DRHO             DT             GR           GR_1        GR_NORM            ILD            ILM           NPHI            SFL             SP        SP_NORM         VSH_GR         VSH_SP
# ...
      1338.0000        -999.25       993.8525        -999.25        -999.25       188.3513        91.0399        -999.25       97.09167         0.9896         1.1947        -999.25         1.4074      -119.8134      -4.072617              1      0.9418198
      1338.5000        -999.25       993.0791        -999.25        -999.25       188.2173        91.1565        -999.25       97.22536         1.0042         1.1979        -999.25         1.4101      -120.3003      -4.572266              1      0.9346819
      1339.0000        -999.25       992.9238        -999.25        -999.25       188.1545        89.7477        -999.25       95.45231         1.0129          1.212        -999.25         1.4043      -120.7437      -5.028412              1      0.9281656
      1339.5000        -999.25       996.5342        -999.25        -999.25       187.6013        86.5913        -999.25       91.49476          1.016         1.1996        -999.25         1.4128      -120.8943      -5.191765              1      0.9258319
      1340.0000        -999.25       1002.169        -999.25        -999.25       186.8154        84.3147        -999.25       88.63695         1.0191         1.1867        -999.25         1.4438      -120.6547      -4.964912              1      0.9290727
      1340.5000        -999.25       1014.459        -999.25        -999.25       185.9365        84.5481        -999.25       88.91666         1.0223          1.172        -999.25         1.4594      -119.0271       -3.35006              1       0.952142
      1341.0000        -999.25       1026.748        -999.25        -999.25       185.3237        85.4746        -999.25       90.06273         1.0126          1.155        -999.25         1.4631      -118.5074      -2.843102              1      0.9593843
      1341.5000        -999.25       1038.586        -999.25        -999.25       185.4878        84.2827        -999.25        88.5608         0.9943         1.1438        -999.25          1.427      -118.2168      -2.565247              1      0.9633536
      1342.0000        -999.25       1049.533        -999.25        -999.25       186.2412         80.578        -999.25       83.91788         0.9764         1.1452        -999.25         1.3919      -118.2032        -2.5644              1      0.9633657
      1342.5000        -999.25       1060.482        -999.25        -999.25       186.9692        80.0912        -999.25       83.29733         0.9582         1.1575        -999.25         1.3655      -118.5992      -2.973145              1      0.9575265
      1343.0000        -999.25       1066.557        -999.25        -999.25        187.686        86.6973        -999.25        91.5429         0.9402         1.1685        -999.25         1.3414      -119.4146      -3.801292              1      0.9456958
      1343.5000        -999.25       1072.449        -999.25        -999.25       187.8599        89.4397        -999.25       94.95884         0.9225         1.1527        -999.25         1.3681      -120.5148      -4.914246              1      0.9297965
      1344.0000        -999.25       1077.809        -999.25        -999.25       187.5962         88.656        -999.25       93.96717         0.9069         1.1294        -999.25         1.3953      -121.2109      -5.623093              1      0.9196701
      1344.5000        -999.25       1079.973        -999.25        -999.25       187.3132        85.3849        -999.25       89.86625         0.8965         1.1112        -999.25         1.4115      -121.6556      -6.080544              1      0.9131351
      1345.0000        -999.25       1082.137        -999.25        -999.25        187.344        85.5104        -999.25       90.01106         0.8863         1.1018        -999.25         1.3634      -121.1633       -5.60099              1      0.9199858
      1345.5000        -999.25       1084.301        -999.25        -999.25       187.7651        86.3719        -999.25        91.0759         0.8927         1.1039        -999.25         1.3148      -118.1045      -2.554939              1      0.9635009
      1346.0000        -999.25       1086.465        -999.25        -999.25       188.3042        87.5583        -999.25       92.54684         0.9092         1.1192        -999.25         1.3275       -117.116      -1.579178              1      0.9774403
      1346.5000        -999.25        1085.66        -999.25        -999.25       188.8752        88.7311        -999.25       94.00079         0.9189         1.1328        -999.25         1.3578      -117.4888      -1.964729              1      0.9719324
      1347.0000        -999.25       1084.563        -999.25        -999.25       189.1799        89.2167        -999.25       94.59573         0.9259         1.1352        -999.25         1.4089      -118.2577      -2.746376              1      0.9607661
      1347.5000        -999.25       1083.465        -999.25        -999.25       188.9241        88.8257        -999.25       94.09493         0.9269         1.1153        -999.25         1.4268      -119.1514      -3.652824              1      0.9478168
      1348.0000        -999.25       1082.367        -999.25        -999.25       188.5408        87.1556        -999.25       91.99527         0.9206          1.106        -999.25         1.4325      -119.8141      -4.328278              1      0.9381675
      1348.5000        -999.25       1079.768        -999.25        -999.25       188.6931        84.5267        -999.25       88.69709         0.9144         1.0967        -999.25         1.3917      -120.1915      -4.718422              1       0.932594
      1349.0000        -999.25       1074.838        -999.25        -999.25       188.8201        83.6927        -999.25       87.64253         0.9204         1.1071        -999.25         1.3394      -120.2559       -4.79557              1      0.9314919
      1349.5000        -999.25        1069.91        -999.25        -999.25       188.4783         83.224        -999.25       87.04461         0.9282         1.1333        -999.25         1.3377      -120.0432      -4.595619              1      0.9343483
      1350.0000        -999.25       1064.982        -999.25        -999.25        188.043        83.6431        -999.25       87.55643         0.9256         1.1422        -999.25          1.345       -119.054      -3.619171              1      0.9482976
      1350.5000        -999.25       1058.738        -999.25        -999.25       187.4253        90.2437        -999.25       95.79513         0.9214         1.1479        -999.25         1.3845      -117.2456      -1.823517              1      0.9739497
      1351.0000        -999.25       1045.822        -999.25        -999.25        186.676        92.7424        -999.25       98.90646         0.9173         1.1447        -999.25         1.4284      -116.6042      -1.194862              1      0.9829305
      1351.5000        -999.25       1032.908        -999.25        -999.25       185.9509        93.4758        -999.25       99.81116         0.9253         1.1464        -999.25         1.4403      -116.6763      -1.279709              1      0.9817184
      1352.0000        -999.25       1019.989        -999.25        -999.25       185.1208        92.7889        -999.25       98.94048         0.9353         1.1513        -999.25         1.4402      -117.6251      -2.241257              1      0.9679821
      1352.5000        -999.25       1002.384        -999.25        -999.25       184.3035        91.3397        -999.25       97.11693         0.9538         1.1582        -999.25         1.4223      -118.8763      -3.505203              1      0.9499257
      1353.0000        -999.25       975.7402        -999.25        -999.25       183.6274        88.8267        -999.25       93.96362         0.9835         1.1657        -999.25         1.4121      -119.6243      -4.265953              1      0.9390578
      1353.5000        -999.25       960.4795        -999.25        -999.25       182.4739        85.7441        -999.25       90.09833         1.0106         1.1619        -999.25         1.4216      -119.9736      -4.628006              1      0.9338856
