#------------------------------------------------------------------------------
# Created by    : vladimir.rabinovich
# Created on    : 09/19/2023 17:20:25
#------------------------------------------------------------------------------
~Version Information Section
VERS.           2.0     :   CWLS log ASCII Standard - VERSION 2.0
WRAP.           NO      :   One line per depth step
~Well Information Section
#MNEM       .UNIT                                         VALUE :DESCRIPTION
#------------------------------------------------------------------------------
STRT        .FT                                            2998 :START DEPTH
STOP        .FT                                           12526 :STOP DEPTH
STEP        .FT                                             0.5 :STEP      
NULL        .                                           -999.25 :NULL      
COMP        .                                 CALIFORNIA CO THE :COMPANY   
WELL        .                               OCS G01117 ST00BP00 :WELL      
FLD         .                                       HIGH ISLAND :FIELD     
LOC         .                                                   :LOCATION  
CNTY        .                           HIGH ISLAND LARGE BLOCK :LOCATION  
STAT        .                                             TEXAS :STATE     
CTRY        .                                     UNITED STATES :COUNTRY   
SRVC        .                                                   :SERVICE COMPANY
DATE        .                             9/13/2023 11:19:15 AM :LOG DATE  
API         .                                    42708000660000 :API NUMBER
UWI         .                                    42708000660000 :UNIQUE WELL ID
XCOORD      .                                  1214371.69372255 :SURFACE X 
YCOORD      .                                  10618355.5582238 :SURFACE Y 
LAT         .                                         29.252113 :LATITUDE  
LON         .                                        -94.336419 :LONGITUDE 
ELEV        .FT                                              77 :ELEVATION VALUE
ELEV_TYPE   .                                                KB :ELEVATION REFERENCE TYPE
~Curve Information Section
#MNEM       .UNIT                                      API CODE :CURVE DESCRIPTION
#------------------------------------------------------------------------------
DEPT        .FT                                                 :DEPTH     
ASN         .OHMM                                               :          
CILD        .OHMM                                               :          
ILD         .OHMM                                               :          
SP          .MV                                                 :          
SP_NORM     .MV                                                 :SP Normalized
VSH_SP      .V/V                                                :Volume of Shale from SP
~A        DEPTH            ASN           CILD            ILD             SP        SP_NORM         VSH_SP
# ...
      9344.0000         1.4749       1256.223         0.7753       -68.7439      -19.09957      0.7080714
      9344.5000         1.5577       1198.891         0.8177       -70.0664      -20.42402      0.6867093
      9345.0000         1.6587       1145.158           0.86       -71.3914      -21.75098      0.6653067
      9345.5000         1.8522        1091.33         0.9024       -72.6412      -23.00272      0.6451173
      9346.0000          2.019       1037.598         0.9515       -73.5864      -23.94988      0.6298407
      9346.5000         2.0623       979.6807         1.0044       -74.5315      -24.89693      0.6145657
      9347.0000         2.1865       920.0107         1.0574       -73.3185      -23.68587      0.6340988
      9347.5000         2.0369       876.4023         1.1103       -71.0767      -21.44603      0.6702254
      9348.0000         1.9364       855.9609         1.1632       -68.9357      -19.30698      0.7047262
      9348.5000         1.8691       835.5195         1.2161       -67.0282      -17.40142      0.7354609
      9349.0000         1.8286       821.0039         1.2487       -65.1206      -15.49578      0.7661971
      9349.5000         1.7881       816.2529         1.2749       -63.2132      -13.59033      0.7969302
      9350.0000         1.7279       813.6914         1.3012       -61.2885      -11.66758      0.8279423
      9350.5000         1.6666       825.9072         1.3275       -58.9975      -9.378529      0.8648624
      9351.0000         1.6347        838.124         1.3297       -59.1438      -9.526779      0.8624713
      9351.5000         1.6045       850.3643         1.3187         -60.17      -10.55493      0.8458883
      9352.0000         1.5277       862.5801         1.3078       -61.1951      -11.58198      0.8293229
      9352.5000         1.4545       874.8213         1.2968       -60.9321      -11.32093      0.8335335
      9353.0000         1.4255       887.0371         1.2859        -59.939      -10.32978      0.8495197
      9353.5000         1.4047         893.79         1.2749       -58.9447      -9.337429      0.8655254
      9354.0000         1.3899       896.4971         1.2642       -57.9516      -8.346279      0.8815116
      9354.5000         1.3811        899.208         1.2587       -57.0107       -7.40733       0.896656
      9355.0000         1.3793        901.915         1.2532       -56.6162      -7.014778      0.9029874
      9355.5000         1.3774        904.625         1.2477       -56.2223      -6.622833      0.9093091
      9356.0000         1.3756       897.4521         1.2422       -55.8278      -6.230282      0.9156406
      9356.5000         1.3737       887.7676         1.2367       -55.4332      -5.837631      0.9219737
      9357.0000          1.373       878.0693         1.2312       -55.0559       -5.46228      0.9280277
      9357.5000         1.3755       868.3848           1.23       -55.3595      -5.767834      0.9230995
      9358.0000         1.3781       858.6992         1.2288       -55.6631      -6.073383      0.9181712
      9358.5000         1.3807       849.7314         1.2276       -55.9667      -6.378933       0.913243
      9359.0000         1.3833       841.8955         1.2265       -56.2703      -6.684483      0.9083148
      9359.5000         1.3858       834.0596         1.2253       -56.5745      -6.990635      0.9033769
      9360.0000         1.3884       826.2363         1.2241       -56.3083      -6.726383       0.907639
      9360.5000         1.3829       820.6875         1.2229       -55.7694      -6.189434      0.9162995
      9361.0000         1.3743       817.8408         1.2218       -55.2305      -5.652481        0.92496
      9361.5000         1.3658       814.9932         1.2206       -54.6915      -5.115437       0.933622
      9362.0000         1.3572       832.8428         1.2104       -54.1526      -4.578484      0.9422825
      9362.5000         1.3486       855.2314         1.1994       -53.6136      -4.041435      0.9509446
      9363.0000         1.3401       877.6191         1.1884       -53.1251      -3.554882      0.9587922
      9363.5000         1.3315       900.0566         1.1773       -52.7244      -3.156132      0.9652237
      9364.0000          1.323       919.8164         1.1663       -52.3243      -2.757984      0.9716454
      9364.5000         1.3144       939.3818         1.1552       -51.9237      -2.359333      0.9780753
      9365.0000         1.3031       958.9473         1.1442       -51.5236      -1.961185       0.984497
      9365.5000         1.2907       978.3418         1.1332       -51.1229      -1.562431      0.9909285
      9366.0000         1.2784       996.4717         1.1211       -50.7229      -1.164387      0.9973486
      9366.5000          1.266       1014.602          1.109       -50.3433     -0.7867355              1
      9367.0000         1.2577       1027.035         1.0968       -50.2482     -0.6935844              1
      9367.5000         1.2542       997.8828         1.0847       -50.1531     -0.6004333              1
      9368.0000         1.2887       968.7783         1.0726       -50.0518     -0.5010872              1
      9368.5000         1.3232       939.6738         1.0604       -49.8515     -0.3027382              1
      9369.0000         1.3549       910.5693         1.0567       -49.6511     -0.1042862              1
      9369.5000         1.3801       881.4648         1.0746       -49.4511     0.09376526              1
      9370.0000         1.4054       854.8906         1.0924       -49.2508      0.2921104              1
      9370.5000         1.4151       830.5557         1.1102       -49.0508      0.4901619              1
      9371.0000         1.4162       822.1172         1.1281       -48.8504      0.6886139              1
      9371.5000         1.4173       827.0518         1.1459       -48.6501      0.8869629              1
      9372.0000         1.4184       831.9854         1.1638       -48.4501       1.085011              1
      9372.5000         1.4229       836.9189         1.1816       -48.6197      0.9134598              1
      9373.0000         1.4299       841.8535         1.1979       -48.8809      0.6503105              1
      9373.5000         1.4369       846.7871         1.1997        -49.142      0.3872643              1
      9374.0000         1.4425       852.0312         1.2015       -49.4029      0.1244125              1
      9374.5000         1.4466       857.7139         1.2032       -49.6641     -0.1387405              1
      9375.0000         1.4458       863.3955          1.205       -49.9249     -0.4014893              1
      9375.5000         1.4277       870.3672         1.2068       -50.1861     -0.6646385              1
      9376.0000         1.4096       894.6055         1.2086        -50.447     -0.9274864              1
      9376.5000         1.3915       918.8428         1.2103       -50.7094      -1.191841      0.9969058
      9377.0000         1.3639       943.0811         1.1926        -50.973       -1.45739      0.9926227
      9377.5000         1.3052       967.3184         1.1627       -51.2363      -1.722641      0.9883445
      9378.0000         1.2593       1004.405         1.1327       -51.4996      -1.987888      0.9840663
      9378.5000         1.2331       1044.605         1.1028        -51.763      -2.253242      0.9797864
      9379.0000         1.2068       1084.369         1.0728       -51.7187      -2.210892      0.9804695
      9379.5000         1.1805       1121.748         1.0441       -51.5513      -2.045441       0.983138
      9380.0000         1.1603       1158.641         1.0307       -51.3842      -1.880291      0.9858018
      9380.5000         1.1459       1182.293         1.0174        -51.217      -1.715042       0.988467
      9381.0000         1.1315       1205.898         1.0041       -51.0495      -1.549492      0.9911372
      9381.5000         1.1298        1216.07         0.9907       -50.8824      -1.384342      0.9938009
