#------------------------------------------------------------------------------
# Created by    : vladimir.rabinovich
# Created on    : 09/19/2023 17:20:01
#------------------------------------------------------------------------------
~Version Information Section
VERS.           2.0     :   CWLS log ASCII Standard - VERSION 2.0
WRAP.           NO      :   One line per depth step
~Well Information Section
#MNEM       .UNIT                                         VALUE :DESCRIPTION
#------------------------------------------------------------------------------
STRT        .FT                                            3470 :START DEPTH
STOP        .FT                                           12708 :STOP DEPTH
STEP        .FT                                             0.5 :STEP      
NULL        .                                           -999.25 :NULL      
COMP        .                                     INEXCO OIL CO :COMPANY   
WELL        .                                     ST TR 00794-L :WELL      
FLD         .                                       BLOCK 794-L :FIELD     
LOC         .                                                   :LOCATION  
CNTY        .                        MUSTANG ISLAND LARGE BLOCK :LOCATION  
STAT        .                                             TEXAS :STATE     
CTRY        .                                     UNITED STATES :COUNTRY   
SRVC        .                                                   :SERVICE COMPANY
DATE        .                             9/13/2023 11:18:55 AM :LOG DATE  
API         .                                    42702301710000 :API NUMBER
UWI         .                                    42702301710000 :UNIQUE WELL ID
XCOORD      .                                  319607.894357718 :SURFACE X 
YCOORD      .                                   10038241.944616 :SURFACE Y 
LAT         .                                        27.6026524 :LATITUDE  
LON         .                                       -97.0775955 :LONGITUDE 
ELEV        .FT                                               0 :ELEVATION VALUE
ELEV_TYPE   .                                                GL :ELEVATION REFERENCE TYPE
~Curve Information Section
#MNEM       .UNIT                                      API CODE :CURVE DESCRIPTION
#------------------------------------------------------------------------------
DEPT        .FT                                                 :DEPTH     
ASFL        .OHMM                                               :          
CILD        .MMHO                                               :          
DT          .US/F                                               :          
GR          .GAPI                                               :          
GR_NORM     .GAPI                                               :GammaRay Normalized
ILD         .OHMM                                               :          
ILM         .OHMM                                               :          
SP          .MV                                                 :          
SP_NORM     .MV                                                 :SP Normalized
VSH_GR      .V/V                                                :Volume of Shale from GR
VSH_SP      .V/V                                                :Volume of Shale from SP
~A        DEPTH           ASFL           CILD             DT             GR        GR_NORM            ILD            ILM             SP        SP_NORM         VSH_GR         VSH_SP
# ...
      4122.5000         1.0822       1434.293        125.746        59.9345       82.30862         0.6147         0.8027       -67.3718      -5.458233              1      0.9303401
      4123.0000         1.1115       1390.494       124.2157        59.3053       81.33339         0.6586         0.8367       -66.6558      -4.745113              1      0.9414826
      4123.5000         1.1444       1346.697       123.3929        59.1198       81.04236         0.7071         0.8737       -65.9392      -4.031399              1      0.9526344
      4124.0000         1.1746       1298.166       122.8297        58.9343       80.75134         0.7555         0.9156       -65.2227      -3.317783              1      0.9637846
      4124.5000         1.1908       1242.676       122.0344        58.7488       80.46033         0.8039         0.9482       -64.5145      -2.612469              1      0.9748052
      4125.0000         1.2033       1153.777       120.8184        58.5633       80.16933         0.8329         0.9852        -63.807      -1.907848              1      0.9858149
      4125.5000         1.2084       1078.453       119.3276         58.358       79.84777         0.8614         1.0111       -63.3231      -1.426834      0.9967611      0.9933307
      4126.0000         1.2108       1037.049       115.3063        57.9709       79.24589         0.8898         1.0071       -63.6763      -1.782917      0.9839551      0.9877669
      4126.5000         1.2131       1000.958       110.6855        57.5839       78.64413         0.9183         0.9907       -64.1063      -2.215801      0.9711516      0.9810031
      4127.0000         1.2154       979.3486       106.5447        57.1969       78.04238         0.9466         0.9628       -64.5348      -2.647182      0.9583485      0.9742628
      4127.5000         1.2338       967.6025       105.4755        56.8099       77.44064          0.942         0.9377       -64.9629      -3.078167      0.9455454      0.9675286
      4128.0000         1.2788       977.8389       108.5397        56.4222       76.83782         0.9374         0.9147       -64.5148      -2.632954      0.9327196      0.9744851
      4128.5000         1.3346       1010.065       114.7533        56.2012       76.49205         0.9328         0.8809       -63.9975      -2.118542      0.9253628      0.9825228
      4129.0000         1.3798       1043.039       118.5397        56.7742       77.37071         0.9282         0.8462       -63.5814      -1.705326      0.9440577      0.9889793
      4129.5000         1.4329       1085.799       119.3765        58.0707       79.36503         0.9236         0.8172        -63.163      -1.289806        0.98649      0.9954718
      4130.0000         1.4453        1128.58       119.2145        59.4326       81.46024         0.8784         0.7921       -62.6121     -0.7417908              1              1
      4130.5000         1.3884       1178.756       117.5361        61.1633       84.12412          0.831         0.7656       -62.0612     -0.1937752              1              1
      4131.0000         1.3202       1244.416       115.4451        60.3566       82.87708         0.7836         0.7389       -61.3137      0.5508385              1              1
      4131.5000         1.2821       1310.172       115.1132        58.5352       80.06736         0.7254         0.7207       -60.8033       1.058357              1              1
      4132.0000         1.2485       1376.412       116.8018        56.8987       77.54277         0.6589          0.705       -60.4281       1.430672      0.9477185              1
      4132.5000         1.2122       1450.768        121.515        55.4124       75.24978         0.6009         0.6943       -60.0532       1.802689      0.8989314              1
      4133.0000         1.1828       1546.189       123.6293         54.469       73.79401         0.5924         0.6854       -59.6782       2.174805      0.8679576              1
      4133.5000         1.1677       1638.543       119.6907        53.7512       72.68611         0.5838         0.6927       -59.4604       2.389721      0.8443853              1
      4134.0000         1.0913       1677.992       103.4244        53.0043       71.53335         0.5752         0.7125       -59.4951       2.352139      0.8198585              1
      4134.5000         1.0411       1709.021        92.0201        52.1208       70.16994         0.5723         0.7513       -59.7916        2.05275      0.7908497              1
      4135.0000         1.0087       1708.721        90.0874        51.2374       68.80666         0.6702         0.8294       -60.0883       1.753166      0.7618439              1
      4135.5000         0.9995       1648.811        90.0392         49.994       66.88826          0.794         0.9754       -60.3847        1.45388      0.7210268              1
      4136.0000         0.9808       1338.533        89.6324        48.6649       64.83771         1.0136         1.1567       -60.9007      0.9349976       0.677398              1
      4136.5000         0.9474       1259.635        87.9695        46.6946       61.79836         1.1748         1.3494       -61.7164      0.1164131      0.6127311              1
      4137.0000         0.8854       1204.555        84.6398        43.8113       57.35112         1.3271          1.528       -72.5682      -10.73827       0.518109      0.8478395
      4137.5000         0.9258        1161.99        82.7546        35.7443       44.91022         1.4656         1.6422       -75.7079      -13.88086      0.2534089      0.7987366
      4138.0000         1.0018       1126.914        84.2769        32.2828       39.57133         1.5204         1.7182       -78.3336      -16.50944      0.1398156       0.757665
      4138.5000         1.4884       746.1943        88.5468        30.2087       36.37193         1.5706         1.6863       -77.5645      -15.74322     0.07174326      0.7696372
      4139.0000         1.7822       594.0029        95.0892        28.9242       34.39015         1.6209          1.496       -75.7986      -13.98021      0.0295777      0.7971843
      4139.5000         2.3311       519.8389       102.8594        33.3956       41.28439         1.6531         1.3223       -74.0341      -12.21859      0.1762636      0.8247095
      4140.0000         2.4913       488.1089       110.6295        36.8715       46.64348         1.6531         1.1392       -72.5138      -10.70118      0.2902868      0.8484191
      4140.5000         2.4252       471.2227       116.6776        40.5507        52.3161         1.6532         1.0172       -71.2584      -9.448662      0.4109808      0.8679897
      4141.0000         2.2812       460.0503       121.8146        42.6442       55.54342         1.6532         0.8926       -70.3162      -8.509346      0.4796472      0.8826665
      4141.5000         1.7588       449.8677       124.7351         44.006       57.64243         1.6021         0.8361       -69.8127      -8.008728       0.524307      0.8904886
      4142.0000         1.4901       661.8359       125.8601        44.8088       58.87941         1.5264         0.7957        -69.608      -7.806915      0.5506258      0.8936419
      4142.5000         1.2716       944.4297        124.567        45.3149       59.65887         1.1895         0.7613       -69.6346      -7.836395        0.56721      0.8931813
      4143.0000         1.1669       1013.423       120.1339        45.8208       60.43801         0.9217         0.7352       -69.6611      -7.865784      0.5837876      0.8927221
      4143.5000         0.9372        1066.52       115.8835        46.2275       61.06418         0.7977          0.729       -69.5906      -7.798164      0.5971103      0.8937787
      4144.0000         0.9691       1279.975       115.4402        46.3798       61.29805          0.737         0.7318       -69.4741      -7.684547      0.6020862      0.8955539
      4144.5000         1.0238       1329.449       117.2865        46.2661       61.12172         0.7117         0.7445       -69.0911      -7.304436      0.5983344      0.9014932
