#------------------------------------------------------------------------------
# Created by    : vladimir.rabinovich
# Created on    : 09/19/2023 17:19:47
#------------------------------------------------------------------------------
~Version Information Section
VERS.           2.0     :   CWLS log ASCII Standard - VERSION 2.0
WRAP.           NO      :   One line per depth step
~Well Information Section
#MNEM       .UNIT                                         VALUE :DESCRIPTION
#------------------------------------------------------------------------------
STRT        .FT                                            2960 :START DEPTH
STOP        .FT                                           11758 :STOP DEPTH
STEP        .FT                                             0.5 :STEP      
NULL        .                                           -999.25 :NULL      
COMP        .                             CHAMPLIN PETROLEUM CO :COMPANY   
WELL        .                               OCS G06095 ST00BP00 :WELL      
FLD         .                                           WILDCAT :FIELD     
LOC         .                                                   :LOCATION  
CNTY        .                             GALVESTON LARGE BLOCK :LOCATION  
STAT        .                                             TEXAS :STATE     
CTRY        .                                     UNITED STATES :COUNTRY   
SRVC        .                                                   :SERVICE COMPANY
DATE        .                             9/13/2023 11:19:27 AM :LOG DATE  
API         .                                    42706401150000 :API NUMBER
UWI         .                                    42706401150000 :UNIQUE WELL ID
XCOORD      .                                  1057213.14222316 :SURFACE X 
YCOORD      .                                  10507856.7651171 :SURFACE Y 
LAT         .                                        28.9424301 :LATITUDE  
LON         .                                       -94.8238502 :LONGITUDE 
ELEV        .FT                                              89 :ELEVATION VALUE
ELEV_TYPE   .                                                KB :ELEVATION REFERENCE TYPE
~Curve Information Section
#MNEM       .UNIT                                      API CODE :CURVE DESCRIPTION
#------------------------------------------------------------------------------
DEPT        .FT                                                 :DEPTH     
ASFL        .OHMM                                               :          
CILD        .MMHO                                               :          
GR          .GAPI                                               :          
GR_NORM     .GAPI                                               :GammaRay Normalized
ILD         .OHMM                                               :          
SP          .MV                                                 :          
SP_NORM     .MV                                                 :SP Normalized
VSH_GR      .V/V                                                :Volume of Shale from GR
VSH_SP      .V/V                                                :Volume of Shale from SP
~A        DEPTH           ASFL           CILD             GR        GR_NORM            ILD             SP        SP_NORM         VSH_GR         VSH_SP
# ...
      7650.5000         0.6891       2474.289        41.5623       60.20524         0.3786        82.0358       -57.3876      0.5788348      0.1049588
      7651.0000         0.6167       2625.879         41.093        59.0689         0.3785        82.8218      -58.17921      0.5546576     0.09239342
      7651.5000         0.5568       2720.105         40.487       57.60178         0.3783        83.6078      -58.97083      0.5234421     0.07982811
      7652.0000         0.5361       2745.805        39.6616       55.60378         0.3782        84.0468      -59.41544      0.4809316     0.07277086
      7652.5000         0.5312       2750.676        38.8362       53.60583          0.378        84.4774      -59.85165       0.438422     0.06584682
      7653.0000         0.5438       2755.543        38.3129       52.33883         0.3729        84.7577      -60.13756      0.4114644      0.0613086
      7653.5000         0.5564       2760.418        38.1442       51.92981         0.3677        84.9237      -60.30917       0.402762     0.05858454
      7654.0000          0.569       2768.754        37.9756       51.52099         0.3626        85.0898      -60.48088      0.3940637     0.05585904
      7654.5000         0.5812       2782.824        37.6429       50.71515         0.3574         85.256      -60.65269      0.3769181     0.05313183
      7655.0000          0.593       2796.871        37.1229       49.45615         0.3523        84.9001      -60.30241      0.3501309     0.05869196
      7655.5000         0.5655       2810.941        36.6034       48.19831         0.3471        84.4357      -59.84362      0.3233683     0.06597428
      7656.0000         0.5401       2825.012           36.7        48.4312         0.3423        83.9717      -59.38523      0.3283235     0.07325024
      7656.5000         0.5351       2969.805        37.3835       50.08411         0.3393        83.5071      -58.92625      0.3634917     0.08053577
      7657.0000          0.531       3018.504        38.0657       51.73391         0.3363        83.0425      -58.46726      0.3985938      0.0878213
      7657.5000         0.5345       3052.137        38.6224       53.08003         0.3333        81.9058      -57.33617      0.4272346      0.1057751
      7658.0000          0.538       3075.871         38.754       53.39757         0.3303        80.6475      -56.08348      0.4339909       0.125659
      7658.5000         0.5415       3066.965        38.8856       53.71516         0.3273         79.389      -54.83059      0.4407481      0.1455462
      7659.0000         0.5412       3034.277        38.0251       51.63226         0.3242        77.5283       -52.9755       0.396431       0.174992
      7659.5000         0.5403        3001.59        37.1234       49.44967          0.334        75.7606      -51.21341       0.349993      0.2029617
      7660.0000         0.5373       2964.781        36.2205       47.26421         0.3529          74.89      -50.34843      0.3034938      0.2166916
      7660.5000         0.5343       2867.289        35.3188       45.08162         0.3718        74.3795      -49.84354      0.2570558      0.2247057
      7661.0000         0.5312       2769.797        34.7373       43.67378         0.3907        74.6753      -50.14495      0.2271018      0.2199214
      7661.5000         0.5508       2451.738        34.3801       42.80867         0.4094        74.9711      -50.44637       0.208695      0.2151371
      7662.0000         0.6454        2209.57        34.0234       41.94475         0.4273        75.2668      -50.74767      0.1903138      0.2103544
      7662.5000         0.7399       2155.281        33.7529       41.28939         0.4452        75.8835      -51.36999      0.1763699      0.2004764
      7663.0000          0.839       2121.934        33.7499        41.2813         0.4631        76.9808      -52.47289      0.1761978        0.18297
      7663.5000         0.9019       2169.492        33.7469       41.27317         0.4753        78.0793      -53.57701       0.176025      0.1654443
      7664.0000         0.8748       2217.055         33.832       41.47824         0.4678        78.6444      -54.14772      0.1803881      0.1563853
      7664.5000         0.7538       2264.617        34.2065       42.38352         0.4602         78.691      -54.19994      0.1996494      0.1555566
      7665.0000         0.6114       2356.992        34.5811       43.28904         0.4527        78.7374      -54.25194      0.2189158      0.1547311
      7665.5000         0.5758       2954.691        34.9556       44.19431         0.4451        75.7083      -51.22845      0.2381768      0.2027229
      7666.0000         0.5402       2951.992        35.3307       45.10105         0.4376        73.2773      -48.80307      0.2574692      0.2412211
      7666.5000         0.5141       2888.324        35.7053       46.00656           0.43        71.9194      -47.45078      0.2767353       0.262686
      7667.0000         0.4939        2824.75        36.0798       46.91185         0.4241        71.2723       -46.8093      0.2959967      0.2728683
      7667.5000         0.4933       2679.883        36.5396       48.02349         0.4459        70.9473      -46.48991      0.3196488      0.2779379
      7668.0000         0.5696       2501.387        37.1533       49.50756         0.4678        70.6906      -46.23882      0.3512247      0.2819236
      7668.5000         0.6593       2340.129        37.7675        50.9928         0.4896        70.4335      -45.98733      0.3828256      0.2859154
      7669.0000         0.7584       2208.246        38.3818       52.47831         0.5115         70.457      -46.01644       0.414432      0.2854533
      7669.5000         0.8581       2127.426        38.9961       53.96379         0.5333        70.6721      -46.23715       0.446038        0.28195
      7670.0000         0.9367       2046.516        39.7976       55.90223         0.5445        70.8871      -46.45776      0.4872815      0.2784482
      7670.5000          0.928       1907.525        40.9474       58.68338         0.5468        71.1021      -46.67838       0.546455      0.2749464
      7671.0000         0.8939        1715.43        42.0972       61.46457         0.5491        71.3168      -46.89869       0.605629      0.2714493
      7671.5000         0.8671       1749.775        43.2441       64.23872         0.5513        71.4413       -47.0288      0.6646535      0.2693841
      7672.0000         0.8545       1784.168        43.8088        65.6042         0.5536        71.4921      -47.08522      0.6937065      0.2684886
      7672.5000         0.8418       1818.512        43.2375       64.22105         0.5559        71.5427      -47.14143      0.6642776      0.2675964
      7673.0000         0.8291       1836.199        42.0793       61.41784         0.5521        71.6659      -47.27024      0.6046349      0.2655517
      7673.5000         0.8451       1829.857        40.7805       58.27444         0.5342        71.9191      -47.52905       0.537754      0.2614437
      7674.0000         0.8681        1823.51         39.175       54.38898         0.5163         72.172      -47.78756      0.4550846      0.2573403
      7674.5000         0.8983       1839.119        37.9459       51.41424         0.4985        72.4281      -48.04927      0.3917923      0.2531862
      7675.0000          0.948       1893.504        37.3829       50.05116         0.4806        75.0259      -50.65269      0.3627905      0.2118621
      7675.5000          0.951       1948.455        36.8199       48.68809         0.4627        77.1968       -52.8292      0.3337891      0.1773143
      7676.0000         0.9343       2033.252        36.3317       47.50602         0.4448         78.201        -53.839      0.3086386      0.1612856
      7676.5000         0.8953       2118.047           36.1       46.94454         0.4269         79.574      -55.21762      0.2966923      0.1394029
