#------------------------------------------------------------------------------
# Created by    : vladimir.rabinovich
# Created on    : 09/19/2023 17:22:21
#------------------------------------------------------------------------------
~Version Information Section
VERS.           2.0     :   CWLS log ASCII Standard - VERSION 2.0
WRAP.           NO      :   One line per depth step
~Well Information Section
#MNEM       .UNIT                                         VALUE :DESCRIPTION
#------------------------------------------------------------------------------
STRT        .FT                                            2180 :START DEPTH
STOP        .FT                                            6738 :STOP DEPTH
STEP        .FT                                             0.5 :STEP      
NULL        .                                           -999.25 :NULL      
COMP        .                          SEAGULL ENERGY E & P INC :COMPANY   
WELL        .                               OCS G08131 ST00BP00 :WELL      
FLD         .                              GALVESTON BLOCK 0384 :FIELD     
LOC         .                                                   :LOCATION  
CNTY        .                             GALVESTON LARGE BLOCK :LOCATION  
STAT        .                                             TEXAS :STATE     
CTRY        .                                     UNITED STATES :COUNTRY   
SRVC        .                                                   :SERVICE COMPANY
DATE        .                             9/13/2023 11:19:36 AM :LOG DATE  
API         .                                    42706401890000 :API NUMBER
UWI         .                                    42706401890000 :UNIQUE WELL ID
XCOORD      .                                  986765.057424596 :SURFACE X 
YCOORD      .                                  10402321.6077632 :SURFACE Y 
LAT         .                                          28.64909 :LATITUDE  
LON         .                                        -95.038398 :LONGITUDE 
ELEV        .FT                                             100 :ELEVATION VALUE
ELEV_TYPE   .                                                KB :ELEVATION REFERENCE TYPE
~Curve Information Section
#MNEM       .UNIT                                      API CODE :CURVE DESCRIPTION
#------------------------------------------------------------------------------
DEPT        .FT                                                 :DEPTH     
CALN        .IN                                                 :          
DRHO        .G/CM3                                              :          
GR          .GAPI                                               :          
GR_NORM     .GAPI                                               :GammaRay Normalized
ILD         .OHMM                                               :          
ILM         .OHMM                                               :          
NPSS        .V/V                                                :Neutron Porosity Sandstone
RHOB        .G/CM3                                              :          
SFL         .OHMM                                               :          
SP          .MV                                                 :          
SP_NORM     .MV                                                 :SP Normalized
TENN        .LB                                                 :          
VSH_GR      .V/V                                                :Volume of Shale from GR
VSH_SP      .V/V                                                :Volume of Shale from SP
~A        DEPTH           CALN           DRHO             GR        GR_NORM            ILD            ILM           NPSS           RHOB            SFL             SP        SP_NORM           TENN         VSH_GR         VSH_SP
# ...
      5528.0000          10.84          0.005        96.6667       79.26046         0.9925         1.0398          0.428         2.2265         1.0494           -3.2      -1.258252           2760      0.9842651       0.982025
      5528.5000          10.82          0.004        98.8235       81.20691          0.964         1.0109         0.4341         2.2204         1.0203           -2.6     -0.6582522           2760              1      0.9905964
      5529.0000          10.82          0.003        98.8235       81.21223         0.9363         0.9822         0.4476         2.2153         0.9728           -2.2     -0.2582524           2800              1      0.9963107
      5529.5000          10.86          0.005        96.6667       79.27644         0.9006         0.9448         0.4615         2.2143         0.9268           -1.8      0.1417477           2840      0.9846052              1
      5530.0000             11           0.01        96.4706       79.10528          0.884         0.9264         0.4708         2.2153         0.9002           -1.8      0.1417477           2840      0.9809633              1
      5530.5000             11          0.013        98.4314       80.87533         0.8759         0.9262         0.4754         2.2122          0.868           -1.8      0.1417477           2840              1              1
      5531.0000          10.94          0.003          100.2        82.4724         0.8759         0.9174           0.48         2.2041         0.8371           -1.8      0.1417477           2880              1              1
      5531.5000          10.94         -0.002        98.8235       81.23888          0.868         0.9087         0.4878          2.198          0.822           -1.8      0.1417477           2880              1              1
      5532.0000          10.96         -0.001        97.6471       80.18546          0.868            0.9         0.4884            2.2         0.8146           -1.8      0.1417477           2840              1              1
      5532.5000          10.98          0.001        96.2745       78.95544         0.8759            0.9           0.48         2.2122            0.8           -1.8      0.1417477           2800      0.9777754              1
      5533.0000          11.06          0.002        94.3137       77.19604            0.9         0.9262         0.4604         2.2214         0.7929           -2.2     -0.2582524           2760      0.9403414      0.9963107
      5533.5000          11.12          0.001             90       73.31905         0.9262         0.9532         0.4255         2.2245         0.7929           -2.8     -0.8582523           2760       0.857852      0.9877393
      5534.0000          11.08              0             85       68.82438         0.9624              1         0.3948         2.2173         0.8447           -3.8      -1.858252           2760      0.7622208      0.9734535
      5534.5000             11        -0.0029             81       65.22971         0.9905         1.0377         0.3784         2.2092         1.0187           -4.8      -2.858253           2800      0.6857384      0.9591678
      5535.0000          10.96        -0.0029             80       64.33504         1.0281         1.0867         0.3814         2.2082         1.2255           -5.6      -3.658252           2800      0.6667029      0.9477392
      5535.5000          10.96         -0.002        79.5918       63.97298         1.0668         1.1173         0.3845         2.2163         1.3318           -5.6      -3.658252           2800      0.6589996      0.9477392
      5536.0000          10.94          0.002        78.3673       62.87626          1.107         1.1277         0.3784         2.2296         1.3074           -5.4      -3.458252           2840      0.6356652      0.9505964
      5536.5000          10.94          0.007        77.3469       61.96323         1.1277         1.1487         0.3649         2.2388         1.2599             -5      -3.058252           2840       0.616239      0.9563107
      5537.0000          10.98          0.004        76.3265        61.0502         1.1277         1.1487         0.3661         2.2408         1.2368           -4.4      -2.458252           2800      0.5968127      0.9648821
      5537.5000          10.98              0        77.9592       62.52496         1.1277         1.1487         0.3771         2.2367          1.203           -3.6      -1.658252           2800      0.6281906      0.9763107
      5538.0000          10.98        -0.0049             80         64.367         1.1381         1.1594         0.3863         2.2296         1.1594             -3      -1.058252           2760      0.6673831      0.9848821
      5538.5000          10.98        -0.0069           80.8       65.09234         1.1381         1.1594         0.3924         2.2214         1.0767           -2.6     -0.6582522           2800      0.6828157      0.9905964
      5539.0000          10.92        -0.0059        76.9388       61.62258         1.1701          1.192         0.3912         2.2092         1.0187           -3.6      -1.658252           2800       0.608991      0.9763107
      5539.5000          10.86        -0.0059        72.8571       57.95438          1.192         1.2142         0.3784         2.1898         1.0281           -5.2      -3.258252           2800      0.5309442      0.9534535
      5540.0000           10.8        -0.0039        69.0196       54.50596         1.2255         1.2483         0.3594         2.1898         1.1701           -7.2      -5.258252           2800      0.4575736      0.9248821
      5540.5000        10.7402              0         70.204       55.57725         1.2598         1.2833         0.3462         2.2061         1.3072        -8.6008      -6.659052       2800.537       0.480367      0.9048707
      5541.0000        10.7205         0.0001         70.815       56.13248         1.2713          1.295         0.3438         2.2205         1.4072        -8.8018      -6.860052       2801.328      0.4921803      0.9019992
      5541.5000        10.7606         0.0001        69.4103       54.87357         1.2948         1.3068         0.3468         2.2205         1.3685        -8.6035      -6.661753        2802.12      0.4653952      0.9048321
      5542.0000        10.8804        -0.0008        67.6386       53.28437         1.3308         1.3308         0.3492         2.2083         1.3186        -8.6051      -6.663352       2802.914      0.4315824      0.9048092
      5542.5000        10.8407        -0.0017        68.0303       53.64223         1.3553         1.3429         0.3438         2.1972         1.3805        -8.8055      -6.863752        2803.71      0.4391963      0.9019464
      5543.0000        10.7216        -0.0027        68.6199        54.1782          1.393         1.3551         0.3342         2.1952         1.4453        -9.2044      -7.262652       2804.507         0.4506      0.8962478
      5543.5000        10.6424        -0.0016        69.2106       54.71516         1.4186         1.3673         0.3277         2.1952         1.4449        -9.6026      -7.660852       2805.305      0.4620246      0.8905593
      5544.0000         10.603        -0.0016        69.6049       55.07535         1.4446         1.3797         0.3219         2.1953         1.4183            -10      -8.058252       2806.106      0.4696883      0.8848821
      5544.5000        10.5637         0.0004         72.023       57.25698         1.4846          1.431         0.3195         2.1964         1.3921       -10.3955      -8.453753       2806.908      0.5161059      0.8792321
      5545.0000        10.5245         0.0025        73.0315       58.16995         1.6724         1.5117         0.3085         2.1852         1.3665       -10.5938      -8.652052       2807.711      0.5355309      0.8763993
      5545.5000        10.4458         0.0005        73.0285       58.17258         1.8157         1.6264         0.2764         2.1369         1.3291       -10.7925      -8.850752       2808.516      0.5355869      0.8735607
