#------------------------------------------------------------------------------
# Created by    : vladimir.rabinovich
# Created on    : 09/19/2023 17:21:35
#------------------------------------------------------------------------------
~Version Information Section
VERS.           2.0     :   CWLS log ASCII Standard - VERSION 2.0
WRAP.           NO      :   One line per depth step
~Well Information Section
#MNEM       .UNIT                                         VALUE :DESCRIPTION
#------------------------------------------------------------------------------
STRT        .FT                                            4200 :START DEPTH
STOP        .FT                                            8641 :STOP DEPTH
STEP        .FT                                             0.5 :STEP      
NULL        .                                           -999.25 :NULL      
COMP        .                                       HUNT OIL CO :COMPANY   
WELL        .                               OCS G25526 ST00BP00 :WELL      
FLD         .                                           WILDCAT :FIELD     
LOC         .                                                   :LOCATION  
CNTY        .                             GALVESTON LARGE BLOCK :LOCATION  
STAT        .                                             TEXAS :STATE     
CTRY        .                                     UNITED STATES :COUNTRY   
SRVC        .                                                   :SERVICE COMPANY
DATE        .                             9/13/2023 11:19:33 AM :LOG DATE  
API         .                                    42706404520000 :API NUMBER
UWI         .                                    42706404520000 :UNIQUE WELL ID
XCOORD      .                                  1090250.84236946 :SURFACE X 
YCOORD      .                                  10532258.5226608 :SURFACE Y 
LAT         .                                         29.010895 :LATITUDE  
LON         .                                        -94.721682 :LONGITUDE 
ELEV        .FT                                             108 :ELEVATION VALUE
ELEV_TYPE   .                                                KB :ELEVATION REFERENCE TYPE
~Curve Information Section
#MNEM       .UNIT                                      API CODE :CURVE DESCRIPTION
#------------------------------------------------------------------------------
DEPT        .FT                                                 :DEPTH     
CALI        .IN                                                 :          
DCAL        .IN                                                 :          
DFL         .OHMM                                               :          
DLOD        .LB                                                 :          
DPHI        .DEC                                                :          
DRHO        .G/C3                                               :          
GR          .GAPI                                               :          
GR_NORM     .GAPI                                               :GammaRay Normalized
HDCN        .MMHO                                               :          
HO24        .OHMM                                               :          
HO30        .OHMM                                               :          
HO40        .OHMM                                               :          
HO60        .OHMM                                               :          
HO90        .OHMM                                               :          
HT24        .OHMM                                               :          
HT30        .OHMM                                               :          
HT40        .OHMM                                               :          
HT60        .OHMM                                               :          
HT90        .OHMM                                               :          
NPHI        .DEC                                                :          
RHOB        .G/C3                                               :          
RWA         .OHMM                                               :          
SP_NORM     .MV                                                 :SP Normalized
SPA         .MV                                                 :          
TENS        .LBS                                                :          
VSH_GR      .V/V                                                :Volume of Shale from GR
VSH_SP      .V/V                                                :Volume of Shale from SP
~A        DEPTH           CALI           DCAL            DFL           DLOD           DPHI           DRHO             GR        GR_NORM           HDCN           HO24           HO30           HO40           HO60           HO90           HT24           HT30           HT40           HT60           HT90           NPHI           RHOB            RWA        SP_NORM            SPA           TENS         VSH_GR         VSH_SP
# ...
      5090.0000        12.7818         0.5318         0.6409       1420.484         0.2173         0.0215        66.4141       65.41154       1856.543         0.5515         0.5528         0.5538         0.5551         0.5567         0.5479         0.5455         0.5437         0.5414         0.5386          0.365         2.2914         0.0514      -18.97998       145.5561       2977.004      0.6896072      0.6926928
      5090.5000        12.8324         0.5824         0.6319       1414.369         0.2049         0.0214        68.7765       68.16135       1735.341         0.5771         0.5792         0.5808          0.583         0.5856         0.5822         0.5807         0.5795         0.5781         0.5763         0.3667         2.3119         0.0567      -12.94279       149.5615       2969.838      0.7481139      0.8087925
      5091.0000        12.8189         0.5689         0.6556       1414.369         0.1986         0.0233        70.7113       70.41341       1632.149         0.6061         0.6085         0.6103         0.6127         0.6157         0.6169         0.6158          0.615          0.614         0.6127         0.3698         2.3223         0.0616      -7.788647       152.9812       2965.231      0.7960299      0.9079106
      5091.5000        12.8726         0.6226         0.6799        1402.14         0.1982         0.0231        70.6644       70.35848       1537.177         0.6562         0.6612         0.6652         0.6703         0.6768         0.6526         0.6521         0.6517         0.6512         0.6505         0.3667          2.323         0.0634      -3.865532       155.5844       2965.744      0.7948613      0.9833552
      5092.0000        13.1109         0.8609         0.7047       1404.178         0.2036         0.0216        71.1285       70.89842       1495.562         0.7059         0.7045         0.7034          0.702         0.7002         0.6832         0.6795         0.6766          0.673         0.6686         0.3593          2.314         0.0621      -1.779848       156.9689       2967.791      0.8063494              1
      5092.5000        13.1484         0.8984         0.6859        1402.14         0.2238          0.012        73.0373       73.12019       1525.704         0.7039          0.694         0.6864          0.677         0.6658         0.6963         0.6856         0.6775         0.6674         0.6554         0.3712         2.2807         0.0694      -1.692312       157.0281       2966.938      0.8536211              1
      5093.0000        13.1278         0.8778         0.6406       1408.254         0.2464         0.0173        71.8952        71.7903       1599.878         0.7054          0.685         0.6699         0.6515         0.6303         0.6861         0.6697         0.6576         0.6425          0.625         0.4022         2.2435          0.086      -3.067837       156.1169       2968.132      0.8253255      0.9986954
      5093.5000        13.0556         0.8056         0.6015        1389.91         0.2629         0.0324         66.993       66.08311       1687.677          0.677         0.6558         0.6401         0.6211         0.5993         0.6489         0.6338         0.6226         0.6087         0.5925          0.421         2.2161         0.0874      -5.299583       154.6378       2974.444      0.7038959      0.9557772
      5094.0000        13.3529         1.1029         0.5839        1389.91         0.2617         0.0353        63.8379       62.40981       1760.174         0.5835         0.5774         0.5728         0.5669         0.5599         0.6013         0.5927         0.5861         0.5779         0.5681         0.4109         2.2183         0.0773      -6.523273       153.8273       2983.146      0.6257407      0.9322448
      5094.5000        14.0801         1.8301         0.5836       1416.408         0.2503         0.0093        63.6501       62.19086       1767.889          0.535         0.5397         0.5434         0.5483         0.5544         0.5768          0.574         0.5718          0.569         0.5656         0.3976          2.237         0.0737      -6.489408       153.8509       2988.776      0.6210822       0.932896
      5095.0000        14.4306         2.1806         0.6337       1438.829         0.2356          -0.01        66.5706       65.59039       1703.197         0.5696          0.577         0.5828         0.5906         0.6003         0.5904         0.5896         0.5889         0.5881         0.5871          0.399         2.2612         0.0767      -6.196662       154.0462       2988.094      0.6934126      0.9385257
      5095.5000        13.8459         1.5959         0.7128       1432.714         0.2251        -0.0041        66.8209       65.88144       1648.247         0.6426         0.6451          0.647         0.6495         0.6527         0.6264         0.6213         0.6175         0.6126         0.6067         0.3942         2.2787         0.0728      -6.769362       153.6675        2981.61      0.6996051      0.9275123
      5096.0000        12.9449         0.6949         0.7471       1414.369           0.22         0.0127        63.6188       62.15342       1697.009         0.6782         0.6648         0.6548         0.6424         0.6278         0.6488         0.6328         0.6209         0.6063         0.5893         0.3789          2.287         0.0648      -8.786996       152.3304       2976.833      0.6202855      0.8887116
      5096.5000        12.9049         0.6549         0.6462       1396.025         0.2303         0.0101        60.6306       58.67441       1850.783         0.6485         0.6183         0.5967          0.571         0.5425         0.6367         0.6095         0.5899         0.5665         0.5403         0.3682         2.2699         0.0593      -12.13368       150.1118       2971.374       0.546264      0.8243522
      5097.0000        12.8193         0.5693         0.5756       1387.871          0.244         0.0015         59.864       57.78164        2017.79         0.5958         0.5641         0.5417         0.5154         0.4865          0.603          0.572           0.55         0.5241         0.4956         0.3633         2.2475         0.0603      -15.79274        147.686       2969.326       0.527269      0.7539858
      5097.5000         12.805          0.555         0.5585        1377.68         0.2542         0.0016        62.4089       60.74393       2129.309         0.5621         0.5338         0.5137         0.4899         0.4637         0.5681         0.5398         0.5197         0.4959         0.4696         0.3631         2.2306         0.0553      -18.90756       145.6212       2968.985      0.5902964      0.6940855
      5098.0000        12.8355         0.5855         0.5473       1420.484          0.265         0.0157        65.5171       64.36197       2200.783         0.5494         0.5255         0.5082         0.4876         0.4646         0.5267         0.5065         0.4919         0.4743         0.4544         0.3765         2.2128         0.0546      -19.68542       145.1064       2968.985       0.667276      0.6791266
      5098.5000        13.0251         0.7751         0.5075       1444.944         0.2979         0.0174        64.8027       63.52997       2316.229         0.4988         0.4874         0.4789         0.4684         0.4562         0.4709         0.4604         0.4526          0.443         0.4317         0.3948         2.1585         0.0725      -18.60779       145.8223        2970.35      0.6495738      0.6998501
      5099.0000        13.1731         0.9231         0.4692       1446.982         0.3367        -0.0092        59.9265       57.85307       2502.401          0.399         0.3987         0.3985         0.3983          0.398         0.4206         0.4152          0.411         0.4058         0.3996         0.4062         2.0945          0.081      -17.44088       146.5974       2969.667      0.5287886      0.7222908
      5099.5000        13.3272         1.0772         0.4126       1457.173         0.3552        -0.0507        58.3099       55.97079       2663.717         0.3685         0.3669         0.3657         0.3641         0.3622         0.4004         0.3939         0.3889         0.3827         0.3754         0.4115         2.0639          0.085      -19.45854       145.2603       2967.791      0.4887403      0.6834896
