#------------------------------------------------------------------------------
# Created by    : vladimir.rabinovich
# Created on    : 09/19/2023 17:20:32
#------------------------------------------------------------------------------
~Version Information Section
VERS.           2.0     :   CWLS log ASCII Standard - VERSION 2.0
WRAP.           NO      :   One line per depth step
~Well Information Section
#MNEM       .UNIT                                         VALUE :DESCRIPTION
#------------------------------------------------------------------------------
STRT        .FT                                             642 :START DEPTH
STOP        .FT                                           11989 :STOP DEPTH
STEP        .FT                                             0.5 :STEP      
NULL        .                                           -999.25 :NULL      
COMP        .                       CORPUS CHRISTI OIL & GAS CO :COMPANY   
WELL        .                               OCS G05177 ST00BP00 :WELL      
FLD         .                              GALVESTON BLOCK 0151 :FIELD     
LOC         .                                                   :LOCATION  
CNTY        .                             GALVESTON LARGE BLOCK :LOCATION  
STAT        .                                             TEXAS :STATE     
CTRY        .                                     UNITED STATES :COUNTRY   
SRVC        .                                                   :SERVICE COMPANY
DATE        .                             9/13/2023 11:19:27 AM :LOG DATE  
API         .                                    42706401010000 :API NUMBER
UWI         .                                    42706401010000 :UNIQUE WELL ID
XCOORD      .                                   1130272.6689428 :SURFACE X 
YCOORD      .                                  10609756.0111422 :SURFACE Y 
LAT         .                                         29.225567 :LATITUDE  
LON         .                                        -94.599775 :LONGITUDE 
ELEV        .FT                                              83 :ELEVATION VALUE
ELEV_TYPE   .                                                KB :ELEVATION REFERENCE TYPE
~Curve Information Section
#MNEM       .UNIT                                      API CODE :CURVE DESCRIPTION
#------------------------------------------------------------------------------
DEPT        .FT                                                 :DEPTH     
ASN         .OHMM                                               :          
CILD        .MMHO                                               :          
DT          .US/F                                               :          
ILD         .OHMM                                               :          
RHOB        .G/CC                                               :          
SP          .MV                                                 :          
SP_NORM     .MV                                                 :SP Normalized
VSH_SP      .V/V                                                :Volume of Shale from SP
~A        DEPTH            ASN           CILD             DT            ILD           RHOB             SP        SP_NORM         VSH_SP
# ...
      5185.0000          0.499       4284.508       122.8639         0.1777        -999.25      -134.0288      -77.26624              0
      5185.5000         0.4973       4353.031       121.0162          0.178        -999.25      -134.0051      -77.24689              0
      5186.0000         0.4957       4418.258       119.1684         0.1783        -999.25      -133.9802      -77.22633              0
      5186.5000          0.494       4462.781       118.0941         0.1786        -999.25      -133.9324      -77.18288              0
      5187.0000         0.4921       4667.195       118.1026         0.1789        -999.25      -133.8845      -77.13933              0
      5187.5000         0.4883       4826.102       118.2657         0.1817        -999.25      -133.8367      -77.09587              0
      5188.0000         0.4846       4759.023       118.4288         0.1884        -999.25      -133.7886      -77.05212              0
      5188.5000         0.4871         4667.5        117.503         0.1951        -999.25      -133.7231      -76.99096              0
      5189.0000         0.4996        4576.07       116.2453         0.2018        -999.25       -133.658      -76.93021              0
      5189.5000         0.5121       4426.242       115.1254         0.2085        -999.25      -133.5703      -76.84685              0
      5190.0000         0.5241       4265.344       113.0626         0.2184        -999.25      -133.3269       -76.6078              0
      5190.5000         0.5344           4034       109.9657         0.2326        -999.25      -133.0835      -76.36873              0
      5191.0000         0.5448       3783.402       106.7259         0.2469        -999.25      -132.8398      -76.12938              0
      5191.5000         0.5551       3280.688       102.7126         0.2611        -999.25      -132.5991      -75.89303              0
      5192.0000         0.5579       3213.113        98.8541         0.2674        -999.25      -132.3596      -75.65787              0
      5192.5000         0.5545       3129.719        94.0675         0.2636        -999.25      -132.1201      -75.42271              0
      5193.0000          0.551       3039.086        89.4356         0.2598        -999.25      -131.9636      -75.27055              0
      5193.5000         0.5467       3016.977        88.3612         0.2559        -999.25      -131.9158       -75.2271              0
      5194.0000         0.5425       3064.289        88.9884         0.2497        -999.25      -131.8679      -75.18355              0
      5194.5000         0.5382        3182.52        94.4106         0.2419        -999.25      -131.8364      -75.15639              0
      5195.0000         0.5339       3369.371        98.4407          0.234        -999.25      -131.8103      -75.13464              0
      5195.5000         0.5295       3443.984       104.0175         0.2262        -999.25      -131.7703      -75.09897              0
      5196.0000         0.5249       3645.656       108.9757         0.2184        -999.25       -131.458      -74.79102              0
      5196.5000         0.5198           3778       106.8186         0.2106        -999.25      -131.1455      -74.48286              0
      5197.0000         0.5144           3830       106.2084          0.205        -999.25      -130.6233      -73.96501              0
      5197.5000         0.5025           3882       106.2168         0.2064        -999.25      -129.9407      -73.28676              0
      5198.0000         0.4906       3934.063       107.9414         0.2079        -999.25      -129.2585      -72.60889              0
      5198.5000         0.4787       4006.629       109.3274         0.2093        -999.25      -128.4397      -71.79443              0
      5199.0000         0.4681       4238.195       107.7036         0.2246        -999.25      -127.3751      -70.73418              0
      5199.5000         0.4706       4506.094       103.2026         0.2434        -999.25      -126.3096      -69.67303    0.004670933
      5200.0000         0.4968       4693.547        92.1853         0.2622        -999.25      -125.2449      -68.61268     0.01981888
      5200.5000         0.5193       4642.742        86.6253         0.2662        -999.25      -124.1425      -67.51462     0.03550546
      5201.0000         0.5359       4414.867        85.5488         0.2663        -999.25        -123.03      -66.40646     0.05133623
      5201.5000         0.5524        3219.25        86.6421         0.2665        -999.25      -121.9175      -65.29831     0.06716701
      5202.0000          0.569       3128.418        86.9578         0.2653        -999.25        -121.08      -64.46515      0.0790693
      5202.5000         0.5894       3088.047        85.5762         0.2591        -999.25      -120.5614      -63.95089      0.0864158
      5203.0000           0.61       3597.945        84.9639         0.2528        -999.25       -121.011      -64.40484     0.07993088
      5203.5000         0.5965       3754.855        85.4384         0.2466        -999.25      -122.0095      -65.40768     0.06560451
      5204.0000         0.5777       3851.473        86.3749         0.2403        -999.25      -123.0089      -66.41143     0.05126528
      5204.5000         0.5589       3936.375        89.3223         0.2341        -999.25      -124.0312      -67.43806     0.03659908
      5205.0000         0.5402       3988.438        92.4243         0.2278        -999.25      -125.1722      -68.58342     0.02023686
      5205.5000         0.5238       4014.688        97.0731         0.2234        -999.25      -126.3141      -69.72966       0.003862
      5206.0000         0.5167       4051.695        98.6283         0.2223        -999.25      -127.4551        -70.875              0
      5206.5000         0.5096        4092.07        99.2555         0.2212        -999.25      -127.2738      -70.69805              0
      5207.0000         0.5055       4132.492        99.8826           0.22        -999.25      -126.9125      -70.34109              0
      5207.5000         0.5082       4160.727       101.2998         0.2189        -999.25      -126.5513      -69.98424   0.0002251761
      5208.0000         0.5108           4133       102.2199         0.2178        -999.25      -125.9551      -69.39238    0.008680289
      5208.5000          0.512       4059.625       102.5604         0.2173        -999.25      -125.2839      -68.72552     0.01820679
      5209.0000         0.5131       3986.313       103.3214         0.2214        -999.25      -124.6128      -68.05877     0.02773187
      5209.5000         0.5141       3883.613       105.3407         0.2255        -999.25      -122.9288      -66.37911     0.05172697
      5210.0000         0.5151       3802.914       110.1441         0.2296        -999.25      -121.1351      -64.58975     0.07728925
      5210.5000         0.5051       3743.773       112.4728         0.2336        -999.25      -119.8507       -63.3097     0.09557571
      5211.0000          0.494       3684.637       119.2478         0.2377        -999.25      -118.5663      -62.02964      0.1138622
      5211.5000         0.4828       3625.445       122.1953         0.2414        -999.25      -117.4216      -60.88929      0.1301531
      5212.0000         0.4753       3538.559       123.2844         0.2409        -999.25       -116.676      -60.14803      0.1407424
      5212.5000         0.4688       3592.555       121.7483         0.2405        -999.25      -115.9304      -59.40677      0.1513318
      5213.0000         0.4668       3747.469       119.4367           0.24        -999.25      -115.4911      -58.97182      0.1575455
      5213.5000         0.4701       3841.992       115.1143         0.2396        -999.25      -115.2914      -58.77646      0.1603363
      5214.0000         0.4734        3885.91       109.0904         0.2391        -999.25      -116.7164      -60.20581       0.139917
