#------------------------------------------------------------------------------
# Created by    : vladimir.rabinovich
# Created on    : 09/19/2023 17:22:17
#------------------------------------------------------------------------------
~Version Information Section
VERS.           2.0     :   CWLS log ASCII Standard - VERSION 2.0
WRAP.           NO      :   One line per depth step
~Well Information Section
#MNEM       .UNIT                                         VALUE :DESCRIPTION
#------------------------------------------------------------------------------
STRT        .FT                                            2222 :START DEPTH
STOP        .FT                                            8603 :STOP DEPTH
STEP        .FT                                             0.5 :STEP      
NULL        .                                           -999.25 :NULL      
COMP        .                                    HRUBETZ OIL CO :COMPANY   
WELL        .                                     ST TR 00028-L :WELL      
FLD         .                                           WILDCAT :FIELD     
LOC         .                                                   :LOCATION  
CNTY        .                           HIGH ISLAND LARGE BLOCK :LOCATION  
STAT        .                                             TEXAS :STATE     
CTRY        .                                     UNITED STATES :COUNTRY   
SRVC        .                                                   :SERVICE COMPANY
DATE        .                             9/13/2023 11:19:15 AM :LOG DATE  
API         .                                    42708303040000 :API NUMBER
UWI         .                                    42708303040000 :UNIQUE WELL ID
XCOORD      .                                  1211101.11829014 :SURFACE X 
YCOORD      .                                  10709910.5532953 :SURFACE Y 
LAT         .                                         29.503814 :LATITUDE  
LON         .                                       -94.3499952 :LONGITUDE 
ELEV        .FT                                              60 :ELEVATION VALUE
ELEV_TYPE   .                                                KB :ELEVATION REFERENCE TYPE
~Curve Information Section
#MNEM       .UNIT                                      API CODE :CURVE DESCRIPTION
#------------------------------------------------------------------------------
DEPT        .FT                                                 :DEPTH     
CALI        .IN                                                 :          
GR          .GAPI                                               :          
GR_NORM     .GAPI                                               :GammaRay Normalized
ILD         .OHMM                                               :          
ILM         .OHMM                                               :          
RHOB        .G/C3                                               :          
SFL         .OHMM                                               :          
SP          .MV                                                 :          
SP_NORM     .MV                                                 :SP Normalized
VSH_GR      .V/V                                                :Volume of Shale from GR
VSH_SP      .V/V                                                :Volume of Shale from SP
~A        DEPTH           CALI             GR        GR_NORM            ILD            ILM           RHOB            SFL             SP        SP_NORM         VSH_GR         VSH_SP
# ...
      4764.5000        15.1312        60.7621       69.54444         0.8139         0.9768         2.2638         1.1566       -82.5045      -2.367355      0.7775413      0.9815222
      4765.0000        15.1284        59.8561       68.23521         0.7959         0.9406         2.2611          1.179       -82.5754      -2.435066      0.7496854      0.9806072
      4765.5000        15.1255        60.7982       69.59718         0.7787         0.9058         2.2585         1.1908       -82.5464      -2.402878      0.7786633      0.9810422
      4766.0000         15.123        63.2085       73.08122          0.762         0.8723         2.2542         1.1571       -82.5173       -2.37059       0.852792      0.9814785
      4766.5000        15.1256        64.7831       75.35738         0.7549           0.84         2.2481         1.1376       -82.4884      -2.338501      0.9012207      0.9819121
      4767.0000        15.1283        65.7576       76.76617         0.7534         0.8205         2.2414         1.1222       -82.4594      -2.306305       0.931195      0.9823472
      4767.5000         15.131        66.2606       77.49346         0.7519         0.8028         2.2319         1.1223       -82.4402       -2.28392      0.9466694      0.9826497
      4768.0000        15.1336        66.0802       77.23299         0.7503         0.7854         2.2444         1.1225        -82.436      -2.276527      0.9411275      0.9827496
      4768.5000        15.1363        65.8917       76.96083         0.7488         0.7684         2.2553         1.1495       -82.4319      -2.269241      0.9353368      0.9828481
      4769.0000         15.139        65.6832       76.65975         0.7476         0.7604         2.2613         1.1698       -82.4279      -2.262054      0.9289309      0.9829452
      4769.5000         15.142        65.4747       76.35867         0.7466         0.7579         2.2665         1.1853       -82.5349       -2.36586      0.9225248      0.9815424
      4770.0000        15.1455        66.3503       77.62451         0.7457         0.7555         2.2644         1.1768       -82.7471      -2.574875      0.9494577      0.9787179
      4770.5000         15.149        67.7439       79.63905         0.7448          0.753         2.2559         1.1677       -82.9591      -2.783684      0.9923201      0.9758962
      4771.0000        15.1524        68.7753       81.13007         0.7438         0.7516          2.244          1.145       -83.1713      -2.992699              1      0.9730716
      4771.5000        15.1559        67.6277       79.47166         0.7425         0.7532         2.2373         1.1254        -83.342       -3.16021      0.9887587       0.970808
      4772.0000        15.1593        66.4813       77.81496         0.7404         0.7547         2.2359         1.1162       -83.3088      -3.123817      0.9535099      0.9712998
      4772.5000        15.1628        66.2916       77.54105         0.7383         0.7563         2.2356         1.1438       -83.2755      -3.087326       0.947682      0.9717929
      4773.0000        15.1689        68.5599       80.81986         0.7363         0.7589         2.2392         1.1759       -83.2423      -3.050941              1      0.9722846
      4773.5000        15.1919        69.9071       82.76733         0.7298         0.7625         2.2344         1.1662       -83.1509      -2.956352              1      0.9735628
      4774.0000         15.215        69.3822       82.00894         0.7205         0.7662         2.2256         1.1431       -82.6967      -2.498962              1      0.9797438
      4774.5000         15.238        68.2908       80.43176         0.7114         0.7698         2.2168         1.0908       -82.2419       -2.04097              1      0.9859328
      4775.0000         15.261        67.6008       79.43472         0.7031         0.7637         2.2066         1.0739       -81.4399      -1.235786      0.9879729      0.9968137
      4775.5000        15.2883        67.0435        78.6295         0.6977          0.752          2.196         1.0762       -80.5463     -0.3389969      0.9708405              1
      4776.0000        15.3178        67.8014       79.72521         0.6922         0.7405         2.1854         1.0788       -80.2222    -0.01170349      0.9941534              1
      4776.5000        15.3473        70.7794       84.02981         0.6895         0.7292         2.1796         1.0814       -80.1683     0.04538727              1              1
      4777.0000        15.3716        73.7622       88.34132          0.687         0.7173         2.1754          1.084       -80.1571     0.05977631              1              1
      4777.5000        15.3719          74.42       89.29236         0.6845          0.705         2.1712         1.0848       -80.2365    -0.01644135              1              1
      4778.0000        15.3722        74.0718       88.78937          0.682          0.693         2.1673         1.0849       -80.3157    -0.09244537              1              1
      4778.5000        15.3724        73.5635       88.05496         0.6794         0.6812         2.1635          1.085       -80.3987     -0.1722565              1              1
      4779.0000        15.3782        73.0554       87.32084         0.6769         0.6746         2.1598         1.0859       -80.4854     -0.2557678              1              1
      4779.5000        15.3932        73.3799       87.79015         0.6744         0.6703          2.156         1.0876        -80.572       -0.33918              1              1
      4780.0000        15.4082        75.3944       90.70212         0.6704         0.6661         2.1511         1.0884        -81.028     -0.7919922              1              1
      4780.5000        15.4232        77.5404       93.80415         0.6631         0.6606         2.1459         1.0672       -81.5179      -1.278702              1      0.9962338
      4781.0000        15.4481        77.0742        93.1306         0.6559         0.6549         2.1505         1.0481       -81.7366      -1.494217              1      0.9933214
      4781.5000        15.4782        76.2594       91.95319         0.6487         0.6457         2.1572         1.0354        -81.877      -1.631424              1      0.9914672
      4782.0000        15.5084        75.8076       91.30047         0.6328         0.6356         2.1633         1.0249        -81.994      -1.745239              1      0.9899292
      4782.5000        15.5286        75.3558       90.64772         0.6141         0.6228         2.1658         1.0264       -82.0652      -1.813248              1      0.9890102
      4783.0000        15.5181        74.9041       89.99512         0.5958          0.609         2.1633         1.0279       -82.1364      -1.881256              1      0.9880911
      4783.5000        15.5482        74.6816       89.67381         0.5919         0.5956         2.1608         1.0292       -82.2097       -1.95137              1      0.9871436
      4784.0000        15.6133        74.7703       89.80229         0.5932         0.5916         2.1603         1.0303       -82.2913      -2.029778              1      0.9860841
      4784.5000        15.7103        74.8589       89.93063         0.5946         0.5897         2.1609         1.0315       -82.3729      -2.108192              1      0.9850245
      4785.0000        15.7675        74.9475       90.05897         0.5975         0.5879         2.1614         1.0326       -82.4409      -2.173004              1      0.9841486
      4785.5000        15.7678        75.4611       90.80158         0.6033         0.5945          2.162         1.0261        -82.494      -2.222916              1      0.9834741
      4786.0000        15.7699        76.0961       91.71967         0.6092         0.6116          2.163          1.018       -82.3364      -2.062126              1       0.985647
      4786.5000        15.7765        76.7311       92.63775         0.6151         0.6293         2.1645         1.0099       -81.8892      -1.611732              1      0.9917334
