#------------------------------------------------------------------------------
# Created by    : vladimir.rabinovich
# Created on    : 09/19/2023 17:20:58
#------------------------------------------------------------------------------
~Version Information Section
VERS.           2.0     :   CWLS log ASCII Standard - VERSION 2.0
WRAP.           NO      :   One line per depth step
~Well Information Section
#MNEM       .UNIT                                         VALUE :DESCRIPTION
#------------------------------------------------------------------------------
STRT        .FT                                             521 :START DEPTH
STOP        .FT                                           11050 :STOP DEPTH
STEP        .FT                                             0.5 :STEP      
NULL        .                                           -999.25 :NULL      
COMP        .                                      SHELL OIL CO :COMPANY   
WELL        .                                     ST TR 00335-L :WELL      
FLD         .                                           WILDCAT :FIELD     
LOC         .                                                   :LOCATION  
CNTY        .                                BRAZOS LARGE BLOCK :LOCATION  
STAT        .                                             TEXAS :STATE     
CTRY        .                                     UNITED STATES :COUNTRY   
SRVC        .                                                   :SERVICE COMPANY
DATE        .                             9/13/2023 11:18:52 AM :LOG DATE  
API         .                                    42704000130000 :API NUMBER
UWI         .                                    42704000130000 :UNIQUE WELL ID
XCOORD      .                                  903482.990868916 :SURFACE X 
YCOORD      .                                   10450808.276789 :SURFACE Y 
LAT         .                                        28.7782296 :LATITUDE  
LON         .                                       -95.3008656 :LONGITUDE 
ELEV        .FT                                              81 :ELEVATION VALUE
ELEV_TYPE   .                                                DF :ELEVATION REFERENCE TYPE
~Curve Information Section
#MNEM       .UNIT                                      API CODE :CURVE DESCRIPTION
#------------------------------------------------------------------------------
DEPT        .FT                                                 :DEPTH     
ASN         .OHMM                                               :          
CILD        .MMHO                                               :          
ILD         .OHMM                                               :          
SP          .MV                                                 :          
SP_NORM     .MV                                                 :SP Normalized
VSH_SP      .V/V                                                :Volume of Shale from SP
~A        DEPTH            ASN           CILD            ILD             SP        SP_NORM         VSH_SP
# ...
      2611.0000         0.7042       1408.709         0.5444       -48.2313      -6.767887      0.8604486
      2611.5000         0.7063       1411.039         0.5399       -47.7605      -6.297089      0.8778856
      2612.0000         0.7078       1413.369         0.5354       -47.2833      -5.819885      0.8955598
      2612.5000         0.7086       1421.693         0.5309        -46.806      -5.342587      0.9132375
      2613.0000         0.7095       1430.406         0.5263       -46.3288      -4.865387      0.9309116
      2613.5000         0.7104       1439.119         0.5218       -45.8516      -4.388187      0.9485856
      2614.0000         0.7108       1468.309         0.5173       -45.3743      -3.910885      0.9662635
      2614.5000         0.7112        1502.25         0.5128       -44.9027      -3.439285      0.9837302
      2615.0000         0.7116       1522.426         0.5039       -44.4619      -2.998486              1
      2615.5000          0.712       1542.604         0.4946       -44.0209      -2.557487              1
      2616.0000           0.71        1557.92         0.4854       -43.5799      -2.116486              1
      2616.5000         0.7079       1570.844         0.4761       -43.1389      -1.675488              1
      2617.0000         0.7059       1583.768         0.4669       -42.8021      -1.338688              1
      2617.5000         0.7032       1599.941         0.4577       -42.5291      -1.065685              1
      2618.0000         0.6983       1618.998          0.449       -42.3383     -0.8748856              1
      2618.5000         0.6934       1638.063         0.4427       -42.5957      -1.132286              1
      2619.0000         0.6884       1654.182         0.4363        -43.134      -1.670586              1
      2619.5000         0.6829       1668.201           0.43       -43.6726      -2.209187              1
      2620.0000         0.6772       1682.221         0.4236       -44.2112      -2.747787              1
      2620.5000         0.6702       1696.238         0.4173       -44.7351      -3.271687      0.9899375
      2621.0000         0.6632       1706.334         0.4109       -45.2228      -3.759388      0.9718745
      2621.5000         0.6561       1715.744         0.4088       -45.5934      -4.129986      0.9581487
      2622.0000         0.6494       1722.191         0.4112       -45.2891      -3.825687       0.969419
      2622.5000          0.643       1722.984         0.4137       -44.9848      -3.521385      0.9806895
      2623.0000          0.642       1714.523         0.4161       -44.4788      -3.015388      0.9994301
      2623.5000         0.6498       1706.061         0.4186       -43.8851      -2.421688              1
      2624.0000         0.6575         1697.6         0.4279       -43.2914      -1.827988              1
      2624.5000         0.6645       1689.072           0.44       -43.1584      -1.694988              1
      2625.0000         0.6678       1673.189         0.4521       -43.0482      -1.584785              1
      2625.5000         0.6642       1657.309         0.4642       -43.0344      -1.570988              1
      2626.0000          0.659       1641.428          0.475       -43.0207      -1.557285              1
      2626.5000         0.6547       1625.545         0.4848        -43.007      -1.543587              1
      2627.0000         0.6591       1609.664         0.4946       -43.2316      -1.768188              1
      2627.5000         0.6657       1593.783         0.5043       -43.5304      -2.066986              1
      2628.0000         0.6751       1578.771         0.5141        -43.829      -2.365585              1
      2628.5000         0.6835       1565.361         0.5239       -44.1279      -2.664486              1
      2629.0000         0.6913       1551.949         0.5226       -44.6469      -3.183487      0.9932042
      2629.5000         0.7022       1538.545         0.5211       -45.2996      -3.836185      0.9690301
      2630.0000         0.7034       1525.135         0.5196       -45.9523      -4.488888       0.944856
      2630.5000         0.7017        1511.73         0.5181       -46.4959      -5.032486      0.9247227
      2631.0000         0.6984       1503.123         0.5166       -46.6331      -5.169685      0.9196413
      2631.5000         0.6969       1496.844         0.5151       -46.6661      -5.202686       0.918419
      2632.0000         0.6954       1490.561         0.5136       -46.5944      -5.130985      0.9210746
      2632.5000         0.6945       1487.119         0.5094       -46.4354      -4.971985      0.9269635
      2633.0000         0.6938       1489.135         0.4974       -46.2762      -4.812786      0.9328598
      2633.5000         0.6924       1517.777         0.4853       -46.1171      -4.653687      0.9387524
      2634.0000         0.6895       1554.227         0.4733       -45.9579      -4.494488      0.9446486
      2634.5000         0.6866       1590.029         0.4613       -45.7651      -4.301685      0.9517894
      2635.0000         0.6807       1625.686         0.4492       -45.1711      -3.707687      0.9737893
      2635.5000         0.6746        1661.33         0.4373       -44.5771      -3.113686      0.9957894
      2636.0000         0.6686       1707.879         0.4259       -43.9828      -2.519386              1
      2636.5000         0.6628       1765.027         0.4146       -43.3889      -1.925488              1
      2637.0000          0.657       1785.779         0.4033       -42.7949      -1.331486              1
      2637.5000         0.6514       1793.398         0.3919       -42.2009     -0.7374878              1
      2638.0000         0.6458       1796.596         0.3806       -41.6822     -0.2187881              1
      2638.5000         0.6414        1772.27         0.3985       -41.2653      0.1981125              1
      2639.0000         0.6538       1747.941         0.4167       -40.8484      0.6150131              1
      2639.5000         0.6644       1723.615          0.435        -40.608      0.8554115              1
      2640.0000         0.6697       1701.941         0.4465       -41.4668   -0.003387451              1
      2640.5000         0.6749       1680.887         0.4563       -42.2611     -0.7976875              1
      2641.0000         0.6802       1659.846          0.466       -42.7874      -1.323986              1
      2641.5000         0.6841       1638.793         0.4758       -43.0231      -1.559689              1
      2642.0000         0.6843       1617.738         0.4851       -43.0441      -1.580688              1
      2642.5000         0.6844       1603.176         0.4791       -43.0651      -1.601688              1
      2643.0000         0.6846       1594.461         0.4731       -43.0861      -1.622688              1
      2643.5000         0.6848       1598.354         0.4671       -43.1071      -1.643688              1
      2644.0000         0.6833       1623.666         0.4611       -43.0256      -1.562187              1
      2644.5000         0.6815       1657.352         0.4551       -42.8258      -1.362389              1
      2645.0000         0.6798       1691.025         0.4491        -42.626      -1.162586              1
      2645.5000         0.6781       1724.869         0.4431       -42.4263     -0.9628868              1
      2646.0000         0.6763       1761.924         0.4345       -42.2265     -0.7630882              1
      2646.5000         0.6732        1798.98         0.4257       -42.0268      -0.563385              1
      2647.0000           0.67       1829.314         0.4168        -41.827     -0.3635864              1
      2647.5000         0.6669       1843.078         0.4079       -41.6085     -0.1450882              1
      2648.0000         0.6637       1856.842         0.3991       -41.3566      0.1068115              1
      2648.5000           0.66       1840.199         0.3902       -41.1047      0.3587151              1
