#------------------------------------------------------------------------------
# Created by    : vladimir.rabinovich
# Created on    : 09/19/2023 17:20:38
#------------------------------------------------------------------------------
~Version Information Section
VERS.           2.0     :   CWLS log ASCII Standard - VERSION 2.0
WRAP.           NO      :   One line per depth step
~Well Information Section
#MNEM       .UNIT                                         VALUE :DESCRIPTION
#------------------------------------------------------------------------------
STRT        .FT                                             510 :START DEPTH
STOP        .FT                                            8711 :STOP DEPTH
STEP        .FT                                             0.5 :STEP      
NULL        .                                           -999.25 :NULL      
COMP        .                                      SHELL OIL CO :COMPANY   
WELL        .                                OCS 00708 ST00BP00 :WELL      
FLD         .                                           WILDCAT :FIELD     
LOC         .                                                   :LOCATION  
CNTY        .                             GALVESTON LARGE BLOCK :LOCATION  
STAT        .                                             TEXAS :STATE     
CTRY        .                                     UNITED STATES :COUNTRY   
SRVC        .                                                   :SERVICE COMPANY
DATE        .                             9/13/2023 11:19:25 AM :LOG DATE  
API         .                                    42706000300000 :API NUMBER
UWI         .                                    42706000300000 :UNIQUE WELL ID
XCOORD      .                                  1082576.09526943 :SURFACE X 
YCOORD      .                                  10493698.2734572 :SURFACE Y 
LAT         .                                         28.904546 :LATITUDE  
LON         .                                        -94.743912 :LONGITUDE 
ELEV        .FT                                              92 :ELEVATION VALUE
ELEV_TYPE   .                                                KB :ELEVATION REFERENCE TYPE
~Curve Information Section
#MNEM       .UNIT                                      API CODE :CURVE DESCRIPTION
#------------------------------------------------------------------------------
DEPT        .FT                                                 :DEPTH     
ASN         .OHMM                                               :          
CILD        .MMHO                                               :          
DT          .US/F                                               :          
ILD         .OHMM                                               :          
SP          .MV                                                 :          
SP_NORM     .MV                                                 :SP Normalized
VSH_SP      .V/V                                                :Volume of Shale from SP
~A        DEPTH            ASN           CILD             DT            ILD             SP        SP_NORM         VSH_SP
# ...
      6506.5000         1.1974       1105.299       100.7953         1.0674       -65.6887      -13.98018      0.7213911
      6507.0000         1.2079       1103.459       100.3964         1.0776       -65.2871      -13.58103      0.7306737
      6507.5000         1.2161       1101.424        99.0212         1.0877       -64.8951      -13.19148       0.739733
      6508.0000         1.2207       1099.551        97.3696         1.0975       -64.6763      -12.97512      0.7447646
      6508.5000         1.2252       1089.354        96.1938          1.107       -64.4572      -12.75847      0.7498031
      6509.0000           1.23       1061.059        96.4737         1.1166       -64.2383      -12.54202      0.7548369
      6509.5000         1.2411        1038.09        97.3823         1.1261       -64.0073      -12.31347       0.760152
      6510.0000         1.2523       1034.066        97.2688         1.1356       -63.7427      -12.05131      0.7662486
      6510.5000         1.2348       1051.439        98.0918         1.1452       -63.4782      -11.78926      0.7723429
      6511.0000         1.2129       1070.746        99.6348         1.1287         -63.58      -11.89351      0.7699184
      6511.5000         1.1894       1091.805       101.5245         1.1078       -65.1467      -13.46265      0.7334267
      6512.0000         1.1658        1116.84        102.309         1.0869       -67.1797       -15.4981      0.6860906
      6512.5000         1.1452       1206.559       101.9991         1.0547       -68.9327      -17.25355      0.6452664
      6513.0000         1.1261       1315.785       100.9847         1.0081       -69.0955      -17.41879      0.6414235
      6513.5000         1.1069       1428.877        97.9822         0.9615        -68.759      -17.08474       0.649192
      6514.0000         1.0928       1542.059        96.2367         0.9149       -69.5306      -17.85879       0.631191
      6514.5000         1.0801        1655.24        95.1895         0.8863       -72.7572      -21.08784      0.5560968
      6515.0000         1.0678       1721.697        98.7513         0.8581       -77.3195      -25.65258      0.4499399
      6515.5000         1.0577       1832.879       102.2432         0.8299       -81.4169      -29.75243      0.3545946
      6516.0000         1.0985       1883.941        100.941         0.8075       -87.8519      -36.18987      0.2048867
      6516.5000          1.154       1894.639       100.0092         0.7897       -88.7983      -37.13873      0.1828203
      6517.0000          1.188       1902.156       103.8026         0.7719       -89.8058      -38.14867      0.1593332
      6517.5000         1.2097       1796.561       108.4595         0.8014       -90.5302      -38.87551        0.14243
      6518.0000         1.1835       1696.953       103.4129          0.834         -88.61      -36.95776      0.1870288
      6518.5000         1.1436       1462.139        99.0409         0.8757       -85.8618      -34.21201      0.2508835
      6519.0000         1.1194       1417.549        95.4716         0.9315       -84.0432      -32.39585      0.2931196
      6519.5000         1.1521       1382.939        98.3939         0.9873       -75.7581       -24.1132      0.4857394
      6520.0000         1.2272       1331.068        95.7939          1.043       -69.4224      -17.77995      0.6330243
      6520.5000         1.2582       1177.027        94.3948         1.0953       -62.9423       -11.3023      0.7836676
      6521.0000          1.284       1080.072        96.3501          1.146       -61.8694      -10.23185      0.8085617
      6521.5000         1.3017       985.8594       101.7534         1.1968       -61.3832      -9.748093      0.8198118
      6522.0000         1.3226       955.9238       102.6698         1.2435       -61.6904      -10.05774      0.8126108
      6522.5000         1.3491       894.6133       101.3567         1.2891       -62.0254      -10.39518      0.8047632
      6523.0000         1.3649       822.0654        99.6413         1.3348       -60.6544       -9.02663        0.83659
      6523.5000         1.3578        790.376        97.8785         1.3602       -59.7778      -8.152481      0.8569191
      6524.0000          1.351        763.002         98.803         1.3825       -58.9013      -7.278423       0.877246
      6524.5000         1.3445       749.6299         98.968         1.4022       -58.2385      -6.618073       0.892603
      6525.0000          1.338       745.8877        99.0604         1.4016       -57.6783      -6.060318       0.905574
      6525.5000         1.3316       749.7422       101.0322         1.4011       -57.2009      -5.585365      0.9166194
      6526.0000         1.3338       748.6494       103.9775         1.4005       -57.4564      -5.843315      0.9106206
      6526.5000         1.3377       746.7334       104.9401            1.4       -57.7119      -6.101257      0.9046219
      6527.0000         1.3416       742.9658       103.2282         1.3994       -57.9675      -6.359306      0.8986208
      6527.5000         1.3455       736.4092        100.086          1.402        -58.223      -6.617252      0.8926221
      6528.0000         1.3494       729.8525        100.645         1.4047       -58.4022      -6.798901      0.8883976
      6528.5000         1.3533       722.5928       100.4358         1.4074       -58.5695      -6.968647      0.8844501
      6529.0000          1.357       714.8848        99.5283         1.4101       -58.7367      -7.138294      0.8805048
      6529.5000         1.3606       720.5703        97.5733         1.4129        -58.155       -6.55904      0.8939758
      6530.0000         1.3641       729.2793        97.8848         1.4156       -57.4387      -5.845188       0.910577
      6530.5000         1.3676       741.7529        99.3076         1.4183       -56.8351      -5.244034      0.9245573
      6531.0000         1.3712       754.2256        102.253          1.394       -56.5259      -4.937283      0.9316911
      6531.5000         1.3747       768.8906       102.1136         1.3691       -56.2169       -4.63073      0.9388202
      6532.0000         1.3597       788.0615       103.2312         1.3416        -55.908      -4.324276      0.9459471
      6532.5000         1.3259       809.7041       103.0319          1.314       -55.7188      -4.137524      0.9502901
      6533.0000         1.3098       834.0889        102.954         1.2864        -55.545      -3.966167      0.9542752
      6533.5000         1.2937       857.5752       103.6765         1.2588       -55.3712      -3.794819        0.95826
      6534.0000         1.2804       878.4873        104.328         1.2312       -55.1974      -3.623463       0.962245
      6534.5000          1.271       891.0059       104.1407         1.2108       -55.0236       -3.45211        0.96623
      6535.0000         1.2698       903.5127       104.3104          1.197       -54.8647      -3.295658      0.9698684
      6535.5000         1.2747       904.6475       103.7883         1.2005       -54.7125      -3.145905      0.9733511
      6536.0000         1.2795       901.6533       101.9429         1.2106       -54.5603      -2.996151      0.9768337
      6536.5000         1.2837       897.1357       100.0233         1.2207        -54.408      -2.846298      0.9803187
      6537.0000         1.2871       891.8428        98.9203         1.2309       -56.9767      -5.417446      0.9205245
      6537.5000         1.2905       899.5352        99.1386         1.2395       -57.5988      -6.041992      0.9060002
      6538.0000          1.275       918.2334        99.3061         1.2477       -58.2205      -6.666142      0.8914851
      6538.5000          1.254        934.168       100.3306         1.1915       -58.8427      -7.290787      0.8769584
      6539.0000         1.1235       948.8438       105.6518         1.1336       -59.4987       -7.94923      0.8616458
      6539.5000         1.0651       995.6582       107.4793         1.0815        -60.492      -8.944981      0.8384888
