#------------------------------------------------------------------------------
# Created by    : vladimir.rabinovich
# Created on    : 09/19/2023 17:22:54
#------------------------------------------------------------------------------
~Version Information Section
VERS.           2.0     :   CWLS log ASCII Standard - VERSION 2.0
WRAP.           NO      :   One line per depth step
~Well Information Section
#MNEM       .UNIT                                         VALUE :DESCRIPTION
#------------------------------------------------------------------------------
STRT        .FT                                             606 :START DEPTH
STOP        .FT                                           12703 :STOP DEPTH
STEP        .FT                                             0.5 :STEP      
NULL        .                                           -999.25 :NULL      
COMP        .                                       PURE OIL CO :COMPANY   
WELL        .                                OCS 00099 ST00BP00 :WELL      
FLD         .                                           WILDCAT :FIELD     
LOC         .                                                   :LOCATION  
CNTY        .                             GALVESTON LARGE BLOCK :LOCATION  
STAT        .                                             TEXAS :STATE     
CTRY        .                                     UNITED STATES :COUNTRY   
SRVC        .                                                   :SERVICE COMPANY
DATE        .                             9/13/2023 11:19:42 AM :LOG DATE  
API         .                                    42706000130000 :API NUMBER
UWI         .                                    42706000130000 :UNIQUE WELL ID
XCOORD      .                                  1105531.03723184 :SURFACE X 
YCOORD      .                                  10576678.2721464 :SURFACE Y 
LAT         .                                         29.133654 :LATITUDE  
LON         .                                        -94.675857 :LONGITUDE 
ELEV        .FT                                              66 :ELEVATION VALUE
ELEV_TYPE   .                                                KB :ELEVATION REFERENCE TYPE
~Curve Information Section
#MNEM       .UNIT                                      API CODE :CURVE DESCRIPTION
#------------------------------------------------------------------------------
DEPT        .FT                                                 :DEPTH     
LAT         .OHMM                                               :          
LN          .OHMM                                               :          
SN          .OHMM                                               :          
SP          .MV                                                 :          
SP_NORM     .MV                                                 :SP Normalized
VSH_SP      .V/V                                                :Volume of Shale from SP
~A        DEPTH            LAT             LN             SN             SP        SP_NORM         VSH_SP
# ...
      2202.0000         1.0222         0.7195         0.6709        -67.929       -3.97435      0.9324011
      2202.5000         1.0023         0.7206         0.6686       -67.5702      -3.613247       0.940608
      2203.0000         0.9819         0.7217         0.6663       -67.2955       -3.33625      0.9469034
      2203.5000         0.9615         0.7228         0.6693       -67.0209      -3.059349      0.9531966
      2204.0000         0.9411         0.7276         0.6759       -66.7462      -2.782352       0.959492
      2204.5000         0.9207         0.7336         0.6826       -66.4717      -2.505554      0.9657829
      2205.0000         0.9003         0.7395         0.6893        -66.197       -2.22855      0.9720784
      2205.5000         0.8798         0.7455         0.6959       -65.9224      -1.951656      0.9783714
      2206.0000         0.8594         0.7514         0.7026       -65.6477      -1.674652       0.984667
      2206.5000         0.8392         0.7573         0.7093       -65.4106      -1.435253      0.9901079
      2207.0000         0.8218         0.7633         0.7159       -65.2949      -1.317253      0.9927897
      2207.5000         0.8044         0.7692         0.7226       -65.1792      -1.199257      0.9954714
      2208.0000          0.787         0.7752         0.7292       -65.0635      -1.081257      0.9981533
      2208.5000         0.7697         0.7811         0.7384       -64.9478     -0.9632568              1
      2209.0000         0.7523         0.7881         0.7496        -64.832     -0.8451614              1
      2209.5000         0.7443         0.7954         0.7608       -64.8274     -0.8382607              1
      2210.0000         0.7381         0.8028         0.7721       -64.8783     -0.8868637              1
      2210.5000         0.7318         0.8102         0.7833       -64.9291       -0.93536              1
      2211.0000         0.7256         0.8175         0.7945         -64.98     -0.9839668              1
      2211.5000         0.7193         0.8249         0.8057       -65.8274      -1.829063      0.9811577
      2212.0000         0.7131         0.8323          0.817       -66.7687      -2.768066      0.9598167
      2212.5000         0.7082         0.8396         0.8282       -67.6702      -3.667259      0.9393805
      2213.0000          0.709         0.8439         0.8394       -68.5575      -4.552269      0.9192666
      2213.5000         0.7098          0.845         0.8466        -68.525      -4.517471      0.9200575
      2214.0000         0.7106          0.846         0.8519       -68.2146      -4.204765      0.9271644
      2214.5000         0.7114         0.8471         0.8573       -67.9041      -3.891968      0.9342735
      2215.0000         0.7122         0.8482         0.8626       -67.5935      -3.579063      0.9413849
      2215.5000          0.713         0.8492         0.8679       -67.0829       -3.06617      0.9530416
      2216.0000         0.7138         0.8503         0.8733        -66.516      -2.496971      0.9659779
      2216.5000         0.7146         0.8514         0.8786       -65.9489      -1.927567       0.978919
      2217.0000         0.7164         0.8524         0.8839        -65.382      -1.358376      0.9918551
      2217.5000         0.7206         0.8552         0.8893       -65.1815      -1.155579      0.9964641
      2218.0000         0.7247         0.8589         0.8946        -65.246      -1.217773      0.9950506
      2218.5000         0.7288         0.8625         0.9003       -65.3104      -1.279877      0.9936392
      2219.0000          0.733         0.8662         0.9061       -65.5206      -1.487778      0.9889141
      2219.5000         0.7371         0.8698         0.9119        -65.767      -1.731873      0.9833665
      2220.0000         0.7412         0.8735         0.9178       -66.0132      -1.975777      0.9778233
      2220.5000         0.7453         0.8771         0.9236       -66.2593      -2.219574      0.9722824
      2221.0000         0.7478         0.8808         0.9294       -66.5056      -2.463577      0.9667369
      2221.5000         0.7502         0.8844         0.9352       -66.7518      -2.707481      0.9611936
      2222.0000         0.7527         0.8881          0.941       -66.9922       -2.94558      0.9557823
      2222.5000         0.7552         0.8917         0.9468       -67.2295       -3.18058      0.9504414
      2223.0000         0.7577         0.8953         0.9526       -67.4668      -3.415581      0.9451004
      2223.5000         0.7602         0.8998         0.9584       -67.7041      -3.650581      0.9397595
      2224.0000         0.7626         0.9046         0.9642       -67.9415      -3.885681      0.9344164
      2224.5000         0.7651         0.9095         0.9701       -68.1788      -4.120689      0.9290752
      2225.0000         0.7676         0.9143         0.9751       -68.2417      -4.181282      0.9276981
      2225.5000         0.7701         0.9192         0.9769       -68.2891      -4.226387       0.926673
      2226.0000          0.773          0.924         0.9787       -68.3363      -4.271286      0.9256526
      2226.5000         0.7792         0.9289         0.9806       -68.3835      -4.316185      0.9246321
      2227.0000         0.7853         0.9337         0.9824        -68.328      -4.258392      0.9259456
      2227.5000         0.7915         0.9386         0.9842        -68.238      -4.166084      0.9280435
      2228.0000         0.7976         0.9434         0.9861       -68.1479      -4.073692      0.9301434
      2228.5000         0.8038         0.9483         0.9879        -68.058      -3.981491      0.9322388
      2229.0000         0.8099         0.9531         0.9898       -68.1593       -4.08049      0.9299889
      2229.5000         0.8161         0.9559         0.9889       -68.4036      -4.322495      0.9244888
      2230.0000         0.8222         0.9572         0.9758       -68.6479      -4.564499      0.9189886
      2230.5000         0.8284         0.9586         0.9627       -68.8923      -4.806595      0.9134865
      2231.0000         0.8402         0.9599         0.9496       -69.1366      -5.048592      0.9079866
      2231.5000         0.8532         0.9488         0.9365       -69.3555       -5.26519      0.9030638
      2232.0000         0.8662         0.9342         0.9234       -69.5586      -5.465996      0.8985001
      2232.5000         0.8791         0.9196         0.9103       -69.7617      -5.666801      0.8939363
      2233.0000         0.8921          0.905         0.9018       -69.9648      -5.867592      0.8893729
      2233.5000          0.905         0.8904         0.8944       -69.6415         -5.542      0.8967727
      2234.0000         0.9189         0.8758         0.8871        -69.229      -5.127197      0.9062001
      2234.5000         0.9336         0.8612         0.8798       -68.8167      -4.712601      0.9156227
      2235.0000         0.9482         0.8466         0.8725       -68.4042      -4.297798        0.92505
      2235.5000         0.9629         0.8371         0.8652       -67.9918      -3.883102      0.9344749
      2236.0000         0.9775         0.8276         0.8579       -67.6365      -3.525497      0.9426023
      2236.5000         0.9847         0.8181         0.8505       -67.3468      -3.233505      0.9492385
      2237.0000          0.991         0.8086         0.8432        -67.057      -2.941399      0.9558773
      2237.5000         0.9973         0.7991         0.8359       -66.7672        -2.6493      0.9625159
      2238.0000         1.0036         0.7896         0.8286       -66.4613       -2.34111      0.9695202
      2238.5000         0.9955         0.7801         0.8213       -66.1476      -2.025101      0.9767023
      2239.0000         0.9849         0.7706          0.814        -66.267      -2.142204      0.9740408
      2239.5000         0.9743         0.7612         0.8067       -66.8445      -2.717407       0.960968
