#------------------------------------------------------------------------------
# Created by    : vladimir.rabinovich
# Created on    : 09/19/2023 17:19:44
#------------------------------------------------------------------------------
~Version Information Section
VERS.           2.0     :   CWLS log ASCII Standard - VERSION 2.0
WRAP.           NO      :   One line per depth step
~Well Information Section
#MNEM       .UNIT                                         VALUE :DESCRIPTION
#------------------------------------------------------------------------------
STRT        .FT                                            2932 :START DEPTH
STOP        .FT                                           14530 :STOP DEPTH
STEP        .FT                                             0.5 :STEP      
NULL        .                                           -999.25 :NULL      
COMP        .                                 MESA PETROLEUM CO :COMPANY   
WELL        .                                 ST TR 00022-L W/2 :WELL      
FLD         .                                           WILDCAT :FIELD     
LOC         .                                                   :LOCATION  
CNTY        .                           HIGH ISLAND LARGE BLOCK :LOCATION  
STAT        .                                             TEXAS :STATE     
CTRY        .                                     UNITED STATES :COUNTRY   
SRVC        .                                                   :SERVICE COMPANY
DATE        .                             9/13/2023 11:19:15 AM :LOG DATE  
API         .                                    42708300770000 :API NUMBER
UWI         .                                    42708300770000 :UNIQUE WELL ID
XCOORD      .                                  1307803.37781852 :SURFACE X 
YCOORD      .                                  10713200.3443699 :SURFACE Y 
LAT         .                                         29.515602 :LATITUDE  
LON         .                                       -94.0460534 :LONGITUDE 
ELEV        .FT                                              85 :ELEVATION VALUE
ELEV_TYPE   .                                                KB :ELEVATION REFERENCE TYPE
~Curve Information Section
#MNEM       .UNIT                                      API CODE :CURVE DESCRIPTION
#------------------------------------------------------------------------------
DEPT        .FT                                                 :DEPTH     
ASFL        .OHMM                                               :          
CILD        .MMHO                                               :          
ILD         .OHMM                                               :          
SP          .MV                                                 :          
SP_NORM     .MV                                                 :SP Normalized
VSH_SP      .V/V                                                :Volume of Shale from SP
~A        DEPTH           ASFL           CILD            ILD             SP        SP_NORM         VSH_SP
# ...
      9848.0000         0.6098       1986.938         0.5956       -50.0166      -5.991444       0.914408
      9848.5000         0.6194       1946.375         0.6029       -49.5869      -5.561741      0.9205465
      9849.0000         0.6287       1905.688         0.6103       -48.7861      -4.760941      0.9319866
      9849.5000         0.6299         1869.5         0.6177       -47.6699      -3.644741      0.9479322
      9850.0000         0.6308       1836.625         0.6251       -46.0469      -2.021744       0.971118
      9850.5000         0.6255         1818.5         0.6324       -44.4238     -0.3986435      0.9943051
      9851.0000         0.6201       1811.156         0.6398       -42.8008       1.224358              1
      9851.5000         0.6148       1803.813         0.6397       -40.5703       3.454857              1
      9852.0000         0.6095       1796.484          0.636       -43.3281      0.6970596              1
      9852.5000         0.6129       1789.141         0.6323       -45.4019      -1.376743      0.9803323
      9853.0000         0.6204       1782.563         0.6286       -45.6719      -1.646744      0.9764751
      9853.5000         0.6263       1776.469         0.6249       -45.9424      -1.917244      0.9726108
      9854.0000         0.6202       1770.383         0.6213       -45.4092      -1.384041       0.980228
      9854.5000         0.6142       1766.906         0.6177       -44.7637     -0.7385406      0.9894494
      9855.0000         0.6081       1772.367         0.6153       -44.5635     -0.5383415      0.9923094
      9855.5000         0.6021        1784.75         0.6129       -45.2334      -1.208241      0.9827394
      9856.0000          0.596       1805.844         0.6105       -45.8604      -1.835243      0.9737822
      9856.5000           0.59       1826.969          0.608        -46.418      -2.392841      0.9658166
      9857.0000         0.5839       1848.094         0.6056       -46.9756      -2.950443      0.9578508
      9857.5000         0.5781       1868.406         0.6032       -47.2598      -3.234642      0.9537908
      9858.0000         0.5756       1887.781         0.6008       -46.6621      -2.636944      0.9623294
      9858.5000         0.5875       1907.188         0.5983       -46.0645      -2.039341      0.9708666
      9859.0000         0.5994       1926.563         0.6067       -45.4668      -1.441643      0.9794051
      9859.5000         0.6141       1909.125         0.6174       -44.1367     -0.1115417      0.9984065
      9860.0000         0.6327       1888.344         0.6281       -46.7891      -2.763943      0.9605151
      9860.5000         0.6513       1867.563         0.6389       -51.6719      -7.646744      0.8907608
      9861.0000         0.6699       1846.781         0.6496       -54.7705      -10.74534      0.8464951
      9861.5000         0.6884       1826.031         0.6603       -55.0531      -11.02794       0.842458
      9862.0000         0.6934       1803.469         0.6689       -54.9512      -10.92604      0.8439137
      9862.5000         0.6971       1779.438         0.6753       -54.7441      -10.71894      0.8468723
      9863.0000         0.7011       1786.219         0.6818       -54.1094      -10.08424      0.8559394
      9863.5000         0.7052       1807.438         0.6882       -54.8516      -10.82644      0.8453366
      9864.0000         0.7105       1835.625         0.6925       -55.8203      -11.79514       0.831498
      9864.5000         0.7182       1863.813          0.683       -57.4375      -13.41234      0.8083951
      9865.0000         0.7258           1892         0.6736       -59.1621      -15.13694      0.7837579
      9865.5000         0.7335       1906.125         0.6641       -59.6929      -15.66774      0.7761751
      9866.0000         0.7427       1920.188         0.6547       -60.7031      -16.67794      0.7617437
      9866.5000         0.7523       1934.219         0.6452       -66.7813      -22.75615      0.6749122
      9867.0000         0.7707        1948.25         0.6376       -69.6797      -25.65454      0.6335065
      9867.5000         0.7938       1956.195         0.6376       -72.1016      -28.07644      0.5989079
      9868.0000          0.811       1960.641         0.6375       -73.8828      -29.85764      0.5734623
      9868.5000         0.8204       1965.086         0.6375       -72.3379      -28.31274      0.5955323
      9869.0000         0.8149       1969.523         0.6375       -70.8828      -26.85764      0.6163194
      9869.5000         0.8065       1973.969         0.6375       -70.5781      -26.55294      0.6206722
      9870.0000          0.798       1982.031         0.6375        -72.543      -28.51784      0.5926023
      9870.5000         0.7902       1990.641         0.6374       -74.1582      -30.13305      0.5695279
      9871.0000         0.7823       1999.234         0.6374       -72.6113      -28.58614      0.5916266
      9871.5000         0.7745       2007.211         0.6439       -71.0645      -27.03934      0.6137237
      9872.0000         0.7569       2013.742         0.6514       -69.1758      -25.15064      0.6407052
      9872.5000         0.7312       2020.273         0.6589       -67.7676      -23.74244      0.6608222
      9873.0000         0.6985        1991.25         0.6663       -66.6328      -22.60764      0.6770337
      9873.5000         0.6775       1905.938         0.6738       -64.9531      -20.92794      0.7010294
      9874.0000         0.6614       1859.688         0.6762        -62.125      -18.09984      0.7414308
      9874.5000         0.6465       1813.438         0.6742       -58.0156      -13.99044      0.8001366
      9875.0000         0.6516           1780         0.6722       -52.4395      -8.414341      0.8797951
      9875.5000         0.6633       1758.625         0.6701       -52.4219      -8.396744      0.8800465
      9876.0000         0.6742       1775.813           0.66       -54.1992      -10.17404      0.8546565
      9876.5000          0.685       1807.813         0.6437        -56.543      -12.51784      0.8211737
      9877.0000         0.6959       1839.813         0.6274       -59.7344      -15.70924      0.7755823
      9877.5000         0.7067       1871.813         0.6111       -61.2598      -17.23464      0.7537909
      9878.0000         0.7215       1903.813         0.5948       -61.9619      -17.93674      0.7437608
      9878.5000         0.7371       1935.813         0.5785       -62.8945      -18.86934      0.7304379
      9879.0000         0.7584         1975.5         0.5647       -64.4492      -20.42405      0.7082279
      9879.5000         0.7899       2045.625         0.5544       -66.6914      -22.66624      0.6761966
      9880.0000         0.8694        2125.25         0.5441       -69.0078      -24.98264      0.6431051
      9880.5000         0.9046           2224         0.5338       -72.2422      -28.21704      0.5968993
      9881.0000         0.9006        2290.25         0.5234       -79.7656      -35.74044      0.4894222
      9881.5000         0.8892       2333.313         0.5131       -91.6719      -47.64674      0.3193323
      9882.0000         0.8662        2365.75         0.5028       -86.9219      -42.89674      0.3871894
      9882.5000         0.8432        2398.25         0.4925       -78.2656      -34.24044      0.5108508
      9883.0000          0.831       2419.125         0.4821       -72.6172      -28.59204      0.5915422
      9883.5000         0.8666       2413.375         0.4718       -75.9219      -31.89674      0.5443323
      9884.0000         0.9012       2388.188         0.4717       -78.1289      -34.10374      0.5128037
      9884.5000         0.9001           2363         0.4757       -84.4844      -40.45924      0.4220109
      9885.0000         0.8798       2337.844         0.4798       -87.7383      -43.71314      0.3755266
      9885.5000         0.8594         2308.5         0.4838        -84.668      -40.64284       0.419388
