#------------------------------------------------------------------------------
# Created by    : vladimir.rabinovich
# Created on    : 09/19/2023 17:20:01
#------------------------------------------------------------------------------
~Version Information Section
VERS.           2.0     :   CWLS log ASCII Standard - VERSION 2.0
WRAP.           NO      :   One line per depth step
~Well Information Section
#MNEM       .UNIT                                         VALUE :DESCRIPTION
#------------------------------------------------------------------------------
STRT        .FT                                            3530 :START DEPTH
STOP        .FT                                           11780 :STOP DEPTH
STEP        .FT                                             0.5 :STEP      
NULL        .                                           -999.25 :NULL      
COMP        .                                        TEXACO INC :COMPANY   
WELL        .                                     ST TR 00820-L :WELL      
FLD         .                                           WILDCAT :FIELD     
LOC         .                                                   :LOCATION  
CNTY        .                        MUSTANG ISLAND LARGE BLOCK :LOCATION  
STAT        .                                             TEXAS :STATE     
CTRY        .                                     UNITED STATES :COUNTRY   
SRVC        .                                                   :SERVICE COMPANY
DATE        .                             9/13/2023 11:18:55 AM :LOG DATE  
API         .                                    42702302010000 :API NUMBER
UWI         .                                    42702302010000 :UNIQUE WELL ID
XCOORD      .                                  295719.314319733 :SURFACE X 
YCOORD      .                                  9994218.17259751 :SURFACE Y 
LAT         .                                        27.4796405 :LATITUDE  
LON         .                                       -97.1466422 :LONGITUDE 
ELEV        .FT                                              78 :ELEVATION VALUE
ELEV_TYPE   .                                                KB :ELEVATION REFERENCE TYPE
~Curve Information Section
#MNEM       .UNIT                                      API CODE :CURVE DESCRIPTION
#------------------------------------------------------------------------------
DEPT        .FT                                                 :DEPTH     
ASFL        .OHMM                                               :          
CILD        .MMHO                                               :          
GR          .GAPI                                               :          
GR_NORM     .GAPI                                               :GammaRay Normalized
ILD         .OHMM                                               :          
SP          .MV                                                 :          
SP_NORM     .MV                                                 :SP Normalized
VSH_GR      .V/V                                                :Volume of Shale from GR
VSH_SP      .V/V                                                :Volume of Shale from SP
~A        DEPTH           ASFL           CILD             GR        GR_NORM            ILD             SP        SP_NORM         VSH_GR         VSH_SP
# ...
     11188.5000         0.9102       1316.244        57.8508        73.2562           0.76       -42.2092      -3.612713      0.8565149      0.9231555
     11189.0000         0.9226       1297.404        58.4668       74.14821         0.7684       -42.5325      -3.936012      0.8754938      0.9136467
     11189.5000          0.935       1278.564        59.0931       75.05517         0.7768       -43.0651      -4.468613      0.8947908       0.897982
     11190.0000         0.9503       1244.594        59.4586       75.58409         0.7852       -43.5978      -5.001312      0.9060445      0.8823143
     11190.5000         0.9674       1203.498        60.0721        76.4725         0.8063       -44.1305      -5.534012      0.9249467      0.8666467
     11191.0000         0.9845         1162.4        51.7822       64.45499         0.8332       -44.8358      -6.239311      0.6692552      0.8459026
     11191.5000         1.0016       1112.617        51.1564       63.54697           0.86       -45.6991      -7.102612      0.6499355      0.8205114
     11192.0000         1.0156       1048.189        50.9764       63.28516         0.8868       -46.5611      -7.964611       0.644365      0.7951585
     11192.5000         1.0271       955.9434        51.2979        63.7503         0.9315       -47.1085      -8.512012      0.6542616      0.7790585
     11193.0000         1.1149       905.8545        51.6199       64.21616         0.9869       -47.5738       -8.97731      0.6641735      0.7653732
     11193.5000         1.2292       899.9609        52.8953       66.06401         1.0424       -47.6595      -9.063011      0.7034896      0.7628526
     11194.0000         1.2765       899.5342        55.4373       69.74788          1.098       -47.2401      -8.643612      0.7818698      0.7751879
     11194.5000         1.2968       903.8896        57.4969       72.73248         1.0826       -46.8214      -8.224911       0.845372      0.7875026
     11195.0000         1.3258       908.2402        58.1398       73.66351         1.0643       -46.4019      -7.805412      0.8651811      0.7998408
     11195.5000         1.3485       941.3008        58.7815       74.59278          1.046       -45.7137       -7.11721      0.8849528      0.8200821
     11196.0000         1.3004       986.5947        59.4231       75.52191         1.0177       -45.0231      -6.426613      0.9047215      0.8403937
     11196.5000         1.2214       1053.559        60.2276       76.68719         0.9853       -44.3313       -5.73481      0.9295148      0.8607409
     11197.0000         1.1422       1131.652        61.6921       78.80917          0.953       -43.7374      -5.140911      0.9746633      0.8782085
     11197.5000         1.0926       1173.529        60.9599       77.74692         0.9201       -43.3602       -4.76371      0.9520621      0.8893027
     11198.0000         1.0516       1215.406        58.8757       74.72488         0.8764       -42.9831      -4.386612      0.8877633      0.9003938
     11198.5000         1.0302       1247.131         56.363       71.08171         0.8329        -42.606       -4.00951      0.8102491       0.911485
     11199.0000         1.0099       1261.432        55.2959       69.53399         0.8071       -42.2288      -3.632313      0.7773189      0.9225791
     11199.5000         0.9895       1275.732        56.7647       71.66219         0.7924       -41.9362       -3.33971      0.8225998       0.931185
     11200.0000         0.9666       1290.961        58.6553       74.40182         0.8108       -41.6622      -3.065712      0.8808899      0.9392438
     11200.5000         0.9425        1290.57        61.6138       78.68942         0.8293       -41.5024       -2.90591      0.9721154      0.9439438
     11201.0000         0.9208       1216.578         64.484       82.84903         0.8479       -41.5601      -2.963612              1      0.9422467
     11201.5000         0.9409       1152.639         66.551       85.84435         0.8664       -41.6631      -3.066612              1      0.9392173
     11202.0000         0.9707       1089.775        66.0857       85.16899         0.8849       -41.7661      -3.169613              1      0.9361879
     11202.5000         1.0267       1036.379        65.5322       84.36577         0.9035       -41.8691       -3.27261              1      0.9331585
     11203.0000         1.1169       989.5234        64.8464       83.37077          0.922       -42.0056      -3.409111              1      0.9291438
     11203.5000         1.2376       965.9248         64.162       82.37781         0.9406        -42.222      -3.625511              1      0.9227791
     11204.0000         1.2449       954.0156        63.4763       81.38294         0.9591       -42.4385       -3.84201              1      0.9164115
     11204.5000         1.2119       948.0459        62.8003       80.40216         0.9768       -42.6549      -4.058411              1      0.9100468
     11205.0000         1.1663       947.2539         62.144       79.44994         0.9935        -42.871      -4.274509      0.9882967      0.9036909
     11205.5000         1.1395        949.501        61.4877        78.4977         1.0076       -43.0875      -4.491013      0.9680361      0.8973231
     11206.0000          1.138       970.7324        60.8325       77.54706         1.0059        -43.304      -4.707512      0.9478098      0.8909555
     11206.5000         1.1432       995.8193        60.1799        76.6002         1.0042       -43.6658      -5.069309      0.9276639      0.8803144
     11207.0000         1.1484       1024.469        59.5444       75.67812         1.0024       -44.0637      -5.467213      0.9080452      0.8686114
     11207.5000         1.1543        1053.07        58.9027       74.74706         1.0007       -44.4623       -5.86581      0.8882352      0.8568879
     11208.0000         1.1278       1079.477        57.8668       73.24457         0.9926       -44.8603      -6.263809      0.8562674      0.8451821
     11208.5000         1.0993       1103.295         57.301       72.42352         0.9807       -45.2582      -6.661713      0.8387982       0.833479
     11209.0000         1.0625       1123.793        57.4676       72.66412         0.9688       -45.3972      -6.800713      0.8439174      0.8293908
     11209.5000         1.0311       1133.408        57.7327        73.0475         0.9568       -45.4213       -6.82481      0.8520745      0.8286821
     11210.0000          1.012       1143.049        58.2084       73.73617         0.9449       -45.4454      -6.848911       0.866727      0.8279732
     11210.5000         0.9942       1150.174         58.899       74.73632         0.9326       -45.3923      -6.795811      0.8880068       0.829535
     11211.0000         0.9893       1155.934        59.5921        75.7401         0.9201       -45.2739       -6.67741      0.9093639      0.8330173
     11211.5000         0.9844       1161.693        60.3035       76.77044         0.9076       -45.1551      -6.558613      0.9312859      0.8365114
     11212.0000         0.9963       1160.686         61.015        77.8009         0.8951       -45.0366      -6.440109      0.9532105      0.8399968
     11212.5000         1.0246        1151.42        61.7325       78.84005         0.8825       -44.9182      -6.321712      0.9753202       0.843479
     11213.0000          1.053        1130.09        62.4979       79.94865          0.873       -44.7994      -6.202911      0.9989074      0.8469732
     11213.5000         1.1639       1108.762        63.0232       80.70921         0.8689         -44.68      -6.083511              1       0.850485
     11214.0000         1.1956        1087.48        63.3458       81.17592         0.8647       -44.5572      -5.960712              1      0.8540967
     11214.5000         1.2159       1068.006        61.3983       78.35207         0.8606       -44.4341      -5.837612      0.9649376      0.8577173
