#------------------------------------------------------------------------------
# Created by    : vladimir.rabinovich
# Created on    : 09/19/2023 17:22:38
#------------------------------------------------------------------------------
~Version Information Section
VERS.           2.0     :   CWLS log ASCII Standard - VERSION 2.0
WRAP.           NO      :   One line per depth step
~Well Information Section
#MNEM       .UNIT                                         VALUE :DESCRIPTION
#------------------------------------------------------------------------------
STRT        .FT                                             597 :START DEPTH
STOP        .FT                                            8696 :STOP DEPTH
STEP        .FT                                             0.5 :STEP      
NULL        .                                           -999.25 :NULL      
COMP        .                MURPHY EXPLORATION & PRODUCTION CO :COMPANY   
WELL        .                               OCS G13308 ST00BP00 :WELL      
FLD         .                                           WILDCAT :FIELD     
LOC         .                                                   :LOCATION  
CNTY        .                             GALVESTON LARGE BLOCK :LOCATION  
STAT        .                                             TEXAS :STATE     
CTRY        .                                     UNITED STATES :COUNTRY   
SRVC        .                                                   :SERVICE COMPANY
DATE        .                             9/13/2023 11:19:54 AM :LOG DATE  
API         .                                    42706403460000 :API NUMBER
UWI         .                                    42706403460000 :UNIQUE WELL ID
XCOORD      .                                  1110706.35492259 :SURFACE X 
YCOORD      .                                  10520329.8149831 :SURFACE Y 
LAT         .                                         28.978895 :LATITUDE  
LON         .                                        -94.657168 :LONGITUDE 
ELEV        .FT                                              71 :ELEVATION VALUE
ELEV_TYPE   .                                                KB :ELEVATION REFERENCE TYPE
~Curve Information Section
#MNEM       .UNIT                                      API CODE :CURVE DESCRIPTION
#------------------------------------------------------------------------------
DEPT        .FT                                                 :DEPTH     
DCAL        .IN                                                 :          
DPHI        .%                                                  :          
DRHO        .G/C3                                               :          
DTLN        .US/F                                               :          
GR          .GAPI                                               :          
GR_1        .GAPI                                               :          
GR_NORM     .GAPI                                               :GammaRay Normalized
ILD         .OHMM                                               :          
ILM         .OHMM                                               :          
NPHI        .%                                                  :          
SFL         .OHMM                                               :          
SP          .MV                                                 :          
VSH_GR      .V/V                                                :Volume of Shale from GR
~A        DEPTH           DCAL           DPHI           DRHO           DTLN             GR           GR_1        GR_NORM            ILD            ILM           NPHI            SFL             SP         VSH_GR
# ...
      7076.0000         -0.067         9.9423        -0.0023        -999.25        -999.25        39.1051       40.88157         0.6037         0.6984        22.4747          0.673       -66.5159       0.167693
      7076.5000         -0.102         12.857        -0.0053        -999.25        -999.25        40.1418       42.29205         0.5724         0.5888        26.6342         0.5881       -66.4639      0.1977031
      7077.0000        -0.0928        15.9482        -0.0078        -999.25        -999.25        40.6422       42.97287         0.5466         0.5515        30.0097         0.5919       -65.5194      0.2121886
      7077.5000        -0.0438        19.0364        -0.0105        -999.25        -999.25        40.5988       42.91381         0.5246         0.5505        31.5673         0.6243       -64.0378      0.2109322
      7078.0000        -0.0834        22.1276        -0.0111        -999.25        -999.25        41.8414       44.60442         0.5101         0.5586        31.9647         0.6805       -63.0508      0.2469026
      7078.5000        -0.0626        24.5006        -0.0105        -999.25        -999.25        44.9931       48.89245          0.499         0.5683         31.709         0.6955       -62.9412      0.3381372
      7079.0000        -0.0118        24.9158        -0.0096        -999.25        -999.25        48.8555       54.14742         0.4909         0.5763        31.3192          0.682       -65.3625      0.4499451
      7079.5000         0.0194        24.3293        -0.0086        -999.25        -999.25        50.1912       55.96469         0.4858         0.5789        31.0497         0.6855       -67.7814      0.4886105
      7080.0000        -0.0426        23.4263        -0.0079        -999.25        -999.25        47.4047       52.17354          0.485         0.5698        31.5972         0.6903       -67.6833      0.4079477
      7080.5000        -0.0878        22.8488        -0.0076        -999.25        -999.25        44.9526       48.83735         0.4853         0.5562        31.9592         0.6752       -63.3529      0.3369649
      7081.0000        -0.1326        23.5834        -0.0076        -999.25        -999.25        45.1585       49.11749         0.4863         0.5408        31.7741         0.6345       -61.1999      0.3429253
      7081.5000        -0.1742        24.8866        -0.0078        -999.25        -999.25         47.439       52.22021         0.4877         0.5271        31.3731         0.5928       -60.2239      0.4089406
      7082.0000        -0.1412        25.6579        -0.0081        -999.25        -999.25        52.6689       59.33572         0.4928         0.5217        31.1917         0.6151       -59.7214      0.5603344
      7082.5000        -0.0511        25.9337        -0.0085        -999.25        -999.25        53.2893        60.1798         0.5039         0.5291        31.9712         0.6416       -59.4065      0.5782937
      7083.0000         0.0124        25.8376        -0.0092        -999.25        -999.25        49.5466       55.08769         0.5301         0.5513        33.0724         0.6503        -59.015      0.4699509
      7083.5000        -0.0483        25.6018        -0.0099        -999.25        -999.25        44.6843       48.47232         0.5654           0.59        33.9926         0.6438       -58.5101      0.3291983
      7084.0000        -0.1133        24.8268        -0.0108        -999.25        -999.25        42.3095        45.2413          0.615         0.6421        32.7732         0.6359       -57.1254      0.2604532
      7084.5000        -0.1604        23.2138        -0.0111        -999.25        -999.25        40.9677       43.41572         0.6559         0.7179        30.9433         0.6898       -55.3204       0.221611
      7085.0000        -0.1203        21.0712        -0.0097        -999.25        -999.25        39.2999        41.1466         0.6892         0.8025        28.7169         0.9551       -54.2176       0.173332
      7085.5000         0.0166        18.8419        -0.0017        -999.25        -999.25        38.2571       39.72783         0.7289         0.8792        26.6162          1.353       -53.4425      0.1431452
      7086.0000         0.1626        16.1262         0.0009        -999.25        -999.25        42.9786       46.15164         0.7755         0.9299        26.7045          1.546       -52.7955      0.2798221
      7086.5000          0.313         15.806         0.0004        -999.25        -999.25        48.9487       54.27422         0.8293         0.9674        28.8007          1.371       -52.0376       0.452643
      7087.0000         0.3891        16.9177        -0.0008        -999.25        -999.25        55.9089       63.74388         0.8771         0.9641        31.5029         1.0796       -51.0695      0.6541252
      7087.5000         0.3523        18.2164        -0.0007        -999.25        -999.25        62.2809       72.41326         0.8541         0.9319        34.0944         0.9628       -50.4498        0.83858
      7088.0000         0.2999        19.2144        -0.0001        -999.25        -999.25        66.4865       78.13518         0.8172         0.8912        36.6888         0.9335       -50.8171      0.9603229
      7088.5000         0.2566        19.6231        -0.0005        -999.25        -999.25        63.4818       74.04713         0.7885         0.8411        37.6838         0.9022       -51.9163      0.8733433
      7089.0000         0.2017        19.6633         -0.003        -999.25        -999.25         60.558       70.06919         0.7672         0.7966        37.0255         0.8649       -53.0779      0.7887062
      7089.5000          0.151        20.1151        -0.0066        -999.25        -999.25        58.7665       67.63177         0.7559         0.7594        36.0933         0.8286       -54.2654      0.7368461
      7090.0000         0.1048        21.1131        -0.0095        -999.25        -999.25        53.1787       60.02933         0.7515         0.7336        35.1581         0.8196       -55.3768      0.5750921
      7090.5000         0.0797        21.9832        -0.0096        -999.25        -999.25        49.2673       54.70769         0.7482         0.7191        34.1871         0.8482       -56.2652      0.4618657
      7091.0000         0.0908        22.6337        -0.0073        -999.25        -999.25         46.466        50.8964         0.7478         0.7109        33.1891         0.8814       -57.0507      0.3807744
      7091.5000         0.1256        22.3834         -0.005        -999.25        -999.25        49.2231       54.64756         0.7517         0.7131        32.2562         0.9227       -56.9539      0.4605863
      7092.0000         0.1903         21.764        -0.0017        -999.25        -999.25        52.5979       59.23912          0.761          0.731        31.8555          0.927       -55.4271      0.5582792
      7092.5000         0.3172        21.3985         0.0018        -999.25        -999.25        54.4458       61.75327          0.774         0.7665        32.5308         0.9144       -53.5951      0.6117718
      7093.0000         0.5308        21.8044         0.0052        -999.25        -999.25        56.0363       63.91721          0.793          0.803        34.2021         0.9016       -52.6356      0.6578131
      7093.5000         0.8028        23.0866         0.0068        -999.25        -999.25        57.7666       66.27137         0.8224         0.8353        36.6529         0.9074       -51.8672      0.7079015
      7094.0000         1.1593        24.4856         0.0074        -999.25        -999.25        59.9208       69.20224         0.8623         0.8689        38.7656         0.9234         -50.67      0.7702605
      7094.5000         1.4279         25.744         0.0084        -999.25        -999.25        57.7936        66.3081         0.9074         0.9038         40.965         0.9369       -49.3503       0.708683
