#------------------------------------------------------------------------------
# Created by    : vladimir.rabinovich
# Created on    : 09/19/2023 17:20:57
#------------------------------------------------------------------------------
~Version Information Section
VERS.           2.0     :   CWLS log ASCII Standard - VERSION 2.0
WRAP.           NO      :   One line per depth step
~Well Information Section
#MNEM       .UNIT                                         VALUE :DESCRIPTION
#------------------------------------------------------------------------------
STRT        .FT                                             727 :START DEPTH
STOP        .FT                                            8206 :STOP DEPTH
STEP        .FT                                             0.5 :STEP      
NULL        .                                           -999.25 :NULL      
COMP        .                              PHOENIX RESOURCES CO :COMPANY   
WELL        .                                          BLK 335L :WELL      
FLD         .                                 BRAZOS BLOCK 0309 :FIELD     
LOC         .                                                   :LOCATION  
CNTY        .                                BRAZOS LARGE BLOCK :LOCATION  
STAT        .                                             TEXAS :STATE     
CTRY        .                                     UNITED STATES :COUNTRY   
SRVC        .                                                   :SERVICE COMPANY
DATE        .                             9/13/2023 11:18:52 AM :LOG DATE  
API         .                                    42704300210000 :API NUMBER
UWI         .                                    42704300210000 :UNIQUE WELL ID
XCOORD      .                                  898426.347293712 :SURFACE X 
YCOORD      .                                  10460523.5569112 :SURFACE Y 
LAT         .                                        28.8046676 :LATITUDE  
LON         .                                       -95.3172337 :LONGITUDE 
ELEV        .FT                                              70 :ELEVATION VALUE
ELEV_TYPE   .                                                DF :ELEVATION REFERENCE TYPE
~Curve Information Section
#MNEM       .UNIT                                      API CODE :CURVE DESCRIPTION
#------------------------------------------------------------------------------
DEPT        .FT                                                 :DEPTH     
ASN         .OHMM                                               :          
CALI        .IN                                                 :          
DT          .US/F                                               :          
ILD         .OHMM                                               :          
SP          .MV                                                 :          
SP_NORM     .MV                                                 :SP Normalized
VSH_SP      .V/V                                                :Volume of Shale from SP
~A        DEPTH            ASN           CALI             DT            ILD             SP        SP_NORM         VSH_SP
# ...
      7661.5000         0.5747         9.9866       121.0079         0.5386       -52.2653      -3.334919      0.9661606
      7662.0000         0.5732        10.1003       121.2079         0.5399       -52.9973      -4.052048      0.9557675
      7662.5000         0.5718        10.2253       120.2795         0.5412        -53.141      -4.180882      0.9539003
      7663.0000          0.572        10.3516       119.9374         0.5424       -51.9922      -3.017212      0.9707651
      7663.5000         0.5722         10.453       119.4244         0.5437       -51.7791      -2.789242      0.9740689
      7664.0000         0.5724         10.494        118.037         0.5456       -53.1583      -4.153576       0.954296
      7664.5000          0.573        10.4807       117.6313         0.5477        -56.027      -7.007408      0.9129361
      7665.0000         0.5736         10.421        117.316         0.5497       -57.3524      -8.317944      0.8939428
      7665.5000         0.5743        10.2562       116.5382         0.5518       -56.2228      -7.173473      0.9105294
      7666.0000          0.575        10.1137       116.0958         0.5538       -54.4069      -5.342701      0.9370623
      7666.5000         0.5759        10.0579       117.2697         0.5558       -53.0791      -4.000038      0.9565212
      7667.0000         0.5774        10.0722        118.709         0.5579       -52.0696      -2.975666      0.9713672
      7667.5000         0.5788        10.1081       119.6199         0.5593       -52.4684      -3.359596       0.965803
      7668.0000         0.5802        10.0667       119.8561         0.5605       -52.5985      -3.474831      0.9641329
      7668.5000         0.5816         9.9992       118.9875         0.5617       -51.3809      -2.242363      0.9819947
      7669.0000         0.5831        10.0008       117.4479         0.5629       -51.4637      -2.310295      0.9810102
      7669.5000         0.5847        10.1856       116.3279         0.5641       -51.3135      -2.145226      0.9834026
      7670.0000         0.5863         10.474       115.7957         0.5653       -51.1186      -1.935455      0.9864427
      7670.5000         0.5879        10.2545       115.8604         0.5665       -51.1047      -1.906689      0.9868596
      7671.0000         0.5892        10.0692       116.8662         0.5677       -51.5391      -2.326221      0.9807794
      7671.5000         0.5903        10.0018       118.3588         0.5689       -51.8324      -2.604652      0.9767442
      7672.0000         0.5914         9.9793       119.2103         0.5692        -53.961      -4.718384      0.9461104
      7672.5000         0.5925         9.9957       118.4132         0.5695       -56.8545      -7.597015      0.9043911
      7673.0000         0.5934        10.0341       117.4182         0.5697       -57.7438      -8.471447      0.8917181
      7673.5000         0.5938        10.0601       116.9968           0.57       -55.4722      -6.184978      0.9248554
      7674.0000         0.5943        10.0568       117.1624         0.5703       -54.8795      -5.577412      0.9336607
      7674.5000         0.5944        10.0301       118.0494         0.5706       -54.3629      -5.045944      0.9413632
      7675.0000         0.5925         9.9957        119.089         0.5708       -53.8365      -4.504673      0.9492077
      7675.5000         0.5906         9.9612       119.8644         0.5711       -53.4117      -4.065006      0.9555796
      7676.0000         0.5881         9.9529       119.6979         0.5714       -53.1902       -3.82864      0.9590052
      7676.5000         0.5851          9.957       118.5914         0.5725       -53.3299      -3.953468      0.9571961
      7677.0000         0.5831         9.9809       117.8241         0.5738       -54.0167      -4.625401       0.947458
      7677.5000         0.5823        10.0423       117.2499         0.5751       -54.7543      -5.348133      0.9369836
      7678.0000         0.5825         10.128       117.9237         0.5764         -54.61      -5.188965      0.9392903
      7678.5000         0.5838         10.211       118.3049         0.5777       -52.8301      -3.394196      0.9653015
      7679.0000         0.5852        10.1018       118.5192          0.579       -52.0533      -2.602528       0.976775
      7679.5000         0.5865        10.0159       118.4298         0.5803       -51.9932      -2.527557      0.9778615
      7680.0000         0.5881         9.9858       118.2852         0.5816       -51.9738      -2.493294      0.9783581
      7680.5000         0.5899         9.9897       117.7462         0.5837       -51.9692      -2.473824      0.9786403
      7681.0000         0.5916         9.9937       116.9739         0.5863       -53.7009      -4.190655      0.9537586
      7681.5000         0.5934         10.016        117.071         0.5889       -54.2961      -4.770988       0.945348
      7682.0000         0.5952        10.0447       117.5878         0.5915       -53.2834       -3.74342      0.9602403
      7682.5000         0.5979        10.0818       118.0247         0.5941       -53.0134      -3.458549      0.9643688
      7683.0000         0.6005        10.1272        118.182         0.5967       -53.5671      -3.997383      0.9565597
      7683.5000         0.6032        10.1847       117.9503         0.5993        -53.903      -4.318413       0.951907
      7684.0000         0.6079        10.2399       116.1212         0.6024       -53.7603      -4.160843      0.9541907
      7684.5000          0.613        10.2805       114.7535         0.6061       -53.0023      -3.387978      0.9653916
      7685.0000          0.619        10.2682       115.0033         0.6098       -51.7624      -2.133209      0.9835767
      7685.5000         0.6252        10.1982        114.792         0.6135        -50.629     -0.9849434              1
      7686.0000         0.6316        10.1586        115.089         0.6171       -50.1116     -0.4526711              1
      7686.5000         0.6387        10.1542       115.3167         0.6208       -50.9944      -1.320602      0.9953536
      7687.0000         0.6406        10.1353       114.4066         0.6234       -52.1489      -2.460236      0.9788372
      7687.5000         0.6424        10.0822        114.542         0.6238       -52.1409      -2.437366      0.9791686
      7688.0000         0.6441        10.0132       114.6471         0.6242       -52.0272      -2.308796       0.981032
      7688.5000         0.6459         9.9404       114.1045         0.6247       -52.2334       -2.50013       0.978259
      7689.0000         0.6469         9.9003       113.9237         0.6251       -52.0996      -2.351463      0.9804136
      7689.5000         0.6473         9.8787       114.5507         0.6255       -51.4738      -1.710796      0.9896986
      7690.0000         0.6477         9.8867       115.5642         0.6259       -50.7615     -0.9836273              1
      7690.5000         0.6481         9.9308       115.8175          0.626       -50.3383     -0.5455551              1
      7691.0000         0.6481         9.9617       115.1311         0.6259       -50.2191     -0.4114914              1
      7691.5000          0.648         9.9532       114.1428         0.6257       -50.5324      -0.709919              1
      7692.0000          0.648         9.9135       113.7445         0.6256       -51.2273       -1.38995      0.9943485
      7692.5000         0.6476         9.8806       114.0035         0.6254        -51.921      -2.068787      0.9845104
      7693.0000         0.6462         9.8608       115.0247         0.6283       -52.4814      -2.614315      0.9766041
      7693.5000         0.6447         9.8571       116.1991         0.6328       -52.9401      -3.058147      0.9701717
      7694.0000         0.6412         9.8445       116.7113         0.6252       -53.2649       -3.36808        0.96568
      7694.5000         0.6353         9.8257       116.7747         0.6175       -53.3252      -3.413509      0.9650216
