#------------------------------------------------------------------------------
# Created by    : vladimir.rabinovich
# Created on    : 09/19/2023 17:20:04
#------------------------------------------------------------------------------
~Version Information Section
VERS.           2.0     :   CWLS log ASCII Standard - VERSION 2.0
WRAP.           NO      :   One line per depth step
~Well Information Section
#MNEM       .UNIT                                         VALUE :DESCRIPTION
#------------------------------------------------------------------------------
STRT        .FT                                             900 :START DEPTH
STOP        .FT                                            8286 :STOP DEPTH
STEP        .FT                                             0.5 :STEP      
NULL        .                                           -999.25 :NULL      
COMP        .                                       ALLIED CORP :COMPANY   
WELL        .                               OCS G04069 ST00BP00 :WELL      
FLD         .                                           WILDCAT :FIELD     
LOC         .                                                   :LOCATION  
CNTY        .                             GALVESTON LARGE BLOCK :LOCATION  
STAT        .                                             TEXAS :STATE     
CTRY        .                                     UNITED STATES :COUNTRY   
SRVC        .                                                   :SERVICE COMPANY
DATE        .                             9/13/2023 11:18:53 AM :LOG DATE  
API         .                                    42706400840000 :API NUMBER
UWI         .                                    42706400840000 :UNIQUE WELL ID
XCOORD      .                                  987200.391396966 :SURFACE X 
YCOORD      .                                   10401886.486665 :SURFACE Y 
LAT         .                                         28.647914 :LATITUDE  
LON         .                                        -95.037018 :LONGITUDE 
ELEV        .FT                                              83 :ELEVATION VALUE
ELEV_TYPE   .                                                KB :ELEVATION REFERENCE TYPE
~Curve Information Section
#MNEM       .UNIT                                      API CODE :CURVE DESCRIPTION
#------------------------------------------------------------------------------
DEPT        .FT                                                 :DEPTH     
ASFL        .OHMM                                               :          
CILD        .MMHO                                               :          
DPHI        .%                                                  :          
DT          .US/F                                               :          
GR          .GAPI                                               :          
GR_NORM     .GAPI                                               :GammaRay Normalized
ILD         .OHMM                                               :          
SP          .MV                                                 :          
SP_NORM     .MV                                                 :SP Normalized
VSH_GR      .V/V                                                :Volume of Shale from GR
VSH_SP      .V/V                                                :Volume of Shale from SP
~A        DEPTH           ASFL           CILD           DPHI             DT             GR        GR_NORM            ILD             SP        SP_NORM         VSH_GR         VSH_SP
# ...
      3352.5000          0.909        1254.01        32.7528        152.156        60.4009       76.81375         0.7993       -61.9449      -1.275562      0.9322075      0.9803759
      3353.0000         0.9247       1226.859        31.9411       150.5527        59.5515        75.5949         0.8179       -61.9067      -1.241692      0.9062745      0.9808971
      3353.5000         0.9391       1199.723        31.6254       148.0176        59.0548       74.88217         0.8365       -61.8686      -1.207924      0.8911101      0.9814166
      3354.0000         0.9497       1172.572        31.4806       146.2727        60.1279         76.422         0.8529       -61.8304      -1.174053      0.9238724      0.9819376
      3354.5000         0.9565       1145.424        31.3404       144.7764        62.0975       79.24828         0.8693        -61.681      -1.028984      0.9840059      0.9841695
      3355.0000         0.9583       1117.633        29.7921       143.4236        64.0859       82.10153         0.8858       -61.5288      -0.881115              1      0.9864444
      3355.5000         0.9583       1114.504        29.8414       143.0862        64.4817       82.66949         0.8793       -61.3766      -0.733242              1      0.9887193
      3356.0000         0.9563       1130.406        30.8895       142.8606        64.8989       83.26816         0.8692       -61.2703      -0.631279              1       0.990288
      3356.5000         0.9512       1146.297        32.4897        142.345        65.3246       83.87901         0.8591       -61.2261     -0.5914078              1      0.9909014
      3357.0000         0.9461       1163.051        34.8635       142.4236        64.0743        82.0849          0.849       -61.1818     -0.5514374              1      0.9915164
      3357.5000          0.941       1184.607        35.0352       142.6709        62.5326       79.87263         0.8263       -61.1659     -0.5398674      0.9972901      0.9916943
      3358.0000         0.9333       1206.164        33.5368       143.2007        61.0494       77.74432         0.8031       -61.1542     -0.5325012      0.9520069      0.9918077
      3358.5000         0.9244       1227.723        29.8926       143.8623        59.6532       75.74083         0.7798       -61.1425     -0.5251312      0.9093794      0.9919211
      3359.0000         0.9156       1249.279        29.4826       144.6472        58.7739        74.4791         0.7563          -61.2     -0.5869598       0.882534      0.9909698
      3359.5000         0.9071       1270.836        31.3894        145.728        58.9073        74.6705         0.7286       -61.2629     -0.6541901      0.8866064      0.9899355
      3360.0000          0.899       1292.393        34.7886       147.2817        59.6307       75.70856          0.701       -61.4055     -0.8011208      0.9086927      0.9876751
      3360.5000         0.8909       1312.928        35.9763       148.9971         60.354       76.74644          0.702       -61.6754      -1.075352      0.9307754      0.9834561
      3361.0000         0.8841       1331.873        35.3402       150.2817        61.0774        77.7845         0.7059       -61.9429      -1.347183      0.9528617      0.9792741
      3361.5000         0.8783       1350.832        33.4113       151.4133        61.8836       78.94135         0.7098       -62.1728      -1.581409      0.9774754      0.9756706
      3362.0000         0.8765       1362.357        31.9096       152.0264        62.8245        80.2915         0.7138       -62.4025      -1.815445              1      0.9720701
      3362.5000         0.8746       1358.768        32.1114       152.3599        63.7661       81.64265         0.7177       -62.6324      -2.049675              1      0.9684665
      3363.0000         0.8742       1355.178        33.0631       152.0769        64.7075        82.9935         0.7216       -62.8622      -2.283806              1      0.9648646
      3363.5000         0.8738       1345.639        34.2211       152.1355        65.7246       84.45299         0.7291        -62.991      -2.416935              1      0.9628164
      3364.0000         0.8735       1332.096        35.1198       152.3928        66.7496       85.92383         0.7372       -63.0924      -2.522663              1      0.9611898
      3364.5000         0.8731       1318.551        36.0665       152.8484        67.4218       86.88838         0.7453       -63.1938      -2.628399              1      0.9595631
      3365.0000         0.8755       1305.008        36.5266       153.5725        66.8087       86.00861         0.7534       -63.2953      -2.734226              1       0.957935
      3365.5000         0.8814       1291.463        36.3033       153.6165        65.5265       84.16872         0.7592       -63.1798      -2.623055              1      0.9596453
      3366.0000         0.8873       1277.912        35.0734       153.3616        64.2383       82.32021         0.7649       -63.0357      -2.483288              1      0.9617956
      3366.5000          0.899       1264.369        33.6948       152.8806        62.9495       80.47087         0.7705       -62.8917       -2.34362              1      0.9639443
      3367.0000         0.9166       1250.824        33.8276       152.0847        61.6621       78.62351         0.7731       -62.7386      -2.194851       0.970713      0.9662331
      3367.5000         0.9229       1237.281        34.3306       151.2822        61.2852       78.08266         0.7715       -62.5281      -1.988678      0.9592056      0.9694049
      3368.0000         0.9282       1223.736        34.4603       150.6626        60.9083       77.54185         0.7698       -62.3174       -1.78231      0.9476989      0.9725798
      3368.5000         0.9343       1213.186        34.3842       150.5847        60.3638       76.76051         0.7681       -62.2665      -1.735741      0.9310747      0.9732963
      3369.0000          0.942       1211.334          34.47         150.76        59.4308       75.42171         0.7665       -62.3407       -1.81427      0.9025895      0.9720882
      3369.5000         0.9466       1209.482        35.1873       150.8633        58.5051       74.09338         0.7594       -62.4794      -1.957302      0.8743273      0.9698877
      3370.0000         0.9394       1223.164        35.7922       150.6321        58.4244       73.97758         0.7502       -62.7098      -2.192032      0.8718634      0.9662764
      3370.5000         0.9286       1251.508          35.26       149.8672        59.1042       74.95304          0.741       -62.9402      -2.426762      0.8926179      0.9626652
      3371.0000         0.9136        1279.84        34.7426       149.6968        59.7839       75.92838         0.7319       -63.1707      -2.661594      0.9133698      0.9590524
      3371.5000         0.8986       1308.174        34.6057       150.4229        60.4905       76.94232         0.7257       -63.4012      -2.896423       0.934943      0.9554396
      3372.0000         0.8834       1336.518        34.3088       152.0972        61.9348       79.01482         0.7238       -63.6317      -3.131252      0.9790387      0.9518269
      3372.5000          0.868       1359.367         33.348       153.4326        63.3785       81.08646         0.7219       -63.8622      -3.366085              1      0.9482141
      3373.0000         0.8627       1377.328        32.7485       154.2837        64.8228       83.15896           0.72       -64.0925      -3.600716              1      0.9446044
      3373.5000         0.8725       1365.084        32.4885       154.8931        65.8008       84.56233         0.7233       -64.3013      -3.813847              1      0.9413254
      3374.0000         0.8823       1339.707        32.8225       155.0557          65.89       84.69033         0.7377       -64.1898      -3.706673              1      0.9429743
      3374.5000         0.8965       1314.332        33.0557       154.5581        65.2234       83.73379         0.7522       -63.8486      -3.369804              1      0.9481568
