#------------------------------------------------------------------------------
# Created by    : vladimir.rabinovich
# Created on    : 09/19/2023 17:22:39
#------------------------------------------------------------------------------
~Version Information Section
VERS.           2.0     :   CWLS log ASCII Standard - VERSION 2.0
WRAP.           NO      :   One line per depth step
~Well Information Section
#MNEM       .UNIT                                         VALUE :DESCRIPTION
#------------------------------------------------------------------------------
STRT        .FT                                            3493 :START DEPTH
STOP        .FT                                            8566 :STOP DEPTH
STEP        .FT                                             0.5 :STEP      
NULL        .                                           -999.25 :NULL      
COMP        .                          SEAGULL ENERGY E & P INC :COMPANY   
WELL        .                               OCS G09038 ST00BP00 :WELL      
FLD         .                                           WILDCAT :FIELD     
LOC         .                                                   :LOCATION  
CNTY        .                             GALVESTON LARGE BLOCK :LOCATION  
STAT        .                                             TEXAS :STATE     
CTRY        .                                     UNITED STATES :COUNTRY   
SRVC        .                                                   :SERVICE COMPANY
DATE        .                             9/13/2023 11:19:36 AM :LOG DATE  
API         .                                    42706402070000 :API NUMBER
UWI         .                                    42706402070000 :UNIQUE WELL ID
XCOORD      .                                  986976.405819811 :SURFACE X 
YCOORD      .                                  10491452.3738699 :SURFACE Y 
LAT         .                                         28.894171 :LATITUDE  
LON         .                                        -95.042508 :LONGITUDE 
ELEV        .FT                                              93 :ELEVATION VALUE
ELEV_TYPE   .                                                KB :ELEVATION REFERENCE TYPE
~Curve Information Section
#MNEM       .UNIT                                      API CODE :CURVE DESCRIPTION
#------------------------------------------------------------------------------
DEPT        .FT                                                 :DEPTH     
DCAL        .IN                                                 :          
DPHI        .%                                                  :          
DRHO        .G/C3                                               :          
GR          .GAPI                                               :          
GR_NORM     .GAPI                                               :GammaRay Normalized
ILD         .OHMM                                               :          
ILM         .OHMM                                               :          
NPHI        .%                                                  :          
SGRD        .OHMM                                               :          
SP          .MV                                                 :          
SP_NORM     .MV                                                 :SP Normalized
VSH_GR      .V/V                                                :Volume of Shale from GR
VSH_SP      .V/V                                                :Volume of Shale from SP
~A        DEPTH           DCAL           DPHI           DRHO             GR        GR_NORM            ILD            ILM           NPHI           SGRD             SP        SP_NORM         VSH_GR         VSH_SP
      3493.0000        -999.25        -999.25        -999.25        40.2473       51.58516        -999.25        -999.25        68.3101        -999.25        -999.25        -999.25       0.395429        -999.25
      3493.5000        -999.25        -999.25        -999.25        39.5447       50.62395        -999.25        -999.25        67.6838        -999.25        -999.25        -999.25      0.3749776        -999.25
      3494.0000        -999.25        -999.25        -999.25        38.7181       49.49308        -999.25        -999.25        67.1481        -999.25        -999.25        -999.25      0.3509166        -999.25
      3494.5000        -999.25        -999.25        -999.25        38.0493       48.57809        -999.25        -999.25        65.2068        -999.25        -999.25        -999.25      0.3314488        -999.25
      3495.0000        -999.25        -999.25        -999.25        37.9631       48.46017        -999.25        -999.25        63.5905        -999.25        -999.25        -999.25      0.3289397        -999.25
      3495.5000        -999.25        -999.25        -999.25        38.1229       48.67878        -999.25        -999.25        62.8399        -999.25        -999.25        -999.25      0.3335911        -999.25
      3496.0000        -999.25        -999.25        -999.25        38.7385       49.52098        -999.25        -999.25        63.0626        -999.25        -999.25        -999.25      0.3515103        -999.25
      3496.5000        -999.25        -999.25        -999.25        39.2609       50.23568        -999.25        -999.25        63.1088        -999.25        -999.25        -999.25      0.3667166        -999.25
      3497.0000        -999.25        -999.25        -999.25        37.9929       48.50094        -999.25        -999.25        62.9376        -999.25        -999.25        -999.25      0.3298072        -999.25
      3497.5000        -999.25        -999.25        -999.25        38.9686       49.83578        -999.25        -999.25        62.7653        -999.25        -999.25        -999.25      0.3582082        -999.25
      3498.0000        -999.25        -999.25        -999.25        40.0978       51.38064        -999.25        -999.25        62.5516        -999.25        -999.25        -999.25      0.3910774        -999.25
      3498.5000        -999.25        -999.25        -999.25        39.6647       50.78812        -999.25        -999.25        62.4121        -999.25        -999.25        -999.25      0.3784706        -999.25
      3499.0000        -999.25        -999.25        -999.25        39.2363       50.20203        -999.25        -999.25          63.32        -999.25        -999.25        -999.25      0.3660006        -999.25
      3499.5000        -999.25        -999.25        -999.25        38.9401        49.7968        -999.25        -999.25        64.4506        -999.25        -999.25        -999.25      0.3573787        -999.25
      3500.0000        -999.25        -999.25        -999.25        38.7482       49.53426        -999.25        -999.25        65.6252        -999.25        -999.25        -999.25      0.3517927        -999.25
      3500.5000        -999.25        -999.25        -999.25        38.5817       49.30647        -999.25        -999.25        66.7285        -999.25        -999.25        -999.25      0.3469462        -999.25
      3501.0000        -999.25        -999.25        -999.25        49.0055       63.56721        -999.25        -999.25        65.2351        -999.25        -999.25        -999.25      0.6503662        -999.25
      3501.5000        -999.25        -999.25        -999.25        62.9291         82.616        -999.25        -999.25        62.2089        -999.25        -999.25        -999.25              1        -999.25
      3502.0000         0.9037        32.8993        -0.7087        70.5568        93.0514         2.6613       194.1941        58.3477          0.428       -63.4569      -3.569897              1       0.946718
      3502.5000         1.1216         31.051        -0.1651        73.1887       96.65209         1.9802          22.78        55.4822         0.5772       -57.4207       2.466305              1              1
      3503.0000         1.3294         30.623        -0.0776        73.8011       97.48992         1.4797         4.1686        52.3662         0.7003       -55.2446       4.642406              1              1
      3503.5000         1.4916        30.2558         0.0036         71.173       93.89442         1.0985         1.7064        50.0558         0.8159       -54.2126       5.674404              1              1
      3504.0000         1.6258        29.8573          0.048        66.6018       87.64059         0.8662         0.8444        48.0577         0.8755       -53.4686       6.418404              1              1
      3504.5000         1.7239        29.4105          0.057        63.4253       83.29485         0.7751         0.7801         46.694         0.9114       -53.3384       6.548603              1              1
      3505.0000          1.807         29.099         0.0465        60.8799       79.81249         0.8033          0.768         45.909         0.9328       -53.7643       6.122704      0.9960105              1
      3505.5000          1.878        29.1283         0.0297        59.2292       77.55418         0.8782         0.7938        45.5744          0.965       -54.2571       5.629906      0.9479614              1
      3506.0000         1.9292        28.8489         0.0339        58.3324       76.32728         0.9485         0.8542        45.4847         0.9948       -55.4358       4.451206       0.921857              1
      3506.5000         1.9503        29.2442         0.0449        59.1587       77.45773         0.9801         0.9095        45.5154         1.0176        -57.209       2.678005      0.9459092              1
      3507.0000         1.9755        29.9839         0.0518        60.2897       79.00506         0.9849         0.9432        45.6296         1.0256       -59.3177      0.5693054      0.9788311              1
      3507.5000         1.9996        30.2498         0.0586         61.295       80.38039         0.9637         0.9748        45.7526         0.9885        -61.691      -1.803997              1      0.9730747
      3508.0000         2.0193        28.6804         0.0643        60.8824       79.81592         0.9291         0.9985         45.652         0.9716       -64.0842      -4.197193      0.9960834      0.9373553
      3508.5000         2.0296        26.7936         0.0646        57.0414       74.56107         0.8913         1.0146        44.8423         1.0232       -67.1766      -7.289593      0.8842782      0.8912001
      3509.0000         2.0208        25.1751         0.0602        53.1534       69.24192         0.8456         1.0124        43.9912         1.0963       -70.0165       -10.1295      0.7711047      0.8488135
      3509.5000         1.9806        23.8376         0.0514        49.2456       63.89569         0.8087         0.9748        42.9391         1.1615       -71.1646      -11.27759      0.6573551      0.8316777
      3510.0000         1.9157        22.8893         0.0416        47.3201       61.26142         0.7893         0.9084        42.0621         1.2079       -71.9568       -12.0698      0.6013067      0.8198538
      3510.5000          1.831        22.5134         0.0352        45.7845       59.16058         0.7914         0.8736        42.3127         1.1967       -73.7239      -13.83689       0.556608      0.7934792
      3511.0000         1.7524        22.6017         0.0297        47.1209       60.98889         0.7911          0.881         42.329         1.1572       -76.6157      -16.72869      0.5955083       0.750318
      3511.5000         1.6957        22.7827         0.0227        48.0242        62.2247         0.7854         0.8923        41.0703         1.1718       -79.8652      -19.97819      0.6218021       0.701818
