#------------------------------------------------------------------------------
# Created by    : vladimir.rabinovich
# Created on    : 09/19/2023 17:22:46
#------------------------------------------------------------------------------
~Version Information Section
VERS.           2.0     :   CWLS log ASCII Standard - VERSION 2.0
WRAP.           NO      :   One line per depth step
~Well Information Section
#MNEM       .UNIT                                         VALUE :DESCRIPTION
#------------------------------------------------------------------------------
STRT        .FT                                             862 :START DEPTH
STOP        .FT                                           11792 :STOP DEPTH
STEP        .FT                                             0.5 :STEP      
NULL        .                                           -999.25 :NULL      
COMP        .                     FREEPORT-MCMORAN OIL & GAS CO :COMPANY   
WELL        .                               OCS G08155 ST00BP00 :WELL      
FLD         .                            HIGH ISLAND BLOCK 0262 :FIELD     
LOC         .                                                   :LOCATION  
CNTY        .                           HIGH ISLAND LARGE BLOCK :LOCATION  
STAT        .                                             TEXAS :STATE     
CTRY        .                                     UNITED STATES :COUNTRY   
SRVC        .                                                   :SERVICE COMPANY
DATE        .                             9/13/2023 11:19:59 AM :LOG DATE  
API         .                                    42708403380000 :API NUMBER
UWI         .                                    42708403380000 :UNIQUE WELL ID
XCOORD      .                                  1194111.75057656 :SURFACE X 
YCOORD      .                                  10524686.1808471 :SURFACE Y 
LAT         .                                         28.993839 :LATITUDE  
LON         .                                         -94.39647 :LONGITUDE 
ELEV        .FT                                              98 :ELEVATION VALUE
ELEV_TYPE   .                                                KB :ELEVATION REFERENCE TYPE
~Curve Information Section
#MNEM       .UNIT                                      API CODE :CURVE DESCRIPTION
#------------------------------------------------------------------------------
DEPT        .FT                                                 :DEPTH     
DT          .US/F                                               :          
GR          .GAPI                                               :          
GR_NORM     .GAPI                                               :GammaRay Normalized
ILD         .OHMM                                               :          
ILM         .OHMM                                               :          
SFL         .OHMM                                               :          
SP          .MV                                                 :          
SP_NORM     .MV                                                 :SP Normalized
VSH_GR      .V/V                                                :Volume of Shale from GR
VSH_SP      .V/V                                                :Volume of Shale from SP
~A        DEPTH             DT             GR        GR_NORM            ILD            ILM            SFL             SP        SP_NORM         VSH_GR         VSH_SP
# ...
      1646.0000       159.6899        28.2277       48.81223         0.5385         0.5508         0.5399       -97.6896      -11.75193      0.3364305      0.3280044
      1646.5000       161.5632        28.5051       49.18638         0.5455         0.5635         0.5443       -97.3232      -11.38949      0.3443911       0.350657
      1647.0000       161.8538        28.7972       49.58025         0.5583         0.5824         0.5545       -97.1289      -11.19915      0.3527713      0.3625531
      1647.5000        160.269        30.7276       52.17251         0.5766         0.6037         0.5687       -96.9476      -11.02182      0.4079258      0.3736362
      1648.0000       158.0488        32.8292       54.99451         0.5924         0.6277         0.5854       -96.8525      -10.93068      0.4679683      0.3793325
      1648.5000       155.4612         32.816       54.97871         0.5954          0.649         0.5935        -96.842      -10.92414      0.4676321      0.3797412
      1649.0000       153.6018        31.2274       52.84891         0.5976         0.6682         0.5961       -96.9403       -11.0264      0.4223173      0.3733501
      1649.5000       153.4373        29.7126       50.81816          0.593         0.6693         0.5906       -97.2697      -11.35976      0.3791098      0.3525147
      1650.0000       154.9993        28.3087       48.93621         0.5885         0.6668         0.5849       -97.6742      -11.76823      0.3390684      0.3269858
      1650.5000       157.8928         26.924       47.08004         0.5809         0.6454         0.5777       -98.0317      -12.12968      0.2995752      0.3043947
      1651.0000       160.7871        25.4611       45.11893         0.5722         0.6247         0.5706        -98.184      -12.28595      0.2578495      0.2946281
      1651.5000       162.3997         24.183       43.40579         0.5642         0.6114         0.5636       -98.3361      -12.44201      0.2213998      0.2848744
      1652.0000       160.9163        23.2672       42.17881         0.5583         0.6003         0.5562       -98.3378      -12.44767      0.1952939      0.2845206
      1652.5000        158.438        24.3836       43.67879         0.5528          0.595         0.5515       -98.3268      -12.44063      0.2272083      0.2849607
      1653.0000       156.2793         25.685       45.42701         0.5504         0.5931         0.5507       -98.3159       -12.4337      0.2644045      0.2853937
      1653.5000       154.9023        26.3782       46.35912         0.5481         0.5916         0.5525        -98.231      -12.35276      0.2842365      0.2904525
      1654.0000       153.7351        26.6012       46.66027         0.5475         0.5903          0.558        -98.144      -12.26971       0.290644      0.2956429
      1654.5000        152.752        24.7248       44.14428         0.5468         0.5894         0.5714       -98.0573      -12.18698      0.2371123      0.3008137
      1655.0000       152.3523        22.7336       41.47426          0.549         0.5885         0.5862       -97.9758      -12.10944      0.1803035      0.3056598
      1655.5000        152.592        20.8716        38.9776         0.5525         0.5854         0.5941       -97.8971      -12.03471      0.1271829      0.3103309
      1656.0000       153.1157        19.8226       37.57189         0.5561         0.5823         0.5908        -97.819      -11.96056      0.0972743      0.3149648
      1656.5000       153.3469        20.9127       39.03658         0.5615         0.5794         0.5806       -97.7437      -11.88923      0.1284378      0.3194232
      1657.0000       152.6025        22.1431       40.68953         0.5669         0.5795         0.5697       -97.6682      -11.81769       0.163607      0.3238945
      1657.5000       151.5374        24.3222       43.61552         0.5748         0.5822         0.5618       -97.5269      -11.68035      0.2258621       0.332478
      1658.0000       150.4536        26.5775       46.64376         0.5873         0.5902         0.5686       -97.3341      -11.49152      0.2902927      0.3442802
      1658.5000       150.2146        28.3672       49.04722         0.6001         0.6004         0.5945       -97.0581      -11.21947      0.3414302      0.3612828
      1659.0000       150.9604         29.673       50.80134         0.6166         0.6152         0.6231        -96.533      -10.69833       0.378752      0.3938541
      1659.5000       151.5278        30.1783       51.48131         0.6344         0.6311         0.6453       -96.1086      -10.27789      0.3932193      0.4201317
      1660.0000       151.5286        29.8058       50.98336         0.6528         0.6502          0.666       -95.7721      -9.945366      0.3826248      0.4409146
      1660.5000       151.2974        28.5924       49.35705          0.672         0.6699         0.6854        -95.787      -9.964226      0.3480224      0.4397359
      1661.0000       151.8423        25.8065       45.62064         0.6908         0.6893         0.7086       -95.9413      -10.12248      0.2685242      0.4298449
      1661.5000       153.4116        24.1341       43.37841         0.7041         0.6974         0.7136        -96.089      -10.27415      0.2208172      0.4203658
      1662.0000       155.1316        26.4081       46.43174         0.7179         0.6997         0.6974       -95.6504      -9.839508      0.2857816      0.4475307
      1662.5000       156.6392        31.2379       52.91463         0.7324         0.6988         0.6788       -94.8771      -9.070168      0.4237155      0.4956145
      1663.0000       155.9785        35.8351        59.0854          0.751         0.6993         0.6536       -94.0981      -8.295128      0.5550085      0.5440545
      1663.5000       153.1511        39.4696       63.96434         0.7753         0.7108         0.6424       -93.3239      -7.524895      0.6588157      0.5921941
      1664.0000        145.937        42.5234       68.06406         0.8162         0.7499         0.7022       -92.5603      -6.765259      0.7460439      0.6396713
      1664.5000       136.0017        40.4882       65.33501         0.8845         0.8151         0.8258       -91.9467      -6.155617      0.6879789       0.677774
      1665.0000       130.6257        33.5154        55.9803         0.9823         0.9369         0.9746        -91.951      -6.163879      0.4889425      0.6772575
      1665.5000       126.0336        28.7514       49.58952         1.0875         1.0873         1.1854       -92.1891      -6.405945      0.3529686      0.6621284
      1666.0000       122.5785         26.742       46.89508         1.1828         1.2182         1.3883       -92.4512      -6.672005        0.29564      0.6454997
      1666.5000       122.7906        26.0969       46.03134         1.2728         1.3129         1.4809       -92.5115      -6.736259      0.2772626      0.6414838
      1667.0000       125.2821        25.0506       44.62926         1.3227         1.3623         1.5009       -92.5029      -6.731628       0.247431      0.6417732
      1667.5000       127.4617        22.5562         41.284         1.3686         1.3858         1.4449       -92.3777       -6.61039      0.1762553      0.6493506
      1668.0000       127.9104        20.7029       38.79902         1.3859         1.3958         1.3677       -92.2526       -6.48925      0.1233834      0.6569219
      1668.5000       125.7388        21.4811       39.84518         1.4034         1.3997         1.3476       -92.1228      -6.363419      0.1456421      0.6647863
      1669.0000       123.4681        23.5453       42.61699         1.3992         1.4023         1.3581       -91.9869      -6.231476      0.2046167      0.6730328
      1669.5000       122.5543        27.2474       47.58665         1.3936         1.4029         1.3881       -91.8221      -6.070633      0.3103542      0.6830854
      1670.0000       123.1423         30.606       52.09537         1.3852         1.4026         1.4345       -91.2942      -5.546692      0.4062845      0.7158318
