#------------------------------------------------------------------------------
# Created by    : vladimir.rabinovich
# Created on    : 09/19/2023 17:20:24
#------------------------------------------------------------------------------
~Version Information Section
VERS.           2.0     :   CWLS log ASCII Standard - VERSION 2.0
WRAP.           NO      :   One line per depth step
~Well Information Section
#MNEM       .UNIT                                         VALUE :DESCRIPTION
#------------------------------------------------------------------------------
STRT        .FT                                            2979 :START DEPTH
STOP        .FT                                           11003 :STOP DEPTH
STEP        .FT                                             0.5 :STEP      
NULL        .                                           -999.25 :NULL      
COMP        .                                        TEXACO USA :COMPANY   
WELL        .                               OCS G01821 ST00BP00 :WELL      
FLD         .                                           WILDCAT :FIELD     
LOC         .                                                   :LOCATION  
CNTY        .                           HIGH ISLAND LARGE BLOCK :LOCATION  
STAT        .                                             TEXAS :STATE     
CTRY        .                                     UNITED STATES :COUNTRY   
SRVC        .                                                   :SERVICE COMPANY
DATE        .                             9/13/2023 11:19:15 AM :LOG DATE  
API         .                                    42708300170000 :API NUMBER
UWI         .                                    42708300170000 :UNIQUE WELL ID
XCOORD      .                                  1345073.13508324 :SURFACE X 
YCOORD      .                                  10640242.4404634 :SURFACE Y 
LAT         .                                         29.315788 :LATITUDE  
LON         .                                        -93.927032 :LONGITUDE 
ELEV        .FT                                              74 :ELEVATION VALUE
ELEV_TYPE   .                                                KB :ELEVATION REFERENCE TYPE
~Curve Information Section
#MNEM       .UNIT                                      API CODE :CURVE DESCRIPTION
#------------------------------------------------------------------------------
DEPT        .FT                                                 :DEPTH     
ASN         .OHMM                                               :          
CILD        .MMHO                                               :          
ILD         .OHMM                                               :          
SP          .MV                                                 :          
SP_NORM     .MV                                                 :SP Normalized
VSH_SP      .V/V                                                :Volume of Shale from SP
~A        DEPTH            ASN           CILD            ILD             SP        SP_NORM         VSH_SP
# ...
     10427.0000           0.68       1734.773         0.5506       -33.5672     -0.7041245              1
     10427.5000         0.6868       1719.553         0.5526       -33.2939     -0.3989296              1
     10428.0000         0.6936       1704.357         0.5545       -33.0206    -0.09373474              1
     10428.5000         0.7005       1689.139         0.5565       -32.7473      0.2114601              1
     10429.0000         0.7012       1673.943         0.5584       -32.4741      0.5165558              1
     10429.5000         0.6968       1686.941         0.5604       -32.2007      0.8218498              1
     10430.0000         0.6925       1700.914         0.5626        -32.087      0.9674416              1
     10430.5000         0.6881       1714.861         0.5654       -32.0834       1.002937              1
     10431.0000         0.6838       1731.504         0.5682       -32.0798       1.038433              1
     10431.5000         0.6794       1749.619          0.571       -32.0762       1.073929              1
     10432.0000         0.6751       1767.732         0.5738       -32.0726       1.109421              1
     10432.5000         0.6708       1761.969         0.5766        -32.069       1.144917              1
     10433.0000         0.6665       1747.572         0.5794       -32.0653       1.180511              1
     10433.5000         0.6622       1732.277         0.5822       -32.0617       1.216007              1
     10434.0000         0.6578        1706.08          0.585       -32.0581       1.251499              1
     10434.5000         0.6535       1679.932         0.5878       -32.0545       1.286995              1
     10435.0000          0.652       1653.732         0.5906       -32.0815       1.291889              1
     10435.5000         0.6598       1627.584         0.5934        -32.153       1.252285              1
     10436.0000         0.6676       1601.387         0.5955       -32.2244        1.21278              1
     10436.5000         0.6753       1575.188         0.5974        -32.296       1.173073              1
     10437.0000         0.6831       1559.818         0.5994       -32.3674       1.133568              1
     10437.5000         0.6909       1546.693         0.6014       -32.4388       1.094063              1
     10438.0000         0.6987        1533.57         0.6034       -32.5104       1.054359              1
     10438.5000         0.7065       1520.445         0.6054       -32.5819       1.014751              1
     10439.0000         0.7153       1507.322         0.6074       -32.6555      0.9730492              1
     10439.5000         0.7258       1497.691         0.6094        -32.897       0.763443              1
     10440.0000         0.7362       1515.031         0.6065       -33.1382      0.5541382              1
     10440.5000         0.7467       1532.348         0.6032       -33.3798      0.3444328              1
     10441.0000          0.755       1572.344         0.5998       -33.6213      0.1348267              1
     10441.5000         0.7431       1646.996         0.5965       -33.8625    -0.07447815              1
     10442.0000         0.7313        1730.73         0.5932       -34.1041     -0.2841835              1
     10442.5000         0.7178       1820.354         0.5899       -34.3453     -0.4934883              1
     10443.0000          0.703        1852.84         0.5865       -34.5778     -0.6940956              1
     10443.5000         0.6881       1876.193         0.5818       -34.7966     -0.8810005              1
     10444.0000         0.6733       1899.498         0.5765       -35.0154      -1.067905      0.9989553
     10444.5000         0.6585       1922.852         0.5712       -35.2343       -1.25491      0.9960783
     10445.0000         0.6436       1942.938         0.5659       -35.4531      -1.441814      0.9932029
     10445.5000         0.6288       1952.816         0.5606       -35.6719      -1.628723      0.9903274
     10446.0000         0.6139       1933.281         0.5553       -35.8907      -1.815628      0.9874519
     10446.5000         0.6013       1909.078         0.5501       -36.1096      -2.002632      0.9845749
     10447.0000         0.6055       1884.877         0.5509       -36.3125      -2.173637       0.981944
     10447.5000         0.6096       1860.674          0.552        -36.455      -2.284245      0.9802424
     10448.0000         0.6138       1836.473         0.5532       -36.5979      -2.395248      0.9785346
     10448.5000          0.623        1812.27         0.5543       -36.7405      -2.505955      0.9768314
     10449.0000         0.6372       1792.035         0.5555       -36.8771      -2.610661      0.9752206
     10449.5000         0.6514       1793.207         0.5566       -36.4836      -2.185265      0.9817652
     10450.0000         0.6656       1806.756         0.5578       -36.0909       -1.76067      0.9882974
     10450.5000         0.6798       1820.305         0.5589       -35.6981      -1.335976      0.9948311
     10451.0000          0.694       1833.852         0.5601       -35.3046     -0.9105797              1
     10451.5000         0.6679         1847.4         0.5612       -34.9118     -0.4858856              1
     10452.0000         0.6417       1860.949         0.5623       -34.6172     -0.1593895              1
     10452.5000         0.6366       1874.496         0.5632       -34.6375     -0.1477966              1
     10453.0000         0.6412       1849.596         0.5641       -34.6577     -0.1361008              1
     10453.5000         0.6464       1816.561          0.565        -34.678     -0.1245079              1
     10454.0000         0.6598       1785.074         0.5659        -34.723     -0.1376114              1
     10454.5000         0.6732       1753.535         0.5669       -34.8447      -0.227417              1
     10455.0000         0.6866       1722.049         0.5678       -34.9663     -0.3171234              1
     10455.5000            0.7       1690.561         0.5687        -35.088      -0.406929              1
     10456.0000         0.7134       1659.021         0.5696       -35.2095     -0.4965324              1
     10456.5000         0.7268       1628.133         0.5705       -35.3311     -0.5862389              1
     10457.0000         0.7402       1597.244         0.5715       -35.4528     -0.6760445              1
     10457.5000         0.7441       1566.305         0.5724       -35.5743     -0.7656479              1
     10458.0000         0.7299       1598.193         0.5733        -35.696     -0.8554535              1
     10458.5000         0.7177       1697.596         0.5743       -35.8143     -0.9418602              1
     10459.0000         0.7088       1767.059         0.5753       -35.8698     -0.9654655              1
     10459.5000            0.7       1789.863         0.5763       -35.9252     -0.9889717              1
     10460.0000         0.6911       1812.619         0.5773       -35.9807      -1.012577      0.9998065
     10460.5000         0.6822        1824.77         0.5783       -36.0361      -1.036079       0.999445
     10461.0000         0.6733       1812.895         0.5793       -36.0916      -1.059685      0.9990818
     10461.5000         0.6645       1801.041         0.5804        -36.147      -1.083191      0.9987202
     10462.0000         0.6611       1789.189         0.5814       -36.2025      -1.106796       0.998357
     10462.5000         0.6641       1777.314         0.5824       -36.2579      -1.130302      0.9979954
     10463.0000         0.6671       1765.463         0.5834       -36.3134      -1.153908      0.9976322
     10463.5000         0.6701       1753.586         0.5844       -36.3854      -1.194012      0.9970152
     10464.0000         0.6731       1741.734         0.5854       -36.4662       -1.24292      0.9962628
     10464.5000         0.6761         1733.6         0.5869        -36.547      -1.291824      0.9955104
