#------------------------------------------------------------------------------
# Created by    : vladimir.rabinovich
# Created on    : 09/19/2023 17:19:46
#------------------------------------------------------------------------------
~Version Information Section
VERS.           2.0     :   CWLS log ASCII Standard - VERSION 2.0
WRAP.           NO      :   One line per depth step
~Well Information Section
#MNEM       .UNIT                                         VALUE :DESCRIPTION
#------------------------------------------------------------------------------
STRT        .FT                                            3460 :START DEPTH
STOP        .FT                                           13634 :STOP DEPTH
STEP        .FT                                             0.5 :STEP      
NULL        .                                           -999.25 :NULL      
COMP        .                                SHELL OFFSHORE INC :COMPANY   
WELL        .                               OCS G06107 ST00BP00 :WELL      
FLD         .                                           WILDCAT :FIELD     
LOC         .                                                   :LOCATION  
CNTY        .                             GALVESTON LARGE BLOCK :LOCATION  
STAT        .                                             TEXAS :STATE     
CTRY        .                                     UNITED STATES :COUNTRY   
SRVC        .                                                   :SERVICE COMPANY
DATE        .                             9/13/2023 11:19:27 AM :LOG DATE  
API         .                                    42706401270000 :API NUMBER
UWI         .                                    42706401270000 :UNIQUE WELL ID
XCOORD      .                                  941908.785460496 :SURFACE X 
YCOORD      .                                  10441108.8632451 :SURFACE Y 
LAT         .                                         28.753553 :LATITUDE  
LON         .                                        -95.180411 :LONGITUDE 
ELEV        .FT                                              90 :ELEVATION VALUE
ELEV_TYPE   .                                                KB :ELEVATION REFERENCE TYPE
~Curve Information Section
#MNEM       .UNIT                                      API CODE :CURVE DESCRIPTION
#------------------------------------------------------------------------------
DEPT        .FT                                                 :DEPTH     
ASFL        .OHMM                                               :          
CALI        .IN                                                 :          
CILD        .MMHO                                               :          
DT          .US/F                                               :          
GR          .GAPI                                               :          
GR_1        .GAPI                                               :          
GR_NORM     .GAPI                                               :GammaRay Normalized
ILD         .OHMM                                               :          
ILM         .OHMM                                               :          
RHOB        .G/C3                                               :          
SP          .MV                                                 :          
VSH_GR      .V/V                                                :Volume of Shale from GR
~A        DEPTH           ASFL           CALI           CILD             DT             GR           GR_1        GR_NORM            ILD            ILM           RHOB             SP         VSH_GR
# ...
      3562.5000         0.5667        19.9178       895.8076         174.79        -999.25         20.157       68.81151         1.2014         1.2678         2.0544      -117.1458       0.761947
      3563.0000         0.6566        21.9095        1184.17       179.9961        -999.25        20.8743       68.83276         1.0155         1.0242         2.0176      -117.0161      0.7623993
      3563.5000         0.7028        22.1297       1292.049        184.793        -999.25        22.1141       71.07312         0.8572         0.8958         2.0062      -116.9581      0.8100664
      3564.0000         0.7306        22.1522       1354.254       209.2092        -999.25         23.281       73.10352         0.7467         0.7658         2.0141      -117.5081      0.8532663
      3564.5000         0.7756        22.1276       1328.988       208.1006        -999.25        24.1974       74.41241         0.6979         0.7177         1.9665      -119.3362       0.881115
      3565.0000         0.8236        22.1432       1238.648       198.1711        -999.25        23.4078       70.80769         0.6945         0.7021         1.9061      -121.2194      0.8044189
      3565.5000          0.864         22.165       1197.809       183.9375        -999.25        22.4854       66.82047         0.7364         0.7157         1.8638       -123.411      0.7195845
      3566.0000         0.8925        22.0451       1160.131       144.3542        -999.25         22.041       64.20998         0.7831         0.7656         1.8266      -124.3866      0.6640422
      3566.5000         0.9192         21.681        1136.67       131.0732        -999.25        21.4139       61.07329         0.8367         0.8474         1.8414      -124.3379      0.5973041
      3567.0000         0.9467        21.5563       1124.355       130.3926        -999.25        20.4204       56.88128          0.903         0.9381         1.8627      -124.4474      0.5081124
      3567.5000         0.9515        21.9678       1115.975       121.9398        -999.25        19.3604       52.49775         0.9203         0.9473         1.8844      -125.4043      0.4148458
      3568.0000         0.9359        22.1278       1115.838       116.0725        -999.25        18.8304       49.64074         0.9227         0.9228         1.8732      -126.2985      0.3540583
      3568.5000         0.9201        22.1557       1132.523       149.4956        -999.25        20.5408        53.2365         0.9203         0.9125         1.8364      -126.9185      0.4305638
      3569.0000         0.9079        22.1578       1157.678       151.5903        -999.25        22.2755       56.90226         0.9084         0.8991         1.8118      -127.3329      0.5085587
      3569.5000         0.8968        22.1543       1190.719         143.02        -999.25        22.8381       57.19213         0.8453         0.8824         1.8017      -127.5573      0.5147261
      3570.0000         0.8786        22.1386       1240.145       150.7271        -999.25        23.5518       57.91719         0.7864         0.8658         1.8464      -128.1218       0.530153
      3570.5000         0.8378        22.1563       1298.721       159.5942        -999.25        25.4132       61.94788         0.7599         0.8493         1.9005      -128.5684      0.6159123
      3571.0000         0.7808        22.1887       1410.326       163.4968        -999.25         25.369       60.49006         0.7271         0.8171         1.9275      -129.3894       0.584895
      3571.5000         0.7431        22.1708       1491.027       173.0151        -999.25        24.3891       56.33724         0.6953         0.7897         1.8766      -130.4873       0.496537
      3572.0000          0.731        21.9957       1572.121       162.8884        -999.25        21.5662       46.93355         0.6532         0.7556         1.7744      -131.4531      0.2964585
      3572.5000         0.7056        21.7826       1645.756       144.6633        -999.25        19.5717       41.18255         0.6116         0.7228         1.7408      -132.4934      0.1740968
      3573.0000         0.6842        21.7027       1706.441       125.8007        -999.25        18.5161       38.13579         0.5838          0.699         1.7356      -132.4102      0.1092722
      3573.5000         0.6679        22.1833       1768.695       119.0503        -999.25        19.0615       39.70021         0.5696         0.6748         1.7726      -131.6304      0.1425578
      3574.0000         0.6556        22.1476       1801.344       145.1785        -999.25        19.5269       41.03425         0.5594         0.6496         1.7982      -131.1707      0.1709415
      3574.5000         0.6605        22.1375       1811.746        141.823        -999.25        19.9208       42.16234         0.5559          0.633         1.8115      -131.5085      0.1949434
      3575.0000         0.6755        22.1481       1802.301       122.3519        -999.25        19.7579       41.68673         0.5603         0.6157         1.8177       -131.791      0.1848239
      3575.5000          0.683        22.1567       1755.498       121.0961        -999.25        18.8355       39.02359         0.5686         0.6137         1.8116      -131.4673      0.1281616
      3576.0000         0.6897        22.1647       1700.357        130.677        -999.25        18.1519       37.04827         0.5882         0.6301         1.8036      -129.7903     0.08613335
      3576.5000         0.7056         22.162       1622.602       141.5679        -999.25        18.1103       36.92203         0.6131         0.6412         1.8033       -127.795      0.0834474
      3577.0000         0.7261        22.1509       1546.316       149.9021        -999.25        18.3648       37.64861         0.6381         0.6526         1.8198      -126.5437     0.09890658
      3577.5000         0.7241        22.1395       1474.838       146.7361        -999.25        19.0058        39.4884         0.6631         0.6641         1.8386      -126.1919       0.138051
      3578.0000         0.7254        22.1339        1407.58       143.2285        -999.25        19.7925       41.74781         0.6916         0.6852          1.842      -125.9231      0.1861237
      3578.5000          0.733        22.1351        1344.27       138.4648        -999.25        20.7482       44.49401         0.7193         0.7114         1.8248      -125.2808      0.2445535
      3579.0000         0.7482        22.1374       1293.373       134.8689        -999.25        21.3502       46.22144         0.7784         0.7361         1.8102      -124.4845      0.2813072
      3579.5000          0.764        22.1306       1252.041       131.6704        -999.25        21.5099         46.675         0.8271         0.7717         1.7839      -123.6677      0.2909574
      3580.0000         0.7802        22.1357       1215.836       136.9514        -999.25         20.873       44.83418          0.866          0.827         1.7687      -123.2484       0.251791
      3580.5000         0.7969        22.1456       1190.523       139.6436        -999.25        20.1429       42.72492         0.8925         0.8791         1.7671      -123.8146      0.2069132
      3581.0000         0.8048         22.153       1175.314       140.5413        -999.25        19.8511       41.87806         0.9088         0.9119         1.7837      -124.4746      0.1888948
      3581.5000         0.7964        22.1478        1165.84       147.0869        -999.25        20.5712       43.94565         0.9164          0.921         1.8048      -125.1284      0.2328861
      3582.0000         0.7879        22.1514        1160.24       158.5811        -999.25        21.0288       45.25721          0.914         0.9218          1.818       -125.748      0.2607917
      3582.5000         0.7862        22.1606       1161.682        161.407        -999.25        20.5811       43.96131         0.9075         0.9224         1.8257      -124.9427      0.2332194
