#------------------------------------------------------------------------------
# Created by    : vladimir.rabinovich
# Created on    : 09/19/2023 17:22:33
#------------------------------------------------------------------------------
~Version Information Section
VERS.           2.0     :   CWLS log ASCII Standard - VERSION 2.0
WRAP.           NO      :   One line per depth step
~Well Information Section
#MNEM       .UNIT                                         VALUE :DESCRIPTION
#------------------------------------------------------------------------------
STRT        .FT                                            2877 :START DEPTH
STOP        .FT                                            8775 :STOP DEPTH
STEP        .FT                                             0.5 :STEP      
NULL        .                                           -999.25 :NULL      
COMP        .                                       APACHE CORP :COMPANY   
WELL        .                                  HIGH ISLAND 10-L :WELL      
FLD         .                                           WILDCAT :FIELD     
LOC         .                                                   :LOCATION  
CNTY        .                           HIGH ISLAND LARGE BLOCK :LOCATION  
STAT        .                                             TEXAS :STATE     
CTRY        .                                     UNITED STATES :COUNTRY   
SRVC        .                                                   :SERVICE COMPANY
DATE        .                             9/13/2023 11:19:15 AM :LOG DATE  
API         .                                    42708303590000 :API NUMBER
UWI         .                                    42708303590000 :UNIQUE WELL ID
XCOORD      .                                  1323081.96300683 :SURFACE X 
YCOORD      .                                  10736101.4448574 :SURFACE Y 
LAT         .                                        29.5789626 :LATITUDE  
LON         .                                       -93.9986282 :LONGITUDE 
ELEV        .FT                                             100 :ELEVATION VALUE
ELEV_TYPE   .                                                KB :ELEVATION REFERENCE TYPE
~Curve Information Section
#MNEM       .UNIT                                      API CODE :CURVE DESCRIPTION
#------------------------------------------------------------------------------
DEPT        .FT                                                 :DEPTH     
CNCSS       .%                                                  :          
DCAL        .IN                                                 :          
GRR         .GAPI                                               :          
ILD         .OHMM                                               :          
ILM         .OHMM                                               :          
PORZSS      .%                                                  :          
RFOC        .OHMM                                               :          
SP          .MV                                                 :          
SP_NORM     .MV                                                 :SP Normalized
TENR        .LB                                                 :          
VSH_SP      .V/V                                                :Volume of Shale from SP
ZCOR        .G/CM3                                              :          
~A        DEPTH          CNCSS           DCAL            GRR            ILD            ILM         PORZSS           RFOC             SP        SP_NORM           TENR         VSH_SP           ZCOR
# ...
      5685.5000        44.6733          2.198        83.9706         0.5046          0.491          24.18         0.7364           -6.4      -1.494596           1240              1          0.026
      5686.0000        44.8515          2.198        83.9706         0.5046          0.491          24.24         0.7364           -6.4      -1.493247           1230              1          0.024
      5686.5000          48.36          2.198        82.6471         0.5046         0.4887          24.24         0.7364           -6.4      -1.491896           1230              1          0.024
      5687.0000          49.14          2.198        80.8824         0.5046         0.4887             24          0.733           -6.8      -1.890546           1230              1           0.03
      5687.5000             48          2.198        80.7353         0.5046         0.4865        23.8812          0.733             -7      -2.089196           1240      0.9988107          0.032
      5688.0000        47.8812          2.198        82.3529         0.5046         0.4865        23.8218         0.7364             -7      -2.087846           1240      0.9988287           0.03
      5688.5000        47.5248          2.198        83.6765         0.5046         0.4843          24.06         0.7398           -6.6      -1.686495           1240              1           0.03
      5689.0000        46.7525          2.198        84.1176         0.5023         0.4843          24.42         0.7398           -6.2      -1.285145           1240              1           0.03
      5689.5000        47.0495          2.198        83.6765         0.5023         0.4821           24.6         0.7364             -6      -1.083795           1240              1          0.026
      5690.0000          49.38          2.198        81.7647         0.5023         0.4821          24.66          0.733           -5.2      -0.282445           1240              1          0.026
      5690.5000        53.4584         2.1981        83.3865         0.5023         0.4822          24.72          0.733           -4.8      0.1189051           1240              1          0.018
      5691.0000        51.5372         2.1982        83.3947         0.5025         0.4823          24.96          0.733           -4.8       0.120255           1240              1          0.026
      5691.5000        47.7026         2.1884        84.8771          0.498         0.4824           25.2         0.7364           -4.6      0.3216057           1250              1          0.028
      5692.0000        47.1074         2.1389        87.2479         0.4936         0.4825          25.14         0.7229           -4.4      0.5229554           1250              1           0.03
      5692.5000        49.0177         2.0992        87.7031          0.487         0.4826          24.12         0.7196           -4.2      0.7243061           1250              1          0.036
      5693.0000        50.9917         2.0496        85.7935         0.4827         0.4827        22.4554         0.7296           -3.8       1.125656           1250              1          0.044
      5693.5000        50.2127         2.0099        84.0281         0.4784         0.4828        21.0297         0.7711           -3.4       1.527006           1240              1          0.044
      5694.0000        48.8966         1.9602        83.1481         0.4764         0.4829        20.6139         0.7782           -3.2       1.728356           1240              1          0.042
      5694.5000        48.0597         1.9602        83.6011         0.4765         0.4809        21.4455         0.7466           -2.8       2.129707           1250              1          0.044
      5695.0000        47.2241         1.9602        84.9456         0.4766         0.4788        22.6337         0.7196           -2.8       2.131057           1230              1          0.046
      5695.5000        47.4028         1.9602        87.4814         0.4724         0.4745        23.5842         0.7097           -2.6       2.332407           1230              1          0.056
      5696.0000        48.2386         1.9503        88.8324         0.4725         0.4725        23.8812         0.7097             -2       2.933757           1230              1          0.054
      5696.5000        48.1193         1.9404        89.4417         0.4769         0.4705             24         0.7097           -2.4       2.535107           1220              1          0.032
      5697.0000        46.0264         1.9305        88.1148          0.477         0.4706         23.703         0.7196           -2.6       2.336457           1220              1          0.026
      5697.5000        43.5123         1.8908        87.0835          0.475         0.4707        23.0495         0.7466           -2.8       2.137808           1220              1          0.022
      5698.0000        44.0488         1.8412        87.3942         0.4751         0.4665        22.5149         0.7535           -2.2       2.739157           1220              1          0.016
      5698.5000        47.9401         1.7917        86.2108          0.473         0.4645        22.1584         0.7398           -1.2       3.740508           1220              1          0.012
      5699.0000        48.5353         1.7423        84.8753         0.4731         0.4625        22.4554         0.7196           -0.8       4.141858           1220              1          0.016
      5699.5000        47.0407         1.6929        83.5372          0.469         0.4605        22.9307         0.7163           -0.6       4.343208           1210              1           0.02
      5700.0000        45.5405         1.6534        82.6462         0.4669         0.4606        23.1683         0.7229           -1.2       3.744558           1230              1           0.02
      5700.5000        44.3994         1.6537        82.0465          0.467         0.4606        23.2277         0.7399        -2.0113       2.934608           1230              1         0.0121
      5701.0000        44.3982          1.654        81.5901          0.467         0.4606        23.5248         0.7503        -2.8296       2.117658           1240              1         0.0042
      5701.5000        44.7565         1.6642        80.5362          0.467         0.4586        23.6436         0.7402        -3.2476       1.701009           1250              1        -0.0017
      5702.0000        44.8749         1.6645        79.0359          0.467         0.4565        23.5842         0.7169        -2.4673       2.482659           1250              1         0.0124
      5702.5000        45.2925         1.6649        78.8825         0.4691         0.4565        23.1089         0.7204        -1.2886       3.662709           1250              1         0.0325
      5703.0000        45.7097         1.6851        79.9229         0.4691         0.4544        23.0495         0.7339        -1.1084       3.844259           1250              1         0.0346
      5703.5000        44.8108         1.7053        80.6632         0.4691         0.4544        22.9901         0.7409         -0.729       4.225009           1250              1         0.0387
      5704.0000        43.4346         1.6857        80.8065         0.4691         0.4523        22.8713         0.7376        -0.1514       4.803959           1250              1         0.0448
      5704.5000        42.0597         1.6761        80.8007         0.4713         0.4503        23.0495         0.7412         0.4301        5.38681           1250              1         0.0409
      5705.0000        41.3434         1.6566        80.7949         0.4691         0.4503        23.5842         0.7346         0.2099        5.16796           1240              1          0.033
      5705.5000        40.9251         1.6569        80.4923         0.4649         0.4482             24         0.7214        -0.2098        4.74961           1240              1         0.0231
