#------------------------------------------------------------------------------
# Created by    : vladimir.rabinovich
# Created on    : 09/19/2023 17:21:54
#------------------------------------------------------------------------------
~Version Information Section
VERS.           2.0     :   CWLS log ASCII Standard - VERSION 2.0
WRAP.           NO      :   One line per depth step
~Well Information Section
#MNEM       .UNIT                                         VALUE :DESCRIPTION
#------------------------------------------------------------------------------
STRT        .FT                                             404 :START DEPTH
STOP        .FT                                            9564 :STOP DEPTH
STEP        .FT                                             0.5 :STEP      
NULL        .                                           -999.25 :NULL      
COMP        .                               AMOCO PRODUCTION CO :COMPANY   
WELL        .                               OCS G03108 ST00BP01 :WELL      
FLD         .                                           WILDCAT :FIELD     
LOC         .                                                   :LOCATION  
CNTY        .                      MATAGORDA ISLAND LARGE BLOCK :LOCATION  
STAT        .                                             TEXAS :STATE     
CTRY        .                                     UNITED STATES :COUNTRY   
SRVC        .                                                   :SERVICE COMPANY
DATE        .                             9/13/2023 11:12:09 AM :LOG DATE  
API         .                                    42703400030000 :API NUMBER
UWI         .                                    42703400030000 :UNIQUE WELL ID
XCOORD      .                                  482242.907024332 :SURFACE X 
YCOORD      .                                  10146341.7942038 :SURFACE Y 
LAT         .                                         27.913374 :LATITUDE  
LON         .                                         -96.58609 :LONGITUDE 
ELEV        .FT                                              95 :ELEVATION VALUE
ELEV_TYPE   .                                                KB :ELEVATION REFERENCE TYPE
~Curve Information Section
#MNEM       .UNIT                                      API CODE :CURVE DESCRIPTION
#------------------------------------------------------------------------------
DEPT        .FT                                                 :DEPTH     
CALI        .IN                                                 :          
CILD        .MMHO                                               :          
GR          .GAPI                                               :          
GR_NORM     .GAPI                                               :GammaRay Normalized
ILD         .OHMM                                               :          
RHOB        .G/C3                                               :          
SFL         .OHMM                                               :          
SP          .MV                                                 :          
SP_NORM     .MV                                                 :SP Normalized
VSH_GR      .V/V                                                :Volume of Shale from GR
VSH_SP      .V/V                                                :Volume of Shale from SP
~A        DEPTH           CALI           CILD             GR        GR_NORM            ILD           RHOB            SFL             SP        SP_NORM         VSH_GR         VSH_SP
# ...
      9359.0000        -999.25        -999.25        53.7829       65.44656         0.7511        -999.25         0.8638       -61.6524       -16.3694      0.6903523      0.7719143
      9359.5000        -999.25        -999.25        54.2226       66.37012         0.7749        -999.25         0.8755       -59.6924       -14.4094      0.7100027      0.8030254
      9360.0000        -999.25        -999.25        54.5819       67.12482         0.8065        -999.25         0.9336       -55.9758       -10.6928      0.7260599      0.8620191
      9360.5000        -999.25        -999.25        54.5184       66.99145          0.844        -999.25         1.1319       -53.8137        -8.5307      0.7232223      0.8963381
      9361.0000        -999.25        -999.25        53.1334       71.34199         0.8774        -999.25         1.3067       -54.8125        -9.5295       0.815787      0.8804841
      9361.5000        -999.25        -999.25        48.5947       84.59647         0.9137        -999.25         1.1987       -53.9481        -8.6651              1      0.8942047
      9362.0000        -999.25        -999.25        38.2969       85.75404         0.9515        -999.25         1.0558       -52.2418        -6.9588              1      0.9212889
      9362.5000        -999.25        -999.25         21.435       73.12405         0.9848        -999.25         0.9981       -50.5928        -5.3098      0.8537031      0.9474635
      9363.0000        -999.25        -999.25         22.129       81.62578         0.9803        -999.25         1.0044       -49.8803        -4.5973              1       0.958773
      9363.5000        -999.25        -999.25        22.1103       81.47221         0.9322        -999.25          1.009        -50.812         -5.529              1      0.9439842
      9364.0000        -999.25        -999.25        21.4275       79.92374          0.886        -999.25         1.0187       -51.7847        -6.5017      0.9983776      0.9285445
      9364.5000        -999.25        -999.25         20.584        78.0375         0.8364        -999.25         1.0302       -51.7673        -6.4843      0.9582446      0.9288206
      9365.0000        -999.25        -999.25        19.7242       76.11725         0.7934        -999.25           0.92       -50.8406        -5.5576      0.9173883      0.9435301
      9365.5000        -999.25        -999.25        19.1205       74.73489         0.7727        -999.25         0.8657       -50.5566        -5.2736      0.8879763      0.9480381
      9366.0000        -999.25        -999.25        19.1012       74.58007         0.7448        -999.25         0.9805       -51.2118        -5.9288      0.8846824      0.9376381
      9366.5000        -999.25        -999.25        19.5423       75.39214         0.7379        -999.25         1.0446       -51.4219        -6.1389      0.9019605      0.9343032
      9367.0000        -999.25        -999.25        19.6077       75.41525         0.7523        -999.25         0.7742       -50.5529        -5.2699      0.9024521      0.9480968
      9367.5000        -999.25        -999.25        18.9093       73.83398         0.7729        -999.25         0.6461       -49.5515        -4.2685       0.868808      0.9639921
      9368.0000        -999.25        -999.25        18.3897        72.6283         0.7972        -999.25           0.99       -52.2592        -6.9762      0.8431554      0.9210127
      9368.5000        -999.25        -999.25        18.5567       72.86463         0.7974        -999.25         1.2278       -54.0235        -8.7405      0.8481836      0.8930079
      9369.0000        -999.25        -999.25        18.5125       72.65754         0.7777        -999.25         1.2881       -54.5696        -9.2866      0.8437774      0.8843397
      9369.5000        -999.25        -999.25        17.9998       71.46634         0.7592        -999.25         1.3056       -54.8561        -9.5731      0.8184327       0.879792
      9370.0000        -999.25        -999.25        17.8571       71.05213         0.7506        -999.25         1.3975       -53.0215        -7.7385      0.8096198      0.9089127
      9370.5000        -999.25        -999.25         18.376       72.02782         0.7529        -999.25         0.8165       -50.9639        -5.6809      0.8303792       0.941573
      9371.0000        -999.25        -999.25        18.9592       73.13853         0.7476        -999.25         0.6602       -49.3597        -4.0767      0.8540114      0.9670365
      9371.5000        -999.25        -999.25        19.5093       74.17974         0.7299        -999.25         0.6491       -48.0419        -2.7589      0.8761647       0.987954
      9372.0000        -999.25        -999.25        19.2981       73.62164         0.7065        -999.25         0.7698        -47.175         -1.892      0.8642903              1
      9372.5000        -999.25        -999.25        18.2938       71.39783         0.6839        -999.25         0.8697       -45.8872        -0.6042      0.8169752              1
      9373.0000        -999.25        -999.25        17.5319       69.68321         0.6704        -999.25         0.9226       -44.5121         0.7709      0.7804939              1
      9373.5000        -999.25        -999.25        17.6284       74.04996          0.687        -999.25         0.9263       -45.5534        -0.2704      0.8734034              1
      9374.0000        -999.25        -999.25        17.4453       73.92747         0.7301        -999.25         0.9551       -47.8203        -2.5373      0.8707972      0.9914714
      9374.5000        -999.25        -999.25         17.016       73.80503          0.791        -999.25         0.9833       -56.4342       -11.1512      0.8681921      0.8547428
      9375.0000        -999.25        -999.25        17.4758       73.68256         0.8395        -999.25         0.9681       -58.9202       -13.6372      0.8655865      0.8152825
      9375.5000        -999.25        -999.25        18.0346        73.5603         0.8722        -999.25         0.9312       -61.0127       -15.7297      0.8629852      0.7820683
      9376.0000        -999.25        -999.25        18.6888       73.43784          0.922        -999.25         1.0482       -62.6119       -17.3289      0.8603795      0.7566841
      9376.5000        -999.25        -999.25        19.3959        73.3154         0.9486        -999.25         1.1619        -63.074        -17.791      0.8577744      0.7493492
      9377.0000        -999.25        -999.25        19.4239       73.19313         0.9459        -999.25         1.3169       -60.9877       -15.7047       0.855173      0.7824651
      9377.5000        -999.25        -999.25        18.3661       73.07068         0.8928        -999.25         1.7573       -57.9089       -12.6259      0.8525676      0.8313349
      9378.0000        -999.25        -999.25        -999.25       72.94822         0.8271        -999.25         2.7762       -54.2122        -8.9292      0.8499621      0.8900127
      9378.5000        -999.25        -999.25        -999.25       72.82576         0.7692        -999.25         2.7743       -50.4857        -5.2027      0.8473566      0.9491635
      9379.0000        -999.25        -999.25        -999.25       72.70349         0.7181        -999.25         1.0014       -47.6807        -2.3977      0.8447551      0.9936873
      9379.5000        -999.25        -999.25        -999.25       72.58106         0.6908        -999.25         0.7424       -46.7547        -1.4717      0.8421503              1
      9380.0000        -999.25        -999.25        -999.25        72.4586         0.6685        -999.25          0.696       -47.7119        -2.4289      0.8395447      0.9931921
      9380.5000        -999.25        -999.25        -999.25       72.33614         0.6367        -999.25         0.6911       -47.3333        -2.0503       0.836939      0.9992016
      9381.0000        -999.25        -999.25        -999.25       72.21368         0.6353        -999.25         0.7693         -47.89         -2.607      0.8343335      0.9903651
