#------------------------------------------------------------------------------
# Created by    : vladimir.rabinovich
# Created on    : 09/19/2023 17:22:54
#------------------------------------------------------------------------------
~Version Information Section
VERS.           2.0     :   CWLS log ASCII Standard - VERSION 2.0
WRAP.           NO      :   One line per depth step
~Well Information Section
#MNEM       .UNIT                                         VALUE :DESCRIPTION
#------------------------------------------------------------------------------
STRT        .FT                                             410 :START DEPTH
STOP        .FT                                            7624 :STOP DEPTH
STEP        .FT                                             0.5 :STEP      
NULL        .                                           -999.25 :NULL      
COMP        .                                      SHELL OIL CO :COMPANY   
WELL        .                                     ST TR 00249-L :WELL      
FLD         .                                           WILDCAT :FIELD     
LOC         .                                                   :LOCATION  
CNTY        .                             GALVESTON LARGE BLOCK :LOCATION  
STAT        .                                             TEXAS :STATE     
CTRY        .                                     UNITED STATES :COUNTRY   
SRVC        .                                                   :SERVICE COMPANY
DATE        .                             9/13/2023 11:19:42 AM :LOG DATE  
API         .                                    42706000200000 :API NUMBER
UWI         .                                    42706000200000 :UNIQUE WELL ID
XCOORD      .                                  981084.037319939 :SURFACE X 
YCOORD      .                                  10535303.7769946 :SURFACE Y 
LAT         .                                         29.014458 :LATITUDE  
LON         .                                       -95.0633058 :LONGITUDE 
ELEV        .FT                                              11 :ELEVATION VALUE
ELEV_TYPE   .                                                KB :ELEVATION REFERENCE TYPE
~Curve Information Section
#MNEM       .UNIT                                      API CODE :CURVE DESCRIPTION
#------------------------------------------------------------------------------
DEPT        .FT                                                 :DEPTH     
LAT         .OHMM                                               :          
SN          .OHMM                                               :          
SP          .MV                                                 :          
SP_NORM     .MV                                                 :SP Normalized
VSH_SP      .V/V                                                :Volume of Shale from SP
~A        DEPTH            LAT             SN             SP        SP_NORM         VSH_SP
# ...
      5690.0000         0.6734         0.8048       -64.2648     -0.3005028              1
      5690.5000         0.6788         0.7894       -63.8772     0.09976959              1
      5691.0000          0.681          0.774       -63.4789      0.5107384              1
      5691.5000         0.6833         0.7586       -62.9895       1.012814              1
      5692.0000         0.6855         0.7432       -62.5001       1.514885              1
      5692.5000         0.6839         0.7279       -62.0101       2.017555              1
      5693.0000         0.6712          0.714       -61.5206        2.51973              1
      5693.5000         0.6585         0.7222       -61.0312       3.021801              1
      5694.0000         0.6459         0.7304       -60.5417       3.523975              1
      5694.5000         0.6332         0.7386       -59.9431       4.135246              1
      5695.0000         0.6205         0.7468       -59.3373       4.753719              1
      5695.5000         0.6078          0.755       -58.7321        5.37159              1
      5696.0000         0.5952         0.7632       -58.1268       5.989555              1
      5696.5000         0.5825         0.7714        -57.521       6.608028              1
      5697.0000         0.5698         0.7796       -57.9236       6.218102              1
      5697.5000         0.5589         0.7879       -58.3491       5.805275              1
      5698.0000         0.5484         0.7963       -58.7741       5.392944              1
      5698.5000         0.5379         0.8047       -59.1996       4.980118              1
      5699.0000         0.5274         0.8131       -59.6907        4.50169              1
      5699.5000         0.5169         0.8214       -60.2446       3.960464              1
      5700.0000         0.5064         0.8298       -60.7991       3.418636              1
      5700.5000         0.4959         0.8382        -61.353       2.877407              1
      5701.0000         0.4854         0.8466       -61.9074       2.335682              1
      5701.5000         0.4749         0.8482       -62.4613       1.794453              1
      5702.0000         0.4673         0.8428       -62.4886       1.779823              1
      5702.5000         0.4598         0.8375       -62.1046       2.176491              1
      5703.0000         0.4524         0.8321       -61.7209       2.572861              1
      5703.5000          0.445         0.8268       -61.4387       2.867733              1
      5704.0000         0.4375          0.825       -61.5698       2.749306              1
      5704.5000         0.4301         0.8248       -61.7008       2.630978              1
      5705.0000         0.4227         0.8245       -62.0876       2.256851              1
      5705.5000         0.4152         0.8243       -63.3856      0.9715233              1
      5706.0000         0.4106          0.824       -64.6835     -0.3137054              1
      5706.5000         0.4219         0.8238       -65.9747      -1.592232      0.9907464
      5707.0000         0.4331         0.8235       -66.7587      -2.363556      0.9786944
      5707.5000         0.4444         0.8233       -67.5425      -3.134689      0.9666455
      5708.0000         0.4557          0.823       -68.3159      -3.895416      0.9547591
      5708.5000         0.4669         0.8228       -68.3844      -3.951241      0.9538869
      5709.0000         0.4782         0.8318       -68.4529       -4.00708      0.9530144
      5709.5000         0.4894         0.8442       -68.5214      -4.062904      0.9521421
      5710.0000         0.5014         0.8566       -68.5967      -4.125534      0.9511635
      5710.5000         0.5158          0.869       -68.6808       -4.19696      0.9500475
      5711.0000         0.5302         0.8814        -68.765      -4.268486      0.9489299
      5711.5000         0.5446         0.8938       -68.8491      -4.339912      0.9478139
      5712.0000         0.5561         0.9062       -68.9332      -4.411339      0.9466978
      5712.5000         0.5661         0.9186       -69.0172      -4.482666      0.9455833
      5713.0000          0.576          0.931       -68.9845      -4.437294      0.9462923
      5713.5000          0.586         0.9395       -68.8278      -4.267921      0.9489387
      5714.0000         0.5845         0.9479       -68.6709      -4.098351      0.9515883
      5714.5000         0.5814         0.9563        -68.514       -3.92878      0.9542378
      5715.0000         0.5783         0.9647       -68.3573      -3.759407      0.9568843
      5715.5000         0.5752         0.9605        -67.868      -3.257439      0.9647275
      5716.0000          0.572         0.9485       -67.2551      -2.631866      0.9745021
      5716.5000         0.5689         0.9365       -66.6423      -2.006401       0.984275
      5717.0000         0.5658         0.9244       -66.0294      -1.380829      0.9940495
      5717.5000         0.5631         0.9124       -65.4165      -0.755249              1
      5718.0000         0.5616         0.9004       -65.0125     -0.3385773              1
      5718.5000           0.56         0.8883       -64.9271      -0.240509              1
      5719.0000         0.5585         0.8763       -64.8418     -0.1425323              1
      5719.5000          0.557         0.8682       -64.7565    -0.04456329              1
      5720.0000         0.5554         0.8611        -64.671     0.05361176              1
      5720.5000         0.5539          0.854       -64.5857      0.1515808              1
      5721.0000         0.5533         0.8469       -64.5046      0.2453537              1
      5721.5000         0.5531         0.8397       -64.4243      0.3383255              1
      5722.0000         0.5529         0.8326       -64.3441      0.4311981              1
      5722.5000         0.5527         0.8255       -64.2638      0.5241623              1
      5723.0000         0.5525         0.8184       -64.1835      0.6171341              1
      5723.5000         0.5523         0.8113       -64.1031      0.7102051              1
      5724.0000         0.5521         0.8104       -64.0228      0.8031845              1
      5724.5000         0.5518         0.8134       -63.9426      0.8960533              1
      5725.0000         0.5516         0.8165       -63.9495       0.901825              1
      5725.5000         0.5522         0.8196       -63.9649      0.8990974              1
      5726.0000         0.5528         0.8227       -63.9803      0.8963699              1
      5726.5000         0.5534         0.8257       -63.9957      0.8936424              1
      5727.0000          0.554         0.8288        -64.011      0.8910141              1
      5727.5000         0.5546         0.8319       -64.2251      0.6895905              1
      5728.0000         0.5552         0.8406       -64.8003      0.1270599              1
      5728.5000         0.5558         0.8525        -65.375      -0.434967              1
      5729.0000         0.5564         0.8645       -65.9496     -0.9969025              1
      5729.5000          0.557         0.8764       -66.5243      -1.558929      0.9912667
      5730.0000         0.5576         0.8883        -67.099      -2.120956      0.9824851
      5730.5000         0.5582         0.9002       -67.5865      -2.595787      0.9750658
      5731.0000         0.5601         0.9121       -67.9282      -2.924812      0.9699248
      5731.5000         0.5619          0.924       -68.2699      -3.253838      0.9647838
      5732.0000         0.5638         0.9359       -68.6112      -3.582466       0.959649
      5732.5000         0.5656         0.9478       -68.9529      -3.911499      0.9545078
      5733.0000         0.5675         0.9558       -69.2947      -4.240623      0.9493653
      5733.5000         0.5693         0.9634       -69.1791       -4.11235      0.9513695
