#------------------------------------------------------------------------------
# Created by    : vladimir.rabinovich
# Created on    : 09/19/2023 17:20:48
#------------------------------------------------------------------------------
~Version Information Section
VERS.           2.0     :   CWLS log ASCII Standard - VERSION 2.0
WRAP.           NO      :   One line per depth step
~Well Information Section
#MNEM       .UNIT                                         VALUE :DESCRIPTION
#------------------------------------------------------------------------------
STRT        .FT                                             495 :START DEPTH
STOP        .FT                                            6623 :STOP DEPTH
STEP        .FT                                             0.5 :STEP      
NULL        .                                           -999.25 :NULL      
COMP        .                                      SHELL OIL CO :COMPANY   
WELL        .                                     ST TR 00691-L :WELL      
FLD         .                                           WILDCAT :FIELD     
LOC         .                                                   :LOCATION  
CNTY        .                      MATAGORDA ISLAND LARGE BLOCK :LOCATION  
STAT        .                                             TEXAS :STATE     
CTRY        .                                     UNITED STATES :COUNTRY   
SRVC        .                                                   :SERVICE COMPANY
DATE        .                             9/13/2023 11:12:05 AM :LOG DATE  
API         .                                    42703000200000 :API NUMBER
UWI         .                                    42703000200000 :UNIQUE WELL ID
XCOORD      .                                  411465.852171861 :SURFACE X 
YCOORD      .                                  10158718.0598508 :SURFACE Y 
LAT         .                                        27.9414781 :LATITUDE  
LON         .                                       -96.8060481 :LONGITUDE 
ELEV        .FT                                              11 :ELEVATION VALUE
ELEV_TYPE   .                                                KB :ELEVATION REFERENCE TYPE
~Curve Information Section
#MNEM       .UNIT                                      API CODE :CURVE DESCRIPTION
#------------------------------------------------------------------------------
DEPT        .FT                                                 :DEPTH     
ASN         .OHMM                                               :          
CILD        .OHMM                                               :          
ILD         .OHMM                                               :          
SP          .MV                                                 :          
SP_NORM     .MV                                                 :SP Normalized
VSH_SP      .V/V                                                :Volume of Shale from SP
~A        DEPTH            ASN           CILD            ILD             SP        SP_NORM         VSH_SP
# ...
      5359.0000         4.2506       291.7266         4.1053       -72.1842       -30.0684      0.3620818
      5359.5000          4.481       263.9409         4.3564       -72.7047       -30.5868         0.3503
      5360.0000         4.6874       243.5452         4.5047       -71.8673       -29.7473      0.3693796
      5360.5000         4.8754       226.3269         4.6284       -70.7828       -28.6607       0.394075
      5361.0000         4.6673       216.3508         4.6561       -70.4143       -28.2901      0.4024977
      5361.5000         4.2275       208.6653         4.6343       -70.8108       -28.6845      0.3935341
      5362.0000           4.15       234.3079         4.0805       -71.6942       -29.5658      0.3735045
      5362.5000         4.1262       259.9502         3.8893       -72.5851       -30.4546      0.3533046
      5363.0000         4.1208       276.2881         3.7546       -73.4963       -31.3637      0.3326432
      5363.5000         4.1401       284.8418         3.6569         -74.67       -32.5353      0.3060159
      5364.0000         4.1651       293.3955          3.559       -75.6899       -33.5531      0.2828841
      5364.5000         4.1923       301.6841         3.4742       -76.4244       -34.2854      0.2662409
      5365.0000         4.1906       307.5405         3.3957       -75.4623       -33.3212      0.2881545
      5365.5000         4.1175        313.397         3.3172        -74.698       -32.5548      0.3055728
      5366.0000         3.8273       323.1084         3.2086       -74.0696       -31.9243      0.3199023
      5366.5000         3.7237       333.9346          3.085       -73.7308       -31.5834        0.32765
      5367.0000         3.6348       344.4155         2.9472       -73.3925        -31.243      0.3353864
      5367.5000         3.5883       354.5273         2.8724       -73.0537       -30.9021      0.3431341
      5368.0000         3.5517       363.7769         2.9606       -72.7153       -30.5616      0.3508727
      5368.5000         3.5374        369.978         3.1582       -72.4081       -30.2523      0.3579023
      5369.0000          3.523       369.4302         3.5696       -72.1667       -30.0088      0.3634363
      5369.5000         3.5641       345.2534         3.7982       -71.9254       -29.7654      0.3689682
      5370.0000         3.6226       312.2207         4.5352       -72.7544       -30.5923       0.350175
      5370.5000         3.7882       285.0264         4.9578       -79.2695       -37.1053      0.2021523
      5371.0000         4.0027       268.3872         5.0872       -80.7212       -38.5549      0.1692068
      5371.5000         4.2087        252.844         5.2167       -81.3676       -39.1992      0.1545637
      5372.0000         4.4462       239.2222         5.3091       -81.8719       -39.7014        0.14315
      5372.5000         4.4893       225.6003         5.3574       -82.3347       -40.1621      0.1326795
      5373.0000         4.4872       211.7075         5.4015       -82.7563       -40.5816      0.1231455
      5373.5000         4.4835         196.78         5.4262       -83.1775       -41.0007      0.1136204
      5374.0000         4.4798       197.2173         5.4191       -83.5259        -41.347        0.10575
      5374.5000         4.4669       198.5752         5.2307       -83.8606       -41.6796     0.09819091
      5375.0000         4.4402       201.5681         4.7289       -83.3925       -41.2094      0.1088773
      5375.5000         4.4136        204.561         4.4595       -82.8558       -40.6706      0.1211227
      5376.0000         4.3437       207.5537         4.0637       -82.3577       -40.1704      0.1324909
      5376.5000         4.0918       216.5232         3.7973       -81.8695         -39.68      0.1436364
      5377.0000         3.9605       241.9194         3.5308       -81.3818       -39.1902      0.1547682
      5377.5000         3.8447       318.9702         3.2644       -80.8105       -38.6168         0.1678
      5378.0000         3.7024       367.1025         2.9977       -80.1151       -37.9193      0.1836523
      5378.5000         3.5313       411.3428         2.7312       -79.4197       -37.2218      0.1995045
      5379.0000         3.3329       452.9224         2.4648       -76.9431       -34.7431      0.2558387
      5379.5000         2.8262       520.8594         2.1983       -74.0646       -31.8625      0.3213068
      5380.0000         2.5566       589.7813         1.9319       -71.4863       -29.2821      0.3799523
      5380.5000         2.4086        633.332         1.6655        -68.995       -26.7887      0.4366204
      5381.0000         2.1546       705.0127         1.4485       -68.3708       -26.1624      0.4508546
      5381.5000         2.0306       893.5508         1.2942       -68.9298       -26.7193      0.4381977
      5382.0000         1.7605       941.3994         1.1952        -69.493       -27.2804      0.4254455
      5382.5000         1.5586        957.251         1.1013       -70.4218       -28.2071      0.4043841
      5383.0000         1.4793       991.5146          1.032       -71.3585       -29.1417      0.3831432
      5383.5000         1.4279       1028.686         0.9724       -63.1511       -20.9322      0.5697227
      5384.0000         1.4083       1065.881         0.9139       -60.0095       -17.7885      0.6411704
      5384.5000         1.3855       1103.051         0.8573       -58.5169       -16.2938      0.6751409
      5385.0000         1.3663       1138.768         0.8264       -57.2799       -15.0547      0.7033023
      5385.5000         1.4633       1165.594          0.824       -56.4127       -14.1854      0.7230591
      5386.0000          1.576       1193.207         0.8383       -55.6127       -13.3833      0.7412887
      5386.5000         1.6051       1142.439         0.8793       -55.1592       -12.9277      0.7516432
      5387.0000         1.6468       1102.533         0.9204       -58.9822       -16.7486      0.6648045
      5387.5000         1.6949       1066.324         0.9502        -67.449       -25.2133       0.472425
      5388.0000         1.7282       1040.559         0.9754       -75.9257       -33.6879      0.2798204
      5388.5000         1.7502       1027.121         1.0006       -79.8638       -37.6239      0.1903659
      5389.0000         1.7712       1015.236         1.0015       -81.4631       -39.2211      0.1540659
      5389.5000         1.7686       1006.245         0.9643       -82.1517       -39.9076      0.1384636
      5390.0000         1.6349       999.3291         0.9044       -82.8206       -40.5743      0.1233114
      5390.5000         1.5507       997.9316          0.845       -83.4254        -41.177      0.1096137
      5391.0000           1.46       1257.867         0.7961       -83.9449       -41.6944     0.09785452
      5391.5000         1.3695       1829.344         0.7471         -84.09       -41.8374     0.09460458
      5392.0000         1.2789       1904.893         0.6988       -84.2084       -41.9537     0.09196134
      5392.5000          1.199       2021.703         0.6531       -84.2352       -41.9784     0.09139998
      5393.0000         1.1818       2116.785         0.6073       -84.2621       -42.0032     0.09083635
      5393.5000          1.165       2154.816         0.5629       -84.2889       -42.0279     0.09027498
      5394.0000         1.1487       2178.832         0.5283       -84.3859       -42.1228      0.0881182
      5394.5000         1.1323       2208.395         0.4936       -84.4958       -42.2306     0.08566821
      5395.0000         1.1108        2247.93         0.4611        -84.606       -42.3387     0.08321138
      5395.5000         1.0867       2316.156         0.4352       -84.6909       -42.4215     0.08132952
      5396.0000         1.0592       2312.316         0.4093         -84.75       -42.4785     0.08003408
      5396.5000          1.062       2250.098         0.3939       -84.8091       -42.5355     0.07873864
