#------------------------------------------------------------------------------
# Created by    : vladimir.rabinovich
# Created on    : 09/19/2023 17:21:25
#------------------------------------------------------------------------------
~Version Information Section
VERS.           2.0     :   CWLS log ASCII Standard - VERSION 2.0
WRAP.           NO      :   One line per depth step
~Well Information Section
#MNEM       .UNIT                                         VALUE :DESCRIPTION
#------------------------------------------------------------------------------
STRT        .FT                                            2957 :START DEPTH
STOP        .FT                                            7390 :STOP DEPTH
STEP        .FT                                             0.5 :STEP      
NULL        .                                           -999.25 :NULL      
COMP        .                              DEVON LOUISIANA CORP :COMPANY   
WELL        .                               OCS G09039 ST00BP00 :WELL      
FLD         .                              GALVESTON BLOCK 0273 :FIELD     
LOC         .                                                   :LOCATION  
CNTY        .                             GALVESTON LARGE BLOCK :LOCATION  
STAT        .                                             TEXAS :STATE     
CTRY        .                                     UNITED STATES :COUNTRY   
SRVC        .                                                   :SERVICE COMPANY
DATE        .                             9/13/2023 11:19:54 AM :LOG DATE  
API         .                                    42706403330000 :API NUMBER
UWI         .                                    42706403330000 :UNIQUE WELL ID
XCOORD      .                                  1020560.14583294 :SURFACE X 
YCOORD      .                                  10500181.0477632 :SURFACE Y 
LAT         .                                        28.9197225 :LATITUDE  
LON         .                                       -94.9380297 :LONGITUDE 
ELEV        .FT                                              98 :ELEVATION VALUE
ELEV_TYPE   .                                                KB :ELEVATION REFERENCE TYPE
~Curve Information Section
#MNEM       .UNIT                                      API CODE :CURVE DESCRIPTION
#------------------------------------------------------------------------------
DEPT        .FT                                                 :DEPTH     
CALI        .IN                                                 :          
DCAL        .IN                                                 :          
DPHI        .%                                                  :          
DRHO        .G/C3                                               :          
GR          .GAPI                                               :          
GR_NORM     .GAPI                                               :GammaRay Normalized
ILD         .OHMM                                               :          
ILM         .OHMM                                               :          
LL3         .OHMM                                               :          
NPHI        .%                                                  :          
SP          .MV                                                 :          
SP_NORM     .MV                                                 :SP Normalized
VSH_GR      .V/V                                                :Volume of Shale from GR
VSH_SP      .V/V                                                :Volume of Shale from SP
~A        DEPTH           CALI           DCAL           DPHI           DRHO             GR        GR_NORM            ILD            ILM            LL3           NPHI             SP        SP_NORM         VSH_GR         VSH_SP
# ...
      3569.0000        11.0177         1.0714         30.243         0.0278        29.9226       33.25333         0.3202         0.4174         1.9957        32.3216       -84.1813      -69.76942    0.005390005    0.003293937
      3569.5000        11.0315         1.0757         30.472         0.0293         31.528       34.97117          0.331         0.4273         1.7287        32.7122       -83.2391      -68.83125     0.04193984     0.01669638
      3570.0000        11.0602         1.0966        30.6298         0.0302        31.9041       35.37337         0.3454         0.4367         1.4823        32.6766        -81.769      -67.36518     0.05049734     0.03764027
      3570.5000        11.1115         1.1389         30.714         0.0265        31.9737       35.44757         0.3592         0.4443          1.335        31.9941        -79.787      -65.38721     0.05207606     0.06589694
      3571.0000        11.1793         1.1975        30.7178         0.0213        32.3352       35.83416         0.3697         0.4522         1.3205        30.9442       -77.6334      -63.23764     0.06030119     0.09660508
      3571.5000        11.2509         1.2665        30.5918         0.0183        33.2651       36.82906         0.3786         0.4621         1.3407          30.08         -75.53      -61.13827     0.08146943      0.1265961
      3572.0000         11.327         1.3401        30.2596         0.0213        34.6603       38.32194         0.3917         0.4707         1.3507        29.7268       -73.6881       -59.3004      0.1132327      0.1528514
      3572.5000        11.3886         1.3972         29.613         0.0311        36.2436       40.01612         0.4142         0.4793         1.4515        29.6605       -72.2484      -57.86473      0.1492792       0.173361
      3573.0000        11.4268         1.4376         29.021         0.0416        37.7797       41.65979         0.4496         0.4904         1.4308        29.3508       -71.0222      -56.64256      0.1842508      0.1908205
      3573.5000        11.4567         1.4628        26.9981         0.0486        38.2147       42.12504         0.4989         0.5099         1.3057        28.3123       -69.8252      -55.44959      0.1941498       0.207863
      3574.0000        11.5057         1.4964        24.7791         0.0579        38.3796       42.30122         0.5611         0.5375         1.4183        26.8097       -68.2209      -53.84932      0.1978983       0.230724
      3574.5000        11.5782         1.5554        22.5601         0.0684        39.1786       43.15603          0.633         0.5902         1.5612        25.0982       -65.3264      -50.95885      0.2160858      0.2720165
      3575.0000        11.6685         1.6521        20.2929          0.082        41.0782       45.18872         0.7114         0.6931         2.1149        23.2905       -60.1868      -45.82327      0.2593346      0.3453818
      3575.5000        11.8039         1.7871        18.3539         0.0909        42.3661       46.56677         0.7919         0.8034         2.8344        22.0143       -52.9142      -38.55471      0.2886547      0.4492185
      3576.0000        11.9525         1.9291        18.1951         0.0938        43.8513       48.15596         0.8695         0.8987         2.7332        21.7304        -44.694      -30.33854      0.3224672      0.5665923
      3576.5000        12.0806         2.0585        18.8624         0.0882        47.9849       52.57953          0.936         0.9731         1.9215        22.6349       -37.1219      -22.77046      0.4165858      0.6747077
      3577.0000        12.1384         2.1712        19.9248         0.0848         53.475       58.45486         0.9789         1.0221         1.2054        24.4794       -31.1434      -16.79599      0.5415928      0.7600572
      3577.5000        12.1673         2.2055        20.9237         0.0769        59.9063       65.33749         0.9871         1.0158         1.0123        26.4925       -26.7927      -12.44932      0.6880316      0.8221526
      3578.0000        12.1874         2.2171        21.8055         0.0687        67.2543       73.20119         0.9591         0.9886          0.959        28.6005       -23.5631      -9.223752      0.8553444      0.8682321
      3578.5000        12.1952         2.2252        22.4547         0.0608        71.0128        77.2233         0.9089          0.954          0.949        30.5592        -21.136       -6.80068      0.9409214      0.9028474
      3579.0000        12.1917         2.2434        22.9601         0.0605        72.6808       79.00815         0.8571         0.9077         0.9068        31.9359       -19.4066       -5.07531      0.9788968      0.9274956
      3579.5000        12.1838         2.2606        23.1973         0.0629        72.1506       78.44041         0.8198         0.8385         0.8163        33.2706        -18.135      -3.807738      0.9668171      0.9456037
      3580.0000        12.1757         2.2719        23.0333         0.0684        70.5717       76.75034         0.8019         0.8012         0.7798        34.6522       -17.3308      -3.007566      0.9308584      0.9570348
      3580.5000        12.1941          2.285        22.5691          0.068        68.7174       74.76553         0.8007         0.7922         0.7647        35.4337       -17.3459      -3.026696      0.8886282      0.9567615
      3581.0000        12.2381         2.3645        22.0136         0.0594        66.4688       72.35873         0.8113         0.7984         0.9044        35.0356       -18.2596      -3.944426      0.8374199      0.9436511
      3581.5000         12.317         2.5284         21.653         0.0498        64.7776       70.54848         0.8298         0.8126         0.8946         33.526       -19.5868      -5.275654      0.7989038      0.9246335
      3582.0000        12.5265         2.7019         21.377         0.0421         63.231       68.89297         0.8553         0.8349         0.9122        31.5013       -20.6137      -6.306584      0.7636802      0.9099059
      3582.5000        12.7369          2.863        21.3502         0.0365        61.6232       66.25568         0.8888         0.8702         0.9197        29.4702       -20.8489      -6.545813      0.7075676      0.9064884
      3583.0000        12.8633         2.9843        21.4337         0.0325        60.0534       64.45533         0.9303         0.9124           0.93        27.6926       -20.5801      -6.281041      0.6692623      0.9102709
      3583.5000        12.9441         3.0754        21.4636         0.0283        58.5939       62.78144         0.9781         0.9569         0.9172        26.2716         -20.38       -6.08497      0.6336477      0.9130719
      3584.0000             13         3.1451         21.256         0.0286        57.1122       61.08211         1.0267         1.0117         0.9469        24.9908       -20.3569      -6.065899      0.5974917      0.9133443
      3584.5000        13.0493          3.203        20.2696         0.0362        55.1442       58.82515          1.069         1.0719         0.9727        23.5464       -20.3806      -6.093629      0.5494713      0.9129481
      3585.0000        13.1196         3.2361        18.5985         0.0488        53.2202       56.61864         1.0999         1.1404         1.0286        22.5912       -20.3273      -6.044357      0.5025242      0.9136521
      3585.5000        13.1691         3.2377        16.9275         0.0571        51.4481       54.58632         1.1158         1.1951         1.1241         22.327       -20.1024      -5.823487      0.4592833      0.9168074
      3586.0000        13.1913         3.2103        15.4071         0.0573        49.9028       52.81404         1.1158           1.23         1.1953        22.6118       -19.9398      -5.664917      0.4215754      0.9190726
      3586.5000        13.1708         3.1575        14.7918         0.0463        48.7956       51.54414         1.0927         1.2498         1.3279        23.0944       -20.3601      -6.089245      0.3945563      0.9130108
