#------------------------------------------------------------------------------
# Created by    : vladimir.rabinovich
# Created on    : 09/19/2023 17:20:33
#------------------------------------------------------------------------------
~Version Information Section
VERS.           2.0     :   CWLS log ASCII Standard - VERSION 2.0
WRAP.           NO      :   One line per depth step
~Well Information Section
#MNEM       .UNIT                                         VALUE :DESCRIPTION
#------------------------------------------------------------------------------
STRT        .FT                                             510 :START DEPTH
STOP        .FT                                            9509 :STOP DEPTH
STEP        .FT                                             0.5 :STEP      
NULL        .                                           -999.25 :NULL      
COMP        .                       BLUE DOLPHIN EXPLORATION CO :COMPANY   
WELL        .                                OCS 00714 ST00BP00 :WELL      
FLD         .                              GALVESTON BLOCK 0288 :FIELD     
LOC         .                                                   :LOCATION  
CNTY        .                             GALVESTON LARGE BLOCK :LOCATION  
STAT        .                                             TEXAS :STATE     
CTRY        .                                     UNITED STATES :COUNTRY   
SRVC        .                                                   :SERVICE COMPANY
DATE        .                             9/13/2023 11:19:25 AM :LOG DATE  
API         .                                    42706000660000 :API NUMBER
UWI         .                                    42706000660000 :UNIQUE WELL ID
XCOORD      .                                  1093932.46617998 :SURFACE X 
YCOORD      .                                  10479390.8980397 :SURFACE Y 
LAT         .                                         28.865655 :LATITUDE  
LON         .                                       -94.7077791 :LONGITUDE 
ELEV        .FT                                              83 :ELEVATION VALUE
ELEV_TYPE   .                                                KB :ELEVATION REFERENCE TYPE
~Curve Information Section
#MNEM       .UNIT                                      API CODE :CURVE DESCRIPTION
#------------------------------------------------------------------------------
DEPT        .FT                                                 :DEPTH     
ASN         .OHMM                                               :          
CALI        .IN                                                 :          
DT          .US/F                                               :          
IL          .OHMM                                               :          
SP          .MV                                                 :          
SP_NORM     .MV                                                 :SP Normalized
VSH_SP      .V/V                                                :Volume of Shale from SP
~A        DEPTH            ASN           CALI             DT             IL             SP        SP_NORM         VSH_SP
# ...
      4094.5000         0.9355        -999.25        -999.25         0.8645         -50.66      0.5027885              1
      4095.0000         0.9389        -999.25        -999.25         0.8558        -50.664      0.4987869              1
      4095.5000         0.9294        -999.25        -999.25         0.8531       -50.4877       0.675087              1
      4096.0000          0.923        -999.25        -999.25         0.8546       -50.1841      0.9786873              1
      4096.5000          0.933        -999.25        -999.25         0.8573       -50.0357       1.127087              1
      4097.0000         0.9349        -999.25        -999.25         0.8622       -49.9936       1.169189              1
      4097.5000         0.9186        -999.25        -999.25         0.8644       -50.0021       1.160686              1
      4098.0000           0.92        -999.25        -999.25          0.862       -50.1653      0.9974899              1
      4098.5000         0.9274        -999.25        -999.25         0.8583       -50.3286      0.8341866              1
      4099.0000         0.9142        -999.25        -999.25         0.8531       -50.3748      0.7879868              1
      4099.5000         0.9079        -999.25        -999.25         0.8497       -50.3982      0.7645874              1
      4100.0000         0.9101        -999.25        -999.25         0.8537       -50.3346      0.8281898              1
      4100.5000         0.9263        -999.25        -999.25         0.8634       -50.2694      0.8933868              1
      4101.0000         0.9341        -999.25        -999.25          0.877       -50.1871      0.9756889              1
      4101.5000         0.9345        -999.25        -999.25         0.8961       -50.1053       1.057487              1
      4102.0000         0.9703        -999.25        -999.25         0.9151       -49.9915       1.171288              1
      4102.5000         0.9981        -999.25        -999.25         0.9274       -49.7655       1.397289              1
      4103.0000         1.0075        -999.25        -999.25         0.9397       -49.5913       1.571487              1
      4103.5000         0.9782        -999.25        -999.25         0.9464       -49.4401       1.722687              1
      4104.0000         0.9561        -999.25        -999.25         0.9512         -49.22       1.942787              1
      4104.5000         0.9427        -999.25        -999.25         0.9451       -49.0646       2.098186              1
      4105.0000         0.9361        -999.25        -999.25         0.9337       -48.9571       2.205688              1
      4105.5000         0.9337        -999.25        -999.25         0.9205       -48.9048       2.257988              1
      4106.0000         0.9296        -999.25        -999.25         0.9048       -48.9705       2.192287              1
      4106.5000         0.9272        -999.25        -999.25         0.8898       -49.0881       2.074688              1
      4107.0000         0.9249        -999.25        -999.25         0.8849       -49.2335       1.929287              1
      4107.5000           0.93        -999.25        -999.25         0.8801       -49.5356        1.62719              1
      4108.0000          0.949        -999.25        -999.25         0.8852       -49.7202       1.442589              1
      4108.5000         0.9608        -999.25        -999.25         0.8955       -49.1607       2.002087              1
      4109.0000         0.9605        -999.25        -999.25         0.9057       -48.8394       2.323387              1
      4109.5000         0.9499        -999.25        -999.25         0.8988       -49.2399        1.92289              1
      4110.0000         0.9385        -999.25        -999.25          0.891       -49.5627        1.60009              1
      4110.5000         0.9344        -999.25        -999.25         0.8833       -49.6646       1.498188              1
      4111.0000         0.9329        -999.25        -999.25         0.8778       -49.3473       1.815487              1
      4111.5000         0.9332        -999.25        -999.25         0.8722       -49.2499       1.912888              1
      4112.0000         0.9337        -999.25        -999.25         0.8605        -49.644       1.518787              1
      4112.5000         0.9331        -999.25        -999.25         0.8487       -50.1475       1.015289              1
      4113.0000         0.9332        -999.25        -999.25         0.8444       -50.4652      0.6975899              1
      4113.5000         0.9366        -999.25        -999.25         0.8422       -50.4617       0.701088              1
      4114.0000         0.9448        -999.25        -999.25         0.8595       -50.4272      0.7355881              1
      4114.5000         0.9621        -999.25        -999.25         0.8807       -50.4225      0.7402878              1
      4115.0000         0.9873        -999.25        -999.25         0.9176       -50.4549      0.7078896              1
      4115.5000         1.0013        -999.25        -999.25         0.9357       -50.2903      0.8724899              1
      4116.0000          1.018        -999.25        -999.25         0.9599       -49.9676       1.195187              1
      4116.5000         1.0487        -999.25        -999.25         0.9751       -50.1754      0.9873886              1
      4117.0000         1.0568        -999.25        -999.25         0.9874       -50.6924      0.4703865              1
      4117.5000         1.0439        -999.25        -999.25          0.992       -51.2799     -0.1171112              1
      4118.0000         1.0373        -999.25        -999.25         0.9886       -51.6767     -0.5139122              1
      4118.5000         1.0367        -999.25        -999.25         0.9825       -52.0504     -0.8876114              1
      4119.0000         1.0341        -999.25        -999.25         0.9585       -51.8766       -0.71381              1
      4119.5000         1.0297        -999.25        -999.25         0.9357       -51.0431      0.1196899              1
      4120.0000         1.0155        -999.25        -999.25         0.9153       -50.3447      0.8180885              1
      4120.5000         0.9988        -999.25        -999.25         0.9032       -49.9056       1.257187              1
      4121.0000          0.988        -999.25        -999.25         0.8927       -49.6573       1.505489              1
      4121.5000         0.9804        -999.25        -999.25         0.8839       -49.5771        1.58569              1
      4122.0000         0.9675        -999.25        -999.25         0.8789       -49.6063       1.556488              1
      4122.5000         0.9482        -999.25        -999.25         0.8794       -49.6601       1.502689              1
      4123.0000         0.9331        -999.25        -999.25         0.8882       -49.6789       1.483887              1
      4123.5000         0.9282        -999.25        -999.25         0.8958       -49.6688       1.493988              1
      4124.0000         0.9345        -999.25        -999.25         0.8954       -49.6214       1.541389              1
      4124.5000         0.9399        -999.25        -999.25         0.8896       -49.4958       1.666988              1
      4125.0000         0.9403        -999.25        -999.25          0.875       -49.3627       1.800087              1
      4125.5000         0.9276        -999.25        -999.25         0.8558       -49.1824       1.980389              1
      4126.0000         0.9138        -999.25        -999.25         0.8407        -49.023        2.13979              1
      4126.5000         0.9075        -999.25        -999.25         0.8328       -49.0602       2.102589              1
      4127.0000         0.9092        -999.25        -999.25         0.8296       -49.3533        1.80949              1
      4127.5000          0.914        -999.25        -999.25         0.8313       -49.7479        1.41489              1
