#------------------------------------------------------------------------------
# Created by    : vladimir.rabinovich
# Created on    : 09/19/2023 17:22:40
#------------------------------------------------------------------------------
~Version Information Section
VERS.           2.0     :   CWLS log ASCII Standard - VERSION 2.0
WRAP.           NO      :   One line per depth step
~Well Information Section
#MNEM       .UNIT                                         VALUE :DESCRIPTION
#------------------------------------------------------------------------------
STRT        .FT                                            3744 :START DEPTH
STOP        .FT                                            9989 :STOP DEPTH
STEP        .FT                                             0.5 :STEP      
NULL        .                                           -999.25 :NULL      
COMP        .                          SEAGULL ENERGY E & P INC :COMPANY   
WELL        .                               OCS G07243 ST00BP00 :WELL      
FLD         .                                           WILDCAT :FIELD     
LOC         .                                                   :LOCATION  
CNTY        .                             GALVESTON LARGE BLOCK :LOCATION  
STAT        .                                             TEXAS :STATE     
CTRY        .                                     UNITED STATES :COUNTRY   
SRVC        .                                                   :SERVICE COMPANY
DATE        .                             9/13/2023 11:19:34 AM :LOG DATE  
API         .                                    42706403030000 :API NUMBER
UWI         .                                    42706403030000 :UNIQUE WELL ID
XCOORD      .                                   1005609.3052046 :SURFACE X 
YCOORD      .                                  10500547.7567395 :SURFACE Y 
LAT         .                                          28.92005 :LATITUDE  
LON         .                                        -94.984771 :LONGITUDE 
ELEV        .FT                                              96 :ELEVATION VALUE
ELEV_TYPE   .                                                KB :ELEVATION REFERENCE TYPE
~Curve Information Section
#MNEM       .UNIT                                      API CODE :CURVE DESCRIPTION
#------------------------------------------------------------------------------
DEPT        .FT                                                 :DEPTH     
DCAL        .IN                                                 :          
DPHI        .%                                                  :          
GR          .GAPI                                               :          
GR_NORM     .GAPI                                               :GammaRay Normalized
ILD         .OHMM                                               :          
ILM         .OHMM                                               :          
NPHI        .%                                                  :          
SFL         .OHMM                                               :          
SP          .MV                                                 :          
SP_NORM     .MV                                                 :SP Normalized
VSH_GR      .V/V                                                :Volume of Shale from GR
VSH_SP      .V/V                                                :Volume of Shale from SP
~A        DEPTH           DCAL           DPHI             GR        GR_NORM            ILD            ILM           NPHI            SFL             SP        SP_NORM         VSH_GR         VSH_SP
# ...
      5056.0000         3.0199        20.6218        37.8091       52.14112         0.5422         0.6505        31.0128         0.8909       -70.7936      -31.71896      0.4072578      0.4876041
      5056.5000         2.3422         9.9323        39.7816       54.72901         0.5967         0.7286        26.0158         1.1989       -67.4687      -27.48727      0.4623194      0.5605644
      5057.0000         2.1046         7.6927        41.3192       56.74572         0.6367          0.787        24.3703         1.2164       -64.6776      -23.93496      0.5052281      0.6218111
      5057.5000         2.1729        13.8936        42.8383       58.73813         0.6691         0.8124        30.0248         1.0167        -62.575      -21.25893      0.5476198      0.6679496
      5058.0000         2.2871        20.2502        44.5112       60.93254         0.7105         0.7979        36.2066         0.8063       -61.1728       -19.4743      0.5943094      0.6987189
      5058.5000         2.2139        25.0501        45.9199       62.77996         0.7238         0.7662        40.0218         0.7199       -60.0039      -17.98661      0.6336162      0.7243687
      5059.0000         2.1486        21.6955        46.8123       63.94929         0.7138         0.7323        40.7917         0.6826       -59.0557      -16.77981      0.6584955      0.7451756
      5059.5000         2.1428        19.3972        47.2955       64.58117         0.6891         0.6984        39.9551          0.667       -58.3484      -15.87962      0.6719398      0.7606963
      5060.0000         2.3646        23.3982        47.5679       64.93622         0.6569         0.6754        40.0123         0.6585       -58.1157      -15.58345       0.679494      0.7658026
      5060.5000         2.9783        27.8472        47.7272       65.14272         0.6156         0.6666        41.9214          0.654       -58.1674      -15.64925      0.6838875       0.764668
      5061.0000         3.4944        28.7172        47.9795       65.47134         0.5721         0.6587        44.6423         0.6561       -58.4424      -15.99925      0.6908796      0.7586336
      5061.5000         3.5013        27.7058        48.2781       65.86079         0.5278         0.6523        46.4975         0.6714       -59.0209      -16.73553      0.6991656      0.7459392
      5062.0000         2.8322        23.4046        48.0804        65.5984         0.4865         0.6181         43.945         0.7403       -60.6432      -18.80027      0.6935831      0.7103401
      5062.5000         1.9186        19.2368        45.4758       62.17488          0.452         0.5519         35.152         0.8097        -63.939      -22.99492      0.6207421      0.6380185
      5063.0000         1.3265        20.2565         42.879       58.76159         0.4232         0.4822        31.0445         0.7076       -68.2362      -28.46409       0.548119      0.5437226
      5063.5000         0.9585        27.2928        40.7974       56.02495         0.3964         0.4396        30.5807         0.5416        -72.205      -33.51529      0.4898925      0.4566329
      5064.0000         0.8871        35.3362        40.2797       55.34229         0.3805         0.4172        31.6211         0.4262       -74.7714      -36.78162      0.4753679       0.400317
      5064.5000         0.9479        29.1163        42.3376       58.04235         0.3677         0.3932        32.2092         0.4259       -75.2976      -37.45132       0.532816      0.3887703
      5065.0000         1.0056        23.6587        44.2168       60.50771         0.3638         0.3935        31.7227         0.4851        -74.778      -36.79002      0.5852703      0.4001721
      5065.5000         0.9672         24.958        45.3365       61.97556         0.3632         0.3969        31.1382         0.5207       -73.3246      -34.94024      0.6165012      0.4320649
      5066.0000         0.8913        28.5159        46.5809       63.60719         0.3655         0.4067        33.6081         0.5166       -71.7463      -32.93149      0.6512168      0.4666985
      5066.5000         0.8917        25.4885        49.1396       66.96498         0.3687         0.4249        36.9722         0.4902       -70.5662      -31.42954      0.7226592      0.4925941
      5067.0000          0.966        23.2791        52.0727        70.8145         0.3727         0.4436        40.0853         0.4657       -69.8342       -30.4979      0.8045638      0.5086569
      5067.5000          1.057         22.562        54.6642       74.21538         0.3755         0.4597        41.7094         0.4572       -69.2695       -29.7792      0.8769229      0.5210483
      5068.0000         1.0681        22.4984        55.9047       75.84187         0.3728         0.4685          42.39         0.4587       -69.0184      -29.45962      0.9115292      0.5265583
      5068.5000         0.9535        23.2108        53.6943       72.93608         0.3585         0.4586        42.4454         0.4519       -69.8572      -30.52718      0.8497038      0.5081521
      5069.0000          0.833        24.5609         50.551       68.80503         0.3296         0.4289        42.0601         0.4399       -72.1024      -33.38471      0.7618092      0.4588843
      5069.5000         0.6528        28.1474        45.8201       62.58888         0.2974         0.3875        39.9075         0.4139       -75.0487      -37.13454      0.6295507      0.3942321
      5070.0000         0.4699        32.1913        40.3848        55.4476         0.2786          0.337         36.915         0.3771       -77.7137      -40.52636      0.4776085      0.3357524
      5070.5000         0.3606        34.7183        35.1677        48.5929         0.2609         0.2977        35.4752         0.3496       -80.0345      -43.48011      0.3317637      0.2848257
      5071.0000         0.3747        34.5754        32.9179       45.63534          0.245         0.2632        34.6119         0.3249       -81.7678      -45.68612      0.2688371       0.246791
      5071.5000         0.3953        33.1443        32.3864       44.93456         0.2322         0.2401        35.3958         0.3054       -82.8146      -47.01841      0.2539267      0.2238205
      5072.0000         0.4121        31.8935        33.0874        45.8525         0.2289         0.2353        35.8929         0.2933       -83.3292      -47.67336      0.2734575      0.2125282
      5072.5000         0.4275        32.8457        34.6788       47.93987         0.2308         0.2373        36.1451         0.2879       -83.3101      -47.64905      0.3178695      0.2129475
      5073.0000         0.4499        33.2237        37.1074        51.1268         0.2345         0.2393        36.2875         0.2896       -82.2291      -46.27324      0.3856765      0.2366683
      5073.5000         0.4765        31.2224        40.2665       55.27314         0.2455         0.2598        36.4643          0.309       -80.4275      -43.98029      0.4738965       0.276202
      5074.0000         0.4968        27.8678        43.6728       59.74413         0.2586         0.2896        36.8213         0.3501       -77.6823      -40.48639      0.5690241      0.3364415
      5074.5000         0.5178        24.1797        46.8924       63.96994         0.2741         0.3261        38.6336         0.4009       -75.4982      -37.70663      0.6589348      0.3843684
      5075.0000         0.5394        24.0487        45.1807       61.71912         0.2918         0.3624        40.4792         0.4402       -74.1838      -36.03376       0.611045       0.413211
      5075.5000         0.5519        27.0641        44.1804       60.40262         0.3081         0.3787        38.4716         0.4518       -74.5664      -36.52071      0.5830345      0.4048154
      5076.0000         0.5511        30.1233        44.1215       60.32254         0.3264         0.3836        35.6475         0.4373       -75.4784      -37.68143      0.5813305      0.3848028
