#------------------------------------------------------------------------------
# Created by    : vladimir.rabinovich
# Created on    : 09/19/2023 17:20:04
#------------------------------------------------------------------------------
~Version Information Section
VERS.           2.0     :   CWLS log ASCII Standard - VERSION 2.0
WRAP.           NO      :   One line per depth step
~Well Information Section
#MNEM       .UNIT                                         VALUE :DESCRIPTION
#------------------------------------------------------------------------------
STRT        .FT                                             627 :START DEPTH
STOP        .FT                                            8077 :STOP DEPTH
STEP        .FT                                             0.5 :STEP      
NULL        .                                           -999.25 :NULL      
COMP        .                                    MOBIL OIL CORP :COMPANY   
WELL        .                               OCS G02338 ST00BP00 :WELL      
FLD         .                                           WILDCAT :FIELD     
LOC         .                                                   :LOCATION  
CNTY        .                             GALVESTON LARGE BLOCK :LOCATION  
STAT        .                                             TEXAS :STATE     
CTRY        .                                     UNITED STATES :COUNTRY   
SRVC        .                                                   :SERVICE COMPANY
DATE        .                             9/13/2023 11:18:53 AM :LOG DATE  
API         .                                    42706400220000 :API NUMBER
UWI         .                                    42706400220000 :UNIQUE WELL ID
XCOORD      .                                  948421.875172236 :SURFACE X 
YCOORD      .                                   10402667.405867 :SURFACE Y 
LAT         .                                         28.648189 :LATITUDE  
LON         .                                        -95.157922 :LONGITUDE 
ELEV        .FT                                              76 :ELEVATION VALUE
ELEV_TYPE   .                                                KB :ELEVATION REFERENCE TYPE
~Curve Information Section
#MNEM       .UNIT                                      API CODE :CURVE DESCRIPTION
#------------------------------------------------------------------------------
DEPT        .FT                                                 :DEPTH     
ASFL        .OHMM                                               :          
CALI        .IN                                                 :          
CILD        .MMHO                                               :          
DT          .US/F                                               :          
DT_1        .US/F                                               :          
GR          .GAPI                                               :          
GR_NORM     .GAPI                                               :GammaRay Normalized
ILD         .OHMM                                               :          
SFL         .OHMM                                               :          
SP          .MV                                                 :          
SP_NORM     .MV                                                 :SP Normalized
VSH_GR      .V/V                                                :Volume of Shale from GR
VSH_SP      .V/V                                                :Volume of Shale from SP
~A        DEPTH           ASFL           CALI           CILD             DT           DT_1             GR        GR_NORM            ILD            SFL             SP        SP_NORM         VSH_GR         VSH_SP
# ...
      3629.0000         0.8472        13.2296       1343.715       134.9966        -999.25        73.2344       64.57449         0.7017         0.8456       -74.0089      -8.995514      0.6717976      0.8368263
      3629.5000         0.8509        13.2794       1342.588        133.198        -999.25        73.3025       64.63724         0.7029         0.8307       -74.0464      -9.043579      0.6731327      0.8358454
      3630.0000         0.8474         13.393       1341.461       131.5349        -999.25        72.9984       64.32778         0.7028         0.8193        -73.975      -8.982742      0.6665486      0.8370869
      3630.5000         0.8399        13.4845       1344.045       130.3586        -999.25        71.9874       63.31143         0.7054         0.8181       -74.1475      -9.165817      0.6449241      0.8333507
      3631.0000         0.8323        13.5826        1346.66       131.4158        -999.25         71.051       62.36968         0.7097         0.8215       -74.5349      -9.563782      0.6248869      0.8252289
      3631.5000         0.8239        13.6511       1349.273        131.886        -999.25        70.7217       62.03503          0.713         0.8185       -74.6647      -9.704155      0.6177667      0.8223642
      3632.0000         0.8152        13.6505       1348.186       131.9375        -999.25        70.5632       61.87118         0.7175         0.8191       -74.2494      -9.299423      0.6142804       0.830624
      3632.5000         0.8064         13.641       1345.615       132.1345        -999.25        70.9946       62.29723         0.7187         0.8239       -73.4556       -8.51619      0.6233453      0.8466084
      3633.0000         0.7977        13.6328       1343.043       132.0776        -999.25         71.946       63.24327         0.7204         0.8169       -72.1816      -7.252769      0.6434739      0.8723925
      3633.5000         0.7903        13.6291       1340.471        131.519        -999.25        73.3037       64.59563         0.7239         0.7919       -70.8352      -5.916931      0.6722474      0.8996544
      3634.0000         0.7853        13.6362       1337.994       132.0452        -999.25        74.9072       66.19377         0.7276         0.7709       -69.9116      -5.003899      0.7062504      0.9182878
      3634.5000         0.7803        13.6482       1336.932       133.9646        -999.25        76.5625       67.84371         0.7309         0.7587       -69.5275      -4.630371      0.7413556      0.9259108
      3635.0000         0.7753        13.6615       1335.869       135.7087        -999.25        78.3691       69.64497         0.7336         0.7583       -69.3324      -4.445839      0.7796801      0.9296768
      3635.5000         0.7703         13.689       1334.809          138.5        -999.25        79.9835       71.25401         0.7354         0.7676       -68.9136      -4.037605       0.813915      0.9380081
      3636.0000         0.7653        13.7255       1335.414       139.8916        -999.25        81.6904       72.95556         0.7386         0.7808       -68.4268      -3.561386      0.8501183      0.9477268
      3636.5000         0.7603        13.6601       1343.129       141.1409        -999.25        83.4539       74.71371         0.7344          0.777       -67.2944      -2.439552      0.8875257      0.9706214
      3637.0000         0.7561         13.296       1350.852       142.3135        -999.25         84.835       76.08945         0.7268         0.7625       -66.1541      -1.309814      0.9167969      0.9936773
      3637.5000         0.7524        12.9999       1358.568       142.9011        -999.25        85.1975        76.4466          0.714          0.758        -65.152     -0.3182907      0.9243958              1
      3638.0000         0.7488        12.9006       1367.422        143.438        -999.25        84.9587       76.20245         0.7028         0.7554       -64.3203      0.5028458      0.9192011              1
      3638.5000         0.7452        12.9816       1381.943       143.6855        -999.25        84.3033       75.54169         0.6941         0.7443       -63.8762       0.936367      0.9051424              1
      3639.0000         0.7415        13.0999       1396.465       143.9131        -999.25         83.775       75.00805         0.6856         0.7303        -63.727       1.075001      0.8937883              1
      3639.5000         0.7379        13.0778       1410.986       144.2976        -999.25        83.0853       74.31299         0.6777         0.7218       -63.7698       1.021637      0.8789998              1
      3640.0000         0.7358        12.8409       1425.508       145.0557        -999.25        82.4852       73.70754          0.669         0.7153        -63.705       1.075859      0.8661179              1
      3640.5000         0.7348        12.6175       1434.531       146.1716        -999.25        82.0615       73.27849         0.6653         0.7147       -63.0992       1.671093      0.8569891              1
      3641.0000         0.7338        12.5073       1439.854       146.8738        -999.25        81.5636       72.77524         0.6658         0.7116       -63.0921       1.667629      0.8462816              1
      3641.5000         0.7328        12.5543       1445.176       147.2241        -999.25        80.9019       72.10818         0.6638         0.7149        -63.212       1.537151      0.8320891              1
      3642.0000         0.7319        12.5737       1450.498       147.4153        -999.25        80.2906       71.49154          0.663         0.7294       -63.5326       1.205986      0.8189689              1
      3642.5000         0.7321        12.3917       1451.057       146.9612        -999.25        79.7792       70.97478         0.6643         0.7323       -63.6411       1.086918       0.807974              1
      3643.0000         0.7334        12.2954       1447.863        146.584        -999.25        79.3052       70.49543          0.667         0.7226       -63.3302       1.387245      0.7977751              1
      3643.5000         0.7348        12.3896        1444.67       146.7065        -999.25        78.9768       70.16167         0.6688         0.7122        -63.062       1.644878      0.7906739              1
      3644.0000         0.7362        12.3698       1441.477       147.0288        -999.25        78.5052       69.68473         0.6699         0.7031       -63.2401       1.456211      0.7805262              1
      3644.5000         0.7376         12.163       1437.402       148.0388        -999.25        78.0026       69.17677          0.672         0.7051       -63.5786       1.107136      0.7697186              1
      3645.0000         0.7402        11.8982       1431.193       148.9656        -999.25        77.6908       68.85962         0.6811         0.7308       -63.9924      0.6827698      0.7629706              1
      3645.5000         0.7447        11.8417       1424.986       149.4941        -999.25        77.5773       68.74077         0.6909         0.7621       -64.3705      0.2940979      0.7604419              1
      3646.0000         0.7492        11.8793       1418.777       149.1362        -999.25        77.4395       68.59761         0.7002         0.7908        -64.614     0.04003143       0.757396              1
      3646.5000         0.7536        12.1376       1412.564       148.7551        -999.25        76.3882       67.54096         0.7044         0.7811       -64.8245     -0.1810379      0.7349141              1
      3647.0000         0.7581        12.6204       1406.568       151.7898        -999.25        75.5347       66.68211         0.6966         0.7768       -64.9133     -0.2804108      0.7166405              1
      3647.5000          0.763        12.9408       1406.193       146.5842        -999.25        74.9752       66.11726         0.6863         0.7879       -65.0062     -0.3838806      0.7046224              1
