#------------------------------------------------------------------------------
# Created by    : vladimir.rabinovich
# Created on    : 09/19/2023 17:22:53
#------------------------------------------------------------------------------
~Version Information Section
VERS.           2.0     :   CWLS log ASCII Standard - VERSION 2.0
WRAP.           NO      :   One line per depth step
~Well Information Section
#MNEM       .UNIT                                         VALUE :DESCRIPTION
#------------------------------------------------------------------------------
STRT        .FT                                             411 :START DEPTH
STOP        .FT                                           10036 :STOP DEPTH
STEP        .FT                                             0.5 :STEP      
NULL        .                                           -999.25 :NULL      
COMP        .                          HUMBLE OIL & REFINING CO :COMPANY   
WELL        .                                     ST TR 00278-L :WELL      
FLD         .                                           WILDCAT :FIELD     
LOC         .                                                   :LOCATION  
CNTY        .                             GALVESTON LARGE BLOCK :LOCATION  
STAT        .                                             TEXAS :STATE     
CTRY        .                                     UNITED STATES :COUNTRY   
SRVC        .                                                   :SERVICE COMPANY
DATE        .                             9/13/2023 11:19:42 AM :LOG DATE  
API         .                                    42706000220000 :API NUMBER
UWI         .                                    42706000220000 :UNIQUE WELL ID
XCOORD      .                                  941560.719964966 :SURFACE X 
YCOORD      .                                  10497824.1170516 :SURFACE Y 
LAT         .                                        28.9094621 :LATITUDE  
LON         .                                       -95.1847519 :LONGITUDE 
ELEV        .FT                                              10 :ELEVATION VALUE
ELEV_TYPE   .                                                KB :ELEVATION REFERENCE TYPE
~Curve Information Section
#MNEM       .UNIT                                      API CODE :CURVE DESCRIPTION
#------------------------------------------------------------------------------
DEPT        .FT                                                 :DEPTH     
LAT         .OHMM                                               :          
LN          .OHMM                                               :          
SN          .OHMM                                               :          
SP          .MV                                                 :          
SP_NORM     .MV                                                 :SP Normalized
VSH_SP      .V/V                                                :Volume of Shale from SP
~A        DEPTH            LAT             LN             SN             SP        SP_NORM         VSH_SP
# ...
      5503.0000         0.9965         0.6648         0.6755        94.7213      -10.48792      0.8391879
      5503.5000         0.9984         0.6655         0.6618        92.7104      -8.479935      0.8732215
      5504.0000         1.0002         0.6663         0.6481        90.6995      -6.471939      0.9072553
      5504.5000         0.9938         0.6671         0.6549         89.454      -5.229347      0.9283162
      5505.0000         0.9857          0.655         0.7111        90.4187       -6.19696      0.9119159
      5505.5000         0.9776         0.6375         0.7673        91.3834      -7.164566      0.8955159
      5506.0000         0.9695           0.62         0.8235        92.3492      -8.133278       0.879097
      5506.5000         0.9614         0.6025         0.8797         93.314       -9.10099      0.8626951
      5507.0000         0.9513          0.585         0.9073        93.9922      -9.782104      0.8511508
      5507.5000         0.9351         0.5675         0.8962        92.5349      -8.327705      0.8758016
      5508.0000         0.9189         0.5515         0.8789        91.0765      -6.872215      0.9004709
      5508.5000         0.9027         0.5484         0.8579        89.6194       -5.41803      0.9251181
      5509.0000         0.8865         0.5453         0.8369        88.1621      -3.963638      0.9497688
      5509.5000         0.8789         0.5422         0.8159        87.6039      -3.408348      0.9591805
      5510.0000          0.876         0.5391         0.7949        88.3705      -4.177856       0.946138
      5510.5000         0.8731          0.536         0.7739        89.1438      -4.954071      0.9329818
      5511.0000         0.8702         0.5329         0.7528         89.804       -5.61718      0.9217427
      5511.5000         0.8672         0.5299         0.7318        90.4584      -6.274483       0.910602
      5512.0000         0.8643         0.5268         0.7312        91.1122      -6.931198      0.8994712
      5512.5000         0.8664         0.5237         0.7353        91.7667      -7.588608      0.8883287
      5513.0000         0.8692         0.5355         0.7395        92.8542      -8.679024      0.8698471
      5513.5000         0.8721         0.5482         0.7436         94.479      -10.30672      0.8422589
      5514.0000         0.8749          0.561         0.7477         97.235      -13.06564      0.7954977
      5514.5000         0.8777         0.5737         0.7519        99.9637      -15.79725      0.7491992
      5515.0000         0.8805         0.5864          0.742       101.7346      -17.57105      0.7191347
      5515.5000         0.8833         0.5992         0.7155       103.5055      -19.34487        0.68907
      5516.0000          0.852         0.6119         0.6889        105.274      -21.11628      0.6590461
      5516.5000         0.8176         0.6247         0.6624       106.2648      -22.10999      0.6422035
      5517.0000         0.7831         0.6374          0.638       107.1168       -22.9649      0.6277136
      5517.5000         0.7534         0.6456         0.6667       107.9683      -23.81931      0.6132321
      5518.0000         0.7257         0.6483         0.6955       108.5033      -24.35722      0.6041148
      5518.5000          0.698          0.651         0.7242       106.7732      -22.63003      0.6333894
      5519.0000         0.6703         0.6536          0.753       104.3636      -20.22334      0.6741806
      5519.5000         0.6425         0.6513         0.7817       101.9542      -17.81685      0.7149687
      5520.0000         0.6149         0.6465         0.8104         99.915      -15.78056       0.749482
      5520.5000          0.609         0.6417         0.8392        98.7499      -14.61837      0.7691802
      5521.0000         0.6285         0.6369         0.8632        97.5859      -13.45728      0.7888597
      5521.5000         0.6481         0.6322          0.864        96.4209      -12.29519      0.8085561
      5522.0000         0.6676         0.6274         0.8648        95.2557       -11.1329       0.828256
      5522.5000         0.6871         0.6248         0.8655        94.3862      -10.26631      0.8429438
      5523.0000         0.7067         0.6275         0.8663        93.6276       -9.51062      0.8557522
      5523.5000         0.7262         0.6302         0.8671        92.8695      -8.755432       0.868552
      5524.0000         0.7458         0.6329          0.865        92.1108      -7.999641       0.881362
      5524.5000         0.7653         0.6356         0.8622        90.4934      -6.385147      0.9087263
      5525.0000         0.7817         0.6384         0.8595        88.7384      -4.633064      0.9384226
      5525.5000          0.793         0.6411         0.8567        86.9834      -2.880966      0.9681192
      5526.0000         0.8044         0.6438         0.8539        86.1399      -2.040382      0.9823664
      5526.5000         0.8157         0.6371         0.8511        85.4243       -1.32769      0.9944459
      5527.0000          0.827         0.6299         0.8568        84.7092     -0.6154938              1
      5527.5000         0.8383         0.6226         0.8642        84.3136     -0.2228088              1
      5528.0000         0.8497         0.6154         0.8716        84.4148     -0.3269196              1
      5528.5000          0.861         0.6082          0.879        84.5159     -0.4309311              1
      5529.0000         0.8723          0.601         0.8864        84.6171     -0.5350418              1
      5529.5000         0.8836         0.5937         0.8858        85.0043     -0.9251556              1
      5530.0000         0.8892         0.5865         0.8765         85.807      -1.730759      0.9876143
      5530.5000         0.8802         0.5851         0.8671        86.6093      -2.535965      0.9739667
      5531.0000         0.8712         0.5839         0.8577        86.4943      -2.423882      0.9758664
      5531.5000         0.8622         0.5827         0.8483         85.619      -1.551491      0.9906527
      5532.0000         0.8532         0.5815         0.8389        84.7427     -0.6781006              1
      5532.5000         0.8442         0.5803         0.8295        83.8674      0.1942902              1
      5533.0000         0.8352         0.5791         0.8247        83.2345      0.8242798              1
      5533.5000         0.8262         0.5779         0.8246        84.7823     -0.7264328              1
      5534.0000         0.8208          0.567         0.8245          87.33      -3.277039      0.9614061
      5534.5000         0.8239         0.5538         0.8244        89.7133      -5.663254      0.9209618
      5535.0000         0.8269         0.5406         0.8243        90.7855      -6.738358      0.9027397
      5535.5000           0.83         0.5274         0.8242         91.859      -7.814774      0.8844954
      5536.0000         0.8331         0.5142          0.824        91.6189      -7.577576      0.8885157
      5536.5000         0.8361          0.501         0.8239        89.6216      -5.583191      0.9223188
      5537.0000         0.8392         0.4917         0.8054        87.8717      -3.836197      0.9519289
      5537.5000         0.8422         0.4974          0.771        87.0785      -3.045906      0.9653236
      5538.0000         0.8453         0.5031         0.7365        86.3918      -2.362122      0.9769132
      5538.5000         0.8484         0.5087         0.7021        86.8962      -2.869431      0.9683147
      5539.0000         0.8565         0.5144         0.6676        87.4006       -3.37674      0.9597163
      5539.5000         0.8649           0.52         0.6487        87.9045      -3.883553      0.9511262
      5540.0000         0.8733         0.5257         0.6453        88.4089      -4.390854      0.9425279
      5540.5000         0.8816         0.5313         0.6418        88.9133       -4.89817      0.9339293
