#------------------------------------------------------------------------------
# Created by    : vladimir.rabinovich
# Created on    : 09/19/2023 17:22:52
#------------------------------------------------------------------------------
~Version Information Section
VERS.           2.0     :   CWLS log ASCII Standard - VERSION 2.0
WRAP.           NO      :   One line per depth step
~Well Information Section
#MNEM       .UNIT                                         VALUE :DESCRIPTION
#------------------------------------------------------------------------------
STRT        .FT                                             873 :START DEPTH
STOP        .FT                                           11612 :STOP DEPTH
STEP        .FT                                             0.5 :STEP      
NULL        .                                           -999.25 :NULL      
COMP        .                                   MARATHON OIL CO :COMPANY   
WELL        .                               OCS G04137 ST00BP04 :WELL      
FLD         .                       MATAGORDA ISLAND BLOCK 0527 :FIELD     
LOC         .                                                   :LOCATION  
CNTY        .                      MATAGORDA ISLAND LARGE BLOCK :LOCATION  
STAT        .                                             TEXAS :STATE     
CTRY        .                                     UNITED STATES :COUNTRY   
SRVC        .                                                   :SERVICE COMPANY
DATE        .                             9/13/2023 11:19:05 AM :LOG DATE  
API         .                                    42703400590000 :API NUMBER
UWI         .                                    42703400590000 :UNIQUE WELL ID
XCOORD      .                                  609906.580547661 :SURFACE X 
YCOORD      .                                  10277311.7025511 :SURFACE Y 
LAT         .                                         28.282909 :LATITUDE  
LON         .                                        -96.202007 :LONGITUDE 
ELEV        .FT                                              95 :ELEVATION VALUE
ELEV_TYPE   .                                                KB :ELEVATION REFERENCE TYPE
~Curve Information Section
#MNEM       .UNIT                                      API CODE :CURVE DESCRIPTION
#------------------------------------------------------------------------------
DEPT        .FT                                                 :DEPTH     
GR          .GAPI                                               :          
GR_NORM     .GAPI                                               :GammaRay Normalized
ILD         .OHMM                                               :          
SP          .MV                                                 :          
SP_NORM     .MV                                                 :SP Normalized
VSH_GR      .V/V                                                :Volume of Shale from GR
VSH_SP      .V/V                                                :Volume of Shale from SP
~A        DEPTH             GR        GR_NORM            ILD             SP        SP_NORM         VSH_GR         VSH_SP
# ...
      2414.0000        52.5743        78.7904         0.8805       -94.8627      -2.647133      0.9742638      0.8352867
      2414.5000        53.1919       79.93705         0.8505       -94.8274      -2.611832      0.9986606      0.8388168
      2415.0000        54.3866       82.15515         0.8218       -94.8374      -2.621834              1      0.8378166
      2415.5000        55.5838        84.3779         0.7943       -95.0153      -2.799728              1      0.8200272
      2416.0000        56.2457       85.60677         0.7761       -95.1893      -2.973732              1      0.8026268
      2416.5000        55.8613        84.8931          0.757       -95.1396      -2.924034              1      0.8075966
      2417.0000        55.4337        84.0992         0.7397       -94.1355       -1.91993              1       0.908007
      2417.5000        55.1533       83.57859         0.7356       -93.4877      -1.272133              1      0.9727867
      2418.0000        54.8565       83.02757         0.7321       -93.3523      -1.136734              1      0.9863266
      2418.5000        54.4515       82.27563         0.7288       -93.6815      -1.465935              1      0.9534065
      2419.0000         54.163       81.74001         0.7266       -94.4921      -2.276535              1      0.8723465
      2419.5000        54.3488       82.08497         0.7242       -94.6484      -2.432831              1      0.8567169
      2420.0000        52.2197       78.13206         0.7197       -93.2542      -1.038635      0.9602567      0.9961365
      2420.5000        50.6705       75.25579         0.7153       -93.9412      -1.725632      0.8990594      0.9274368
      2421.0000        50.0028       74.01611         0.7132        -94.401      -2.185432      0.8726831      0.8814567
      2421.5000         49.646       73.35368         0.7114       -94.0873      -1.871735      0.8585889      0.9128265
      2422.0000         49.845       73.72316         0.7116       -93.2008     -0.9852295      0.8664502              1
      2422.5000        50.8958        75.6741         0.7131       -93.2211      -1.005531      0.9079595      0.9994469
      2423.0000        52.4626       78.58302         0.7148       -93.5232      -1.307632      0.9698516      0.9692367
      2423.5000        53.2067       79.96452         0.7165       -94.1278      -1.912231      0.9992452      0.9087769
      2424.0000        53.0162       79.61082         0.7194       -94.7903       -2.57473      0.9917197       0.842527
      2424.5000         52.245       78.17902         0.7238       -94.9169      -2.701332      0.9612557      0.8298668
      2425.0000        51.1077        76.0675           0.73        -95.179      -2.963432      0.9163297      0.8036568
      2425.5000        49.5051        73.0921         0.7376       -95.5341      -3.318535      0.8530235      0.7681465
      2426.0000        47.9475       70.20023         0.7481       -94.9019      -2.686333      0.7914942      0.8313667
      2426.5000        47.0168       68.47228         0.7612       -94.3237      -2.108131      0.7547294      0.8891869
      2427.0000         46.783       68.03822         0.7762       -94.8154      -2.599831      0.7454939       0.840017
      2427.5000        46.8419       68.14753         0.7962       -95.1022      -2.886635      0.7478198      0.8113365
      2428.0000        47.0065       68.45315         0.8222       -94.1587       -1.94313      0.7543223       0.905687
      2428.5000         47.491       69.35268         0.8497       -93.3215      -1.105934      0.7734612      0.9894066
      2429.0000        48.3876       71.01731         0.8772        -93.193     -0.9774323       0.808879              1
      2429.5000        49.8561       73.74376         0.9074       -93.8607      -1.645134      0.8668885      0.9354866
      2430.0000        50.6359       75.19154         0.9424       -94.6779      -2.462334      0.8976924      0.8537666
      2430.5000         50.753       75.40894         0.9497       -95.2073       -2.99173      0.9023179       0.800827
      2431.0000        49.9569        73.9309         0.9524       -95.1727       -2.95713      0.8708702       0.804287
      2431.5000        48.6799       71.56001          0.963       -94.7285      -2.512932      0.8204256      0.8487068
      2432.0000        47.5053       69.37926         1.0048       -94.1152      -1.899628      0.7740268      0.9100372
      2432.5000        47.2308        68.8696         1.0626       -94.0542      -1.838631      0.7631829      0.9161369
      2433.0000        47.3505       69.09183         1.1067       -94.2917      -2.076134      0.7679112      0.8923866
      2433.5000        49.1787       72.48608          1.136        -93.688      -1.472435      0.8401294      0.9527565
      2434.0000        51.2048       76.24776          1.147        -92.733     -0.5174332      0.9201651              1
      2434.5000         52.817         79.241          1.148       -93.3044      -1.088829      0.9838512      0.9911171
      2435.0000         53.347       80.22504         1.1383       -93.8973      -1.681732              1      0.9318268
      2435.5000        54.2404        81.8837         1.1152       -93.9985      -1.782928              1      0.9217072
      2436.0000        54.9908        83.2769         1.0831         -93.72      -1.504433              1      0.9495567
      2436.5000         55.035       83.35896         1.0462       -93.8861      -1.670532              1      0.9329468
      2437.0000        52.5985       78.83533         1.0071       -93.6482      -1.432632      0.9752199      0.9567367
      2437.5000        51.2855        76.3976         0.9632        -93.114     -0.8984299      0.9233531              1
      2438.0000        50.7157       75.33969         0.9244       -93.6732      -1.457634      0.9008445      0.9542366
      2438.5000        49.9972       74.00573         0.8908       -94.3337      -2.118134      0.8724623      0.8881866
      2439.0000        49.6476       73.35665         0.8668       -93.8175      -1.601929      0.8586522      0.9398071
      2439.5000        49.4437       72.97809         0.8507       -92.8972      -0.681633      0.8505976              1
      2440.0000        50.2394       74.45541         0.8471         -92.36     -0.1444321      0.8820299              1
      2440.5000        52.1069       77.92262         0.8676       -92.3831     -0.1675339      0.9558003              1
      2441.0000        52.5758       78.79319         0.8956       -92.9896     -0.7740326      0.9743232              1
      2441.5000        52.5507       78.74659         0.9186       -93.6937      -1.478134      0.9733317      0.9521866
      2442.0000        52.6605       78.95044         0.9318       -93.7234      -1.507828      0.9776689      0.9492172
      2442.5000         53.703       80.88594          0.929       -92.6321     -0.4165344              1              1
      2443.0000        55.7316       84.65228         0.9149       -92.3215     -0.1059341              1              1
      2443.5000        57.6068       88.13382          0.896       -92.4897     -0.2741318              1              1
      2444.0000        59.3219       91.31809         0.8742       -92.9893      -0.773735              1              1
      2444.5000         59.939       92.46381         0.8528        -93.173      -0.957428              1              1
      2445.0000        59.8016       92.20869         0.8314       -92.5566     -0.3410339              1              1
      2445.5000        59.5889       91.81383         0.8055       -92.0579      0.1576691              1              1
      2446.0000         59.747       92.10734         0.7787       -92.0244      0.1911697              1              1
      2446.5000        58.2298       89.29048         0.7503        -92.262     -0.0464325              1              1
      2447.0000        55.5733       84.35838          0.721       -92.6038     -0.3882294              1              1
