#------------------------------------------------------------------------------
# Created by    : vladimir.rabinovich
# Created on    : 09/19/2023 17:19:40
#------------------------------------------------------------------------------
~Version Information Section
VERS.           2.0     :   CWLS log ASCII Standard - VERSION 2.0
WRAP.           NO      :   One line per depth step
~Well Information Section
#MNEM       .UNIT                                         VALUE :DESCRIPTION
#------------------------------------------------------------------------------
STRT        .FT                                             305 :START DEPTH
STOP        .FT                                          9892.5 :STOP DEPTH
STEP        .FT                                             0.5 :STEP      
NULL        .                                           -999.25 :NULL      
COMP        .                         ATLANTIC RICHFIELD CO THE :COMPANY   
WELL        .                               OCS G07247 ST00BP00 :WELL      
FLD         .                                           WILDCAT :FIELD     
LOC         .                                                   :LOCATION  
CNTY        .                             GALVESTON LARGE BLOCK :LOCATION  
STAT        .                                             TEXAS :STATE     
CTRY        .                                     UNITED STATES :COUNTRY   
SRVC        .                                                   :SERVICE COMPANY
DATE        .                             9/13/2023 11:19:27 AM :LOG DATE  
API         .                                    42706401220000 :API NUMBER
UWI         .                                    42706401220000 :UNIQUE WELL ID
XCOORD      .                                  995038.545578968 :SURFACE X 
YCOORD      .                                  10445559.0196594 :SURFACE Y 
LAT         .                                         28.768363 :LATITUDE  
LON         .                                        -95.014888 :LONGITUDE 
ELEV        .FT                                              98 :ELEVATION VALUE
ELEV_TYPE   .                                                KB :ELEVATION REFERENCE TYPE
~Curve Information Section
#MNEM       .UNIT                                      API CODE :CURVE DESCRIPTION
#------------------------------------------------------------------------------
DEPT        .FT                                                 :DEPTH     
ALL         .OHMM                                               :          
CILD        .MMHO                                               :          
GR          .GAPI                                               :          
GR_NORM     .GAPI                                               :GammaRay Normalized
ILD         .OHMM                                               :          
SP          .MV                                                 :          
VSH_GR      .V/V                                                :Volume of Shale from GR
~A        DEPTH            ALL           CILD             GR        GR_NORM            ILD             SP         VSH_GR
# ...
      1008.5000         1.3511       754.1367        48.6787       62.86269         1.4559        39.3719      0.6353764
      1009.0000         1.3478       786.4502        49.6496       64.35838         1.4136         39.576      0.6671997
      1009.5000         1.3442       817.3291        50.4546       65.59838         1.3162        39.7802      0.6935826
      1010.0000          1.339       831.7461        51.4292       67.09973         1.2448        39.9843      0.7255262
      1010.5000         1.3337       846.1621        52.5182       68.77743         1.2113        40.1884      0.7612219
      1011.0000         1.3285       850.9248        53.4131       70.15597         1.1859        40.3925      0.7905525
      1011.5000         1.3233       853.0801        52.8625       69.30687         1.1734        40.5275      0.7724866
      1012.0000         1.3211       852.3682        51.7101       67.53035          1.161        40.6406      0.7346883
      1012.5000         1.3192       847.9355         50.954       66.36458           1.15        40.7535      0.7098846
      1013.0000         1.3173       843.5029        50.1979       65.19879         1.1568        40.8666      0.6850806
      1013.5000         1.3153       838.7852        49.4417       64.03286         1.1637        40.9796      0.6602736
      1014.0000         1.3122       829.2793        49.5729       64.23449         1.1747        41.0927      0.6645636
      1014.5000         1.3091       819.7734        50.1132       65.06656         1.1895        41.1585      0.6822672
      1015.0000         1.3061       810.2676        50.7751       66.08604         1.2043        41.1182      0.7039582
      1015.5000         1.3027       800.7607        51.4371       67.10565         1.2192        41.0779      0.7256522
      1016.0000         1.2989       792.2422        52.0992       68.12544          1.234        40.9673      0.7473499
      1016.5000         1.2951       786.9453        52.5121       68.76117         1.2419        40.4935      0.7608759
      1017.0000         1.2913       781.6484         52.416        68.6125         1.2481        40.0197      0.7577128
      1017.5000         1.2875       776.3525        51.5287       67.24454         1.2542        39.4732      0.7286072
      1018.0000         1.2849       773.8584        50.7686       66.07259         1.2604        38.8704      0.7036722
      1018.5000         1.2829       779.6934        51.0467        66.5006         1.2509        38.2676      0.7127786
      1019.0000         1.2808       785.5283        51.3249       66.92876         1.2392        37.7428      0.7218886
      1019.5000         1.2788       791.3643        52.2535       68.35923         1.2275        38.1173       0.752324
      1020.0000         1.2767       797.1992        53.2333       69.86863         1.2158        38.4918      0.7844389
      1020.5000         1.2753       802.2881        54.2131       71.37801         1.2041         38.813      0.8165535
      1021.0000         1.2746       806.8467        55.1929       72.88739         1.1964        38.9689      0.8486679
      1021.5000          1.274       811.4043        55.8405       73.88483         1.2018        39.1248      0.8698901
      1022.0000         1.2734       815.9619        56.0731       74.24271         1.2072        39.2806      0.8775044
      1022.5000         1.2728       808.3418        56.3057       74.60059         1.2151        39.4365       0.885119
      1023.0000         1.2735       795.0732        56.5383       74.95849         1.2473        39.4337      0.8927338
      1023.5000         1.2753       781.8086        46.9786        60.2256         1.2795        39.4226      0.5792681
      1024.0000         1.2771       757.6113         43.991       55.62091         1.3117        39.4116      0.4812959
      1024.5000         1.2844       719.6299        42.6506       53.55466         1.3175        39.4005      0.4373331
      1025.0000         1.2931        691.499          41.88       52.36653          1.321        39.3894      0.4120539
      1025.5000         1.3023       712.7617        41.2118        51.3362         1.3202        39.3598      0.3901319
      1026.0000         1.2963       728.8457        40.7399       50.60841         1.2995         39.276       0.374647
      1026.5000         1.2643       743.4531        40.2679       49.88044         1.2788        39.1922      0.3591583
      1027.0000         1.2291       758.0605         39.796       49.15264         1.2582        39.1083      0.3436731
      1027.5000         1.2106        772.668        39.4514       48.62101         1.2375        39.0245      0.3323618
      1028.0000         1.1922        793.333         40.274       49.88813         1.2168        38.9407      0.3593218
      1028.5000         1.1726       818.4531        41.0966       51.15525         1.1962        38.8569      0.3862819
      1029.0000         1.1562       851.2344        41.9191       52.42223          1.169         38.829      0.4132389
      1029.5000         1.1439       891.1113        42.5089       53.33058         1.1416        38.8039      0.4325656
      1030.0000         1.1316        938.668        42.9764       54.05047         1.1142        38.7787      0.4478824
      1030.5000         1.1232       993.2949        43.4439       54.77036         1.0868        38.7537      0.4631992
      1031.0000         1.1151       1028.342        43.0258       54.12547         1.0594        38.8311       0.449478
      1031.5000         1.1107       1049.131        42.4833       53.28885         1.0318        39.0422      0.4316777
      1032.0000         1.1072       1069.916        41.9609       52.48322         1.0042        39.2533      0.4145366
      1032.5000         1.1055       1084.189        41.4385       51.67759         0.9765        39.4644      0.3973955
      1033.0000         1.1038       1093.361        40.9161       50.87196         0.9488        39.7308      0.3802545
      1033.5000         1.1022       1102.531        40.3936       50.06618         0.9249        40.0173      0.3631102
      1034.0000         1.1005       1107.971        39.8712       49.26054         0.9098        40.3037       0.345969
      1034.5000         1.0988       1103.668        39.3824       48.50669         0.8947        40.5902      0.3299296
      1035.0000         1.0971       1079.658        38.9219       47.79646         0.8796        40.8766      0.3148182
      1035.5000         1.0958       1053.104        38.4614       47.08621         0.9246        41.1065      0.2997066
      1036.0000         1.0945       1033.568        38.0009       46.37597         0.9554        41.2771      0.2845952
      1036.5000         1.0931       1025.328        37.5511       45.68223         0.9661        41.4476      0.2698346
      1037.0000         1.0918       1017.091        37.1942       45.13164         0.9767        41.6182      0.2581199
      1037.5000         1.0905       1008.852        36.8373       44.58106         0.9874        41.7888      0.2464055
      1038.0000         1.0893       1000.612        36.7563       44.45566         0.9877        41.9594      0.2437375
      1038.5000         1.0891       995.3066        37.1019       44.98769         0.9864         41.975      0.2550572
      1039.0000         1.0888       992.1738        37.4475       45.51971          0.985        41.9025      0.2663769
      1039.5000         1.0885         989.04        37.7673       46.01198         0.9837          41.83      0.2768507
      1040.0000         1.0882       985.9072        38.0497       46.44662         0.9823        41.7695      0.2860983
      1040.5000         1.0879       982.7734        38.3321       46.88125          0.981         41.738      0.2953457
      1041.0000         1.0886       979.6406        38.6146       47.31604         0.9832        41.7064      0.3045965
      1041.5000         1.0912       976.5068        38.8969       47.75051         0.9877        41.6749      0.3138407
