#------------------------------------------------------------------------------
# Created by    : vladimir.rabinovich
# Created on    : 09/19/2023 17:22:38
#------------------------------------------------------------------------------
~Version Information Section
VERS.           2.0     :   CWLS log ASCII Standard - VERSION 2.0
WRAP.           NO      :   One line per depth step
~Well Information Section
#MNEM       .UNIT                                         VALUE :DESCRIPTION
#------------------------------------------------------------------------------
STRT        .FT                                             597 :START DEPTH
STOP        .FT                                            8696 :STOP DEPTH
STEP        .FT                                             0.5 :STEP      
NULL        .                                           -999.25 :NULL      
COMP        .                MURPHY EXPLORATION & PRODUCTION CO :COMPANY   
WELL        .                               OCS G13308 ST00BP00 :WELL      
FLD         .                                           WILDCAT :FIELD     
LOC         .                                                   :LOCATION  
CNTY        .                             GALVESTON LARGE BLOCK :LOCATION  
STAT        .                                             TEXAS :STATE     
CTRY        .                                     UNITED STATES :COUNTRY   
SRVC        .                                                   :SERVICE COMPANY
DATE        .                             9/13/2023 11:19:54 AM :LOG DATE  
API         .                                    42706403460000 :API NUMBER
UWI         .                                    42706403460000 :UNIQUE WELL ID
XCOORD      .                                  1110706.35492259 :SURFACE X 
YCOORD      .                                  10520329.8149831 :SURFACE Y 
LAT         .                                         28.978895 :LATITUDE  
LON         .                                        -94.657168 :LONGITUDE 
ELEV        .FT                                              71 :ELEVATION VALUE
ELEV_TYPE   .                                                KB :ELEVATION REFERENCE TYPE
~Curve Information Section
#MNEM       .UNIT                                      API CODE :CURVE DESCRIPTION
#------------------------------------------------------------------------------
DEPT        .FT                                                 :DEPTH     
DCAL        .IN                                                 :          
DPHI        .%                                                  :          
DRHO        .G/C3                                               :          
DTLN        .US/F                                               :          
GR          .GAPI                                               :          
GR_1        .GAPI                                               :          
GR_NORM     .GAPI                                               :GammaRay Normalized
ILD         .OHMM                                               :          
ILM         .OHMM                                               :          
NPHI        .%                                                  :          
SFL         .OHMM                                               :          
SP          .MV                                                 :          
VSH_GR      .V/V                                                :Volume of Shale from GR
~A        DEPTH           DCAL           DPHI           DRHO           DTLN             GR           GR_1        GR_NORM            ILD            ILM           NPHI            SFL             SP         VSH_GR
# ...
      2288.0000        -999.25        -999.25        -999.25       145.2087        85.3063        -999.25       78.13785         0.6214         0.6596        -999.25         0.6242       -75.5933      0.9603797
      2288.5000        -999.25        -999.25        -999.25       144.4709         85.505        -999.25       78.32973         0.6232         0.6658        -999.25         0.6338       -75.8282      0.9644623
      2289.0000        -999.25        -999.25        -999.25       143.6277        85.0139        -999.25       77.84357         0.6259         0.6753        -999.25         0.6464       -76.4285      0.9541184
      2289.5000        -999.25        -999.25        -999.25       142.7227        83.5621        -999.25        76.4131          0.629         0.6887        -999.25         0.6564       -76.2692       0.923683
      2290.0000        -999.25        -999.25        -999.25       140.9385        80.9084        -999.25        73.8012         0.6282         0.7019        -999.25         0.6635       -76.0038      0.8681107
      2290.5000        -999.25        -999.25        -999.25       138.4248        77.2117        -999.25        70.1641         0.6233         0.7106        -999.25         0.6838       -76.2689      0.7907255
      2291.0000        -999.25        -999.25        -999.25        137.342        71.4131        -999.25       64.46092         0.6133         0.7077        -999.25         0.7167         -78.09      0.6693813
      2291.5000        -999.25        -999.25        -999.25       137.6873         66.167        -999.25       59.30083          0.599         0.6934        -999.25         0.7385       -77.8673      0.5595922
      2292.0000        -999.25        -999.25        -999.25       139.6147        62.8672        -999.25       56.05386         0.5851         0.6723        -999.25         0.7194       -76.7631      0.4905077
      2292.5000        -999.25        -999.25        -999.25        143.469        61.3397        -999.25       54.54897          0.566          0.643        -999.25         0.6735       -76.3755      0.4584887
      2293.0000        -999.25        -999.25        -999.25       146.7725        60.0206        -999.25       53.24894         0.5444         0.6003        -999.25         0.6177       -77.5287      0.4308284
      2293.5000        -999.25        -999.25        -999.25       149.5112        60.0792        -999.25       53.30311          0.523          0.551        -999.25         0.5744       -79.9061       0.431981
      2294.0000        -999.25        -999.25        -999.25       151.3767        60.6898        -999.25       53.89986         0.5057         0.5256        -999.25         0.5408       -79.9845      0.4446779
      2294.5000        -999.25        -999.25        -999.25       152.8359        61.0964        -999.25       54.29611         0.4878         0.5119        -999.25         0.5143       -78.7888      0.4531087
      2295.0000        -999.25        -999.25        -999.25       153.5903        60.1534        -999.25       53.36575         0.4718         0.5013        -999.25         0.4979       -79.7358      0.4333139
      2295.5000        -999.25        -999.25        -999.25       153.6968        59.2034        -999.25       52.42851         0.4595         0.4939        -999.25         0.4889       -81.2314      0.4133726
      2296.0000        -999.25        -999.25        -999.25       153.1936        58.7421        -999.25       51.97165         0.4505         0.4906        -999.25         0.4842       -84.9098      0.4036521
      2296.5000        -999.25        -999.25        -999.25       152.1741         57.493        -999.25       50.74042          0.448          0.489        -999.25         0.4846       -88.8514      0.3774557
      2297.0000        -999.25        -999.25        -999.25       150.7461        55.4365        -999.25       48.71555         0.4471         0.4871        -999.25         0.4901       -89.1791      0.3343734
      2297.5000        -999.25        -999.25        -999.25       149.9146        54.6737        -999.25       47.96232         0.4475         0.4846        -999.25         0.4939       -89.2462      0.3183473
      2298.0000        -999.25        -999.25        -999.25       149.6003         54.851        -999.25       48.13317          0.448         0.4806        -999.25         0.4975       -88.6138      0.3219824
      2298.5000        -999.25        -999.25        -999.25       149.5925        56.9431        -999.25       50.18617         0.4489         0.4844        -999.25            0.5       -88.6854      0.3656632
      2299.0000        -999.25        -999.25        -999.25       149.7656        58.7062        -999.25       51.91578          0.452         0.4895        -999.25         0.5011       -89.5858      0.4024635
      2299.5000        -999.25        -999.25        -999.25       149.9509         58.879        -999.25       52.08221         0.4573          0.499        -999.25         0.4999       -88.0759      0.4060044
      2300.0000        -999.25        -999.25        -999.25       150.0044        59.8607        -999.25       53.04374         0.4682         0.5037        -999.25         0.4991       -87.6732      0.4264626
      2300.5000        -999.25        -999.25        -999.25       149.7014          62.12        -999.25       55.26109         0.4824         0.5118        -999.25         0.5047       -85.7059      0.4736401
      2301.0000        -999.25        -999.25        -999.25       148.2522        65.7615        -999.25       58.83707         0.4998         0.5204        -999.25          0.517       -82.6132       0.549725
      2301.5000        -999.25        -999.25        -999.25       146.1138        70.6892        -999.25       63.67734           0.52         0.5347        -999.25         0.5392       -82.9187      0.6527093
      2302.0000        -999.25        -999.25        -999.25       144.3818         73.554        -999.25       66.48987         0.5422         0.5497        -999.25         0.5708       -85.3275      0.7125504
      2302.5000        -999.25        -999.25        -999.25       142.7332        74.5586        -999.25       67.47391         0.5663         0.5714        -999.25         0.6059       -87.1312      0.7334874
      2303.0000        -999.25        -999.25        -999.25       141.3787        75.9133        -999.25       68.80208         0.5944         0.5958        -999.25         0.6296       -85.4292      0.7617463
      2303.5000        -999.25        -999.25        -999.25       140.9487        79.1985        -999.25       72.02785         0.6232         0.6422        -999.25         0.6456       -84.4332      0.8303797
      2304.0000        -999.25        -999.25        -999.25       141.5457        83.8481        -999.25       76.59474         0.6449         0.6844        -999.25         0.6576        -83.146      0.9275477
      2304.5000        -999.25        -999.25        -999.25       143.5117        85.4867        -999.25       78.20199         0.6655         0.7129        -999.25         0.6739       -82.2361      0.9617444
      2305.0000        -999.25        -999.25        -999.25       146.0132         85.761        -999.25       78.46817         0.6786         0.7256        -999.25         0.6915       -82.2531      0.9674079
      2305.5000        -999.25        -999.25        -999.25       149.3701        86.3165        -999.25       79.01077         0.6903         0.7205        -999.25         0.6994       -81.4011      0.9789525
      2306.0000        -999.25        -999.25        -999.25       153.3699        87.5558        -999.25       80.22552         0.6977         0.7155        -999.25         0.6885       -81.0554              1
      2306.5000        -999.25        -999.25        -999.25       156.3962        87.4297        -999.25       80.09813         0.6996         0.7062        -999.25         0.6591       -81.2239              1
