#------------------------------------------------------------------------------
# Created by    : vladimir.rabinovich
# Created on    : 09/19/2023 17:19:48
#------------------------------------------------------------------------------
~Version Information Section
VERS.           2.0     :   CWLS log ASCII Standard - VERSION 2.0
WRAP.           NO      :   One line per depth step
~Well Information Section
#MNEM       .UNIT                                         VALUE :DESCRIPTION
#------------------------------------------------------------------------------
STRT        .FT                                             130 :START DEPTH
STOP        .FT                                            9502 :STOP DEPTH
STEP        .FT                                             0.5 :STEP      
NULL        .                                           -999.25 :NULL      
COMP        .            MOBIL PRODUCING TEXAS & NEW MEXICO INC :COMPANY   
WELL        .                               OCS G07243 ST00BP00 :WELL      
FLD         .                                           WILDCAT :FIELD     
LOC         .                                                   :LOCATION  
CNTY        .                             GALVESTON LARGE BLOCK :LOCATION  
STAT        .                                             TEXAS :STATE     
CTRY        .                                     UNITED STATES :COUNTRY   
SRVC        .                                                   :SERVICE COMPANY
DATE        .                             9/13/2023 11:19:36 AM :LOG DATE  
API         .                                    42706401330000 :API NUMBER
UWI         .                                    42706401330000 :UNIQUE WELL ID
XCOORD      .                                  993943.906145108 :SURFACE X 
YCOORD      .                                  10496155.9223708 :SURFACE Y 
LAT         .                                         28.907432 :LATITUDE  
LON         .                                        -95.020991 :LONGITUDE 
ELEV        .FT                                              92 :ELEVATION VALUE
ELEV_TYPE   .                                                KB :ELEVATION REFERENCE TYPE
~Curve Information Section
#MNEM       .UNIT                                      API CODE :CURVE DESCRIPTION
#------------------------------------------------------------------------------
DEPT        .FT                                                 :DEPTH     
ASFL        .OHMM                                               :          
CILD        .MMHO                                               :          
DT          .US/F                                               :          
GR          .GAPI                                               :          
GR_NORM     .GAPI                                               :GammaRay Normalized
ILD         .OHMM                                               :          
SP          .MV                                                 :          
SP_NORM     .GAPI                                               :SP Normalized
VSH_GR      .V/V                                                :Volume of Shale from GR
VSH_SP      .V/V                                                :Volume of Shale from SP
~A        DEPTH           ASFL           CILD             DT             GR        GR_NORM            ILD             SP        SP_NORM         VSH_GR         VSH_SP
# ...
      4515.5000         0.8654       1546.492       113.1538        72.5549       78.09859         0.4847        67.6178      -22.09218      0.9595444      0.6307718
      4516.0000         0.8743       1547.416        111.989        70.1615       74.55428         0.5149        67.9678      -21.68627      0.8841335      0.6390557
      4516.5000         0.8828       1548.637       110.9478         68.463       72.03889         0.5451        68.3076      -21.29218      0.8306146      0.6470985
      4517.0000         0.8913       1550.469       110.6986        67.2015       70.17052         0.5753        68.6476      -20.89786      0.7908621      0.6551457
      4517.5000         0.8936       1553.311       110.8301        67.7448       70.97439         0.5867        69.0027      -20.48602      0.8079657      0.6635505
      4518.0000         0.8936       1557.121       111.3047        68.5426       72.15511         0.5954         69.442      -19.97654      0.8330873      0.6739482
      4518.5000         0.8936       1561.816       112.0693        69.3398       73.33489         0.6041         69.881      -19.46741      0.8581892      0.6843386
      4519.0000         0.8936       1565.563       112.8759        70.3854       74.88249         0.6128        70.3202      -18.95804      0.8911169      0.6947339
      4519.5000         0.8886       1570.531        112.845        71.5723       76.63931         0.6215        70.7754      -18.43012      0.9284958      0.7055078
      4520.0000         0.8819       1581.535       111.8445        72.7593       78.39626         0.6215        71.3313       -17.7854      0.9658778      0.7186652
      4520.5000         0.8753       1593.857        111.272        73.8728       80.04438          0.613        71.8868      -17.14115              1      0.7318133
      4521.0000         0.8687       1608.795       111.4882        71.8721       77.08154         0.6046        71.7122      -17.34365      0.9379052      0.7276806
      4521.5000         0.8621       1626.225        113.037        68.7494       72.45742         0.5961        70.7516      -18.45771      0.8395196      0.7049446
      4522.0000         0.8555       1649.313       113.2338        66.5897       69.25916         0.5876         69.791      -19.57178      0.7714714      0.6822085
      4522.5000         0.8462       1683.139       112.8054        64.7078       66.47221         0.5791        69.0323      -20.45169      0.7121746      0.6642511
      4523.0000         0.8366       1728.848       112.4973         66.219       68.70918          0.569        68.4059      -21.17817      0.7597699       0.649425
      4523.5000         0.8269       1772.471       112.2737        67.6824        70.8754         0.5562        67.7794      -21.90476      0.8058595      0.6345967
      4524.0000         0.8173       1834.553       111.7174        68.8057       72.53803         0.5434        67.1534      -22.63078      0.8412347        0.61978
      4524.5000          0.793       1902.109       112.2466         69.929       74.20066         0.5306        66.4053       -23.4984      0.8766098      0.6020735
      4525.0000         0.7962       1969.125       113.3712        70.8846       75.61501         0.5178        65.3633      -24.70687      0.9067022      0.5774108
      4525.5000         0.8107       2007.961       114.7916         71.413       76.39681          0.505        64.3208      -25.91592      0.9233364      0.5527363
      4526.0000          0.833       2063.023       113.5774        67.1685       70.11175         0.4923         63.255        -27.152      0.7896116      0.5275103
      4526.5000         0.8537       2090.465       110.5735        63.6591       64.91505         0.4795        65.7726      -24.23218      0.6790437      0.5870984
      4527.0000         0.8441       2129.965        107.908        64.7726       66.56319         0.4704        67.2826      -22.48094      0.7141104       0.622838
      4527.5000         0.8228       2137.406       107.5312        67.5111       70.61734         0.4703        68.5625      -20.99655       0.800369      0.6531315
      4528.0000         0.8014       2134.699       109.5978        70.4918        75.0301         0.4702        69.3315       -20.1047      0.8942574      0.6713327
      4528.5000         0.7903       2098.641       113.0883        73.4775       79.45026         0.4711        70.0345      -19.28938      0.9883033      0.6879718
      4529.0000         0.7831       2009.287       116.4232        75.9945       83.17647         0.4797        70.7369      -18.47476              1      0.7045966
      4529.5000         0.7863       1960.275       117.4056        78.1298       86.33749         0.4884        71.5237      -17.56227              1       0.723219
      4530.0000         0.7899       1941.791       117.3678         79.915       88.98016          0.497        72.3557      -16.59734              1      0.7429113
      4530.5000         0.7954       1952.064       116.4541        81.5706       91.43095         0.5056        73.1927      -15.62661              1      0.7627221
      4531.0000         0.8102       1962.332       114.4495        82.9583       93.48505         0.5142        73.6307      -15.11864              1      0.7730889
      4531.5000         0.8251       1976.908       112.6072        81.6122       91.49143         0.5229        70.4053      -18.85935              1       0.696748
      4532.0000         0.8425       2001.676        111.946        79.8159       88.83124         0.5286        68.3826       -21.2052              1      0.6488736
      4532.5000         0.8656       2043.311       112.6461        78.3585       86.67281         0.5294        66.9143      -22.90808              1      0.6141209
      4533.0000         0.8903       2128.199       115.4772        77.1582       84.89507         0.5301        65.7354      -24.27532              1      0.5862179
      4533.5000         0.9202        2165.18       119.3043        75.9578       83.11716         0.5309        65.1638      -24.93824              1       0.572689
      4534.0000         0.9488       2170.008       117.6041         77.004       84.66565         0.5316        64.5924      -25.60093              1      0.5591646
      4534.5000         0.9748       2165.941       115.9082        77.6941       85.68687         0.5226        64.0363      -26.24587              1      0.5460026
      4535.0000         1.0011       2123.238       114.0023        74.6571       81.18964         0.5234        63.5218      -26.84257              1      0.5338251
      4535.5000         1.0345       2020.727       111.3022        65.8934       68.21331         0.5414        63.0073      -27.43927      0.7492194      0.5216476
      4536.0000         1.0648       1911.045        95.0845        62.0635       62.54209         0.5593        64.0021      -26.28554      0.6285551       0.545193
      4536.5000         1.0479       1690.504         91.006        58.0109       56.54115         0.5748        65.1339      -24.97291      0.5008754      0.5719814
      4537.0000         0.9517       1567.469        90.4927        53.9655       50.55085         0.5902        66.7441      -23.10546      0.3734224      0.6100926
      4537.5000         0.9024       1533.828        93.0292        57.6829       56.05439         0.6057        68.4426      -21.13561       0.490519      0.6502936
      4538.0000         0.8722       1539.729       104.4569           64.2       65.70325          0.616        71.8859      -17.14219      0.6958138       0.731792
      4538.5000          0.842       1547.939       107.5498        68.2257       71.66327         0.6092        76.0266      -12.33996      0.8226227      0.8297967
      4539.0000         0.8252        1583.18       110.5858        70.2606       74.67564         0.6025        77.4148      -10.72998      0.8867158      0.8626535
      4539.5000         0.8113       1657.658       113.0167        71.6354       76.71068         0.5957         76.524       -11.7631      0.9300144      0.8415694
