#------------------------------------------------------------------------------
# Created by    : vladimir.rabinovich
# Created on    : 09/19/2023 17:19:48
#------------------------------------------------------------------------------
~Version Information Section
VERS.           2.0     :   CWLS log ASCII Standard - VERSION 2.0
WRAP.           NO      :   One line per depth step
~Well Information Section
#MNEM       .UNIT                                         VALUE :DESCRIPTION
#------------------------------------------------------------------------------
STRT        .FT                                             130 :START DEPTH
STOP        .FT                                            9502 :STOP DEPTH
STEP        .FT                                             0.5 :STEP      
NULL        .                                           -999.25 :NULL      
COMP        .            MOBIL PRODUCING TEXAS & NEW MEXICO INC :COMPANY   
WELL        .                               OCS G07243 ST00BP00 :WELL      
FLD         .                                           WILDCAT :FIELD     
LOC         .                                                   :LOCATION  
CNTY        .                             GALVESTON LARGE BLOCK :LOCATION  
STAT        .                                             TEXAS :STATE     
CTRY        .                                     UNITED STATES :COUNTRY   
SRVC        .                                                   :SERVICE COMPANY
DATE        .                             9/13/2023 11:19:36 AM :LOG DATE  
API         .                                    42706401330000 :API NUMBER
UWI         .                                    42706401330000 :UNIQUE WELL ID
XCOORD      .                                  993943.906145108 :SURFACE X 
YCOORD      .                                  10496155.9223708 :SURFACE Y 
LAT         .                                         28.907432 :LATITUDE  
LON         .                                        -95.020991 :LONGITUDE 
ELEV        .FT                                              92 :ELEVATION VALUE
ELEV_TYPE   .                                                KB :ELEVATION REFERENCE TYPE
~Curve Information Section
#MNEM       .UNIT                                      API CODE :CURVE DESCRIPTION
#------------------------------------------------------------------------------
DEPT        .FT                                                 :DEPTH     
ASFL        .OHMM                                               :          
CILD        .MMHO                                               :          
DT          .US/F                                               :          
GR          .GAPI                                               :          
GR_NORM     .GAPI                                               :GammaRay Normalized
ILD         .OHMM                                               :          
SP          .MV                                                 :          
SP_NORM     .GAPI                                               :SP Normalized
VSH_GR      .V/V                                                :Volume of Shale from GR
VSH_SP      .V/V                                                :Volume of Shale from SP
~A        DEPTH           ASFL           CILD             DT             GR        GR_NORM            ILD             SP        SP_NORM         VSH_GR         VSH_SP
# ...
      5765.0000         0.8992       1284.725       121.3618        84.8883       90.18964         0.7239        87.9504       1.488822              1              1
      5765.5000         0.9004       1312.537        120.849        85.3735       90.76272         0.7128        88.2751       1.865397              1              1
      5766.0000         0.9011       1339.246       120.1862        85.6942       91.14136         0.7017        88.3354       1.935334              1              1
      5766.5000         0.8981       1356.086       119.3552        86.0083        91.5122         0.6907        88.0691       1.626484              1              1
      5767.0000          0.895       1372.914       118.8184        86.3224       91.88303         0.6796        87.8031       1.317989              1              1
      5767.5000          0.892       1403.514       118.2091        86.6365       92.25387         0.6659        87.5259      0.9965035              1              1
      5768.0000         0.8841       1443.971       117.4332        86.9685       92.64587         0.6504        87.2389      0.6636484              1              1
      5768.5000          0.876       1484.426       115.9216        87.3566       93.10416         0.6349        86.9515      0.3303333              1              1
      5769.0000         0.8678       1524.881       118.3451        87.7446       93.56236         0.6195        86.7869      0.1394402              1              1
      5769.5000         0.8594       1565.338        122.907        88.1327       94.02066         0.6032        86.8024      0.1574111              1              1
      5770.0000          0.846       1611.047       126.9424        88.5204       94.47851         0.5861        86.8179      0.1753908              1              1
      5770.5000         0.8335       1671.533       129.8435        88.9641       95.00254          0.569        86.8334      0.1933617              1              1
      5771.0000         0.8329       1729.762       130.7542         89.459       95.58708         0.5519        86.8489      0.2113415              1              1
      5771.5000         0.8453       1784.457       129.2529        89.9532        96.1708         0.5412        86.8407      0.2018295              1              1
      5772.0000         0.8615        1839.15       125.6327        90.4474       96.75452         0.5521        86.7811      0.1327067              1              1
      5772.5000         0.8777       1897.576        122.304        90.0688       96.30656          0.592        86.7216      0.0637077              1              1
      5773.0000         0.9034       1935.381       121.4755        88.1381       94.02397         0.6319         86.662   -0.005415155              1      0.9999098
      5773.5000         0.9348       1888.738       121.2549        86.0613       91.56869         0.6718        86.4047     -0.3038238              1      0.9949363
      5774.0000         0.9959       1814.014       113.0072        83.7629       88.85146         0.7878        85.8562      -0.939954              1      0.9843341
      5774.5000         1.0358       1676.934       103.6239        81.6313        86.3314         0.8962        85.3085      -1.575155              1      0.9737474
      5775.0000         0.9941       1385.496       104.1343        79.9769        84.3754          0.949        84.3473      -2.689925              1      0.9551679
      5775.5000         0.9659       1268.449       106.0754        77.1039       80.97898         1.0017        83.0424      -4.203301              1       0.929945
      5776.0000         0.9996       1196.865       110.6646         76.505       80.27061         1.0545        82.4872        -4.8472              1      0.9192134
      5776.5000         1.0079       1113.598       122.9287        77.8234       81.82857         1.0897        83.0801      -4.159573              1      0.9306738
      5777.0000         0.9939        1028.07       119.5807        79.1431       83.38805         1.1233        83.6724      -3.472645              1      0.9421226
      5777.5000         0.9799       970.4316       110.0022        80.4115        84.8869         1.1569        84.2645      -2.785947              1      0.9535676
      5778.0000         0.9633       879.3076       106.5574        81.4049       86.06071         1.1874        84.7922      -2.173946              1      0.9637676
      5778.5000         0.9442       822.4053       105.1685        82.3982       87.23438         1.2028        85.1063      -1.809662              1       0.969839
      5779.0000         0.9154       793.4873       106.0853        83.3904       88.40675         1.1444        85.4204      -1.445377              1      0.9759104
      5779.5000          0.869       868.8018       110.6448        84.1963        89.3589          0.919        83.3698      -3.823595              1      0.9362734
      5780.0000         0.8159       942.0537       118.2166        83.1871       88.16557         0.6231         81.069      -6.491974              1      0.8918005
      5780.5000         0.7835        1400.52       119.2948        82.1791       86.97364          0.489        77.7067      -10.39144              1      0.8268093
      5781.0000         0.7567       1709.338       118.3994        80.9435       85.51266         0.3805        73.9329      -14.76816              1       0.753864
      5781.5000         0.7308       2044.129       112.1769        79.1467       83.38835         0.2992        51.9034      -40.31717              1      0.3280472
      5782.0000         0.7038       3685.777       108.6752        74.5913       78.00328         0.2199        46.0358      -47.12219      0.9575166      0.2146301
      5782.5000         0.6809       4001.844       108.8463        70.5399       73.21395         0.1818        41.4561      -52.43356       0.855616      0.1261073
      5783.0000         0.6589       4367.617       110.3754        65.6559       67.44047         0.1436        39.3622      -54.86199      0.7327759     0.08563353
      5783.5000         0.6159       4789.461       116.8326        60.9958       61.93163         0.1055        37.9172      -56.53785      0.6155666     0.05770251
      5784.0000         0.6045       4923.594       118.8729        58.0912       58.49786          0.084        36.3188      -58.39161      0.5425076     0.02680645
      5784.5000         0.6122       6630.781        118.078        55.9706        55.9908         0.0828        34.7594      -60.20015      0.4891658              0
      5785.0000          0.663       6819.609       117.7814        54.2736       53.98445         0.1524        33.9851      -61.09816      0.4464776              0
      5785.5000         0.7237       6250.578       118.5526        53.0635       52.55362         0.2221        35.5397      -59.29519      0.4160345     0.01174692
      5786.0000         0.7651       6068.922       124.6714        55.4666       55.39373         0.3073        38.8169      -55.49441      0.4764624     0.07509314
      5786.5000         0.7972        5279.25       136.5776        58.3493       58.80074         0.3967        41.7507      -52.09189      0.5489519      0.1318018
      5787.0000         0.8188       4639.414       145.0786        64.0587         65.549         0.5083        56.7389      -34.70913       0.692532      0.4215145
      5787.5000         0.8363       4289.852       145.1038        82.5333       87.38615         0.6252        72.8761       -15.9938              1      0.7334366
      5788.0000         0.8509       3294.574       137.2153        86.9012       92.54871         0.7617        77.1466      -11.04103              1      0.8159828
      5788.5000         0.8616       3097.797       130.2661        88.7432       94.72558         0.8924         84.676      -2.308705              1      0.9615216
      5789.0000         0.8715       2838.957       124.5479        89.9386       96.13813         0.9897         85.561      -1.282321              1       0.978628
