#------------------------------------------------------------------------------
# Created by    : vladimir.rabinovich
# Created on    : 09/19/2023 17:19:44
#------------------------------------------------------------------------------
~Version Information Section
VERS.           2.0     :   CWLS log ASCII Standard - VERSION 2.0
WRAP.           NO      :   One line per depth step
~Well Information Section
#MNEM       .UNIT                                         VALUE :DESCRIPTION
#------------------------------------------------------------------------------
STRT        .FT                                            2932 :START DEPTH
STOP        .FT                                           14530 :STOP DEPTH
STEP        .FT                                             0.5 :STEP      
NULL        .                                           -999.25 :NULL      
COMP        .                                 MESA PETROLEUM CO :COMPANY   
WELL        .                                 ST TR 00022-L W/2 :WELL      
FLD         .                                           WILDCAT :FIELD     
LOC         .                                                   :LOCATION  
CNTY        .                           HIGH ISLAND LARGE BLOCK :LOCATION  
STAT        .                                             TEXAS :STATE     
CTRY        .                                     UNITED STATES :COUNTRY   
SRVC        .                                                   :SERVICE COMPANY
DATE        .                             9/13/2023 11:19:15 AM :LOG DATE  
API         .                                    42708300770000 :API NUMBER
UWI         .                                    42708300770000 :UNIQUE WELL ID
XCOORD      .                                  1307803.37781852 :SURFACE X 
YCOORD      .                                  10713200.3443699 :SURFACE Y 
LAT         .                                         29.515602 :LATITUDE  
LON         .                                       -94.0460534 :LONGITUDE 
ELEV        .FT                                              85 :ELEVATION VALUE
ELEV_TYPE   .                                                KB :ELEVATION REFERENCE TYPE
~Curve Information Section
#MNEM       .UNIT                                      API CODE :CURVE DESCRIPTION
#------------------------------------------------------------------------------
DEPT        .FT                                                 :DEPTH     
ASFL        .OHMM                                               :          
CILD        .MMHO                                               :          
ILD         .OHMM                                               :          
SP          .MV                                                 :          
SP_NORM     .MV                                                 :SP Normalized
VSH_SP      .V/V                                                :Volume of Shale from SP
~A        DEPTH           ASFL           CILD            ILD             SP        SP_NORM         VSH_SP
# ...
     10646.0000            0.5       2327.563         0.4885       -48.0449      -4.019741      0.9425752
     10646.5000          0.499       2330.148         0.4893       -48.3594      -4.334244      0.9380822
     10647.0000         0.4981       2331.785         0.4902       -48.7656       -4.74044      0.9322794
     10647.5000         0.4973       2333.426          0.491       -48.6758      -4.650642      0.9335623
     10648.0000         0.4964       2326.922         0.4919       -47.4687      -3.443542      0.9508066
     10648.5000         0.4956       2319.844         0.4927       -46.7104      -2.685242      0.9616394
     10649.0000         0.4947       2312.766         0.4935       -46.9551      -2.929943      0.9581437
     10649.5000         0.4939       2306.172         0.4944       -47.2002      -3.175041      0.9546423
     10650.0000          0.493           2300         0.4952       -47.4448      -3.419643       0.951148
     10650.5000         0.4922       2293.828         0.4961       -47.6895      -3.664341      0.9476523
     10651.0000         0.4931       2299.211         0.4962        -48.083      -4.057842      0.9420308
     10651.5000         0.4941           2305         0.4964       -47.6758      -3.650642       0.947848
     10652.0000         0.4951       2310.797         0.4966       -47.2734      -3.248241      0.9535965
     10652.5000          0.496       2316.594         0.4967       -46.9868      -2.961643      0.9576908
     10653.0000          0.497       2322.383         0.4969       -46.7656       -2.74044      0.9608508
     10653.5000          0.498        2328.18         0.4971       -47.3867      -3.361542       0.951978
     10654.0000         0.4989       2334.016         0.4972       -48.0078      -3.982643      0.9431051
     10654.5000         0.4987       2342.109         0.4974       -48.6289      -4.603741      0.9342323
     10655.0000         0.4981       2350.219         0.4976         -49.25      -5.224842      0.9253594
     10655.5000         0.4975       2358.328         0.4977       -48.8838      -4.858643      0.9305908
     10656.0000         0.4968       2366.438         0.4979       -48.4863      -4.461143      0.9362694
     10656.5000         0.4949       2376.656         0.4981       -48.0898      -4.064644      0.9419336
     10657.0000         0.4925       2389.281         0.4982       -47.6787      -3.653542      0.9478065
     10657.5000         0.4902       2401.938         0.4984       -47.2168      -3.191643      0.9544051
     10658.0000         0.4878       2414.594         0.4987       -46.7559      -2.730743      0.9609894
     10658.5000         0.4855       2427.219         0.4991       -46.3257      -2.300541      0.9671351
     10659.0000         0.4831       2437.734         0.4994       -45.9858      -1.960644      0.9719908
     10659.5000         0.4807       2446.188         0.4998       -45.6455      -1.620342      0.9768522
     10660.0000         0.4784       2454.625         0.5001       -45.2471      -1.221943      0.9825436
     10660.5000         0.4787       2463.078         0.5004       -44.3228     -0.2976418       0.995748
     10661.0000         0.4794       2471.531         0.5008       -44.6875     -0.6623421      0.9905379
     10661.5000           0.48           2472         0.5011       -45.0522      -1.027042       0.985328
     10662.0000         0.4807       2472.023         0.5015        -45.394      -1.368843      0.9804451
     10662.5000         0.4814       2472.047         0.5018       -45.6978      -1.672642      0.9761051
     10663.0000          0.482       2471.172         0.5021        -46.001      -1.975842      0.9717737
     10663.5000         0.4827       2468.777         0.5025       -46.0256      -2.000443      0.9714223
     10664.0000         0.4834       2469.828         0.5028       -45.8879      -1.862743      0.9733894
     10664.5000          0.484       2476.313         0.5032       -45.7502       -1.72504      0.9753566
     10665.0000         0.4846       2482.797         0.5035       -45.5889      -1.563744      0.9776608
     10665.5000         0.4851       2488.391         0.5039       -45.6484      -1.623241      0.9768108
     10666.0000         0.4855       2492.766         0.5042       -45.8164      -1.791241      0.9744108
     10666.5000          0.486       2497.133         0.5046       -45.1826       -1.15744      0.9834651
     10667.0000         0.4865       2495.395          0.505       -45.2471      -1.221943      0.9825436
     10667.5000         0.4854       2492.395         0.5054       -45.8838      -1.858643       0.973448
     10668.0000          0.484       2489.395         0.5059       -45.5117      -1.486542      0.9787637
     10668.5000         0.4827       2493.609         0.5063        -45.125      -1.099842       0.984288
     10669.0000         0.4813       2501.719         0.5067       -44.7393     -0.7141418      0.9897979
     10669.5000           0.48        2509.75         0.5072       -44.6074     -0.5822411      0.9916823
     10670.0000         0.4787       2516.703         0.5076       -45.2793      -1.254143      0.9820837
     10670.5000         0.4773       2523.641          0.508       -45.9512      -1.926041      0.9724851
     10671.0000          0.476       2527.801         0.5084        -46.623      -2.597843      0.9628879
     10671.5000         0.4752       2525.344         0.5089       -47.1436      -3.118443      0.9554508
     10672.0000         0.4753       2522.887         0.5093       -47.4792      -3.454041      0.9506566
     10672.5000         0.4753        2520.43         0.5097       -47.5059      -3.480743      0.9502751
     10673.0000         0.4754       2517.973         0.5102       -47.2251      -3.199944      0.9542865
     10673.5000         0.4755       2516.266         0.5105        -46.999      -2.973843      0.9575166
     10674.0000         0.4755       2519.516         0.5089       -46.7715      -2.746342      0.9607666
     10674.5000         0.4756       2522.766         0.5072       -46.4648      -2.439644       0.965148
     10675.0000         0.4756       2524.758         0.5056       -45.9453      -1.920143      0.9725694
     10675.5000         0.4757       2519.742          0.504       -45.1094      -1.084244      0.9845108
     10676.0000         0.4757       2514.727         0.5024       -45.5049      -1.479744      0.9788608
     10676.5000         0.4757       2509.711         0.5008       -46.1699      -2.144741      0.9693608
     10677.0000         0.4757       2497.859         0.4992        -46.957      -2.931843      0.9581165
     10677.5000         0.4757       2485.813         0.4976       -47.7461      -3.720943      0.9468437
     10678.0000         0.4756       2473.766          0.496       -48.4043      -4.379143      0.9374408
     10678.5000         0.4756       2474.852         0.4944       -48.2241       -4.19894      0.9400151
     10679.0000         0.4756       2479.484         0.4927       -47.8535      -3.828342      0.9453094
     10679.5000         0.4761       2483.984         0.4911       -47.4014      -3.376244      0.9517679
     10680.0000         0.4786       2474.547         0.4895       -46.9004       -2.87524      0.9589251
     10680.5000         0.4811       2465.109         0.4879       -46.4805      -2.455341      0.9649237
     10681.0000         0.4862       2455.656         0.4863       -47.3359      -3.310741      0.9527037
     10681.5000         0.4926        2435.75         0.4847       -48.1523      -4.127144      0.9410408
     10682.0000         0.4991       2409.563         0.4831       -48.9707      -4.945541      0.9293494
     10682.5000         0.4988       2383.375         0.4815       -49.8203      -5.795143      0.9172122
     10683.0000         0.4957       2342.563         0.4798       -49.4531       -5.42794       0.922458
     10683.5000         0.4925       2374.375         0.4782        -47.875      -3.849842      0.9450023
