#------------------------------------------------------------------------------
# Created by    : vladimir.rabinovich
# Created on    : 09/19/2023 17:19:47
#------------------------------------------------------------------------------
~Version Information Section
VERS.           2.0     :   CWLS log ASCII Standard - VERSION 2.0
WRAP.           NO      :   One line per depth step
~Well Information Section
#MNEM       .UNIT                                         VALUE :DESCRIPTION
#------------------------------------------------------------------------------
STRT        .FT                                             970 :START DEPTH
STOP        .FT                                            9511 :STOP DEPTH
STEP        .FT                                             0.5 :STEP      
NULL        .                                           -999.25 :NULL      
COMP        .                                SHELL OFFSHORE INC :COMPANY   
WELL        .                               OCS G06097 ST00BP00 :WELL      
FLD         .                                           WILDCAT :FIELD     
LOC         .                                                   :LOCATION  
CNTY        .                             GALVESTON LARGE BLOCK :LOCATION  
STAT        .                                             TEXAS :STATE     
CTRY        .                                     UNITED STATES :COUNTRY   
SRVC        .                                                   :SERVICE COMPANY
DATE        .                             9/13/2023 11:19:27 AM :LOG DATE  
API         .                                    42706401130000 :API NUMBER
UWI         .                                    42706401130000 :UNIQUE WELL ID
XCOORD      .                                  1026820.46089783 :SURFACE X 
YCOORD      .                                  10482391.3243497 :SURFACE Y 
LAT         .                                         28.871086 :LATITUDE  
LON         .                                        -94.917566 :LONGITUDE 
ELEV        .FT                                             107 :ELEVATION VALUE
ELEV_TYPE   .                                                KB :ELEVATION REFERENCE TYPE
~Curve Information Section
#MNEM       .UNIT                                      API CODE :CURVE DESCRIPTION
#------------------------------------------------------------------------------
DEPT        .FT                                                 :DEPTH     
ASFL        .OHMM                                               :          
CALI        .IN                                                 :          
CILD        .MMHO                                               :          
DT          .US/F                                               :          
GR          .GAPI                                               :          
GR_NORM     .GAPI                                               :GammaRay Normalized
ILD         .OHMM                                               :          
ILM         .OHMM                                               :          
RHOB        .G/C3                                               :          
SP          .MV                                                 :          
SP_NORM     .MV                                                 :SP Normalized
VSH_GR      .V/V                                                :Volume of Shale from GR
VSH_SP      .V/V                                                :Volume of Shale from SP
~A        DEPTH           ASFL           CALI           CILD             DT             GR        GR_NORM            ILD            ILM           RHOB             SP        SP_NORM         VSH_GR         VSH_SP
# ...
      3820.0000         0.5263        19.7706       2814.457       116.7612        29.6956       45.77025          0.325         0.4288         2.0978       -107.851       -25.6931      0.2717074      0.1435633
      3820.5000         0.5193        17.9775       2835.285       128.6472        29.2176       45.05574         0.3234         0.4314         2.0299      -107.7789      -25.62258      0.2565052      0.1459139
      3821.0000         0.5131        17.5299       2830.586       141.0618        28.8891        44.5647         0.3217         0.4337         1.9284      -107.7069      -25.55216      0.2460574      0.1482613
      3821.5000         0.5069        17.4081       2804.777       144.1653        28.5606       44.07366         0.3201         0.4347         1.8624      -107.6349      -25.48174      0.2356098      0.1506086
      3822.0000         0.5014        17.9565       2794.297       140.5684        28.2734       43.64436         0.3184         0.4357         1.8751      -107.5629      -25.41132      0.2264757      0.1529559
      3822.5000         0.4988        19.3788       2824.031       136.4426        27.9948       43.22791         0.3168         0.4385         1.9601      -107.4908      -25.34081      0.2176151      0.1553065
      3823.0000         0.4963        20.9531        2853.77       132.1511        27.8779       43.05317         0.3151         0.4402         2.0497      -107.4188      -25.27039      0.2138971      0.1576538
      3823.5000         0.4938        21.8572       2883.508       134.7236        28.0011       43.23733         0.3135         0.4387         2.0952      -107.3468      -25.19997      0.2178155      0.1600011
      3824.0000         0.4912         21.813       2908.871       147.8479        28.1243       43.42149         0.3132         0.4326         2.1098      -107.2261      -25.08084      0.2217338       0.163972
      3824.5000         0.4889        21.1884       2931.516       154.7197        28.2475       43.60564         0.3179         0.4321         2.1127      -107.0735      -24.92982      0.2256519      0.1690058
      3825.0000         0.4877        20.5461       2902.965       143.5083        28.6759       44.24601         0.3226         0.4358         2.1157      -106.9209       -24.7788      0.2392767        0.17404
      3825.5000         0.4866        20.2435       2870.277       146.0557        29.2883       45.16142         0.3274         0.4431         2.1153      -106.7684      -24.62788      0.2587535      0.1790705
      3826.0000         0.4917        20.0464       2837.617        172.979        30.0727       46.33394         0.3321         0.4496          2.104      -106.6158      -24.47686      0.2837008      0.1841047
      3826.5000          0.513        19.9159        2804.93       177.0457        31.4675       48.41887         0.3368         0.4565         2.0794       -106.371      -24.23364      0.3280611      0.1922119
      3827.0000         0.5343         19.788       2772.246       175.8914        31.8387       48.97373          0.352         0.4652         2.0652      -106.0403      -23.90452      0.3398666      0.2031827
      3827.5000         0.5655        19.8465       2701.883       176.6416        31.4126       48.33681         0.3675         0.4819         2.0663      -105.7097      -23.57551       0.326315      0.2141497
      3828.0000         0.5978        20.3239       2615.594       174.7209        30.9869       47.70048         0.3831         0.5276         2.0737      -105.3792      -23.24659      0.3127761      0.2251137
      3828.5000         0.6226        20.9813       2330.164       156.5774        30.5169       46.99792         0.3986          0.563         2.0775      -105.0486      -22.91756      0.2978281      0.2360812
      3829.0000         0.6405        20.9103       2151.137       139.0127        30.5514       47.04949         0.4141          0.582         2.0685       -104.713      -22.58354      0.2989253      0.2472153
      3829.5000         0.6584        19.4306       2060.109       129.4929        32.0724       49.32307         0.4458         0.6013         2.0571      -103.8384      -21.71053      0.3472994      0.2763158
      3830.0000         0.6772        18.7549       1962.832       135.4836        30.6769       47.23709         0.4834         0.6294         2.0725       -102.963       -20.8367      0.3029167      0.3054433
      3830.5000         0.7019        19.9022       1803.863       140.6438        30.1693       46.47833          0.521         0.6618         2.1135      -102.0884      -19.96368      0.2867729      0.3345439
      3831.0000         0.7267        20.8038       1671.104       135.0054        29.6617       45.71958         0.5626         0.6983         2.1524      -100.9263      -18.80316      0.2706293       0.373228
      3831.5000         0.7665        20.4883       1584.008        121.131        29.1904       45.01508         0.6058           0.73         2.1825       -99.7411      -17.61954        0.25564      0.4126821
      3832.0000         0.7999          19.46       1496.508       110.4885        28.9275        44.6221          0.649         0.7623         2.1847       -98.3085      -16.18852      0.2472787      0.4603826
      3832.5000         0.8252        17.4944       1390.738       108.1526        29.7125       45.79551          0.697         0.7916         2.1163       -96.5704        -14.452      0.2722449      0.5182666
      3833.0000         0.8441        17.5081       1356.818       119.1425        30.4974       46.96878         0.6908         0.8072         1.9713       -94.8324      -12.71558       0.297208      0.5761472
      3833.5000         0.8668        17.9541       1344.236       128.1738        29.4897       45.46247         0.6793         0.7663         1.8197       -92.9651      -10.84987       0.265159      0.6383377
      3834.0000         0.8769        18.6072       1351.898       135.8462        30.0949       46.36711         0.6597         0.7307         1.8022       -91.0682      -8.954544      0.2844066      0.7015152
      3834.5000          0.791        19.1957        1388.85       132.6846        30.7785       47.38896         0.6316         0.6942         1.9107       -90.1973      -8.085228      0.3061481      0.7304924
      3835.0000         0.7393        19.1575       1455.834        124.957        31.4622       48.41095         0.6034         0.6602         2.0798       -89.7017      -7.591202      0.3278925      0.7469599
      3835.5000         0.6998        18.9494       1538.594       120.6377        32.1461       49.43324         0.5753         0.6335         2.1562       -89.4263      -7.317383      0.3496433      0.7560872
      3836.0000         0.6661        19.2776       1631.537       120.3879        32.8297       50.45508         0.5472         0.6094         2.1948        -89.151      -7.043663      0.3713847      0.7652112
      3836.5000         0.6227        19.3405       1722.313       120.1312        38.8728       59.48825         0.5191         0.5885         2.2061       -89.3566      -7.250839      0.5635798      0.7583054
      3837.0000         0.6018         18.975       1784.205       119.8671        41.4291       63.30938          0.493         0.5683          2.198       -89.5723      -7.468124      0.6448805      0.7510625
      3837.5000         0.5813        18.7837         1846.1       120.1946        42.1497       64.38654         0.4748         0.5493         2.1753       -90.2192      -8.116608      0.6677986      0.7294464
      3838.0000         0.5609        18.9866       1909.959       121.8182        41.9587       64.10102         0.4566         0.5309         2.1465       -90.8866      -8.785583      0.6617239      0.7071472
      3838.5000         0.5404        19.2356        1973.92       129.7446        41.4777       63.38203         0.4384           0.51          2.118       -91.5144      -9.414963      0.6464263      0.6861679
