#------------------------------------------------------------------------------
# Created by    : vladimir.rabinovich
# Created on    : 09/19/2023 17:20:45
#------------------------------------------------------------------------------
~Version Information Section
VERS.           2.0     :   CWLS log ASCII Standard - VERSION 2.0
WRAP.           NO      :   One line per depth step
~Well Information Section
#MNEM       .UNIT                                         VALUE :DESCRIPTION
#------------------------------------------------------------------------------
STRT        .FT                                            2010 :START DEPTH
STOP        .FT                                            7000 :STOP DEPTH
STEP        .FT                                             0.5 :STEP      
NULL        .                                           -999.25 :NULL      
COMP        .                                    TEXAS GULF INC :COMPANY   
WELL        .                                ST OF TEX TR 693-L :WELL      
FLD         .                                           WILDCAT :FIELD     
LOC         .                                                   :LOCATION  
CNTY        .                      MATAGORDA ISLAND LARGE BLOCK :LOCATION  
STAT        .                                             TEXAS :STATE     
CTRY        .                                     UNITED STATES :COUNTRY   
SRVC        .                                                   :SERVICE COMPANY
DATE        .                             9/13/2023 11:12:01 AM :LOG DATE  
API         .                                    42703300330000 :API NUMBER
UWI         .                                    42703300330000 :UNIQUE WELL ID
XCOORD      .                                  377893.250269135 :SURFACE X 
YCOORD      .                                  10151490.3803449 :SURFACE Y 
LAT         .                                        27.9187241 :LATITUDE  
LON         .                                       -96.9091122 :LONGITUDE 
ELEV        .FT                                              70 :ELEVATION VALUE
ELEV_TYPE   .                                                KB :ELEVATION REFERENCE TYPE
~Curve Information Section
#MNEM       .UNIT                                      API CODE :CURVE DESCRIPTION
#------------------------------------------------------------------------------
DEPT        .FT                                                 :DEPTH     
ASN         .OHMM                                               :          
CILD        .MMHO                                               :          
ILD         .OHMM                                               :          
SP          .MV                                                 :          
SP_NORM     .MV                                                 :SP Normalized
VSH_SP      .V/V                                                :Volume of Shale from SP
~A        DEPTH            ASN           CILD            ILD             SP        SP_NORM         VSH_SP
# ...
      5316.0000         1.9635        1316.24         0.8174       -85.8583       -37.3478      0.3573127
      5316.5000         1.9188        1369.67         0.7822       -84.9512       -36.4455      0.3737182
      5317.0000         1.8741       1424.047         0.7471       -84.8821       -36.3812      0.3748873
      5317.5000         1.8295       1478.375         0.7119       -85.9248       -37.4287      0.3558418
      5318.0000         1.7848       1532.703         0.6767       -86.7189       -38.2276      0.3413164
      5318.5000         1.8173        1586.83         0.6572       -86.2031       -37.7165      0.3506091
      5319.0000         1.9078       1640.959         0.6521       -85.6868        -37.205      0.3599091
      5319.5000         1.9551       1695.088          0.647        -86.179        -37.702      0.3508727
      5320.0000         1.9866       1746.871         0.6418       -86.9401       -38.4679      0.3369473
      5320.5000         1.9924        1729.16         0.6395       -87.7013       -39.2339        0.32302
      5321.0000         2.0358       1705.264          0.654       -88.4625       -39.9999      0.3090927
      5321.5000         1.9674        1609.48         0.6686       -89.2236       -40.7658      0.2951673
      5322.0000         1.9668       1495.748         0.6832       -84.8734       -36.4204      0.3741746
      5322.5000         1.9805       1514.742         0.6978       -82.2438       -33.7955         0.4219
      5323.0000         1.9244       1533.725         0.7124       -80.0106       -31.5671      0.4624164
      5323.5000         1.7102       1552.707         0.7311       -80.2417        -31.803      0.4581273
      5324.0000         1.6298       1570.617          0.756       -81.5442       -33.1103      0.4343582
      5324.5000         1.7088       1550.014          0.781       -82.8453       -34.4162      0.4106146
      5325.0000         1.7901       1483.463         0.8059       -84.1477       -35.7234      0.3868473
      5325.5000         1.9326       1419.107         0.8308       -85.5297       -37.1102      0.3616327
      5326.0000         1.9782       1354.754         0.8558       -86.9252       -38.5105      0.3361727
      5326.5000         2.0667       1290.398         0.8807       -88.3208       -39.9108      0.3107127
      5327.0000         2.1851       1246.473         0.9056       -87.5131       -39.1079      0.3253109
      5327.5000         2.1326       1210.453         0.9306         -78.61       -30.2096      0.4870982
      5328.0000         2.0226       1174.408         0.9479       -75.1105       -26.7149      0.5506382
      5328.5000         2.0001       1143.166          0.964        -72.103       -23.7122      0.6052327
      5329.0000         1.9832        1123.91         0.9801       -69.1179       -20.7319        0.65942
      5329.5000         1.9472       1104.654         0.9963       -66.1553       -17.7741      0.7131982
      5330.0000         1.9084       1085.396         1.0124       -63.0708       -14.6944      0.7691928
      5330.5000         1.8692        1071.84         1.0285       -58.9747        -10.603      0.8435818
      5331.0000         1.8128       1065.865         1.0368       -54.0485        -5.6816      0.9330618
      5331.5000         1.6441       1059.885         1.0416       -51.0895        -2.7274      0.9867746
      5332.0000         1.5376       1053.904         1.0465       -50.3016        -1.9443              1
      5332.5000         1.5182       1047.252         1.0497       -51.5431        -3.1906      0.9783527
      5333.0000         1.5154       1040.068         1.0256       -53.0828        -4.7351      0.9502709
      5333.5000         1.5303       1032.883         1.0016       -54.7133        -6.3704      0.9205382
      5334.0000         1.5452       1025.699         0.9776       -56.4867        -8.1486      0.8882073
      5334.5000         1.5602       1017.612         0.9536       -59.5563       -11.2229      0.8323109
      5335.0000         1.5751       1009.979         0.9295       -63.0708       -14.7422      0.7683237
      5335.5000         1.5963       1028.301         0.9055       -66.3566       -18.0328      0.7084945
      5336.0000         1.6231       1046.621         0.8807       -71.8694       -23.5504      0.6081746
      5336.5000         1.6577       1064.955          0.855       -76.5421       -28.2279      0.5231291
      5337.0000         1.6802       1115.492         0.8294       -80.8519       -32.5425      0.4446818
      5337.5000         1.6614       1171.266         0.8037        -85.132       -36.8274      0.3667745
      5338.0000         1.6421       1232.029          0.778       -88.7334       -40.4336      0.3012072
      5338.5000         1.6222       1294.889         0.7524       -92.0963       -43.8012      0.2399782
      5339.0000          1.604       1351.162         0.7267       -95.7847       -47.4944      0.1728291
      5339.5000         1.6029       1406.785          0.701       -99.6472       -51.3617      0.1025146
      5340.0000         1.6122       1477.627         0.6754      -101.7076       -53.4269     0.06496547
      5340.5000         1.6065       1548.268         0.6497      -103.1859         -54.91          0.038
      5341.0000         1.5821       1616.314         0.6339      -103.9259       -55.6548     0.02445817
      5341.5000         1.5576       1686.605         0.6184      -102.8149       -54.5486     0.04457092
      5342.0000         1.5331       1773.609         0.6028      -101.6256       -53.3641     0.06610725
      5342.5000         1.5107       1857.223         0.5872      -100.4363       -52.1795     0.08764544
      5343.0000         1.4976       1921.129         0.5717      -100.1943       -51.9423      0.0919582
      5343.5000          1.552        1975.98         0.5561       -99.9884       -51.7412     0.09561455
      5344.0000         1.6715       2015.141         0.5512       -99.7828       -51.5404     0.09926543
      5344.5000         1.7655       1965.777         0.5475       -99.5771       -51.3395      0.1029182
      5345.0000         1.8389       1913.895         0.5438       -99.1476       -50.9148        0.11064
      5345.5000         1.8625       1862.012         0.5401       -97.9856       -49.7576        0.13168
      5346.0000         1.8055       1817.785         0.5364       -96.8236       -48.6004        0.15272
      5346.5000         1.7477       1791.844         0.5327       -95.8773       -47.6588        0.16984
      5347.0000         1.6899       1771.914         0.5271       -94.8116       -46.5979      0.1891291
      5347.5000         1.6417       1809.604         0.5197       -95.1553       -46.9464      0.1827927
      5348.0000         1.6217       1855.426         0.5123       -96.0818       -47.8777        0.16586
      5348.5000           1.67       1908.807         0.5049       -96.0402       -47.8409      0.1665291
      5349.0000         1.7188       1962.186         0.4975       -94.9745         -46.78      0.1858182
      5349.5000         1.7676        2004.99         0.4901       -95.1659       -46.9762      0.1822509
      5350.0000         1.8163       2037.816         0.4827       -96.9044       -48.7195      0.1505545
      5350.5000         1.8708       2017.861         0.4753       -98.5212        -50.341      0.1210727
      5351.0000         1.8425        1951.16         0.4679      -100.1381       -51.9627     0.09158728
      5351.5000         1.8143        1884.51         0.4594      -101.6356        -53.465     0.06427272
      5352.0000          1.786       1929.658         0.4506      -102.4701       -54.3043     0.04901276
      5352.5000         1.7606       2011.975         0.4418      -103.3046       -55.1436     0.03375272
      5353.0000         1.7423       2094.289          0.433      -104.1396       -55.9834     0.01848366
      5353.5000         1.7239       2153.555         0.4242      -104.8623       -56.7109    0.005256375
