#------------------------------------------------------------------------------
# Created by    : vladimir.rabinovich
# Created on    : 09/19/2023 17:20:57
#------------------------------------------------------------------------------
~Version Information Section
VERS.           2.0     :   CWLS log ASCII Standard - VERSION 2.0
WRAP.           NO      :   One line per depth step
~Well Information Section
#MNEM       .UNIT                                         VALUE :DESCRIPTION
#------------------------------------------------------------------------------
STRT        .FT                                             601 :START DEPTH
STOP        .FT                                            9006 :STOP DEPTH
STEP        .FT                                             0.5 :STEP      
NULL        .                                           -999.25 :NULL      
COMP        .                                        SUN OIL CO :COMPANY   
WELL        .                               OCS G01715 ST00BP00 :WELL      
FLD         .                                           WILDCAT :FIELD     
LOC         .                                                   :LOCATION  
CNTY        .                                BRAZOS LARGE BLOCK :LOCATION  
STAT        .                                             TEXAS :STATE     
CTRY        .                                     UNITED STATES :COUNTRY   
SRVC        .                                                   :SERVICE COMPANY
DATE        .                             9/13/2023 11:18:52 AM :LOG DATE  
API         .                                    42704000710000 :API NUMBER
UWI         .                                    42704000710000 :UNIQUE WELL ID
XCOORD      .                                  842225.693118258 :SURFACE X 
YCOORD      .                                  10368215.6352389 :SURFACE Y 
LAT         .                                          28.54781 :LATITUDE  
LON         .                                        -95.486614 :LONGITUDE 
ELEV        .FT                                              79 :ELEVATION VALUE
ELEV_TYPE   .                                                KB :ELEVATION REFERENCE TYPE
~Curve Information Section
#MNEM       .UNIT                                      API CODE :CURVE DESCRIPTION
#------------------------------------------------------------------------------
DEPT        .FT                                                 :DEPTH     
ASN         .OHMM                                               :          
CALI        .IN                                                 :          
CILD        .MMHO                                               :          
DT          .US/F                                               :          
ILD         .OHMM                                               :          
SP          .MV                                                 :          
SP_NORM     .MV                                                 :SP Normalized
VSH_SP      .V/V                                                :Volume of Shale from SP
~A        DEPTH            ASN           CALI           CILD             DT            ILD             SP        SP_NORM         VSH_SP
# ...
      1161.5000              2        13.7562       460.0635       172.5996         1.6281        -36.998      -5.369925      0.8395274
      1162.0000         1.9217        12.6158       492.8804       172.8467         1.5008       -36.5487        -4.9226      0.8608286
      1162.5000         1.9113          12.41       517.5957       171.1169         1.4331       -36.6279       -5.00378      0.8569629
      1163.0000         1.9011        12.3256       538.3203       170.2815         1.4261       -36.7417       -5.11956      0.8514495
      1163.5000         1.8889        12.2394       559.0469        172.783         1.4085       -36.3516      -4.731441      0.8699313
      1164.0000         1.8786        12.1562       585.1338        175.449         1.4156       -35.6309       -4.01272      0.9041562
      1164.5000         1.8733        12.0648       612.0908       176.1262         1.4357       -35.4741      -3.857897      0.9115287
      1165.0000         1.8794        12.0115       641.4277       176.3306         1.4527       -35.6337       -4.01948      0.9038343
      1165.5000         1.9051        11.9877       679.5947       178.3796         1.4706       -35.8048      -4.192554      0.8955926
      1166.0000          1.929        12.0403       705.6123        181.717         1.4823        -35.931      -4.320736      0.8894888
      1166.5000         1.9315        12.0924       701.8076       177.1206         1.4925       -36.1981      -4.589817      0.8766754
      1167.0000         1.9294         12.126       698.0029       180.2183         1.5067       -36.3395      -4.733196      0.8698478
      1167.5000         1.9257        12.0993       694.2002       180.6753         1.5139        -35.845      -4.240675      0.8933012
      1168.0000         1.9207        12.0874       690.3955       172.1248         1.5188       -35.4861      -3.883753      0.9102975
      1168.5000         1.9145        12.0778       686.5918       170.5195         1.5223       -35.1846      -3.584234      0.9245602
      1169.0000         1.9067         12.092       682.7881       170.2646         1.5236       -35.1475       -3.54911      0.9262328
      1169.5000         1.8979        12.1432       678.9844       170.5925         1.5274        -35.205      -3.608593      0.9234003
      1170.0000         1.8925        12.1799       675.1797       173.3975         1.5334       -35.2948      -3.700371        0.91903
      1170.5000         1.9169        12.1813       672.2578       176.8059         1.5394       -35.0762      -3.483749      0.9293453
      1171.0000         1.9507        12.0957       670.5361       172.2542         1.5392       -34.6665      -3.076029      0.9487605
      1171.5000          1.969        12.0132       668.8135       173.6707         1.5162       -34.2875      -2.699007       0.966714
      1172.0000         1.9719        11.9946       667.0908       175.1836         1.5013        -33.845       -2.25849       0.987691
      1172.5000         1.9539        12.0267       665.3691       174.6624         1.4842       -33.5148      -1.930269              1
      1173.0000         1.9217        12.0643       663.6465       173.4231         1.4663       -33.3195      -1.736946              1
      1173.5000         1.8939        12.1185       666.3506       172.0161         1.4505       -33.1028      -1.522224              1
      1174.0000         1.8717         12.169       670.0195       171.3596         1.4648       -32.9101      -1.331505              1
      1174.5000          1.871        12.2034       677.2051       171.4663         1.5346       -33.0044      -1.427782              1
      1175.0000          1.938        12.2346       684.3906       171.4851         1.6587       -33.3333      -1.758665              1
      1175.5000         1.8822        12.2235       691.5762       171.0786         1.8493       -33.9076      -2.334944      0.9840503
      1176.0000         2.0777        12.2302       697.8525       170.9807         2.0169       -34.4243      -2.853624      0.9593512
      1176.5000          2.314        12.2711       701.3926       171.1414         2.1965       -34.9539      -3.385201       0.934038
      1177.0000         2.5677        12.3444       703.3887       171.3308         2.3443       -35.6322      -4.065479      0.9016439
      1177.5000         2.8879         12.393        676.915       171.5063         2.5114       -36.9717       -5.40696      0.8377638
      1178.0000         3.1308        12.4375       650.4424       164.1123         2.6602       -42.2133      -10.65054      0.5880696
      1178.5000         3.2472        12.8303       623.9697       158.1357          2.779       -45.3103      -13.74952      0.4404992
      1179.0000         3.2948        13.4486       597.4902       155.0977         2.8681       -48.5112       -16.9524       0.287981
      1179.5000         3.2448        14.4963       556.0791       152.8789         2.8491       -50.9984      -19.44158      0.1694486
      1180.0000          3.154        14.9913       437.6963       153.0686         2.7845       -52.2189      -20.66405      0.1112355
      1180.5000         3.0885        15.0808       419.8789       156.4734         2.6871       -52.7828      -21.22993     0.08428882
      1181.0000         3.0509        15.0951        409.043       159.2688         2.6147        -53.254      -21.70312     0.06175632
      1181.5000         3.0303        15.0975       419.2715       163.9126         2.5669       -53.6687       -22.1198     0.04191444
      1182.0000         3.0011        15.0995       427.4814       165.6938         2.5376       -53.8983      -22.35137     0.03088697
      1182.5000         2.9632        15.0948       433.7915       167.0122         2.5194       -54.0488      -22.50385     0.02362596
      1183.0000         2.9266        15.0822       440.1016       169.7554         2.5043       -54.1299      -22.58694     0.01966976
      1183.5000         2.8966        15.0795       446.4116       172.5261         2.4907       -54.1644      -22.62341      0.0179328
      1184.0000         2.8476        15.0887       452.7217       174.2312         2.4814       -54.1316      -22.59259     0.01940046
      1184.5000         2.7952        15.0896       459.0317       176.0142         2.4575        -53.962      -22.42497     0.02738226
      1185.0000         2.7546        15.0886       465.3433        176.363         2.4352       -53.6679      -22.13285     0.04129283
      1185.5000         2.6882        15.0876       469.6392       176.5552         2.4138       -52.9634      -21.43033     0.07474618
      1186.0000         2.6086        15.0866       473.1001       177.7683         2.3935       -51.8447      -20.31361      0.1279234
      1186.5000         2.5551        15.0855       476.5615       180.2964         2.3749       -50.6546      -19.12549      0.1845006
      1187.0000         2.5251        15.0861       480.0225       181.2834         2.3576       -49.2192      -17.69207      0.2527587
      1187.5000         2.5138        15.0883       483.4844       181.6753         2.3464       -48.1946      -16.66945       0.301455
      1188.0000         2.5428        15.0836       485.9673       181.6418         2.3563       -47.4106      -15.88742      0.3386941
      1188.5000         2.6114        15.0597       486.3115       180.7437         2.3792       -47.2395       -15.7183      0.3467475
      1189.0000         2.7166        15.0129       486.6553       180.2307         2.4082       -48.2288      -16.70959      0.2995436
      1189.5000         2.7708        14.8855        486.999       179.6489         2.4329       -49.3625      -17.84526      0.2454637
      1190.0000         2.8158        14.7148       487.1836       177.2981         2.4587       -50.3938      -18.87854      0.1962599
      1190.5000         2.8102        14.8128       486.2954       174.8894         2.4785       -51.2463      -19.73302      0.1555703
