#------------------------------------------------------------------------------
# Created by    : vladimir.rabinovich
# Created on    : 09/19/2023 17:19:48
#------------------------------------------------------------------------------
~Version Information Section
VERS.           2.0     :   CWLS log ASCII Standard - VERSION 2.0
WRAP.           NO      :   One line per depth step
~Well Information Section
#MNEM       .UNIT                                         VALUE :DESCRIPTION
#------------------------------------------------------------------------------
STRT        .FT                                            3926 :START DEPTH
STOP        .FT                                            8446 :STOP DEPTH
STEP        .FT                                             0.5 :STEP      
NULL        .                                           -999.25 :NULL      
COMP        .                             WALTER OIL & GAS CORP :COMPANY   
WELL        .                               OCS G06101 ST00BP00 :WELL      
FLD         .                                           WILDCAT :FIELD     
LOC         .                                                   :LOCATION  
CNTY        .                             GALVESTON LARGE BLOCK :LOCATION  
STAT        .                                             TEXAS :STATE     
CTRY        .                                     UNITED STATES :COUNTRY   
SRVC        .                                                   :SERVICE COMPANY
DATE        .                             9/13/2023 11:19:36 AM :LOG DATE  
API         .                                    42706402050000 :API NUMBER
UWI         .                                    42706402050000 :UNIQUE WELL ID
XCOORD      .                                  1036351.71170487 :SURFACE X 
YCOORD      .                                  10440832.2127806 :SURFACE Y 
LAT         .                                         28.757227 :LATITUDE  
LON         .                                        -94.885733 :LONGITUDE 
ELEV        .FT                                              88 :ELEVATION VALUE
ELEV_TYPE   .                                                KB :ELEVATION REFERENCE TYPE
~Curve Information Section
#MNEM       .UNIT                                      API CODE :CURVE DESCRIPTION
#------------------------------------------------------------------------------
DEPT        .FT                                                 :DEPTH     
ASFL        .OHMM                                               :          
CALI        .IN                                                 :          
CILD        .MMHO                                               :          
GR          .GAPI                                               :          
GR_1        .GAPI                                               :          
GR_NORM     .GAPI                                               :GammaRay Normalized
ILD         .OHMM                                               :          
ILM         .OHMM                                               :          
NPHI        .%                                                  :          
RFOC        .OHMM                                               :          
RHOB        .G/C3                                               :          
SP          .MV                                                 :          
SP_NORM     .MV                                                 :SP Normalized
VSH_GR      .V/V                                                :Volume of Shale from GR
VSH_SP      .V/V                                                :Volume of Shale from SP
~A        DEPTH           ASFL           CALI           CILD             GR           GR_1        GR_NORM            ILD            ILM           NPHI           RFOC           RHOB             SP        SP_NORM         VSH_GR         VSH_SP
# ...
      4572.0000         0.9986         10.433       1476.646        75.6096        72.6788       79.84439         0.6966         0.6967        49.3431         1.0126         2.2432        -62.876      -6.565319      0.9966891      0.9062097
      4572.5000         0.9975        10.4278        1486.24        76.2332        75.0363       80.66287         0.6871         0.6907        48.0276         1.0031          2.238       -63.6909      -7.380219              1      0.8945683
      4573.0000         0.9992        10.4274       1495.832        76.8381        76.4009       81.45679         0.6778         0.6856        47.1118         0.9937         2.2326        -63.146       -6.83532              1      0.9023526
      4573.5000         1.0034        10.4195       1505.426        77.4437        76.9017       82.25166          0.673         0.6801        47.5402         0.9848         2.2285       -62.3024      -5.991718              1       0.914404
      4574.0000         1.0075        10.4106       1511.791        78.0333         76.762       83.02551         0.6686         0.6747        48.3141         0.9791         2.2247       -62.0921      -5.781418              1      0.9174083
      4574.5000         1.0117        10.3994       1502.203        78.1212        76.7592       83.14087         0.6615         0.6726        49.1091         0.9802         2.2214       -62.3448      -6.034119              1      0.9137983
      4575.0000         1.0169        10.3869       1475.023        78.2092        77.5364       83.25637         0.6611         0.6723        49.6691         0.9811         2.2195       -62.5883      -6.277618              1      0.9103197
      4575.5000         1.0224        10.3808       1447.844        78.1937        78.0873       83.23602         0.6628         0.6745        49.9747         0.9814         2.2183       -62.3904       -6.07972              1      0.9131469
      4576.0000         1.0278         10.379       1420.662        78.0317        78.6863       83.02339         0.6679         0.6839        50.1313         0.9819         2.2178       -61.4756      -5.164921              1      0.9262154
      4576.5000         1.0355        10.3814       1381.225        77.7623        79.1864       82.66982         0.6821         0.6968        50.1467         0.9838         2.2176       -60.9602      -4.649521              1      0.9335783
      4577.0000         1.0439        10.3873        1340.26        76.9633         79.359       81.62113         0.6995         0.7127        49.9733         0.9857         2.2239       -62.1746      -5.863918              1      0.9162297
      4577.5000         1.0522        10.3931       1299.297        76.1643        78.9362       80.57243         0.7216         0.7378        49.0452         0.9907         2.2299        -63.451       -7.14032              1      0.8979954
      4578.0000          1.063        10.3989       1258.842        75.3195        78.1177       79.46365         0.7507         0.7631        47.7734         1.0062          2.238       -64.1837       -7.87302      0.9885882      0.8875283
      4578.5000         1.0694         10.392       1218.895        74.4573        76.7711       78.33199         0.7749         0.7887        46.1232         1.0391         2.2504       -63.5687      -7.258018      0.9645105       0.896314
      4579.0000         1.0616        10.3862       1198.049        73.5957        74.6566       77.20116         0.7985          0.809        44.7476         1.0797         2.2601       -63.1945       -6.88382      0.9404501      0.9016597
      4579.5000         1.0537        10.3952        1198.57        72.9746        72.7603       76.38596         0.8135         0.8275        43.5381         1.1136         2.2635        -63.555       -7.24432      0.9231054      0.8965097
      4580.0000         1.0459        10.4049       1222.311        72.3765        71.5959       75.60096         0.8243         0.8332        42.7073         1.1076         2.2611       -64.0693      -7.758617      0.9064034      0.8891626
      4580.5000          1.038        10.4199       1246.051        71.7789        71.0116        74.8166         0.8246          0.838          42.88         1.0656         2.2571       -64.2772      -7.966518      0.8897148      0.8861926
      4581.0000         1.0302        10.4349       1269.814        71.3367        70.5807       74.23621         0.8168         0.8303        43.4411         1.0262         2.2518       -63.9545      -7.643818      0.8773662      0.8908026
      4581.5000         1.0267        10.4415       1283.672        71.4414        71.3937       74.37363         0.8005         0.8202        43.9586         1.0014          2.246       -63.4739      -7.163219      0.8802899      0.8976683
      4582.0000         1.0232         10.446       1289.262        71.9036        73.0183       74.98027         0.7841         0.8033        43.8958         1.0047         2.2373       -63.2881      -6.977421      0.8931972      0.9003226
      4582.5000         1.0197        10.4466       1294.857        72.3656        73.7792       75.58664         0.7678         0.7865        43.6135         1.0126         2.2279       -63.6016       -7.29092      0.9060987       0.895844
      4583.0000         1.0162        10.4439       1300.447        72.8278        74.0148       76.19328         0.7579         0.7705         43.663         1.0231         2.2183       -64.0575      -7.746822      0.9190059      0.8893311
      4583.5000         1.0126        10.4427       1306.104        73.2898        74.6892       76.79966         0.7524         0.7604        44.0435         1.0258         2.2081       -64.2842      -7.973522      0.9319077      0.8860925
      4584.0000         1.0102        10.4438       1313.184         73.752        75.8423        77.4063         0.7514         0.7506        44.6971         1.0149          2.202       -63.8807      -7.570019      0.9448148      0.8918568
      4584.5000         1.0086        10.4471       1320.258         74.214        76.3784       78.01266         0.7527         0.7483        45.3064         1.0053         2.2004       -63.2418      -6.931118      0.9577163       0.900984
      4585.0000          1.007        10.4525       1327.336        74.6761        76.1122       78.61917         0.7539          0.746        45.6879          0.998         2.2023       -62.8059       -6.49522      0.9706207      0.9072111
      4585.5000         1.0054        10.4609       1334.416        75.0433        76.2286       79.10112         0.7547         0.7483        45.7306         0.9958          2.205       -63.6752      -7.364521      0.9808749      0.8947926
      4586.0000         1.0038        10.4708       1341.957        75.3428        76.5781       79.49421         0.7555         0.7517        45.2657         1.0012         2.2081       -64.4138      -8.103123      0.9892385      0.8842411
      4586.5000         1.0022        10.4896       1351.961        75.6425        75.8273       79.88758         0.7542         0.7561        44.7449         1.0063          2.212       -63.6188      -7.308121      0.9976081      0.8955983
      4587.0000         1.0006        10.5083       1361.967        75.9418        75.1111       80.28041         0.7523         0.7591        44.4761         1.0109         2.2167       -62.4201      -6.109421              1      0.9127226
      4587.5000         0.9984        10.5224       1371.971        76.2412        75.2661       80.67337         0.7469         0.7486        44.4116         1.0166         2.2225       -61.8549       -5.54422              1      0.9207969
      4588.0000         0.9961        10.5185       1384.289        76.4801        76.1122       80.98693         0.7401         0.7377         44.801         1.0236         2.2246       -62.6011      -6.290421              1      0.9101369
      4588.5000         0.9939        10.5092       1399.891        76.6958        76.7485       81.27003         0.7284          0.726        46.0405         1.0112         2.2243       -63.4798      -7.169121              1       0.897584
