#------------------------------------------------------------------------------
# Created by    : vladimir.rabinovich
# Created on    : 09/19/2023 17:20:38
#------------------------------------------------------------------------------
~Version Information Section
VERS.           2.0     :   CWLS log ASCII Standard - VERSION 2.0
WRAP.           NO      :   One line per depth step
~Well Information Section
#MNEM       .UNIT                                         VALUE :DESCRIPTION
#------------------------------------------------------------------------------
STRT        .FT                                             495 :START DEPTH
STOP        .FT                                            8683 :STOP DEPTH
STEP        .FT                                             0.5 :STEP      
NULL        .                                           -999.25 :NULL      
COMP        .                                      SHELL OIL CO :COMPANY   
WELL        .                                OCS 00706 ST00BP00 :WELL      
FLD         .                                           WILDCAT :FIELD     
LOC         .                                                   :LOCATION  
CNTY        .                             GALVESTON LARGE BLOCK :LOCATION  
STAT        .                                             TEXAS :STATE     
CTRY        .                                     UNITED STATES :COUNTRY   
SRVC        .                                                   :SERVICE COMPANY
DATE        .                             9/13/2023 11:19:25 AM :LOG DATE  
API         .                                    42706000290000 :API NUMBER
UWI         .                                    42706000290000 :UNIQUE WELL ID
XCOORD      .                                  1097630.70361638 :SURFACE X 
YCOORD      .                                  10500448.3193905 :SURFACE Y 
LAT         .                                          28.92371 :LATITUDE  
LON         .                                        -94.697168 :LONGITUDE 
ELEV        .FT                                              92 :ELEVATION VALUE
ELEV_TYPE   .                                                KB :ELEVATION REFERENCE TYPE
~Curve Information Section
#MNEM       .UNIT                                      API CODE :CURVE DESCRIPTION
#------------------------------------------------------------------------------
DEPT        .FT                                                 :DEPTH     
ASN         .OHMM                                               :          
CILD        .MMHO                                               :          
ILD         .OHMM                                               :          
SP          .MV                                                 :          
SP_NORM     .MV                                                 :SP Normalized
VSH_SP      .V/V                                                :Volume of Shale from SP
~A        DEPTH            ASN           CILD            ILD             SP        SP_NORM         VSH_SP
# ...
      1597.0000         1.1061       1006.911         1.0324       -38.5133      -0.960392              1
      1597.5000         1.1122       997.7822         1.0327       -38.4774     -0.9253883              1
      1598.0000         1.1183       989.5283         1.0329       -38.4416     -0.8904839              1
      1598.5000          1.125       985.9951         1.0332       -38.5809      -1.030682              1
      1599.0000         1.1316       989.1768         1.0334        -39.074      -1.524681              1
      1599.5000         1.1382       992.5742         1.0337       -39.5673      -2.018875              1
      1600.0000         1.1448       995.9727         1.0339       -40.0603      -2.512772              1
      1600.5000         1.1519       999.3701         1.0338       -40.3502      -2.803574              1
      1601.0000         1.1523       1006.065           1.03       -40.4534      -2.907669              1
      1601.5000         1.1392       1014.896         1.0261       -40.5568      -3.011967      0.9990795
      1602.0000         1.1261       1023.729         1.0222         -40.66      -3.116062      0.9910721
      1602.5000          1.113       1026.771         1.0183       -40.7633      -3.220264      0.9830566
      1603.0000         1.1086       1026.779         1.0144       -40.8666      -3.324459      0.9750416
      1603.5000         1.1077       1026.283         1.0106       -40.8463      -3.305054      0.9765343
      1604.0000         1.1069       1019.747         1.0067       -40.7407      -3.200352      0.9845883
      1604.5000         1.1079       1025.652         1.0028       -40.6351      -3.095654       0.992642
      1605.0000         1.1129       1037.479         0.9988       -40.5295      -2.990948              1
      1605.5000         1.1179       1049.357         0.9949       -40.4239      -2.886246              1
      1606.0000         1.1229       1061.232         0.9909       -40.3183       -2.78154              1
      1606.5000         1.1299       1073.443          0.987       -40.1909      -2.655041              1
      1607.0000         1.1192       1085.762          0.983       -40.0256      -2.490639              1
      1607.5000         1.1086       1098.143         0.9774       -39.8604      -2.326336              1
      1608.0000          1.098       1116.209         0.9717       -39.6952      -2.162033              1
      1608.5000         1.0863       1131.307         0.9659         -39.53       -1.99773              1
      1609.0000         1.0743       1137.557         0.9631       -39.5762      -2.044827              1
      1609.5000         1.0623       1071.494         0.9804       -39.7022      -2.171726              1
      1610.0000         1.1717       1035.186         1.0004       -39.8281      -2.298519              1
      1610.5000         1.1992       979.3281         1.0438        -39.954       -2.42532              1
      1611.0000         1.2144       937.8633         1.0871         -40.08      -2.552219              1
      1611.5000         1.2198       907.2734         1.1303       -40.0958      -2.568913              1
      1612.0000         1.2252       887.5137         1.1546       -40.0369       -2.51091              1
      1612.5000         1.2307       872.9063         1.1394        -39.978      -2.452911              1
      1613.0000         1.2361       861.8018         1.1238        -39.919      -2.394806              1
      1613.5000          1.226       854.7646         1.1083       -39.8601      -2.336803              1
      1614.0000         1.2135       934.4658         1.0927       -39.7062        -2.1838              1
      1614.5000         1.1926       985.1338         1.0771       -39.4054        -1.8839              1
      1615.0000         1.1577       993.6143         1.0645       -39.1046      -1.583996              1
      1615.5000         1.1381       989.3828         1.0606       -38.8037      -1.283993              1
      1616.0000         1.1232       983.4219         1.0567       -38.5432      -1.024391              1
      1616.5000         1.1114       971.8154         1.0529       -38.4286     -0.9106903              1
      1617.0000         1.1277         960.21         1.0497       -38.8136      -1.296585              1
      1617.5000         1.1659       948.7617         1.0473       -39.1986      -1.682484              1
      1618.0000         1.1843       944.0625          1.045       -39.5836      -2.068378              1
      1618.5000         1.2028       954.8164         1.0426        -39.947      -2.432678              1
      1619.0000         1.2035       971.6318         1.0402       -40.2388      -2.725376              1
      1619.5000         1.1898       1027.996         1.0262       -40.5306      -3.018074      0.9986097
      1620.0000         1.1609       1080.236         1.0064       -40.8224      -3.310768      0.9760948
      1620.5000         1.0968       1101.689         0.9866       -41.0601       -3.54937      0.9577408
      1621.0000         1.0816       1119.617         0.9668       -41.1899      -3.680065      0.9476873
      1621.5000         1.0665       1118.127         0.9807       -41.3198      -3.810863      0.9376259
      1622.0000         1.0513       1094.971          1.025       -41.3429      -3.834858      0.9357802
      1622.5000         1.1145       1059.619         1.0693       -41.2862       -3.77906      0.9400723
      1623.0000          1.158       1024.268         1.1133       -41.1251      -3.618855      0.9523958
      1623.5000         1.1919       979.9336         1.1448       -40.9333      -3.427952      0.9670807
      1624.0000         1.2136       934.5977         1.1763       -40.7415      -3.237049      0.9817654
      1624.5000         1.2262        892.374         1.2078       -40.5496      -3.046047      0.9964579
      1625.0000         1.2387        841.793         1.2393       -40.3577      -2.855045              1
      1625.5000         1.2508       812.5332         1.2646       -40.2114      -2.709641              1
      1626.0000         1.2627       787.9805         1.2765       -40.1644      -2.663536              1
      1626.5000         1.2745       775.3105         1.2883       -40.1175      -2.617538              1
      1627.0000         1.2867       765.7354         1.3002       -40.0706      -2.571533              1
      1627.5000          1.299       765.8701         1.3031       -40.1317       -2.63353              1
      1628.0000         1.3113       772.7441         1.2963       -40.2359      -2.738628              1
      1628.5000         1.3096       779.8242         1.2894         -40.34      -2.843628              1
      1629.0000         1.3043       793.8906         1.2775        -40.679      -3.183525      0.9858827
      1629.5000         1.2989        807.957         1.2536       -41.0308      -3.536221      0.9587523
      1630.0000         1.2935       822.0225         1.2297       -41.3453      -3.851616      0.9344911
      1630.5000         1.2881       836.0889         1.2057       -41.6091      -4.116318      0.9141294
      1631.0000         1.2827       854.3721         1.1818        -41.873      -4.381115      0.8937604
      1631.5000         1.2764       874.2744         1.1579       -42.1368      -4.645809      0.8733993
      1632.0000         1.2683       884.8193         1.1421       -42.4006      -4.910507      0.8530379
      1632.5000         1.2601       892.6904         1.1286       -42.6644      -5.175205      0.8326765
      1633.0000         1.2519       900.4639          1.115       -42.7021      -5.213802      0.8297075
      1633.5000         1.2437        897.833         1.1015       -42.6688        -5.1814         0.8322
      1634.0000         1.2366       889.0508         1.0887       -42.6356      -5.149097      0.8346848
      1634.5000         1.2309       880.2676         1.0963       -42.1884      -4.702797      0.8690156
