#------------------------------------------------------------------------------
# Created by    : vladimir.rabinovich
# Created on    : 09/19/2023 17:20:35
#------------------------------------------------------------------------------
~Version Information Section
VERS.           2.0     :   CWLS log ASCII Standard - VERSION 2.0
WRAP.           NO      :   One line per depth step
~Well Information Section
#MNEM       .UNIT                                         VALUE :DESCRIPTION
#------------------------------------------------------------------------------
STRT        .FT                                             501 :START DEPTH
STOP        .FT                                            8659 :STOP DEPTH
STEP        .FT                                             0.5 :STEP      
NULL        .                                           -999.25 :NULL      
COMP        .                                      SHELL OIL CO :COMPANY   
WELL        .                                OCS 00705 ST00BP00 :WELL      
FLD         .                                           WILDCAT :FIELD     
LOC         .                                                   :LOCATION  
CNTY        .                             GALVESTON LARGE BLOCK :LOCATION  
STAT        .                                             TEXAS :STATE     
CTRY        .                                     UNITED STATES :COUNTRY   
SRVC        .                                                   :SERVICE COMPANY
DATE        .                             9/13/2023 11:19:25 AM :LOG DATE  
API         .                                    42706000440000 :API NUMBER
UWI         .                                    42706000440000 :UNIQUE WELL ID
XCOORD      .                                  1104214.94625617 :SURFACE X 
YCOORD      .                                  10500066.5450575 :SURFACE Y 
LAT         .                                         28.922918 :LATITUDE  
LON         .                                        -94.676571 :LONGITUDE 
ELEV        .FT                                              41 :ELEVATION VALUE
ELEV_TYPE   .                                                KB :ELEVATION REFERENCE TYPE
~Curve Information Section
#MNEM       .UNIT                                      API CODE :CURVE DESCRIPTION
#------------------------------------------------------------------------------
DEPT        .FT                                                 :DEPTH     
ASN         .OHMM                                               :          
CILD        .MMHO                                               :          
DT          .US/F                                               :          
ILD         .OHMM                                               :          
LAT         .OHMM                                               :          
SP          .MV                                                 :          
SP_NORM     .MV                                                 :SP Normalized
VSH_SP      .V/V                                                :Volume of Shale from SP
~A        DEPTH            ASN           CILD             DT            ILD            LAT             SP        SP_NORM         VSH_SP
# ...
      8112.0000         1.6876        757.542        96.2828         1.3023        -999.25        -56.151      -12.24856      0.7115753
      8112.5000         1.6958       750.8467        97.9561         1.3061        -999.25       -56.4717      -12.56926      0.7033523
      8113.0000         1.7076       751.4932        99.3605         1.3098        -999.25       -56.7918      -12.88936      0.6951445
      8113.5000         1.7209       752.1396        98.7487         1.3135        -999.25       -57.0693      -13.16686      0.6880292
      8114.0000         1.7342       763.1553        98.5451         1.3173        -999.25       -57.0264      -13.12396      0.6891292
      8114.5000         1.7476       775.9023        99.7047          1.321        -999.25       -56.7134      -12.81096      0.6971548
      8115.0000         1.7549       788.6279       101.7132         1.3247        -999.25        -55.884      -11.98156      0.7184215
      8115.5000         1.7213        801.375        102.403         1.3227        -999.25       -55.0546      -11.15216      0.7396882
      8116.0000          1.677       821.2793       101.4618         1.3064        -999.25       -54.2252      -10.32276      0.7609549
      8116.5000         1.6302       847.8477        95.1942         1.2901        -999.25       -53.1573       -9.25486      0.7883369
      8117.0000         1.5804        874.416        87.6436         1.2738        -999.25        -51.794       -7.89156      0.8232933
      8117.5000         1.5329       900.9844        79.9013         1.2574        -999.25       -50.4307      -6.528259      0.8582498
      8118.0000         1.4878       931.0869        79.0328         1.2411        -999.25       -49.6774       -5.77496      0.8775651
      8118.5000         1.4075        961.457        78.9624         1.2153        -999.25       -48.9599      -5.057461      0.8959625
      8119.0000         1.3952       955.2178        79.2833         1.1675        -999.25       -48.2424      -4.339962      0.9143599
      8119.5000         1.3674       940.0996        80.6082         1.1197        -999.25       -47.6822      -3.779762      0.9287241
      8120.0000         1.3443       924.9814        84.6026         1.0719        -999.25        -47.371      -3.468559      0.9367036
      8120.5000         1.3387       913.3633        90.1171         1.0543        -999.25        -47.207      -3.304562      0.9409087
      8121.0000         1.3812       903.7129        95.8254         1.0515        -999.25       -49.0002      -5.097759      0.8949292
      8121.5000         1.6376       894.0742        97.3135         1.0526        -999.25       -50.7933      -6.890862      0.8489523
      8122.0000         1.7213       884.4238        98.6635         1.0581        -999.25       -52.8887      -8.986259      0.7952241
      8122.5000          2.112       978.9463        98.8117         1.0636        -999.25       -54.9841      -11.08166      0.7414958
      8123.0000         2.3404       1073.322        98.8873          1.069        -999.25       -59.8688      -15.96636      0.6162471
      8123.5000         2.5148       1128.248        98.6537         1.0745        -999.25       -69.9402      -26.03776      0.3580061
      8124.0000         2.6517       1190.063        97.9483         1.0544        -999.25        -70.136      -26.23356      0.3529856
      8124.5000         2.7942       1253.576         98.387         1.0119        -999.25       -70.2629      -26.36046      0.3497317
      8125.0000          2.949       1332.566        99.7325         0.9661        -999.25       -70.3899      -26.48746      0.3464754
      8125.5000         2.1924       1378.949       102.8127         0.8962        -999.25        -70.517      -26.61456      0.3432164
      8126.0000         1.6154        1405.25       105.8929         0.8264        -999.25       -71.0251      -27.12266      0.3301882
      8126.5000         1.4293       1410.482       108.1301         0.7603        -999.25       -71.6899      -27.78746      0.3131419
      8127.0000         1.3163       1395.186       108.1324         0.7461        -999.25       -72.3549      -28.45246      0.2960908
      8127.5000         1.2806       1351.889       108.1353         0.7318        -999.25       -73.0198      -29.11736      0.2790421
      8128.0000         1.2509       1308.637       107.6299         0.7532        -999.25       -74.3663      -30.46386      0.2445163
      8128.5000         1.2253       1265.385       106.1495         0.7796        -999.25       -73.1372      -29.23476      0.2760318
      8129.0000         1.2319       1223.742       104.8028          0.806        -999.25       -71.9082      -28.00576      0.3075445
      8129.5000         1.2513       1183.756       106.8472         0.8325        -999.25       -68.7249      -24.82246      0.3891677
      8130.0000         1.2523        1143.77       113.7563         0.8589        -999.25       -64.0461      -20.14366       0.509137
      8130.5000         1.2369       1116.998       109.8024         0.8853        -999.25       -55.8885      -11.98606      0.7183061
      8131.0000         1.2227       1097.072        104.749         0.9117        -999.25       -53.0947      -9.192261       0.789942
      8131.5000         1.2088       1080.613        99.6956         0.9298        -999.25       -51.7437      -7.841259      0.8245831
      8132.0000          1.195       1105.438        95.2286         0.9423        -999.25       -50.6523      -6.749863      0.8525676
      8132.5000         1.1812       1153.742        93.5671         0.9177        -999.25        -49.918       -6.01556      0.8713959
      8133.0000         1.1703       1215.557        87.6224          0.885        -999.25       -49.1849      -5.282459      0.8901933
      8133.5000         1.1622       1280.859        82.2707         0.8522        -999.25       -49.9897      -6.087261      0.8695574
      8134.0000         1.1541       1338.291        86.9075         0.8194        -999.25       -50.8325      -6.930061      0.8479471
      8134.5000          1.146       1383.689        93.3096         0.7911        -999.25       -51.6754      -7.772961      0.8263344
      8135.0000         1.1379       1421.889        99.3128         0.7691        -999.25       -53.3364       -9.43396      0.7837446
      8135.5000         1.1325       1464.604        97.4168         0.7472        -999.25       -56.3631      -12.46066      0.7061369
      8136.0000         1.1275       1429.715         87.673         0.7382        -999.25       -59.8017      -15.89926      0.6179677
      8136.5000         1.1467       1361.729        77.9293         0.7797        -999.25       -64.2297      -20.32726      0.5044293
      8137.0000         1.2858       1282.381        69.7747         0.8286        -999.25       -69.1995      -25.29706      0.3769984
      8137.5000         1.4546       1196.682        68.8281          0.882        -999.25       -71.5411      -27.63866      0.3169574
      8138.0000         1.5641       1079.227        78.5052         0.9352        -999.25       -75.2528      -31.35036      0.2217856
      8138.5000         1.6347       1005.872        86.9172         0.9885        -999.25       -77.1154      -33.21296      0.1740266
      8139.0000         1.6996       956.4033        95.3292         1.0418        -999.25       -75.5371      -31.63466      0.2144958
      8139.5000         1.7649       910.1543       102.2444         1.0948        -999.25       -73.9611      -30.05866      0.2549062
      8140.0000         1.8454       877.2344         102.61         1.1475        -999.25       -71.7382      -27.83576      0.3119036
      8140.5000          1.934       850.0391        102.177         1.2003        -999.25       -69.3203      -25.41786      0.3739011
      8141.0000         2.0287       833.7813       101.2616         1.2531        -999.25       -68.0645      -24.16206       0.406101
