#------------------------------------------------------------------------------
# Created by    : vladimir.rabinovich
# Created on    : 09/19/2023 17:20:35
#------------------------------------------------------------------------------
~Version Information Section
VERS.           2.0     :   CWLS log ASCII Standard - VERSION 2.0
WRAP.           NO      :   One line per depth step
~Well Information Section
#MNEM       .UNIT                                         VALUE :DESCRIPTION
#------------------------------------------------------------------------------
STRT        .FT                                             501 :START DEPTH
STOP        .FT                                            8659 :STOP DEPTH
STEP        .FT                                             0.5 :STEP      
NULL        .                                           -999.25 :NULL      
COMP        .                                      SHELL OIL CO :COMPANY   
WELL        .                                OCS 00705 ST00BP00 :WELL      
FLD         .                                           WILDCAT :FIELD     
LOC         .                                                   :LOCATION  
CNTY        .                             GALVESTON LARGE BLOCK :LOCATION  
STAT        .                                             TEXAS :STATE     
CTRY        .                                     UNITED STATES :COUNTRY   
SRVC        .                                                   :SERVICE COMPANY
DATE        .                             9/13/2023 11:19:25 AM :LOG DATE  
API         .                                    42706000440000 :API NUMBER
UWI         .                                    42706000440000 :UNIQUE WELL ID
XCOORD      .                                  1104214.94625617 :SURFACE X 
YCOORD      .                                  10500066.5450575 :SURFACE Y 
LAT         .                                         28.922918 :LATITUDE  
LON         .                                        -94.676571 :LONGITUDE 
ELEV        .FT                                              41 :ELEVATION VALUE
ELEV_TYPE   .                                                KB :ELEVATION REFERENCE TYPE
~Curve Information Section
#MNEM       .UNIT                                      API CODE :CURVE DESCRIPTION
#------------------------------------------------------------------------------
DEPT        .FT                                                 :DEPTH     
ASN         .OHMM                                               :          
CILD        .MMHO                                               :          
DT          .US/F                                               :          
ILD         .OHMM                                               :          
LAT         .OHMM                                               :          
SP          .MV                                                 :          
SP_NORM     .MV                                                 :SP Normalized
VSH_SP      .V/V                                                :Volume of Shale from SP
~A        DEPTH            ASN           CILD             DT            ILD            LAT             SP        SP_NORM         VSH_SP
# ...
      6460.0000         0.6194         2368.5       106.5303          0.569        -999.25       -61.8914      -10.11092      0.7663867
      6460.5000         0.6401         2017.5       105.0378         0.5761        -999.25       -59.3669      -7.582394      0.8312207
      6461.0000         0.6609       1678.918        101.615         0.5968        -999.25       -57.1203      -5.331764      0.8889291
      6461.5000         0.6811       1582.816        95.0765         0.6196        -999.25       -55.5681      -3.775539      0.9288324
      6462.0000         0.7012       1468.207        90.9287         0.6424        -999.25       -54.3237      -2.527115      0.9608432
      6462.5000         0.7214       1406.354        90.7745         0.6651        -999.25       -55.6714      -3.870785      0.9263901
      6463.0000         0.7416       1385.176        91.5887         0.6879        -999.25       -57.5581      -5.753464      0.8781163
      6463.5000         0.7617       1364.396        98.6314         0.7107        -999.25       -59.1003      -7.291637       0.838676
      6464.0000         0.7823       1347.371       104.5944         0.7335        -999.25       -60.6403       -8.82761       0.799292
      6464.5000         0.8032       1330.346       105.7595         0.7563        -999.25       -62.0525      -10.23579       0.763185
      6465.0000         0.8241       1315.307       106.3554         0.7791        -999.25       -63.3947      -11.57396      0.7288728
      6465.5000         0.8427       1301.551       107.2673         0.7956        -999.25       -64.5869      -12.76213      0.6984069
      6466.0000         0.8467       1287.793       109.0847         0.8015        -999.25       -62.7136      -10.88481      0.7465434
      6466.5000         0.8506       1274.035       110.9021         0.8075        -999.25       -58.5336      -6.700783      0.8538261
      6467.0000         0.8418       1260.244       112.8917         0.8135        -999.25       -55.1826      -3.345757      0.9398524
      6467.5000         0.8326       1246.332        111.803         0.8194        -999.25       -52.9225      -1.081631      0.9979069
      6468.0000         0.8233       1232.432       108.4372         0.8254        -999.25       -50.3781       1.466793              1
      6468.5000          0.814       1218.531       104.9129         0.8314        -999.25       -49.5365        2.31242              1
      6469.0000         0.8048       1204.629        105.911         0.8374        -999.25       -48.9893       2.863647              1
      6469.5000         0.7955       1200.391       109.9148         0.8422        -999.25       -48.9901       2.866871              1
      6470.0000         0.7898       1198.354       113.4038         0.8433        -999.25       -49.0134       2.847595              1
      6470.5000         0.7878       1196.318       115.0193         0.8444        -999.25       -49.0463       2.818726              1
      6471.0000         0.7858       1197.084       116.0392         0.8454        -999.25       -49.1215       2.747551              1
      6471.5000         0.7906       1198.627       110.4716         0.8465        -999.25       -49.1967       2.676373              1
      6472.0000         0.7985       1200.172       104.1996         0.8476        -999.25       -49.2719       2.605202              1
      6472.5000         0.8063       1201.717        101.088         0.8486        -999.25       -49.3471       2.534027              1
      6473.0000         0.8142        1203.26       101.4815         0.8497        -999.25       -49.4223       2.462852              1
      6473.5000          0.822       1204.393       104.5737         0.8507        -999.25       -49.4975       2.391678              1
      6474.0000         0.8299       1199.182       106.6895         0.8518        -999.25       -49.5728       2.320404              1
      6474.5000         0.8356       1193.969       107.3463         0.8573        -999.25       -49.6479       2.249329              1
      6475.0000         0.8381       1188.758       107.1316         0.8636        -999.25       -49.7231       2.178158              1
      6475.5000         0.8406       1183.547       104.9533         0.8699        -999.25       -49.7983       2.106979              1
      6476.0000         0.8431       1180.494       102.4526         0.8761        -999.25       -49.9169       1.992405              1
      6476.5000         0.8456       1196.658        99.9519         0.8824        -999.25       -50.0605       1.852833              1
      6477.0000         0.8481       1212.801        98.6469         0.8887        -999.25       -50.2041       1.713257              1
      6477.5000         0.8484       1228.943       102.3743         0.8949        -999.25       -50.3477       1.573685              1
      6478.0000         0.8422       1245.086       106.4899         0.8807        -999.25       -50.4913       1.434109              1
      6478.5000          0.836       1311.111       108.6783         0.8578        -999.25       -50.6626       1.266834              1
      6479.0000         0.8298       1418.787       106.1633          0.835        -999.25        -51.737      0.1964607              1
      6479.5000         0.8061       1565.945        101.713         0.8121        -999.25       -53.5203      -1.582817       0.985056
      6480.0000          0.772       1713.104       100.6987         0.7893        -999.25       -55.9915      -4.049988      0.9217952
      6480.5000         0.7318       1902.307       101.1525          0.767        -999.25       -58.7048      -6.759262      0.8523266
      6481.0000         0.6858       1959.322       103.7042         0.7455        -999.25       -62.1914      -10.24184      0.7630298
      6481.5000         0.6561       1974.734       106.3006         0.7239        -999.25       -65.0403      -13.08671      0.6900844
      6482.0000         0.6312       1989.422        107.538         0.7023        -999.25       -67.0558      -15.09819       0.638508
      6482.5000         0.6066       2004.109       107.6864         0.6808        -999.25       -68.4114      -16.44976      0.6038523
      6483.0000          0.586       2018.797       107.8349         0.6592        -999.25       -69.7679      -17.80223      0.5691736
      6483.5000         0.5654       2033.484       108.0167         0.6377        -999.25       -71.1235       -19.1538      0.5345178
      6484.0000         0.5448       2048.172       108.8211         0.6161        -999.25       -72.4802      -20.50648      0.4998337
      6484.5000         0.5256       2062.859       110.0949         0.5945        -999.25       -73.5569      -21.57915      0.4723293
      6485.0000         0.5091       2077.547       111.0062         0.5733        -999.25       -73.8851      -21.90333      0.4640171
      6485.5000         0.4926       2092.234       111.8443         0.5577        -999.25       -74.5558      -22.57001      0.4469229
      6486.0000         0.4761       2106.922       111.6296         0.5422        -999.25       -75.6569      -23.66708      0.4187929
      6486.5000         0.4596       2121.609       110.6336         0.5267        -999.25        -76.759      -24.76516       0.390637
      6487.0000         0.4469       2136.297       109.2217         0.5112        -999.25       -80.2224      -28.22453      0.3019353
      6487.5000         0.4349       2482.133       107.1188         0.4956        -999.25        -84.849       -32.8471      0.1834076
      6488.0000         0.4229         3042.5        105.614         0.4801        -999.25       -88.1156      -36.10968     0.09975189
      6488.5000         0.4109       3093.906       106.7429         0.4646        -999.25       -89.6935      -37.68355     0.05939621
      6489.0000         0.4062       3012.289       107.8932         0.4662        -999.25       -89.1957      -37.18173     0.07226337
