#------------------------------------------------------------------------------
# Created by    : vladimir.rabinovich
# Created on    : 09/19/2023 17:21:25
#------------------------------------------------------------------------------
~Version Information Section
VERS.           2.0     :   CWLS log ASCII Standard - VERSION 2.0
WRAP.           NO      :   One line per depth step
~Well Information Section
#MNEM       .UNIT                                         VALUE :DESCRIPTION
#------------------------------------------------------------------------------
STRT        .FT                                            3400 :START DEPTH
STOP        .FT                                            8653 :STOP DEPTH
STEP        .FT                                             0.5 :STEP      
NULL        .                                           -999.25 :NULL      
COMP        .                          KING RANCH OIL & GAS INC :COMPANY   
WELL        .                               OCS G13784 ST00BP00 :WELL      
FLD         .                                           WILDCAT :FIELD     
LOC         .                                                   :LOCATION  
CNTY        .                             GALVESTON LARGE BLOCK :LOCATION  
STAT        .                                             TEXAS :STATE     
CTRY        .                                     UNITED STATES :COUNTRY   
SRVC        .                                                   :SERVICE COMPANY
DATE        .                             9/13/2023 11:19:54 AM :LOG DATE  
API         .                                    42706403430000 :API NUMBER
UWI         .                                    42706403430000 :UNIQUE WELL ID
XCOORD      .                                   967589.17441186 :SURFACE X 
YCOORD      .                                  10424680.8833423 :SURFACE Y 
LAT         .                                         28.709654 :LATITUDE  
LON         .                                        -95.099391 :LONGITUDE 
ELEV        .FT                                             106 :ELEVATION VALUE
ELEV_TYPE   .                                                KB :ELEVATION REFERENCE TYPE
~Curve Information Section
#MNEM       .UNIT                                      API CODE :CURVE DESCRIPTION
#------------------------------------------------------------------------------
DEPT        .FT                                                 :DEPTH     
CALI        .IN                                                 :          
DPHI        .%                                                  :          
DRHO        .G/C3                                               :          
DTLN        .US/F                                               :          
GR          .GAPI                                               :          
GR_1        .GAPI                                               :          
GR_NORM     .GAPI                                               :GammaRay Normalized
ILD         .OHMM                                               :          
ILM         .OHMM                                               :          
NPHI        .%                                                  :          
SFL         .OHMM                                               :          
SP          .MV                                                 :          
SP_NORM     .MV                                                 :SP Normalized
VSH_GR      .V/V                                                :Volume of Shale from GR
VSH_SP      .V/V                                                :Volume of Shale from SP
~A        DEPTH           CALI           DPHI           DRHO           DTLN             GR           GR_1        GR_NORM            ILD            ILM           NPHI            SFL             SP        SP_NORM         VSH_GR         VSH_SP
# ...
      8619.0000        11.7405        32.8737        -0.0886       146.7117        -999.25        54.7463       64.30792         0.3196         0.3142        48.9757         0.3412       -47.1659       -4.54295       0.666126      0.9174009
      8619.5000        12.0055        32.5502        -0.0867       146.5427        -999.25        53.2477       62.39865         0.3206         0.3157        49.4792         0.3433       -46.9236      -4.300648      0.6255031      0.9218064
      8620.0000        12.2335        32.0209        -0.0821       145.7148        -999.25        51.3174       59.93937         0.3219          0.319        49.0034         0.3392       -46.6351       -4.01215      0.5731782      0.9270518
      8620.5000        12.3604        31.4372        -0.0733       145.4712        -999.25        48.2978       56.09228         0.3232         0.3238        48.4196         0.3354       -46.6515      -4.028549      0.4913251      0.9267536
      8621.0000        12.4042        30.9222        -0.0643       145.7454        -999.25        49.9577       58.20706         0.3245         0.3288        48.6413          0.333       -46.7763      -4.153347      0.5363204      0.9244846
      8621.5000         12.128        30.4721        -0.0553        145.521        -999.25        52.6497       61.63677         0.3259         0.3323        54.5897         0.3375       -46.9344      -4.311447       0.609293      0.9216101
      8622.0000         11.697        30.0287        -0.0447       144.5928        -999.25        53.6757       62.94394         0.3272         0.3339             58         0.3442       -47.0054       -4.38245      0.6371051      0.9203191
      8622.5000         11.431        29.7816        -0.0399       143.7397        -999.25        53.7343        63.0186         0.3283         0.3325        -999.25         0.3502        -46.858       -4.23505      0.6386936      0.9229991
      8623.0000        11.3403        29.7495         -0.038       143.0945        -999.25        52.3272        61.2259         0.3284         0.3302        -999.25         0.3547       -46.9088      -4.285847       0.600551      0.9220755
      8623.5000        11.0899        29.6683        -0.0384       142.8135        -999.25        50.2629        58.5959         0.3286         0.3309        -999.25         0.3544       -47.1388       -4.51585      0.5445936      0.9178936
      8624.0000        10.8764        29.4711         -0.041       142.7187        -999.25        47.9926       55.70345         0.3291         0.3327        -999.25         0.3523       -47.1434      -4.520447       0.483052      0.9178101
      8624.5000        11.1647        29.3352        -0.0438       142.6526        -999.25        46.7495       54.11969         0.3294         0.3395        -999.25          0.348       -46.8154      -4.192448      0.4493551      0.9237737
      8625.0000        11.4525        30.0376        -0.0466       142.6714        -999.25         48.459       56.29766         0.3295          0.342        -999.25         0.3447       -46.3489      -3.725948      0.4956948      0.9322555
      8625.5000        11.5363        30.2638         -0.049       143.2759        -999.25        51.2404       59.84127         0.3296         0.3391        -999.25         0.3415       -46.4686       -3.84565      0.5710909      0.9300791
      8626.0000        11.4924        30.1893        -0.0497       143.8875        -999.25        51.3459       59.97568         0.3286         0.3351        -999.25         0.3392       -46.8913      -4.268349      0.5739506      0.9223937
      8626.5000         11.446        30.2853         -0.048       143.7341        -999.25        50.0445       58.31764          0.327         0.3311        -999.25         0.3385       -47.0961      -4.473148      0.5386732      0.9186701
      8627.0000        11.4266        30.6333        -0.0444       143.5559        -999.25        48.5483       56.41143         0.3254         0.3303        -999.25         0.3405        -47.227       -4.60405      0.4981156        0.91629
      8627.5000        11.4589         30.992        -0.0395       143.7317        -999.25        -999.25        -999.25         0.3265         0.3335        -999.25         0.3427       -47.2563       -4.63335        -999.25      0.9157572
      8628.0000         11.509        31.0147        -0.0348       144.6555        -999.25        -999.25        -999.25         0.3278         0.3359        -999.25         0.3466       -47.0638      -4.440849        -999.25      0.9192573
      8628.5000        11.5558         30.712        -0.0303       145.4321        -999.25        -999.25        -999.25         0.3279         0.3359        -999.25         0.3504       -46.5731       -3.95015        -999.25      0.9281791
      8629.0000        11.5937        30.4228        -0.0272       144.6804        -999.25        -999.25        -999.25         0.3278         0.3347        -999.25         0.3536       -46.0085      -3.385548        -999.25      0.9384446
      8629.5000        11.6152        30.3416        -0.0252       142.6279        -999.25        -999.25        -999.25         0.3273          0.334        -999.25         0.3564       -45.7239      -3.100948        -999.25      0.9436191
      8630.0000        11.6074        30.4156        -0.0251       142.5647        -999.25        -999.25        -999.25         0.3266         0.3334        -999.25         0.3564       -45.6309       -3.00795        -999.25        0.94531
      8630.5000         11.595        30.2575        -0.0252       142.6604        -999.25        -999.25        -999.25         0.3252         0.3324        -999.25         0.3546       -45.7171      -3.094147        -999.25      0.9437428
      8631.0000        11.5775        30.0197        -0.0262       141.8086        -999.25        -999.25        -999.25          0.324          0.331        -999.25         0.3508       -45.8424      -3.219448        -999.25      0.9414646
      8631.5000        11.5627        29.9201        -0.0277       141.9727        -999.25        -999.25        -999.25         0.3229         0.3303        -999.25         0.3475       -45.9528      -3.329849        -999.25      0.9394573
      8632.0000        11.5568        30.0947        -0.0294        142.688        -999.25        -999.25        -999.25         0.3219         0.3284        -999.25          0.344       -45.8444      -3.221447        -999.25      0.9414282
      8632.5000        11.5518        -999.25        -999.25       143.0547        -999.25        -999.25        -999.25         0.3209         0.3252        -999.25         0.3386       -45.7365      -3.113548        -999.25        0.94339
      8633.0000        11.5477        -999.25        -999.25       143.2302        -999.25        -999.25        -999.25         0.3199         0.3204        -999.25         0.3344       -46.0541      -3.431149        -999.25      0.9376155
      8633.5000        11.5449        -999.25        -999.25       143.7373        -999.25        -999.25        -999.25         0.3197          0.317        -999.25         0.3306       -46.4526      -3.829647        -999.25        0.93037
      8634.0000        11.4604        -999.25        -999.25       144.6392        -999.25        -999.25        -999.25         0.3195          0.316        -999.25         0.3266       -46.7394      -4.116447        -999.25      0.9251555
      8634.5000        -999.25        -999.25        -999.25       145.5186        -999.25        -999.25        -999.25         0.3199         0.3203        -999.25         0.3262       -46.9033       -4.28035        -999.25      0.9221755
      8635.0000        -999.25        -999.25        -999.25       146.1619        -999.25        -999.25        -999.25         0.3205         0.3262        -999.25         0.3332       -47.0278       -4.40485        -999.25      0.9199118
      8635.5000        -999.25        -999.25        -999.25       146.3613        -999.25        -999.25        -999.25         0.3238         0.3273        -999.25         0.3421       -47.1887       -4.56575        -999.25      0.9169863
