#------------------------------------------------------------------------------
# Created by    : vladimir.rabinovich
# Created on    : 09/19/2023 17:19:48
#------------------------------------------------------------------------------
~Version Information Section
VERS.           2.0     :   CWLS log ASCII Standard - VERSION 2.0
WRAP.           NO      :   One line per depth step
~Well Information Section
#MNEM       .UNIT                                         VALUE :DESCRIPTION
#------------------------------------------------------------------------------
STRT        .FT                                            3926 :START DEPTH
STOP        .FT                                            8446 :STOP DEPTH
STEP        .FT                                             0.5 :STEP      
NULL        .                                           -999.25 :NULL      
COMP        .                             WALTER OIL & GAS CORP :COMPANY   
WELL        .                               OCS G06101 ST00BP00 :WELL      
FLD         .                                           WILDCAT :FIELD     
LOC         .                                                   :LOCATION  
CNTY        .                             GALVESTON LARGE BLOCK :LOCATION  
STAT        .                                             TEXAS :STATE     
CTRY        .                                     UNITED STATES :COUNTRY   
SRVC        .                                                   :SERVICE COMPANY
DATE        .                             9/13/2023 11:19:36 AM :LOG DATE  
API         .                                    42706402050000 :API NUMBER
UWI         .                                    42706402050000 :UNIQUE WELL ID
XCOORD      .                                  1036351.71170487 :SURFACE X 
YCOORD      .                                  10440832.2127806 :SURFACE Y 
LAT         .                                         28.757227 :LATITUDE  
LON         .                                        -94.885733 :LONGITUDE 
ELEV        .FT                                              88 :ELEVATION VALUE
ELEV_TYPE   .                                                KB :ELEVATION REFERENCE TYPE
~Curve Information Section
#MNEM       .UNIT                                      API CODE :CURVE DESCRIPTION
#------------------------------------------------------------------------------
DEPT        .FT                                                 :DEPTH     
ASFL        .OHMM                                               :          
CALI        .IN                                                 :          
CILD        .MMHO                                               :          
GR          .GAPI                                               :          
GR_1        .GAPI                                               :          
GR_NORM     .GAPI                                               :GammaRay Normalized
ILD         .OHMM                                               :          
ILM         .OHMM                                               :          
NPHI        .%                                                  :          
RFOC        .OHMM                                               :          
RHOB        .G/C3                                               :          
SP          .MV                                                 :          
SP_NORM     .MV                                                 :SP Normalized
VSH_GR      .V/V                                                :Volume of Shale from GR
VSH_SP      .V/V                                                :Volume of Shale from SP
~A        DEPTH           ASFL           CALI           CILD             GR           GR_1        GR_NORM            ILD            ILM           NPHI           RFOC           RHOB             SP        SP_NORM         VSH_GR         VSH_SP
# ...
      6357.0000         0.8831         10.049       1606.297        74.2631        72.8582       74.41017         0.6161         0.6363        36.6859         0.8485         2.3272       -52.5404      -6.706051      0.8810675      0.9041993
      6357.5000         0.8844         10.041       1567.926        74.5638        73.8325       74.80373          0.631          0.649        35.7135         0.8328         2.3294       -51.8939      -6.058022      0.8894411      0.9134569
      6358.0000         0.8862        10.0286       1532.703        74.8124        74.3595       75.12894         0.6423           0.66        34.7012         0.8347         2.3379       -52.0997      -6.262291      0.8963603      0.9105387
      6358.5000         0.8931        10.0097        1497.48        75.0607        74.1458       75.45374         0.6525         0.6682        33.7422         0.8431         2.3469       -52.3244      -6.485462       0.903271      0.9073505
      6359.0000            0.9         9.9706        1454.82         75.479        73.6162       76.00166          0.659         0.6733        32.9262         0.8586         2.3558       -51.5372      -5.696735      0.9149289      0.9186181
      6359.5000          0.907         9.9314       1470.676        75.9188        73.5625        76.5778         0.6642         0.6778        32.3907         0.8836         2.3633       -50.5817      -4.739704      0.9271873        0.93229
      6360.0000         0.9139         9.8922       1496.316        76.3842        74.4384       77.18756         0.6628         0.6799        32.8871         0.9118         2.3678       -50.2267      -4.383175      0.9401609      0.9373832
      6360.5000         0.9208          9.867       1528.875        76.8246        74.9348        77.7645         0.6571         0.6815        33.9514         0.9213         2.3667       -50.0315      -4.186447      0.9524361      0.9401936
      6361.0000         0.9273         9.8497       1561.287        77.2317        75.4108       78.29771         0.6474         0.6816        34.6124         0.9079         2.3564       -49.2458       -3.39922      0.9637812      0.9514397
      6361.5000         0.9323         9.8512        1593.41        77.5704        75.8363       78.74116         0.6365         0.6808        35.3239         0.8746         2.3528       -48.9628      -3.114689      0.9732161      0.9555044
      6362.0000         0.9374         9.8497       1625.484        77.8176        76.3712       79.06452         0.6238         0.6787         35.988         0.8589         2.3571       -49.9363      -4.086658      0.9800962      0.9416192
      6362.5000         0.9424         9.8401        1677.18        77.8384        76.9727       79.09074         0.6084          0.674        36.2937         0.8638         2.3611       -51.1179      -5.266735      0.9806539      0.9247609
      6363.0000         0.9519         9.8294       1754.553        76.3885        77.4738       77.18665         0.5928         0.6683        35.4247         0.8819         2.3608       -51.1989      -5.346203      0.9401414      0.9236256
      6363.5000         0.9652         9.8093       1816.035        73.6136        76.7893        73.5435         0.5761          0.654         33.376         0.8731         2.3544       -50.1071      -4.252876      0.8626277      0.9392446
      6364.0000         0.9785         9.7931       1871.898        67.8993        71.5034       66.04239         0.5611         0.6351        31.3288         0.8555         2.3536       -49.8786      -4.022846      0.7030296      0.9425308
      6364.5000         1.0049          9.789       1924.271        64.0515        65.3412       60.99106         0.5477         0.6055        29.9585         0.8639         2.3685        -53.821      -7.963718      0.5955544      0.8862326
      6365.0000         1.0009         9.8276       1965.842        60.5181        60.9619       56.35239         0.5338         0.5717        29.5512         0.9992         2.3871       -58.8282      -12.96939      0.4968593       0.814723
      6365.5000         0.9551         9.8786       2012.936        58.8412        58.1218       54.15036         0.5191         0.5449        30.9121         1.1602         2.3921       -63.4838      -17.62346      0.4500076      0.7482363
      6366.0000         0.8987         9.9404       1982.799        64.7701        57.6497       61.93096         0.5049         0.5274        33.4933         1.1941         2.3655       -66.6703      -20.80843      0.6155523      0.7027367
      6366.5000         0.8829         9.9684       1947.334        66.7689        59.5833       64.55328         0.4919         0.5211        35.4217         1.0253         2.3385       -68.5675       -22.7041      0.6713465      0.6756557
      6367.0000         0.8687         9.9652       1906.443        68.6329        63.3373       66.99869         0.4858         0.5243        37.1259         0.9024         2.3304       -66.3363      -20.47138      0.7233763      0.7075517
      6367.5000         0.8595         9.9579       1859.932        70.3772        68.1436       69.28699         0.4895         0.5348        38.2435         0.8408         2.3385       -62.3538      -16.48735      0.7720637      0.7644665
      6368.0000         0.8627         9.9541       1813.469        71.9269        71.6893       71.31989         0.5043         0.5524        38.8437         0.8152         2.3439       -57.2964      -11.42842      0.8153167      0.8367369
      6368.5000         0.8659         9.9719       1766.957        73.7135        74.3535       73.66371         0.5277         0.5738        39.0706         0.8157         2.3459        -53.251      -7.381489      0.8651854      0.8945501
      6369.0000         0.8691         9.9909       1715.842        75.8695        76.5181       76.49237         0.5564         0.5959        39.3566         0.8245          2.343       -50.5817      -4.710659      0.9253696      0.9327049
      6369.5000         0.8723        10.0146       1664.582        78.9924        78.1804       80.59007         0.5882         0.6186         39.774         0.8365         2.3423       -49.2722      -3.399632              1      0.9514338
      6370.0000         0.8754        10.0328       1613.613        80.0791        79.3833       82.01529         0.6123         0.6417        40.0677         0.8492          2.343       -49.0009      -3.126804              1      0.9553314
      6370.5000         0.8786        10.0422       1567.199         79.403        79.5198        81.1268         0.6327         0.6522        39.9598         0.8639         2.3446       -49.1564      -3.280773              1      0.9531318
      6371.0000         0.8785        10.0503       1522.818        78.5656        78.7567       80.02663         0.6472         0.6605        39.2535         0.8786         2.3432        -49.375      -3.497845              1      0.9500308
      6371.5000          0.875         10.056       1504.445        78.7194         78.016       80.22739         0.6563         0.6624        38.6948         0.8796         2.3392       -48.8804      -3.001717              1      0.9571183
      6372.0000         0.8715        10.0665       1515.188        78.8779        79.1071       80.43434         0.6603         0.6639        38.5455           0.88         2.3339       -48.2577      -2.377491              1      0.9660358
      6372.5000         0.8689        10.0841       1525.787        79.1812        80.1906       80.83133         0.6609         0.6623        38.7523         0.8622         2.3304       -47.6926       -1.81086              1      0.9741306
      6373.0000         0.8672        10.0928       1536.105        79.5195        81.0958       81.27425         0.6598         0.6601        38.7609         0.8461           2.33       -47.7398      -1.856529              1      0.9734781
      6373.5000         0.8654        10.0908       1546.426        79.8801        81.7006       81.74644         0.6522         0.6512        38.0999         0.8415          2.327       -48.2935      -2.408703              1      0.9655899
