#------------------------------------------------------------------------------
# Created by    : vladimir.rabinovich
# Created on    : 09/19/2023 17:20:37
#------------------------------------------------------------------------------
~Version Information Section
VERS.           2.0     :   CWLS log ASCII Standard - VERSION 2.0
WRAP.           NO      :   One line per depth step
~Well Information Section
#MNEM       .UNIT                                         VALUE :DESCRIPTION
#------------------------------------------------------------------------------
STRT        .FT                                             582 :START DEPTH
STOP        .FT                                            8015 :STOP DEPTH
STEP        .FT                                             0.5 :STEP      
NULL        .                                           -999.25 :NULL      
COMP        .                                CONTINENTAL OIL CO :COMPANY   
WELL        .                                OCS 00719 ST00BP00 :WELL      
FLD         .                                           WILDCAT :FIELD     
LOC         .                                                   :LOCATION  
CNTY        .                             GALVESTON LARGE BLOCK :LOCATION  
STAT        .                                             TEXAS :STATE     
CTRY        .                                     UNITED STATES :COUNTRY   
SRVC        .                                                   :SERVICE COMPANY
DATE        .                             9/13/2023 11:19:25 AM :LOG DATE  
API         .                                    42706000350000 :API NUMBER
UWI         .                                    42706000350000 :UNIQUE WELL ID
XCOORD      .                                  1010979.62119212 :SURFACE X 
YCOORD      .                                  10432235.4027546 :SURFACE Y 
LAT         .                                          28.73246 :LATITUDE  
LON         .                                        -94.964458 :LONGITUDE 
ELEV        .FT                                              63 :ELEVATION VALUE
ELEV_TYPE   .                                                KB :ELEVATION REFERENCE TYPE
~Curve Information Section
#MNEM       .UNIT                                      API CODE :CURVE DESCRIPTION
#------------------------------------------------------------------------------
DEPT        .FT                                                 :DEPTH     
ASN         .OHMM                                               :          
DT          .US/F                                               :          
LN          .OHMM                                               :          
SP          .MV                                                 :          
SP_NORM     .MV                                                 :SP Normalized
VSH_SP      .V/V                                                :Volume of Shale from SP
~A        DEPTH            ASN             DT             LN             SP        SP_NORM         VSH_SP
# ...
      4040.0000         0.7515        -999.25         0.7142       -50.1759      -6.054655       0.915528
      4040.5000         0.7505        -999.25         0.7143       -49.9912      -5.777645      0.9212991
      4041.0000         0.7509        -999.25         0.7144       -50.3424      -6.308608      0.9102374
      4041.5000         0.7523        -999.25         0.7146       -50.6935       -6.83942      0.8991787
      4042.0000         0.7538        -999.25         0.7147       -51.0447      -7.370383       0.888117
      4042.5000         0.7552        -999.25         0.7148       -50.8544       -7.08493      0.8940639
      4043.0000         0.7567        -999.25         0.7149       -50.5452      -6.620212      0.9037456
      4043.5000         0.7581        -999.25         0.7151        -50.236      -6.155488      0.9134274
      4044.0000         0.7596        -999.25         0.7152       -49.9271      -5.691225      0.9230995
      4044.5000          0.761        -999.25         0.7153       -49.6179      -5.226507      0.9327811
      4045.0000         0.7625        -999.25         0.7155       -49.3088      -4.761938      0.9424596
      4045.5000         0.7639        -999.25         0.7156       -48.9998      -4.297524      0.9521349
      4046.0000         0.7662        -999.25         0.7157       -49.0477        -4.3712         0.9506
      4046.5000           0.77        -999.25         0.7158       -49.1985      -4.600019      0.9458329
      4047.0000         0.7738        -999.25         0.7157       -49.5396      -5.115752      0.9350885
      4047.5000         0.7526        -999.25         0.7105       -50.1854      -6.090877      0.9147734
      4048.0000         0.7328        -999.25         0.7053       -50.1731      -6.073795      0.9151292
      4048.5000          0.713        -999.25         0.7001       -49.7338      -5.412926      0.9288974
      4049.0000         0.6936        -999.25         0.6949       -49.2942      -4.751608      0.9426748
      4049.5000         0.6843        -999.25         0.6896       -48.8549      -4.090739       0.956443
      4050.0000         0.6751        -999.25         0.6844       -48.4153       -3.42941      0.9702206
      4050.5000         0.6659        -999.25         0.6792       -48.0292      -2.848755      0.9823176
      4051.0000         0.6573        -999.25          0.674       -47.9252      -2.693416      0.9855538
      4051.5000         0.6564        -999.25         0.6687       -47.8211      -2.537921      0.9887933
      4052.0000         0.6555        -999.25         0.6635       -47.7171      -2.382582      0.9920295
      4052.5000         0.6546        -999.25         0.6583       -47.7189      -2.386758      0.9919425
      4053.0000         0.6537        -999.25         0.6531       -47.7558      -2.443846      0.9907532
      4053.5000         0.6528        -999.25         0.6479       -47.7927      -2.500946      0.9895636
      4054.0000         0.6538        -999.25         0.6426       -47.8297      -2.558189      0.9883711
      4054.5000         0.6594        -999.25         0.6374       -47.6572      -2.299572      0.9937589
      4055.0000         0.6649        -999.25         0.6322       -47.4164      -1.937983              1
      4055.5000         0.6705        -999.25          0.627       -47.1756      -1.576387              1
      4056.0000         0.6761        -999.25         0.6217       -46.9609      -1.254148              1
      4056.5000         0.6815        -999.25         0.6214       -47.4326       -1.96678              1
      4057.0000         0.6833        -999.25         0.6218       -48.0661      -2.923368      0.9807631
      4057.5000         0.6848        -999.25         0.6222       -48.7942       -4.02258      0.9578629
      4058.0000         0.6812        -999.25         0.6227       -49.5217      -5.120888      0.9349815
      4058.5000         0.6776        -999.25         0.6231       -49.9676      -5.794629      0.9209452
      4059.0000          0.674        -999.25         0.6235       -49.4142       -4.96173      0.9382973
      4059.5000         0.6703        -999.25         0.6239       -48.3202      -3.313773      0.9726297
      4060.0000         0.6667        -999.25         0.6243       -48.4543      -3.517412      0.9683872
      4060.5000         0.6631        -999.25         0.6248       -48.7105      -3.905142      0.9603096
      4061.0000         0.6595        -999.25         0.6252       -49.0961      -4.487971      0.9481673
      4061.5000         0.6559        -999.25         0.6256       -49.4817      -5.070799       0.936025
      4062.0000         0.6528        -999.25          0.626       -49.8672      -5.653472       0.923886
      4062.5000         0.6502        -999.25         0.6265       -50.2528        -6.2363      0.9117438
      4063.0000         0.6477        -999.25         0.6269       -50.5462      -6.680113      0.9024976
      4063.5000         0.6451        -999.25         0.6273        -50.032      -5.906321      0.9186183
      4064.0000         0.6425        -999.25         0.6277       -49.3205      -4.835055      0.9409363
      4064.5000         0.6473        -999.25         0.6282       -48.8219      -4.084781       0.956567
      4065.0000         0.6553        -999.25         0.6286       -48.3232      -3.334357      0.9722009
      4065.5000         0.6643        -999.25          0.629       -47.8249      -2.584536      0.9878222
      4066.0000         0.6733        -999.25         0.6294       -47.3657      -1.893657              1
      4066.5000         0.6823        -999.25         0.6322         -47.14      -1.554831              1
      4067.0000         0.6913        -999.25         0.6362       -46.9141      -1.215706              1
      4067.5000         0.7003        -999.25         0.6403       -47.5137      -2.121176      0.9974755
      4068.0000         0.7093        -999.25         0.6443       -48.1708      -3.113342      0.9768054
      4068.5000         0.7143        -999.25         0.6483        -48.676      -3.876488      0.9609065
      4069.0000         0.7183        -999.25         0.6523       -48.9212      -4.247637      0.9531742
      4069.5000         0.7223        -999.25         0.6563       -49.1666      -4.619079      0.9454359
      4070.0000         0.7029        -999.25         0.6603       -49.2003      -4.671348      0.9443469
      4070.5000         0.6835        -999.25         0.6644       -49.0823      -4.494901      0.9480229
      4071.0000         0.6692        -999.25         0.6684       -48.9642      -4.318305       0.951702
      4071.5000         0.6612        -999.25         0.6724       -48.8463      -4.142007      0.9553748
      4072.0000          0.678        -999.25         0.6764       -48.7948      -4.065825       0.956962
      4072.5000         0.7085        -999.25         0.6804       -48.8557        -4.1591      0.9550188
      4073.0000         0.7413        -999.25         0.6844       -48.9165      -4.252227      0.9530786
      4073.5000          0.774        -999.25         0.6884       -49.0357      -4.433407       0.949304
      4074.0000         0.7997        -999.25         0.6926       -49.1566      -4.617147      0.9454761
      4074.5000          0.817        -999.25         0.6993       -49.2773      -4.800588      0.9416544
      4075.0000         0.8263        -999.25         0.7061       -49.6896       -5.42367      0.9286736
      4075.5000         0.8356        -999.25         0.7128       -50.1074       -6.05504        0.91552
      4076.0000         0.8287        -999.25         0.7195       -50.1348      -6.097807       0.914629
      4076.5000          0.814        -999.25         0.7263       -49.5849      -5.270188      0.9318711
      4077.0000         0.7992        -999.25          0.733       -49.3303       -4.88779      0.9398377
      4077.5000         0.7845        -999.25         0.7398       -49.2866      -4.823363      0.9411799
