#------------------------------------------------------------------------------
# Created by    : vladimir.rabinovich
# Created on    : 09/19/2023 17:19:44
#------------------------------------------------------------------------------
~Version Information Section
VERS.           2.0     :   CWLS log ASCII Standard - VERSION 2.0
WRAP.           NO      :   One line per depth step
~Well Information Section
#MNEM       .UNIT                                         VALUE :DESCRIPTION
#------------------------------------------------------------------------------
STRT        .FT                                            3520 :START DEPTH
STOP        .FT                                           13769 :STOP DEPTH
STEP        .FT                                             0.5 :STEP      
NULL        .                                           -999.25 :NULL      
COMP        .                           WILLIAMS EXPLORATION CO :COMPANY   
WELL        .                                          SL 73414 :WELL      
FLD         .                                           WILDCAT :FIELD     
LOC         .                                                   :LOCATION  
CNTY        .                           HIGH ISLAND LARGE BLOCK :LOCATION  
STAT        .                                             TEXAS :STATE     
CTRY        .                                     UNITED STATES :COUNTRY   
SRVC        .                                                   :SERVICE COMPANY
DATE        .                             9/13/2023 11:19:15 AM :LOG DATE  
API         .                                    42708301040000 :API NUMBER
UWI         .                                    42708301040000 :UNIQUE WELL ID
XCOORD      .                                  1272749.25589155 :SURFACE X 
YCOORD      .                                  10699068.0748216 :SURFACE Y 
LAT         .                                        29.4758188 :LATITUDE  
LON         .                                       -94.1558378 :LONGITUDE 
ELEV        .FT                                             106 :ELEVATION VALUE
ELEV_TYPE   .                                                KB :ELEVATION REFERENCE TYPE
~Curve Information Section
#MNEM       .UNIT                                      API CODE :CURVE DESCRIPTION
#------------------------------------------------------------------------------
DEPT        .FT                                                 :DEPTH     
ASFL        .OHMM                                               :          
CILD        .MMHO                                               :          
ILD         .OHMM                                               :          
SP          .MV                                                 :          
SP_NORM     .MV                                                 :SP Normalized
VSH_SP      .V/V                                                :Volume of Shale from SP
~A        DEPTH           ASFL           CILD            ILD             SP        SP_NORM         VSH_SP
# ...
      4888.0000         0.5162       2963.859         0.3903      -117.3688      -38.95119     0.02689264
      4888.5000         0.4315       3020.547         0.3712      -117.8737       -39.4573     0.01391543
      4889.0000         0.4231       3120.383          0.352      -118.3785       -39.9633   0.0009409587
      4889.5000         0.4125       3226.887         0.3356      -118.7249      -40.31091              0
      4890.0000         0.4131       3349.617         0.3193      -118.9026      -40.48981              0
      4890.5000         0.4225       3539.535         0.3029      -119.0803      -40.66872              0
      4891.0000         0.4319       3813.066         0.2866      -116.2416      -37.83123     0.05560948
      4891.5000          0.442        3893.84         0.2746      -117.2734      -38.86423     0.02912218
      4892.0000         0.4524       3936.543         0.2657      -118.3043      -39.89634    0.002657964
      4892.5000          0.467       3948.141         0.2568      -119.0502      -40.64345              0
      4893.0000         0.4873       3959.426         0.2479       -119.436      -41.03045              0
      4893.5000         0.5075       3970.711          0.239      -119.3229      -40.91856              0
      4894.0000         0.5222       3982.629         0.2339      -119.2095      -40.80637              0
      4894.5000         0.5326       3998.281         0.2313      -119.0963      -40.69437              0
      4895.0000         0.5416       4296.992         0.2288      -118.9832      -40.58248              0
      4895.5000         0.5509       4910.742         0.2262      -118.8347      -40.43519              0
      4896.0000         0.5541       4944.016         0.2237      -118.5782      -40.17989              0
      4896.5000          0.557       4973.477         0.2302      -118.3217       -39.9246    0.001933367
      4897.0000         0.5599       4932.492         0.2426      -118.0651      -39.66921    0.008481734
      4897.5000         0.5628       4638.406          0.255      -117.8085      -39.41382      0.0150303
      4898.0000         0.5657        4397.82         0.2674      -117.5521      -39.15862     0.02157378
      4898.5000         0.5687       4324.859         0.3027      -117.0376      -38.64532     0.03473526
      4899.0000         1.7929       4251.898         0.3426      -116.1873      -37.79623     0.05650682
      4899.5000         1.8189       4178.242         0.3824      -115.2618      -36.87194     0.08020665
      4900.0000          1.827       1999.535         0.4241      -114.8251      -36.43645     0.09137295
      4900.5000         1.8352       2029.127         0.4667      -114.3879      -36.00046      0.1025524
      4901.0000         1.8441        2090.59         0.4938      -113.9978      -35.61156       0.112524
      4901.5000         1.8526       2189.367         0.4767      -114.4926      -36.10757     0.09980598
      4902.0000         1.8589        2397.41         0.4363      -114.9868      -36.60297     0.08710323
      4902.5000         1.4592       2620.301          0.402      -115.7626      -37.37998     0.06717995
      4903.0000         1.3442       3036.387         0.3677      -116.6774      -38.29599     0.04369256
      4903.5000         1.2934       3833.918         0.3436      -117.4614       -39.0812     0.02355898
      4904.0000         1.1996       3884.844         0.3215       -116.821        -38.442     0.03994868
      4904.5000         0.7288       3925.992         0.2994      -114.7169      -36.33911     0.09386894
      4905.0000         0.5818        3959.32         0.3106      -112.6127      -34.23611      0.1477919
      4905.5000         0.5678       3748.207         0.3282      -110.5066      -32.13123      0.2017635
      4906.0000         0.5631       3531.949         0.3458      -101.9055      -23.53133      0.4222735
      4906.5000         0.5584       3124.375         0.3634       -97.0836      -18.71064       0.545881
      4907.0000         0.5537       2960.375         0.3809       -95.1471      -16.77534       0.595504
      4907.5000         0.5511       2771.531         0.3985       -93.8269      -15.45634      0.6293245
      4908.0000         0.5533       2577.145         0.4234       -93.1589      -14.78955      0.6464218
      4908.5000         0.5568       2129.387         0.4495       -92.5149      -14.14677      0.6629034
      4909.0000         0.5687       1919.563         0.4755       -92.0856      -13.71867      0.6738802
      4909.5000         0.5915       1765.361         0.5025       -92.5491      -14.18338      0.6619646
      4910.0000          0.622       1643.623         0.5303       -97.5608      -19.19628      0.5334287
      4910.5000         0.6596       1536.732         0.5582       -104.651      -26.28769      0.3515977
      4911.0000         0.7471       1409.648         0.5845        -111.24      -32.87789      0.1826182
      4911.5000         0.8562       1335.863         0.6107      -115.5027      -37.14181     0.07328699
      4912.0000         1.0005       1285.535         0.5766      -116.2808      -37.92111     0.05330482
      4912.5000         1.0613       1241.492         0.5358      -117.0592      -38.70071     0.03331502
      4913.0000         1.0694       1904.322         0.4955      -117.8373      -39.48003     0.01333266
      4913.5000         1.0678       2157.297         0.4562      -118.6627      -40.30663              0
      4914.0000         1.0544       2773.113          0.417      -119.6356      -41.28073              0
      4914.5000         1.0411       3448.117         0.3855      -120.5377      -42.18404              0
      4915.0000         1.0141       3623.699         0.3614       -120.272      -41.91956              0
      4915.5000         0.6228       3767.508         0.3373      -120.0062      -41.65496              0
      4916.0000         0.5647       4109.625         0.3147      -119.7404      -41.39037              0
      4916.5000         0.5458        4160.25         0.3028      -119.4746      -41.12577              0
      4917.0000         0.5366       4214.188         0.2909      -119.2089      -40.86127              0
      4917.5000         0.5299        4278.57          0.279      -118.6881      -40.34169              0
      4918.0000         0.5247       4199.391         0.2671      -117.9045       -39.5593     0.01130011
      4918.5000         0.5196       3983.289         0.2806      -117.1205       -38.7765     0.03137187
      4919.0000          0.515       3982.941         0.2957      -116.3369       -37.9941     0.05143327
      4919.5000         0.5105       3724.453         0.3107       -115.553      -37.21141     0.07150229
      4920.0000         0.5144        3272.34         0.3258      -114.7694      -36.42902     0.09156369
      4920.5000          0.528       3042.523         0.3504       -112.106      -33.76683      0.1598249
      4921.0000         0.5885       2097.223         0.3919      -109.2758      -30.93784      0.2323632
      4921.5000         0.7257       2012.945         0.4334      -105.4764      -27.13964      0.3297528
      4922.0000          0.801        1928.67         0.4805      -101.6587      -23.32314      0.4276117
      4922.5000         0.7957       1844.689         0.5299       -98.3937      -20.05935      0.5112987
      4923.0000         0.7862        1761.65           0.57       -94.9775      -16.64436      0.5988626
      4923.5000         0.7625        1710.48         0.6101       -90.3601      -12.02817      0.7172264
      4924.0000         0.7103       1659.311         0.6108        -86.358      -8.027275      0.8198134
      4924.5000         0.6305       1608.191         0.6112       -82.9751      -4.645576      0.9065237
      4925.0000         0.5987       1557.021         0.6115       -81.5609      -3.232582      0.9427543
      4925.5000         0.5842       1506.445         0.6082       -80.3761      -2.048988      0.9731029
