#------------------------------------------------------------------------------
# Created by    : vladimir.rabinovich
# Created on    : 09/19/2023 17:21:33
#------------------------------------------------------------------------------
~Version Information Section
VERS.           2.0     :   CWLS log ASCII Standard - VERSION 2.0
WRAP.           NO      :   One line per depth step
~Well Information Section
#MNEM       .UNIT                                         VALUE :DESCRIPTION
#------------------------------------------------------------------------------
STRT        .FT                                            3683 :START DEPTH
STOP        .FT                                            9328 :STOP DEPTH
STEP        .FT                                             0.5 :STEP      
NULL        .                                           -999.25 :NULL      
COMP        .                                SHELL OFFSHORE INC :COMPANY   
WELL        .                               OCS G11316 ST00BP00 :WELL      
FLD         .                                           WILDCAT :FIELD     
LOC         .                                                   :LOCATION  
CNTY        .                             GALVESTON LARGE BLOCK :LOCATION  
STAT        .                                             TEXAS :STATE     
CTRY        .                                     UNITED STATES :COUNTRY   
SRVC        .                                                   :SERVICE COMPANY
DATE        .                             9/13/2023 11:19:34 AM :LOG DATE  
API         .                                    42706402670000 :API NUMBER
UWI         .                                    42706402670000 :UNIQUE WELL ID
XCOORD      .                                  1097534.45360284 :SURFACE X 
YCOORD      .                                  10461685.9172371 :SURFACE Y 
LAT         .                                         28.817107 :LATITUDE  
LON         .                                        -94.695737 :LONGITUDE 
ELEV        .FT                                              91 :ELEVATION VALUE
ELEV_TYPE   .                                                KB :ELEVATION REFERENCE TYPE
~Curve Information Section
#MNEM       .UNIT                                      API CODE :CURVE DESCRIPTION
#------------------------------------------------------------------------------
DEPT        .FT                                                 :DEPTH     
CALI        .IN                                                 :          
CALI_1      .IN                                                 :          
CILD        .MMHO                                               :          
DRHO        .G/C3                                               :          
DT          .US/F                                               :          
GR          .GAPI                                               :          
GR_1        .GAPI                                               :          
GR_NORM     .GAPI                                               :GammaRay Normalized
ILD         .OHMM                                               :          
ILM         .OHMM                                               :          
NPHI        .%                                                  :          
RHOB        .G/C3                                               :          
SFL         .OHMM                                               :          
SP          .MV                                                 :          
SP_NORM     .MV                                                 :SP Normalized
VSH_GR      .V/V                                                :Volume of Shale from GR
VSH_SP      .V/V                                                :Volume of Shale from SP
~A        DEPTH           CALI         CALI_1           CILD           DRHO             DT             GR           GR_1        GR_NORM            ILD            ILM           NPHI           RHOB            SFL             SP        SP_NORM         VSH_GR         VSH_SP
# ...
      7868.0000        13.3729        13.3712       1057.793         0.0249        91.0555        64.5178        66.0031       77.98965         0.9279         0.8597        29.8836         2.4474         1.1445       -36.6705      -7.500763      0.9572267      0.8749873
      7868.5000        13.3653         13.366       1075.686         0.0333        91.1823        63.6867        64.4812       75.61169         0.9312         0.8413        29.9205         2.4533         1.1281       -35.8838      -6.221148      0.9066316      0.8963142
      7869.0000        13.3568        13.3611       1060.244         0.0267         91.325        66.1332        64.4293       75.53059         0.9303          0.827        30.0218         2.4564         1.1125       -35.1105      -4.963246      0.9049063      0.9172792
      7869.5000        13.3489        13.3603       1058.551         0.0173        91.5576        69.5513        67.3419       80.08154         0.9303         0.8181         30.179         2.4594         1.0957       -34.3521      -3.729481              1       0.937842
      7870.0000        13.3424        13.3615       1082.143         0.0136        91.8154        72.0039        69.8641       84.02246         0.9429         0.8301        30.3506         2.4661         1.1141       -34.7184      -4.317541              1       0.928041
      7870.5000         13.341        13.3643       1039.285         0.0124        92.1454        73.8065        72.1641       87.61623         0.9654          0.866        30.5516         2.4791         1.1869        -35.161      -5.029197              1      0.9161801
      7871.0000        13.3533        13.3727       962.9863         0.0083        90.5521          74.13        73.9155       90.35278         1.0253         0.9182         30.765         2.4919         1.2887       -35.6572      -5.827676              1      0.9028721
      7871.5000        13.3769        13.3873       890.1367         0.0015        89.0389        73.8705        74.6067       91.43279         1.1116         0.9699        30.9151         2.5009         1.4202       -35.4202      -5.438493              1      0.9093584
      7872.0000        13.4002          13.41       899.5996        -0.0049        87.8374        73.1022        73.9279       90.37216         1.1133         0.9433        30.9472         2.4989         1.3717       -35.0636      -4.855574              1      0.9190738
      7872.5000        13.4362        13.4374       965.0557        -0.0107        88.6938        72.2181         72.715       88.47701         1.0336         0.8839        30.9455         2.4875         1.2999       -34.9205      -4.618497              1      0.9230251
      7873.0000        13.4803        13.4641       1042.045        -0.0083        89.9532        71.2775        71.5316       86.62794         0.9466         0.8173         31.231         2.4739         1.2403       -34.9568      -4.672009              1      0.9221332
      7873.5000        13.4998        13.4812       1108.389        -0.0035        91.4885        70.3121        70.7306       85.37637         0.8751         0.7729        31.7003         2.4589         1.1819       -35.0533       -4.82304              1       0.919616
      7874.0000        13.5357        13.4901       1164.924        -0.0006        92.4928        69.2964        70.1532       84.47418         0.8461         0.7517        32.1119         2.4467         1.1112       -35.2386      -5.117917              1      0.9147014
      7874.5000        13.5459        13.5057       1188.607         0.0001        93.3363        68.0762        69.3354       83.19638         0.8353         0.7441        32.3555         2.4409         1.0357       -35.7249      -5.900356              1      0.9016607
      7875.0000        13.5533        13.5265       1193.068         0.0038        93.8865        65.9954        67.7174       80.66825          0.842         0.7477        32.4022         2.4427         1.0201       -36.5234      -7.188511              1      0.8801915
      7875.5000        13.5554         13.547       1165.959         0.0111        94.2386        63.4885        65.7263       77.55716         0.8593         0.7694        32.4995         2.4518         1.1448       -37.0273      -7.999466      0.9480247      0.8666756
      7876.0000        13.5433          13.55       1129.633         0.0187        94.6813        61.9506        62.9546       73.22639         0.8777         0.8035        32.7244         2.4601          1.251       -36.7666      -7.571892      0.8558806      0.8738018
      7876.5000        13.5239        13.5377       1096.807         0.0304        95.4366        63.1979        61.8238        71.4595         0.8963         0.8388        32.9483         2.4631         1.3101       -35.7976      -5.996986      0.8182873      0.9000502
      7877.0000        13.5001        13.5094       1046.531         0.0357        96.8932        64.7444        62.8385       73.04497         0.9095         0.8671        33.1351         2.4588         1.3339        -34.735      -4.270468      0.8520206      0.9288256
      7877.5000        13.4671        13.4741       995.0732         0.0347        98.6108        65.8365        64.6986       75.95138         0.8968         0.8805        33.3053         2.4472         1.2079       -33.7291      -2.635791      0.9138591      0.9560702
      7878.0000        13.4436        13.4513       1045.004         0.0313        100.442        66.5402        66.1018       78.14388         0.8603         0.8399        33.5236         2.4362         1.0898       -33.3837       -2.07102       0.960508       0.965483
      7878.5000         13.438        13.4513       1264.045         0.0284       101.7518        66.9019        66.8053       79.24309         0.8162         0.7468        34.1219         2.4291          1.013       -33.6288      -2.462755      0.9838955      0.9589541
      7879.0000        13.4433        13.4579       1332.508         0.0308       102.5183        67.0533        66.8632       79.33356         0.7568         0.6558         35.004         2.4284         0.9593       -33.6713      -2.526314      0.9858205      0.9578947
      7879.5000        13.4569        13.4663       1287.211          0.033       101.8837        67.1604        66.7854         79.212         0.7611         0.6509        35.8809         2.4314           0.97       -33.5004      -2.244204       0.983234      0.9625966
      7880.0000        13.4648        13.4664       1223.727          0.033       101.2491        66.6356        66.9374        79.4495         0.7988          0.756        34.9177         2.4369          0.986       -33.2895      -1.897292      0.9882873      0.9683785
      7880.5000        13.4633         13.468       1174.338         0.0278       100.6151        64.4661        66.2401       78.35997         0.8232         0.8213        33.3291         2.4414         0.9943       -33.1072      -1.596712      0.9651058      0.9733881
      7881.0000        13.4639        13.4706       1141.314         0.0186        99.9805        61.9223        63.6858       74.36888         0.8393          0.806        32.3555         2.4429         1.0062        -34.027      -3.081352      0.8801889      0.9486441
      7881.5000         13.462        13.4709       1137.531         0.0115        99.3459        59.4991        61.2451       70.55528         0.8518         0.7813         31.704         2.4443         1.0406       -35.0563      -4.743367      0.7990485      0.9209439
      7882.0000        13.4568        13.4583       1168.227         0.0118        98.7113        57.6646        58.8489       66.81122         0.8602         0.7601        31.2592         2.4468         1.0754       -35.8037      -5.948745      0.7193877      0.9008542
      7882.5000         13.442        13.4533       1160.439         0.0168        98.0767        59.8538        57.8336       65.22482           0.87         0.7772        31.2336         2.4531         1.0959        -36.028      -6.306791      0.6856346      0.8948868
