#------------------------------------------------------------------------------
# Created by    : vladimir.rabinovich
# Created on    : 09/19/2023 17:22:29
#------------------------------------------------------------------------------
~Version Information Section
VERS.           2.0     :   CWLS log ASCII Standard - VERSION 2.0
WRAP.           NO      :   One line per depth step
~Well Information Section
#MNEM       .UNIT                                         VALUE :DESCRIPTION
#------------------------------------------------------------------------------
STRT        .FT                                            1202 :START DEPTH
STOP        .FT                                           11047 :STOP DEPTH
STEP        .FT                                             0.5 :STEP      
NULL        .                                           -999.25 :NULL      
COMP        .                                 MESA PETROLEUM CO :COMPANY   
WELL        .                               OCS G03305 ST00BP00 :WELL      
FLD         .                                           WILDCAT :FIELD     
LOC         .                                                   :LOCATION  
CNTY        .                      MATAGORDA ISLAND LARGE BLOCK :LOCATION  
STAT        .                                             TEXAS :STATE     
CTRY        .                                     UNITED STATES :COUNTRY   
SRVC        .                                                   :SERVICE COMPANY
DATE        .                             9/13/2023 11:12:09 AM :LOG DATE  
API         .                                    42703400870000 :API NUMBER
UWI         .                                    42703400870000 :UNIQUE WELL ID
XCOORD      .                                  540264.325087739 :SURFACE X 
YCOORD      .                                   10226560.637492 :SURFACE Y 
LAT         .                                         28.138272 :LATITUDE  
LON         .                                        -96.413655 :LONGITUDE 
ELEV        .FT                                              80 :ELEVATION VALUE
ELEV_TYPE   .                                                KB :ELEVATION REFERENCE TYPE
~Curve Information Section
#MNEM       .UNIT                                      API CODE :CURVE DESCRIPTION
#------------------------------------------------------------------------------
DEPT        .FT                                                 :DEPTH     
CILD        .MMHO                                               :          
DPHI        .%                                                  :          
GR          .GAPI                                               :          
GR_NORM     .GAPI                                               :GammaRay Normalized
ILD         .OHMM                                               :          
ILM         .OHMM                                               :          
SFL         .OHMM                                               :          
SP          .MV                                                 :          
SP_NORM     .MV                                                 :SP Normalized
VSH_GR      .V/V                                                :Volume of Shale from GR
VSH_SP      .V/V                                                :Volume of Shale from SP
~A        DEPTH           CILD           DPHI             GR        GR_NORM            ILD            ILM            SFL             SP        SP_NORM         VSH_GR         VSH_SP
# ...
      4487.0000        1444.32        -999.25        63.9487        79.7976         0.7284        -999.25         1.2377       -96.2068        3.39431      0.9956936              1
      4487.5000       1455.182        -999.25        63.7842        79.6374         0.7266        -999.25         1.2344       -95.9786       3.611359      0.9922851              1
      4488.0000       1466.043        -999.25        63.7474       79.60155         0.7248        -999.25         1.2629       -95.8728       3.706009      0.9915223              1
      4488.5000       1481.441        -999.25        64.3059       80.14546         0.7219        -999.25          1.303       -95.8743       3.693359              1              1
      4489.0000       1497.307        -999.25         64.901       80.72504          0.717        -999.25          1.288       -96.2634       3.293106              1              1
      4489.5000       1511.994        -999.25        65.2432       81.05829         0.7121        -999.25         1.1989        -97.051       2.494354              1              1
      4490.0000       1524.557        -999.25        64.4678       80.30315         0.7079        -999.25         1.1684       -98.5885      0.9457016              1              1
      4490.5000       1537.119        -999.25         63.957       79.80571          0.704        -999.25          1.189       -99.9856     -0.4625549      0.9958662              1
      4491.0000       1543.711        -999.25        63.7803       79.63359         0.7019        -999.25         1.1908      -100.2765      -0.764595      0.9922041              1
      4491.5000       1550.301        -999.25        64.1095       79.95422         0.7015        -999.25          1.197      -100.3074     -0.8066559      0.9990259              1
      4492.0000       1557.264        -999.25        64.1029       79.94778         0.7012        -999.25         1.1798      -100.9961      -1.506508      0.9988889      0.9920858
      4492.5000       1565.547        -999.25        63.5945       79.45266          0.693        -999.25         1.1056      -102.1864      -2.707954      0.9883544      0.9733132
      4493.0000       1617.906        -999.25         62.179       78.07414         0.6817        -999.25         1.1193       -103.123      -3.655708      0.9590243      0.9585046
      4493.5000       1737.855        -999.25        60.7191       76.65238         0.6133        -999.25         1.1154      -104.4451       -4.98896      0.9287741      0.9376725
      4494.0000       1906.332        -999.25        60.1646       76.11237         0.5347        -999.25         1.0359      -105.4297      -5.984711      0.9172845      0.9221139
      4494.5000       2320.305        -999.25        60.5751       76.51214         0.4665        -999.25         0.9626       -106.327      -6.893166      0.9257902      0.9079193
      4495.0000       2643.309        -999.25        60.8668       76.79622         0.4088        -999.25         0.8349      -108.9512      -9.528519      0.9318345      0.8667419
      4495.5000       2875.934        -999.25        59.6729       75.63351         0.3614        -999.25         0.7502      -122.1685      -22.75697       0.907096      0.6600474
      4496.0000       3037.141        -999.25        58.5665       74.55602         0.3431        -999.25         0.8296      -126.1335      -26.73312      0.8841705      0.5979201
      4496.5000       3123.027        -999.25        58.8551       74.83708         0.3339        -999.25         0.9795      -125.0178      -25.62857      0.8901507      0.6151786
      4497.0000       3124.371        -999.25          59.66       75.62096         0.3287        -999.25         0.9625      -122.0156      -22.63752      0.9068289      0.6619138
      4497.5000       3007.672        -999.25        60.8083       76.73925          0.345        -999.25         0.6803      -110.4209      -11.05397      0.9306223      0.8429067
      4498.0000       2838.605        -999.25        61.5284       77.44054         0.3697        -999.25         0.6016      -101.9525      -2.596725      0.9455433      0.9750512
      4498.5000       2622.875        -999.25        62.1322       78.02856         0.4121        -999.25         0.5872       -96.3644       2.980225      0.9580544              1
      4499.0000       2351.348        -999.25        62.8596       78.73696         0.4665        -999.25         0.5948       -93.5122       5.821274      0.9731268              1
      4499.5000       2114.398        -999.25        63.7126       79.56768         0.5211        -999.25         0.6115       -95.2072        4.11512      0.9908017              1
      4500.0000       1879.219        -999.25        64.2566       80.09746         0.5668        -999.25         0.6212       -98.0309       1.280273              1              1
      4500.5000       1717.717        -999.25        64.6985        80.5278         0.6036        -999.25         0.6223       -99.3197    -0.01968384              1              1
      4501.0000       1654.746        -999.25        64.7382       80.56646         0.6338        -999.25         0.6253        -99.516     -0.2271347              1              1
      4501.5000       1613.953        -999.25        64.4373       80.27343         0.6601        -999.25         0.6468      -100.6232      -1.345482              1      0.9929494
      4502.0000       1582.295        -999.25        63.8773       79.72807         0.6762        -999.25         0.7223      -101.8615       -2.59494      0.9942143      0.9674502
      4502.5000       1553.488        -999.25         63.955       79.80374         0.6895        -999.25         0.7797      -103.5415      -4.286087      0.9958243       0.932937
      4503.0000        1524.68        -999.25        64.2186       80.06046         0.6947        -999.25         0.7769      -104.2278      -4.983536              1      0.9187034
      4503.5000       1515.563        -999.25         65.053       80.87306         0.6999        -999.25         0.7559      -103.4886      -4.255493              1      0.9335614
      4504.0000       1507.188        -999.25        65.9854       82.32441         0.6967        -999.25         0.7376      -102.9387      -3.716743              1      0.9445562
      4504.5000       1517.654        -999.25        67.0901       83.08272         0.6922        -999.25         0.7229      -102.4778      -3.266991              1      0.9537349
      4505.0000         1540.9        -999.25        68.1191       83.78904         0.6879        -999.25         0.7187      -102.2178      -3.018143              1      0.9588134
      4505.5000       1556.127        -999.25        66.4624       82.65186         0.6858        -999.25         0.7245      -101.7937      -2.605202              1      0.9672408
      4506.0000       1543.271        -999.25        63.7914        80.8184         0.6838        -999.25         0.7484      -101.2413       -2.06395              1      0.9782867
      4506.5000       1540.813        -999.25        62.2559       79.76439         0.6867        -999.25         0.7491      -100.9706      -1.804398       0.994987      0.9835837
      4507.0000        1519.57        -999.25         61.265       79.08422         0.6924        -999.25          0.742      -100.6912      -1.536156      0.9805154       0.989058
      4507.5000       1485.482        -999.25        60.6213       78.64235         0.6982        -999.25         0.7366      -100.3579      -1.214005      0.9711138      0.9956326
      4508.0000       1480.336        -999.25        59.3898       77.79702         0.7063        -999.25          0.751      -100.1613      -1.028557      0.9531281      0.9994172
      4508.5000       1482.332        -999.25        58.0543       76.88029          0.713        -999.25         0.7782      -100.1738      -1.052208      0.9336233      0.9989345
      4509.0000       1492.795        -999.25        56.9089       76.09406         0.7129        -999.25         0.7941      -100.2596      -1.149155       0.916895      0.9969561
