#------------------------------------------------------------------------------
# Created by    : vladimir.rabinovich
# Created on    : 09/19/2023 17:20:36
#------------------------------------------------------------------------------
~Version Information Section
VERS.           2.0     :   CWLS log ASCII Standard - VERSION 2.0
WRAP.           NO      :   One line per depth step
~Well Information Section
#MNEM       .UNIT                                         VALUE :DESCRIPTION
#------------------------------------------------------------------------------
STRT        .FT                                             504 :START DEPTH
STOP        .FT                                            9762 :STOP DEPTH
STEP        .FT                                             0.5 :STEP      
NULL        .                                           -999.25 :NULL      
COMP        .                                      SHELL OIL CO :COMPANY   
WELL        .                                OCS 00703 ST00BP00 :WELL      
FLD         .                                           WILDCAT :FIELD     
LOC         .                                                   :LOCATION  
CNTY        .                             GALVESTON LARGE BLOCK :LOCATION  
STAT        .                                             TEXAS :STATE     
CTRY        .                                     UNITED STATES :COUNTRY   
SRVC        .                                                   :SERVICE COMPANY
DATE        .                             9/13/2023 11:19:25 AM :LOG DATE  
API         .                                    42706000420000 :API NUMBER
UWI         .                                    42706000420000 :UNIQUE WELL ID
XCOORD      .                                  1132503.99790541 :SURFACE X 
YCOORD      .                                  10523078.0194322 :SURFACE Y 
LAT         .                                         28.987276 :LATITUDE  
LON         .                                        -94.589113 :LONGITUDE 
ELEV        .FT                                              83 :ELEVATION VALUE
ELEV_TYPE   .                                                KB :ELEVATION REFERENCE TYPE
~Curve Information Section
#MNEM       .UNIT                                      API CODE :CURVE DESCRIPTION
#------------------------------------------------------------------------------
DEPT        .FT                                                 :DEPTH     
ASN         .OHMM                                               :          
CILD        .MMHO                                               :          
DT          .US/F                                               :          
ILD         .OHMM                                               :          
LAT         .OHMM                                               :          
LN          .OHMM                                               :          
SP          .MV                                                 :          
SP_NORM     .MV                                                 :SP Normalized
VSH_SP      .V/V                                                :Volume of Shale from SP
~A        DEPTH            ASN           CILD             DT            ILD            LAT             LN             SP        SP_NORM         VSH_SP
# ...
      2359.0000         0.4095        -999.25       152.7309        -999.25         0.0138         0.4775       -68.8621      -22.30267      0.1078931
      2359.5000         0.4084        -999.25       152.1609        -999.25         0.0163         0.4764       -69.0995      -22.54158     0.09833664
      2360.0000          0.408        -999.25       151.6994        -999.25         0.0187         0.4752       -69.3369      -22.78049     0.08878051
      2360.5000         0.4124        -999.25       151.5051        -999.25         0.0211         0.4741       -69.5743       -23.0194     0.07922394
      2361.0000         0.4183        -999.25       151.4231        -999.25         0.0235         0.4731       -69.8118       -23.2584     0.06966385
      2361.5000         0.4251        -999.25       151.7553        -999.25         0.0262         0.4722       -70.0278      -23.47591     0.06096344
      2362.0000          0.432        -999.25       152.2891        -999.25         0.0296         0.4713       -70.2333      -23.68292     0.05268326
      2362.5000         0.4366        -999.25       152.6491        -999.25          0.033         0.4703        -70.391      -23.84212       0.046315
      2363.0000         0.4398        -999.25       152.8931        -999.25         0.0364         0.4694       -70.2313      -23.68393     0.05264267
      2363.5000         0.4429        -999.25       152.9746        -999.25         0.0398         0.4684       -70.0718      -23.52594      0.0589624
      2364.0000         0.4457        -999.25       152.8928        -999.25         0.0432         0.4675       -69.7014      -23.15705     0.07371811
      2364.5000         0.4467        -999.25       152.7153        -999.25         0.0466         0.4665       -69.2351      -22.69225     0.09230988
      2365.0000         0.4477        -999.25        152.299        -999.25           0.05         0.4656       -68.7687      -22.22736      0.1109056
      2365.5000         0.4488        -999.25       151.8827        -999.25         0.0531         0.4647       -68.2316      -21.69176      0.1323294
      2366.0000         0.4506        -999.25       151.5615        -999.25          0.056         0.4636       -67.5371      -20.99878       0.160049
      2366.5000         0.4523        -999.25       151.2155        -999.25         0.0588         0.4624       -67.9806      -21.44378      0.1422488
      2367.0000         0.4567        -999.25       150.9478        -999.25         0.0616         0.4612       -68.4242      -21.88889      0.1244444
      2367.5000         0.4612        -999.25       150.7155        -999.25         0.0644           0.46       -68.8678      -22.33399      0.1066403
      2368.0000         0.4675        -999.25       150.5507        -999.25         0.0673         0.4589       -69.4624      -22.93011     0.08279572
      2368.5000          0.476        -999.25       150.3588        -999.25         0.0693         0.4577       -70.1028      -23.57201      0.0571196
      2369.0000         0.4897        -999.25       150.2769        -999.25         0.0647         0.4565       -70.7434      -24.21412     0.03143524
      2369.5000         0.5037        -999.25       150.2768        -999.25           0.06         0.4553       -70.8021      -24.27433     0.02902695
      2370.0000         0.4954        -999.25        150.195        -999.25         0.0554         0.4548       -70.4674      -23.94113     0.04235474
      2370.5000          0.486        -999.25       150.3203        -999.25         0.0501         0.4551       -70.1327      -23.60794     0.05568253
      2371.0000         0.4741        -999.25       150.4397        -999.25         0.0393         0.4555       -69.4869      -22.96365     0.08145417
      2371.5000         0.4623        -999.25        150.603        -999.25         0.0284         0.4558       -68.8041      -22.28235      0.1087059
      2372.0000         0.4503        -999.25       150.7391        -999.25         0.0176         0.4562       -68.1213      -21.60106      0.1359576
      2372.5000         0.4371        -999.25       150.9295        -999.25         0.0068         0.4565       -67.5527      -21.03396      0.1586415
      2373.0000         0.4216        -999.25       151.5013        -999.25         0.0003         0.4569       -67.1398      -20.62257       0.175097
      2373.5000         0.4261        -999.25       150.9456        -999.25              0         0.4572       -66.7505      -20.23478      0.1906087
      2374.0000         0.4307        -999.25       150.8474        -999.25              0         0.4575       -66.8599      -20.34569      0.1861725
      2374.5000         0.4375        -999.25       150.7655        -999.25              0         0.4578       -68.1072      -21.59449      0.1362202
      2375.0000         0.4442        -999.25       150.7654        -999.25              0         0.4581       -68.7278       -22.2166      0.1113361
      2375.5000         0.4496        -999.25        150.872        -999.25              0         0.4585       -69.2643      -22.75461     0.08981568
      2376.0000         0.4456        -999.25       150.9843        -999.25              0         0.4588       -69.6213      -23.11312     0.07547531
      2376.5000         0.4415        -999.25       151.4673        -999.25              0         0.4591       -69.7427      -23.23602     0.07055908
      2377.0000         0.4374        -999.25       152.1895        -999.25              0         0.4594        -69.864      -23.35883     0.06564682
      2377.5000         0.4334        -999.25       151.4938        -999.25              0         0.4595       -69.9854      -23.48174     0.06073059
      2378.0000         0.4293        -999.25       150.8462        -999.25          0.002         0.4593       -70.1028      -23.60064     0.05597427
      2378.5000          0.427        -999.25       150.7643        -999.25         0.0052         0.4591       -70.1831      -23.68245     0.05270202
      2379.0000         0.4305        -999.25       150.8459        -999.25         0.0084         0.4589       -70.2635      -23.76435     0.04942581
      2379.5000          0.434        -999.25       150.9275        -999.25         0.0077         0.4587       -70.3439      -23.84627     0.04614929
      2380.0000         0.4393        -999.25       151.2976        -999.25          0.004         0.4585       -70.5536      -24.05747     0.03770126
      2380.5000         0.4447        -999.25       152.0866        -999.25         0.0004         0.4583       -70.8809      -24.38628     0.02454895
      2381.0000           0.45        -999.25       152.5164        -999.25              0         0.4581        -71.208      -24.71489     0.01140457
      2381.5000          0.448        -999.25       152.8738        -999.25              0         0.4579       -71.5352      -25.04359              0
      2382.0000         0.4453        -999.25       152.9861        -999.25              0         0.4577       -72.0671        -25.577              0
      2382.5000         0.4426        -999.25        152.969        -999.25              0         0.4575       -72.6028       -26.1142              0
      2383.0000         0.4399        -999.25       152.8872        -999.25              0         0.4573       -72.9935      -26.50641              0
      2383.5000         0.4369        -999.25       152.7777        -999.25              0         0.4571       -72.7422      -26.25663              0
      2384.0000         0.4322        -999.25       152.7235        -999.25              0         0.4569        -72.126      -25.64193              0
      2384.5000         0.4276        -999.25       152.7233        -999.25              0         0.4567       -71.5101      -25.02754              0
      2385.0000         0.4229        -999.25       153.0233        -999.25         0.0005         0.4565       -71.0367      -24.55564     0.01777435
