#------------------------------------------------------------------------------
# Created by    : vladimir.rabinovich
# Created on    : 09/19/2023 17:22:29
#------------------------------------------------------------------------------
~Version Information Section
VERS.           2.0     :   CWLS log ASCII Standard - VERSION 2.0
WRAP.           NO      :   One line per depth step
~Well Information Section
#MNEM       .UNIT                                         VALUE :DESCRIPTION
#------------------------------------------------------------------------------
STRT        .FT                                            1202 :START DEPTH
STOP        .FT                                           11047 :STOP DEPTH
STEP        .FT                                             0.5 :STEP      
NULL        .                                           -999.25 :NULL      
COMP        .                                 MESA PETROLEUM CO :COMPANY   
WELL        .                               OCS G03305 ST00BP00 :WELL      
FLD         .                                           WILDCAT :FIELD     
LOC         .                                                   :LOCATION  
CNTY        .                      MATAGORDA ISLAND LARGE BLOCK :LOCATION  
STAT        .                                             TEXAS :STATE     
CTRY        .                                     UNITED STATES :COUNTRY   
SRVC        .                                                   :SERVICE COMPANY
DATE        .                             9/13/2023 11:12:09 AM :LOG DATE  
API         .                                    42703400870000 :API NUMBER
UWI         .                                    42703400870000 :UNIQUE WELL ID
XCOORD      .                                  540264.325087739 :SURFACE X 
YCOORD      .                                   10226560.637492 :SURFACE Y 
LAT         .                                         28.138272 :LATITUDE  
LON         .                                        -96.413655 :LONGITUDE 
ELEV        .FT                                              80 :ELEVATION VALUE
ELEV_TYPE   .                                                KB :ELEVATION REFERENCE TYPE
~Curve Information Section
#MNEM       .UNIT                                      API CODE :CURVE DESCRIPTION
#------------------------------------------------------------------------------
DEPT        .FT                                                 :DEPTH     
CILD        .MMHO                                               :          
DPHI        .%                                                  :          
GR          .GAPI                                               :          
GR_NORM     .GAPI                                               :GammaRay Normalized
ILD         .OHMM                                               :          
ILM         .OHMM                                               :          
SFL         .OHMM                                               :          
SP          .MV                                                 :          
SP_NORM     .MV                                                 :SP Normalized
VSH_GR      .V/V                                                :Volume of Shale from GR
VSH_SP      .V/V                                                :Volume of Shale from SP
~A        DEPTH           CILD           DPHI             GR        GR_NORM            ILD            ILM            SFL             SP        SP_NORM         VSH_GR         VSH_SP
      1202.0000       348.4917        -999.25        48.2715       65.16795          4.267        -999.25         0.4542      -150.8723       -8.35733      0.6844245       0.746299
      1202.5000        475.707        -999.25        48.0413       64.82716         2.8255        -999.25         0.4887      -148.3242      -5.809235      0.6771737      0.8341643
      1203.0000       828.4326        -999.25        47.8704       64.57416          1.886        -999.25          0.547      -147.3142      -4.799225      0.6717906      0.8689923
      1203.5000       1206.965        -999.25        48.6961       65.79652         0.8108        -999.25         0.6268      -147.5352      -5.020233      0.6977982      0.8613713
      1204.0000       1408.262        -999.25        51.9404       70.59937         0.7962        -999.25         0.7006      -147.3762      -4.861237      0.7999867      0.8668539
      1204.5000       1381.516        -999.25        54.3961       74.23474         0.7835        -999.25         0.7883      -146.7273      -4.212326      0.8773349      0.8892301
      1205.0000       1489.477        -999.25        55.8619       76.40469         0.7184        -999.25         0.9277      -146.3591      -3.844131      0.9235041      0.9019265
      1205.5000       1614.756        -999.25        56.6919       77.63342         0.6924        -999.25         1.0147      -145.8235      -3.308533      0.9496473      0.9203954
      1206.0000       1600.072        -999.25        57.3576       78.61892          0.698        -999.25         0.9398      -145.6365      -3.121536      0.9706153      0.9268436
      1206.5000       1540.584        -999.25        57.7778       79.24099         0.7199        -999.25          0.772      -145.4224      -2.907425      0.9838508      0.9342268
      1207.0000       1473.918        -999.25        57.1965       78.38044         0.7379        -999.25         0.7257      -144.9985      -2.483536      0.9655412      0.9488436
      1207.5000       1450.838        -999.25        54.3557       74.17494         0.7518        -999.25         0.7862       -144.814      -2.299026      0.8760626       0.955206
      1208.0000       1457.691        -999.25        52.0615       70.77862         0.7544        -999.25         0.9697      -144.9521      -2.437134      0.8038004      0.9504437
      1208.5000       1492.068        -999.25        50.0696       67.82983         0.7522        -999.25         1.2453      -144.9094      -2.394424      0.7410601      0.9519164
      1209.0000       1510.336        -999.25        49.2722       66.64938         0.7399        -999.25         1.4076      -144.5076       -1.99263      0.7159443      0.9657714
      1209.5000       1512.541        -999.25        50.7769       68.87693         0.7304        -999.25         1.1385      -144.0669      -1.551926      0.7633389      0.9809681
      1210.0000        1506.93        -999.25        53.3301       72.65663         0.7211        -999.25         0.7972      -144.1917      -1.676727      0.8437581      0.9766646
      1210.5000        1554.75        -999.25        55.1294       75.32031         0.6833        -999.25         0.6239      -144.2937      -1.778732      0.9004322      0.9731472
      1211.0000         1640.5        -999.25        56.5051        77.3569         0.6429        -999.25         0.6284      -144.2385      -1.723526      0.9437639      0.9750508
      1211.5000       1729.408        -999.25        57.3945       78.67355         0.6179        -999.25          0.654      -144.3711      -1.856125      0.9717777      0.9704785
      1212.0000       1792.262        -999.25        57.8816       79.39465          0.599        -999.25         0.6774      -144.5127      -1.997726      0.9871203      0.9655957
      1212.5000       1806.822        -999.25        58.6318       80.50523         0.5827        -999.25         0.6992      -145.1035      -2.588531              1       0.945223
      1213.0000       1790.898        -999.25        59.2435        81.4108         0.5925        -999.25         0.7269      -145.6743      -3.159332              1      0.9255403
      1213.5000       1763.439        -999.25        59.0052         81.058          0.606        -999.25         0.7352      -145.6614      -3.146439              1      0.9259849
      1214.0000       1732.307        -999.25        58.2935       80.00441         0.6198        -999.25         0.7229       -145.499      -2.984024              1      0.9315854
      1214.5000        1698.41        -999.25        57.2299       78.42989         0.6343        -999.25         0.7079      -145.3723       -2.85733      0.9665935      0.9359542
      1215.0000       1659.689        -999.25        56.1417       76.81893         0.6497        -999.25          0.694      -145.3352      -2.820236      0.9323177      0.9372332
      1215.5000       1618.369        -999.25        55.3133       75.59256         0.6683        -999.25         0.6895      -145.4551      -2.940125      0.9062247      0.9330992
      1216.0000       1579.949        -999.25        55.2252       75.46214         0.6909        -999.25         0.6889      -145.8208      -3.305832      0.9034498      0.9204885
      1216.5000       1563.971        -999.25        54.3958       74.23431         0.7083        -999.25         0.6883      -145.7151      -3.200134      0.8773257      0.9241333
      1217.0000       1546.584        -999.25        53.3638       72.70655         0.7213        -999.25         0.7715       -145.239       -2.72403      0.8448202      0.9405507
      1217.5000       1525.582        -999.25        53.2424       72.52683         0.7248        -999.25         0.9028      -144.1985      -1.683533      0.8409964      0.9764299
      1218.0000       1484.217        -999.25        54.1403       73.85606         0.7274        -999.25          0.878      -144.1641      -1.649124      0.8692778      0.9776164
      1218.5000       1432.826        -999.25        55.7975       76.30938         0.7282        -999.25         0.7838       -144.311      -1.796036      0.9214762      0.9725505
      1219.0000       1424.104        -999.25        57.1986       78.38354         0.7238        -999.25          0.751      -144.3145       -1.79953      0.9656072        0.97243
      1219.5000       1459.025        -999.25        57.9105       79.43742         0.7162        -999.25         0.8356      -144.3308      -1.815826      0.9880303       0.971868
      1220.0000       1548.594        -999.25        58.7361       80.65966         0.7015        -999.25         0.9306      -144.5049      -1.989929              1      0.9658645
      1220.5000       1620.986        -999.25        59.6971        82.0823         0.6839        -999.25         0.8667      -145.1965      -2.681534              1      0.9420161
      1221.0000       1690.871        -999.25        60.9022        83.8663         0.6619        -999.25         0.7825      -145.6343      -3.119324              1      0.9269199
      1221.5000       1751.281        -999.25        62.0974       85.63567         0.6285        -999.25         0.6454      -145.9805       -3.46553              1      0.9149817
      1222.0000       1816.863        -999.25        61.0554       84.09312         0.6059        -999.25         0.5926      -146.4216      -3.906631              1      0.8997713
      1222.5000       1874.988        -999.25        60.3115       82.99183          0.589        -999.25         0.5774      -146.7727      -4.257736              1      0.8876643
      1223.0000       1920.117        -999.25        59.7935       82.22501         0.5817        -999.25         0.5601      -146.9624      -4.447433              1       0.881123
      1223.5000       1879.143        -999.25        59.3799       81.61272         0.5773        -999.25         0.5564      -146.8752      -4.360229              1        0.88413
      1224.0000        1826.83        -999.25        58.7286       80.64854         0.5812        -999.25         0.5836      -146.6167       -4.10173              1      0.8930438
