#------------------------------------------------------------------------------
# Created by    : vladimir.rabinovich
# Created on    : 09/19/2023 17:19:44
#------------------------------------------------------------------------------
~Version Information Section
VERS.           2.0     :   CWLS log ASCII Standard - VERSION 2.0
WRAP.           NO      :   One line per depth step
~Well Information Section
#MNEM       .UNIT                                         VALUE :DESCRIPTION
#------------------------------------------------------------------------------
STRT        .FT                                             490 :START DEPTH
STOP        .FT                                           13420 :STOP DEPTH
STEP        .FT                                             0.5 :STEP      
NULL        .                                           -999.25 :NULL      
COMP        .                                 MESA PETROLEUM CO :COMPANY   
WELL        .                                     ST TR 00012-L :WELL      
FLD         .                                           WILDCAT :FIELD     
LOC         .                                                   :LOCATION  
CNTY        .                           HIGH ISLAND LARGE BLOCK :LOCATION  
STAT        .                                             TEXAS :STATE     
CTRY        .                                     UNITED STATES :COUNTRY   
SRVC        .                                                   :SERVICE COMPANY
DATE        .                             9/13/2023 11:19:15 AM :LOG DATE  
API         .                                    42708302120000 :API NUMBER
UWI         .                                    42708302120000 :UNIQUE WELL ID
XCOORD      .                                  1361115.25412243 :SURFACE X 
YCOORD      .                                  10723579.9964947 :SURFACE Y 
LAT         .                                        29.5453665 :LATITUDE  
LON         .                                       -93.8786547 :LONGITUDE 
ELEV        .FT                                              80 :ELEVATION VALUE
ELEV_TYPE   .                                                KB :ELEVATION REFERENCE TYPE
~Curve Information Section
#MNEM       .UNIT                                      API CODE :CURVE DESCRIPTION
#------------------------------------------------------------------------------
DEPT        .FT                                                 :DEPTH     
ASFL        .OHMM                                               :          
CILD        .MMHO                                               :          
GR          .GAPI                                               :          
GR_NORM     .GAPI                                               :GammaRay Normalized
ILD         .OHMM                                               :          
SP          .MV                                                 :          
SP_NORM     .MV                                                 :SP Normalized
VSH_GR      .V/V                                                :Volume of Shale from GR
~A        DEPTH           ASFL           CILD             GR        GR_NORM            ILD             SP        SP_NORM         VSH_GR
# ...
      9930.0000         1.2669       3125.902        71.4652       78.45846         0.3468       -77.0361       1.415619      0.9672012
      9930.5000         1.2975       3159.398        71.7872       78.79484         0.3446       -76.8203       1.629784      0.9743583
      9931.0000         1.3282       3186.418        72.1085       79.13052         0.3423       -77.9658      0.4826508      0.9815003
      9931.5000         1.3503       3158.074        72.2708        79.3072         0.3401        -78.925     -0.4781952      0.9852595
      9932.0000          1.356       3071.668        72.4115       79.46228         0.3379       -79.6388      -1.193634      0.9885591
      9932.5000         1.3617       3017.625        72.5519       79.61707         0.3356        -79.653      -1.209473      0.9918525
      9933.0000         1.3674       2963.684        72.9457       80.02525         0.3334       -79.4094     -0.9675064              1
      9933.5000         1.3753       2909.738        73.5369       80.63082         0.3345       -78.9305      -0.490242              1
      9934.0000         1.3838       2880.414        74.4028        81.5111          0.337       -78.4436   -0.004989624              1
      9934.5000         1.3845       2859.031        75.7225       82.84518         0.3396       -78.0605      0.3764725              1
      9935.0000         1.3721       2837.602        77.0398       84.17686         0.3421       -77.8364       0.598938              1
      9935.5000         1.3605       2815.586        78.1694       85.32085         0.3447       -77.6123      0.8214035              1
      9936.0000         1.3531       2792.977        79.1273       86.29312         0.3472       -77.2533       1.178757              1
      9936.5000         1.3662       2770.813        79.8976        87.0778         0.3497       -76.5125       1.917931              1
      9937.0000         1.3793       2749.527        79.3163       86.51088         0.3523       -76.4879       1.940887              1
      9937.5000         1.3925       2728.246        76.7847       83.99366         0.3548         -77.29       1.137146              1
      9938.0000         1.4056       2710.715        74.2581       81.48145         0.3573       -78.0922      0.3333054              1
      9938.5000         1.4117       2701.113        72.7812       80.01892         0.3599       -78.8943     -0.4704285              1
      9939.0000         1.4125       2700.109        71.5278       78.77991         0.3624       -78.7803     -0.3580627      0.9740406
      9939.5000          1.383       2706.422        70.2767       77.54319         0.3652       -77.7279      0.6926956      0.9477274
      9940.0000         1.3554       2712.738        71.3879       78.66876         0.3681       -76.7579       1.661057      0.9716758
      9940.5000         1.3278       2719.051        72.9285       80.22374          0.371       -76.8462       1.571121              1
      9941.0000         1.2999       2725.363         74.469       81.77863         0.3738       -77.0377       1.377983              1
      9941.5000         1.2949       2732.414        75.7913        83.1153         0.3767       -77.2695       1.144539              1
      9942.0000         1.3138       2740.199        77.1061       84.44449         0.3795       -77.5016      0.9107971              1
      9942.5000         1.3326       2747.996        78.4185       85.77127         0.3824       -77.8021      0.6086655              1
      9943.0000         1.3515       2755.793        78.1952       85.56235         0.3852       -78.1167      0.2924271              1
      9943.5000         1.3703       2742.859        76.2867       83.66822         0.3881       -78.4313    -0.02381134              1
      9944.0000         1.3815       2717.359        74.3684       81.76431         0.3909       -77.1245       1.281357              1
      9944.5000         1.3879       2691.809        72.4526       79.86288         0.3938        -75.882       2.522209      0.9970827
      9945.0000         1.3938        2668.59        71.0127       78.43737         0.3967       -76.0865       2.316071      0.9667526
      9945.5000         1.3879       2654.957        69.7983       77.23735         0.3995       -76.5885       1.812431      0.9412202
      9946.0000          1.382       2641.324        69.2538       76.70723         0.4011        -77.187       1.212303      0.9299411
      9946.5000         1.3761       2627.691        69.5482       77.01601         0.4023       -77.7867      0.6109619      0.9365109
      9947.0000         1.3702       2614.059        69.8431       77.32529         0.4036       -78.3866    0.009422302      0.9430912
      9947.5000         1.3642       2603.172        70.1382       77.63477         0.4048       -78.3346     0.05977631      0.9496759
      9948.0000         1.3613       2594.012        70.4325       77.94345         0.4061       -78.2444      0.1483459      0.9562436
      9948.5000         1.3624       2591.574        70.6674       78.19273         0.4074       -77.8395      0.5516052      0.9615474
      9949.0000         1.3726       2609.891        70.5264       78.06611         0.4086        -78.611     -0.2215347      0.9588534
      9949.5000         1.4071       2626.563        70.3856       77.93969         0.4099       -79.9651      -1.577278      0.9561636
      9950.0000          1.378       2641.691        70.2657       77.83417         0.4111        -81.589      -3.202805      0.9539185
      9950.5000         1.3488        2656.82        70.6165       78.19935         0.4124       -81.5645      -3.179947      0.9616883
      9951.0000         1.3218       2671.949        70.9673       78.56453         0.4137       -79.4893      -1.106392       0.969458
      9951.5000         1.3061       2687.078         71.318       78.92961         0.4149       -77.4139      0.9673767      0.9772258
      9952.0000          1.322       2702.207        71.6897       79.31569         0.4162       -77.0134       1.366241      0.9854402
      9952.5000         1.3379       2713.055        72.0699       79.71027         0.4174        -77.217       1.160995      0.9938356
      9953.0000         1.3538       2720.742        72.9088       80.56355         0.4187       -77.7131      0.6632614              1
      9953.5000         1.3697        2728.43        73.4523       81.12143         0.4199       -78.3915    -0.01677704              1
      9954.0000         1.3855       2729.215        72.8145       80.49801         0.4212       -79.0697     -0.6966171              1
      9954.5000         1.3875       2722.289        72.1669       79.86479         0.4225        -79.748      -1.376556      0.9971232
      9955.0000         1.3703       2715.359        71.4885       79.20078         0.4237       -80.2545      -1.884697      0.9829952
      9955.5000         1.3531       2708.188        70.9819       78.70856          0.425       -80.2848      -1.916626      0.9725225
      9956.0000         1.3358       2699.348        71.5585       79.29954         0.4262       -80.3149      -1.948372      0.9850966
      9956.5000         1.3153       2690.512        72.1349       79.89032         0.4275       -80.1326      -1.767708      0.9976664
      9957.0000         1.3154       2681.672        71.9117       79.68149         0.4275        -79.772      -1.408752      0.9932231
      9957.5000         1.3321       2672.832        71.0494       78.83357         0.4244       -79.4114      -1.049782      0.9751824
      9958.0000         1.3494       2663.992        70.1871       77.98566         0.4213       -79.0507     -0.6907196      0.9571416
      9958.5000         1.3718       2655.152         69.325       77.13793         0.4182       -78.6901     -0.3317642      0.9391049
      9959.0000         1.3941       2636.934        68.9589       76.78622         0.4151       -78.3933    -0.03659821      0.9316216
