#------------------------------------------------------------------------------
# Created by    : vladimir.rabinovich
# Created on    : 09/19/2023 17:22:45
#------------------------------------------------------------------------------
~Version Information Section
VERS.           2.0     :   CWLS log ASCII Standard - VERSION 2.0
WRAP.           NO      :   One line per depth step
~Well Information Section
#MNEM       .UNIT                                         VALUE :DESCRIPTION
#------------------------------------------------------------------------------
STRT        .FT                                            3370 :START DEPTH
STOP        .FT                                           10136 :STOP DEPTH
STEP        .FT                                             0.5 :STEP      
NULL        .                                           -999.25 :NULL      
COMP        .                                  W&T OFFSHORE INC :COMPANY   
WELL        .                               OCS G04565 ST00BP00 :WELL      
FLD         .                              GALVESTON BLOCK 0303 :FIELD     
LOC         .                                                   :LOCATION  
CNTY        .                             GALVESTON LARGE BLOCK :LOCATION  
STAT        .                                             TEXAS :STATE     
CTRY        .                                     UNITED STATES :COUNTRY   
SRVC        .                                                   :SERVICE COMPANY
DATE        .                             9/13/2023 11:19:27 AM :LOG DATE  
API         .                                    42706401000000 :API NUMBER
UWI         .                                    42706401000000 :UNIQUE WELL ID
XCOORD      .                                  988505.563749319 :SURFACE X 
YCOORD      .                                  10486369.8338556 :SURFACE Y 
LAT         .                                        28.8802688 :LATITUDE  
LON         .                                       -95.0374578 :LONGITUDE 
ELEV        .FT                                              93 :ELEVATION VALUE
ELEV_TYPE   .                                                KB :ELEVATION REFERENCE TYPE
~Curve Information Section
#MNEM       .UNIT                                      API CODE :CURVE DESCRIPTION
#------------------------------------------------------------------------------
DEPT        .FT                                                 :DEPTH     
DPHI        .DEC                                                :          
DRHO        .G/C3                                               :          
DT          .US/F                                               :          
GR          .GAPI                                               :          
GR_1        .GAPI                                               :          
GR_NORM     .GAPI                                               :GammaRay Normalized
ILD         .OHMM                                               :          
NPHI        .DEC                                                :          
RHOB        .G/C3                                               :          
SP          .MV                                                 :          
SP_NORM     .MV                                                 :SP Normalized
VSH_GR      .V/V                                                :Volume of Shale from GR
VSH_SP      .V/V                                                :Volume of Shale from SP
~A        DEPTH           DPHI           DRHO             DT             GR           GR_1        GR_NORM            ILD           NPHI           RHOB             SP        SP_NORM         VSH_GR         VSH_SP
# ...
      9222.0000        -999.25        -999.25       128.2087        -999.25        69.1526       86.56026         0.3079        -999.25        -999.25       -46.2916     -0.1607361              1      0.9977038
      9222.5000        -999.25        -999.25       128.2246        -999.25         66.666       83.43372         0.3047        -999.25        -999.25       -45.7299      0.4043007              1              1
      9223.0000        -999.25        -999.25       127.9198        -999.25        64.9602       81.28317         0.3032        -999.25        -999.25       -45.3329      0.8046417              1              1
      9223.5000        -999.25        -999.25       127.5532        -999.25         63.345        79.2459         0.3018        -999.25        -999.25       -45.0434       1.097481      0.9839552              1
      9224.0000        -999.25        -999.25       127.3623        -999.25        61.7322       77.21159         0.3029        -999.25        -999.25       -44.8399       1.304321      0.9406722              1
      9224.5000        -999.25        -999.25       127.2745        -999.25        61.7101       77.16568          0.304        -999.25        -999.25        -45.006        1.14156      0.9396953              1
      9225.0000        -999.25        -999.25       127.3264        -999.25        64.1697       80.22189          0.306        -999.25        -999.25       -45.3371      0.8138008              1              1
      9225.5000        -999.25        -999.25       127.4332        -999.25        67.3024       84.11948         0.3084        -999.25        -999.25       -45.8253      0.3289413              1              1
      9226.0000        -999.25        -999.25       127.4323        -999.25        69.4829       86.82681          0.311        -999.25        -999.25       -46.1392     0.01838303              1              1
      9226.5000        -999.25        -999.25       127.3628        -999.25        70.7335       88.37177         0.3149        -999.25        -999.25       -46.3365     -0.1755791              1      0.9974917
      9227.0000        -999.25        -999.25       127.2769        -999.25        69.2015       86.43848         0.3189        -999.25        -999.25       -46.3572     -0.1929398              1      0.9972437
      9227.5000        -999.25        -999.25       127.0963        -999.25        67.3121       84.05845         0.3229        -999.25        -999.25       -46.3569     -0.1893005              1      0.9972957
      9228.0000        -999.25        -999.25       126.9154        -999.25         66.343       82.82878         0.3272        -999.25        -999.25       -46.3422     -0.1712608              1      0.9975534
      9228.5000        -999.25        -999.25       126.5968        -999.25          66.95       83.56923         0.3314        -999.25        -999.25       -46.2677    -0.09342194              1      0.9986654
      9229.0000        -999.25        -999.25       126.1063        -999.25        67.5085       84.24907         0.3363        -999.25        -999.25       -46.2001    -0.02248001              1      0.9996789
      9229.5000        -999.25        -999.25       125.6569        -999.25        67.5863       84.32804         0.3417        -999.25        -999.25       -46.2183    -0.03734207              1      0.9994665
      9230.0000        -999.25        -999.25       125.4082        -999.25        66.7773       83.29849         0.3472        -999.25        -999.25       -46.3264     -0.1421013              1        0.99797
      9230.5000        -999.25        -999.25       125.1595        -999.25        66.0236       82.33807         0.3528        -999.25        -999.25       -46.5935     -0.4058609              1       0.994202
      9231.0000        -999.25        -999.25       125.0983        -999.25        65.5555       81.73466         0.3574        -999.25        -999.25       -47.0643     -0.8733215              1       0.987524
      9231.5000        -999.25        -999.25       125.0586        -999.25          65.55        81.7095         0.3603        -999.25        -999.25       -47.6158      -1.421482              1      0.9796931
      9232.0000        -999.25        -999.25       125.0966        -999.25        70.5623       87.95659         0.3612        -999.25        -999.25       -48.0137      -1.816044              1      0.9740565
      9232.5000        -999.25        -999.25       125.1884        -999.25        73.2764       91.33092         0.3604        -999.25        -999.25       -48.2253      -2.024303              1      0.9710814
      9233.0000        -999.25        -999.25         125.28        -999.25         74.423       92.74588         0.3581        -999.25        -999.25       -48.2308      -2.026466              1      0.9710505
      9233.5000        -999.25        -999.25       125.5437        -999.25        74.3694       92.66059         0.3539        -999.25        -999.25       -47.7599      -1.552223              1      0.9778254
      9234.0000        -999.25        -999.25       125.8099        -999.25        73.5468       91.61404         0.3498        -999.25        -999.25       -47.2891      -1.078087              1      0.9845988
      9234.5000        -999.25        -999.25       126.1864        -999.25        72.6841       90.51739         0.3446        -999.25        -999.25       -46.8202     -0.6058464              1       0.991345
      9235.0000        -999.25        -999.25       126.4736        -999.25        72.3036       90.02347         0.3405        -999.25        -999.25       -46.3929     -0.1752052              1      0.9974971
      9235.5000        -999.25        -999.25        126.611        -999.25        72.0111       89.63956         0.3392        -999.25        -999.25       -46.1658     0.05523682              1              1
      9236.0000        -999.25        -999.25        126.229        -999.25        70.9098       88.24464           0.34        -999.25        -999.25       -46.0485      0.1758728              1              1
      9236.5000        -999.25        -999.25       125.4426        -999.25        69.4218       86.36635         0.3416        -999.25        -999.25       -46.0883      0.1394157              1              1
      9237.0000        -999.25        -999.25       124.6576        -999.25        68.3033       84.94994         0.3447        -999.25        -999.25       -46.3618     -0.1307487              1      0.9981322
      9237.5000        -999.25        -999.25       124.0907        -999.25        68.6349       85.34615         0.3498        -999.25        -999.25       -46.1298      0.1045952              1              1
      9238.0000        -999.25        -999.25       123.5454        -999.25        69.3813       86.26086         0.3554        -999.25        -999.25       -46.1888     0.04893112              1              1
      9238.5000        -999.25        -999.25       123.1926        -999.25        68.6716       85.35545         0.3613        -999.25        -999.25       -46.6109     -0.3698273              1      0.9947168
      9239.0000        -999.25        -999.25       123.3257        -999.25        67.7858        84.2299         0.3661        -999.25        -999.25        -46.724     -0.4795876              1      0.9931487
      9239.5000        -999.25        -999.25        123.559        -999.25        68.0145        84.4975         0.3698        -999.25        -999.25       -46.5072     -0.2594452              1      0.9962937
      9240.0000        -999.25        -999.25       124.0377        -999.25        69.4731       86.30245         0.3696        -999.25        -999.25       -45.6785      0.5725899              1              1
      9240.5000        -999.25        -999.25       124.5159        -999.25         70.241       87.24403         0.3678        -999.25        -999.25       -44.9572       1.297234              1              1
