#------------------------------------------------------------------------------
# Created by    : vladimir.rabinovich
# Created on    : 09/19/2023 17:22:54
#------------------------------------------------------------------------------
~Version Information Section
VERS.           2.0     :   CWLS log ASCII Standard - VERSION 2.0
WRAP.           NO      :   One line per depth step
~Well Information Section
#MNEM       .UNIT                                         VALUE :DESCRIPTION
#------------------------------------------------------------------------------
STRT        .FT                                            1705 :START DEPTH
STOP        .FT                                           10298 :STOP DEPTH
STEP        .FT                                             0.5 :STEP      
NULL        .                                           -999.25 :NULL      
COMP        .                            STANOLIND OIL & GAS CO :COMPANY   
WELL        .                                       ST TR 00219 :WELL      
FLD         .                                           WILDCAT :FIELD     
LOC         .                                                   :LOCATION  
CNTY        .                             GALVESTON LARGE BLOCK :LOCATION  
STAT        .                                             TEXAS :STATE     
CTRY        .                                     UNITED STATES :COUNTRY   
SRVC        .                                                   :SERVICE COMPANY
DATE        .                             9/13/2023 11:19:42 AM :LOG DATE  
API         .                                    42706000170000 :API NUMBER
UWI         .                                    42706000170000 :UNIQUE WELL ID
XCOORD      .                                  1024804.26554262 :SURFACE X 
YCOORD      .                                  10549089.4715911 :SURFACE Y 
LAT         .                                        29.0543948 :LATITUDE  
LON         .                                       -94.9272588 :LONGITUDE 
ELEV        .FT                                              60 :ELEVATION VALUE
ELEV_TYPE   .                                                GL :ELEVATION REFERENCE TYPE
~Curve Information Section
#MNEM       .UNIT                                      API CODE :CURVE DESCRIPTION
#------------------------------------------------------------------------------
DEPT        .FT                                                 :DEPTH     
LAT         .OHMM                                               :          
LN          .OHMM                                               :          
SN          .OHMM                                               :          
SP          .MV                                                 :          
SP_NORM     .MV                                                 :SP Normalized
VSH_SP      .V/V                                                :Volume of Shale from SP
~A        DEPTH            LAT             LN             SN             SP        SP_NORM         VSH_SP
# ...
     10255.0000         1.5138         1.1505         0.9893      -120.8685      -69.80771      0.3653845
     10255.5000         1.3804         1.1835         1.0431      -131.5139      -80.45178      0.2686202
     10256.0000         1.1759         1.1919         1.1142      -142.6892      -91.62575      0.1670387
     10256.5000         1.0409         1.1859         1.2286      -155.7693      -104.7045     0.04814065
     10257.0000          0.918         1.1423         1.3398         -162.7      -111.6339              0
     10257.5000         0.8138         1.0916          1.394       -165.377      -114.3096              0
     10258.0000         0.7245         1.0409         1.2781      -165.7812      -114.7125              0
     10258.5000         0.6353         0.9951         1.1619       -163.459      -112.3889              0
     10259.0000          0.659         0.9514         1.0589      -158.8955      -107.8241     0.01978094
     10259.5000         0.7732         0.9076         0.9627      -153.7659      -102.6932     0.06642567
     10260.0000         0.8875         0.8996         0.8771      -148.3848      -97.31075      0.1153569
     10260.5000         0.9972         0.8965         0.8294       -83.2727      -32.19732      0.7072971
     10261.0000          1.106          0.904         0.8909       -84.3507        -33.274      0.6975091
     10261.5000         1.2133         1.0081         0.9823       -92.1305      -41.05247      0.6267957
     10262.0000         1.2898         1.1122         1.1765      -113.2954      -62.21605      0.4343995
     10262.5000         1.0553         1.2246         1.3462      -142.7612      -91.68052      0.1665407
     10263.0000         0.8997         1.3376         1.4178      -152.1938      -101.1118     0.08080181
     10263.5000         0.7839         1.4275         1.4893      -156.0027      -104.9194     0.04618752
     10264.0000          0.688         1.4496         1.5292      -158.0869      -107.0022     0.02725234
     10264.5000         0.6899         1.4634         1.5232      -159.6321      -108.5461     0.01321716
     10265.0000         0.6919         1.3974          1.482      -160.5923       -109.505    0.004500094
     10265.5000         0.7304         1.3316         1.4193      -160.9492      -109.8606    0.001267589
     10266.0000         0.7947         1.2636         1.3556      -157.5659      -106.4759     0.03203687
     10266.5000         0.8739          1.192         1.3891      -135.3228      -84.23151       0.234259
     10267.0000         1.0268         1.1257         1.6017      -119.6558      -68.56319      0.3766983
     10267.5000         1.1795         1.1091         1.8715       -70.5342      -19.44027      0.8232703
     10268.0000         1.3602         1.0925          2.201        -64.174      -13.07874      0.8811024
     10268.5000         1.5562         1.0989          2.379       -60.3964      -9.299812      0.9154562
     10269.0000          1.754         1.1396         2.4455       -57.4813      -6.383385      0.9419692
     10269.5000         1.9594         1.1803         2.4476       -56.0798       -4.98056      0.9547222
     10270.0000         2.1532         1.2211         2.4597       -55.1882      -4.087635      0.9628397
     10270.5000          2.285          1.294         2.5734       -54.5864      -3.484509      0.9683226
     10271.0000         2.3101         1.4403         2.6488        -53.322      -2.218781      0.9798293
     10271.5000         2.1442         1.5896         2.6631       -51.7678     -0.6632576      0.9939704
     10272.0000         1.9191         1.7878         2.5584       -48.8841       2.221767              1
     10272.5000         1.7809         1.9183         2.4536       -46.6786       4.428596              1
     10273.0000         1.6681         1.9346           2.38       -46.1054        5.00312              1
     10273.5000         1.6004         1.8921           2.38       -45.8325       5.277348              1
     10274.0000         1.5646         1.8515         2.4055        -44.599       6.512173              1
     10274.5000         1.6441         1.8254         2.4314       -43.1998       7.912701              1
     10275.0000         1.7406         1.7994         2.4446       -41.6659       9.447922              1
     10275.5000          1.837         1.7734         2.2909        -40.114       11.00115              1
     10276.0000         1.9388         1.7474         2.2707       -44.6439       6.472572              1
     10276.5000         2.0451         1.7608         2.4725       -48.7134         2.4044              1
     10277.0000          2.086         1.8128          2.607       -50.4382      0.6809235              1
     10277.5000         1.9428         1.8649         2.5779       -49.1671       1.953354              1
     10278.0000         1.7531         1.9171         2.4976       -48.3685       2.753281              1
     10278.5000         1.5468         2.0212         2.4223       -48.7179       2.405205              1
     10279.0000         1.3501         2.1304          2.383       -50.6898      0.4346313              1
     10279.5000         1.3618         2.2267         2.3461       -52.9087      -1.782944      0.9837914
     10280.0000         1.4515         2.2532          2.318       -55.9451      -4.818016      0.9561998
     10280.5000         1.6006         2.2185         2.2844       -57.5734      -6.444992      0.9414092
     10281.0000         1.6879         2.1556          2.238       -56.9714      -5.841667      0.9468939
     10281.5000         1.6464         2.0965         2.1917       -55.6217      -4.490643       0.959176
     10282.0000         1.6048         2.0617         2.1693       -54.2248      -3.092415      0.9718871
     10282.5000         1.5645         2.0269         2.1537       -55.2646      -4.130886      0.9624465
     10283.0000         1.5294         1.9922         2.1382        -56.063      -4.927963      0.9552003
     10283.5000         1.4943         1.9938         2.1227       -55.3949      -4.258537       0.961286
     10284.0000         1.4592         2.0033         2.1373       -53.9553      -2.817612      0.9743853
     10284.5000         1.4241         2.0127         2.1656       -52.5134      -1.374386      0.9875056
     10285.0000         1.3946         2.0222         2.1939       -51.2064    -0.06606293      0.9993994
     10285.5000         1.3965         2.0317         2.2222       -50.3933      0.7483673              1
     10286.0000         1.3985         2.0412         2.2462       -52.7245      -1.581509      0.9856226
     10286.5000         1.4053         2.0632         2.2671       -54.1414      -2.997082      0.9727538
     10287.0000         1.4734         2.0852          2.288       -54.2039      -3.058258      0.9721977
     10287.5000         1.5414         2.1073         2.3002       -53.4814      -2.334431      0.9787779
     10288.0000         1.6536         2.1293         2.2522       -52.2484      -1.100105      0.9899991
     10288.5000         1.8157         2.1513         2.2042       -51.0132      0.1364212              1
     10289.0000          1.976         2.1682          2.184        -49.778       1.372948              1
     10289.5000         2.0946         2.1815          2.206       -48.6281        2.52417              1
     10290.0000         2.2133         2.1949          2.228        -47.476       3.677597              1
     10290.5000         2.2441         2.2081         2.2501        -46.326       4.828922              1
     10291.0000         2.2136         2.1959         2.2736       -45.5759       5.580349              1
     10291.5000         2.2232         2.1747         2.3167       -44.9482       6.209373              1
     10292.0000         2.3225         2.1535         2.3598       -44.3217         6.8372              1
     10292.5000         2.4438         2.1242         2.3665       -44.1201       7.040131              1
