#------------------------------------------------------------------------------
# Created by    : vladimir.rabinovich
# Created on    : 09/19/2023 17:22:54
#------------------------------------------------------------------------------
~Version Information Section
VERS.           2.0     :   CWLS log ASCII Standard - VERSION 2.0
WRAP.           NO      :   One line per depth step
~Well Information Section
#MNEM       .UNIT                                         VALUE :DESCRIPTION
#------------------------------------------------------------------------------
STRT        .FT                                             606 :START DEPTH
STOP        .FT                                           12703 :STOP DEPTH
STEP        .FT                                             0.5 :STEP      
NULL        .                                           -999.25 :NULL      
COMP        .                                       PURE OIL CO :COMPANY   
WELL        .                                OCS 00099 ST00BP00 :WELL      
FLD         .                                           WILDCAT :FIELD     
LOC         .                                                   :LOCATION  
CNTY        .                             GALVESTON LARGE BLOCK :LOCATION  
STAT        .                                             TEXAS :STATE     
CTRY        .                                     UNITED STATES :COUNTRY   
SRVC        .                                                   :SERVICE COMPANY
DATE        .                             9/13/2023 11:19:42 AM :LOG DATE  
API         .                                    42706000130000 :API NUMBER
UWI         .                                    42706000130000 :UNIQUE WELL ID
XCOORD      .                                  1105531.03723184 :SURFACE X 
YCOORD      .                                  10576678.2721464 :SURFACE Y 
LAT         .                                         29.133654 :LATITUDE  
LON         .                                        -94.675857 :LONGITUDE 
ELEV        .FT                                              66 :ELEVATION VALUE
ELEV_TYPE   .                                                KB :ELEVATION REFERENCE TYPE
~Curve Information Section
#MNEM       .UNIT                                      API CODE :CURVE DESCRIPTION
#------------------------------------------------------------------------------
DEPT        .FT                                                 :DEPTH     
LAT         .OHMM                                               :          
LN          .OHMM                                               :          
SN          .OHMM                                               :          
SP          .MV                                                 :          
SP_NORM     .MV                                                 :SP Normalized
VSH_SP      .V/V                                                :Volume of Shale from SP
~A        DEPTH            LAT             LN             SN             SP        SP_NORM         VSH_SP
# ...
     11854.0000         0.7234         0.5687         0.6385       -43.3998       2.941666              1
     11854.5000         0.7299         0.5671         0.6358       -43.4449       2.896564              1
     11855.0000         0.7364         0.5655         0.6339       -43.5048       2.836666              1
     11855.5000         0.7411         0.5639         0.6338       -43.5646       2.776863              1
     11856.0000         0.7449         0.5623         0.6338       -43.6246       2.716866              1
     11856.5000         0.7488         0.5607         0.6337       -43.7938       2.547665              1
     11857.0000         0.7527         0.5591         0.6336       -43.9869       2.354565              1
     11857.5000         0.7565         0.5581         0.6335       -44.1802       2.161266              1
     11858.0000         0.7604         0.5599         0.6335       -44.3733       1.968166              1
     11858.5000         0.7643         0.5617         0.6334       -44.5666       1.774864              1
     11859.0000         0.7681         0.5635         0.6333        -44.731       1.593525              1
     11859.5000         0.7715         0.5653         0.6332       -44.6113       1.693619              1
     11860.0000         0.7662         0.5672         0.6339       -44.4919       1.793415              1
     11860.5000         0.7609          0.569         0.6363       -44.3721       1.893612              1
     11861.0000         0.7556         0.5708         0.6387       -44.2524       1.993706              1
     11861.5000         0.7503         0.5726         0.6412       -44.4511       1.775402              1
     11862.0000          0.745         0.5744         0.6436       -44.6906       1.516296              1
     11862.5000         0.7397         0.5763          0.646         -44.93       1.257294              1
     11863.0000         0.7344         0.5779         0.6484         -45.17      0.9976921              1
     11863.5000         0.7291         0.5786         0.6509       -45.2832      0.8648872              1
     11864.0000         0.7228         0.5794         0.6533       -45.1658      0.9626846              1
     11864.5000         0.7153         0.5801         0.6557       -45.0483       1.060577              1
     11865.0000         0.7078         0.5808         0.6581       -44.9322       1.157074              1
     11865.5000         0.7003         0.5815         0.6606       -44.8243       1.245373              1
     11866.0000         0.6928         0.5822          0.663       -44.7167       1.333366              1
     11866.5000         0.6854         0.5829         0.6654       -44.6091        1.42136              1
     11867.0000         0.6779         0.5836         0.6686       -44.5014       1.509457              1
     11867.5000         0.6704         0.5843         0.6719       -44.3946       1.596653              1
     11868.0000         0.6629         0.5858         0.6752       -44.2887       1.682949              1
     11868.5000         0.6554          0.588         0.6786       -44.1827       1.769344              1
     11869.0000         0.6495         0.5902         0.6819       -44.0768        1.85564              1
     11869.5000         0.6463         0.5924         0.6852       -43.9708       1.942039              1
     11870.0000         0.6432         0.5946         0.6886       -43.8649       2.028336              1
     11870.5000           0.64         0.5968         0.6919        -43.759       2.114632              1
     11871.0000         0.6369          0.599         0.6952       -43.6364       2.217628              1
     11871.5000         0.6337         0.6012         0.6985       -43.4999       2.334522              1
     11872.0000         0.6306         0.6034         0.7019       -43.3633       2.451515              1
     11872.5000         0.6275         0.6056         0.7052       -43.2267       2.568512              1
     11873.0000         0.6243         0.6103         0.7061       -43.0901       2.685509              1
     11873.5000         0.6212         0.6154         0.7053       -42.9536       2.802402              1
     11874.0000          0.618         0.6205         0.7045        -43.141       2.595402              1
     11874.5000         0.6148         0.6255         0.7037       -43.3574       2.359398              1
     11875.0000         0.6115         0.6306         0.7029       -43.5737       2.123493              1
     11875.5000         0.6082         0.6357         0.7021       -43.7902        1.88739              1
     11876.0000         0.6049         0.6408         0.7013        -43.841       1.816986              1
     11876.5000         0.6016         0.6458         0.7005       -43.7719       1.866482              1
     11877.0000         0.5983         0.6509         0.6997       -43.7026       1.916176              1
     11877.5000          0.595          0.656         0.6989       -43.6335       1.965672              1
     11878.0000         0.5917          0.661         0.6981       -43.5643       2.015266              1
     11878.5000         0.5884         0.6635         0.6978       -43.3444       2.215565              1
     11879.0000         0.5852         0.6654         0.6983       -43.0162       2.524158              1
     11879.5000         0.5819         0.6674         0.6988       -42.6874       2.833355              1
     11880.0000         0.5786         0.6693         0.6993       -42.3592       3.141953              1
     11880.5000         0.5753         0.6712         0.6998       -42.0309       3.450649              1
     11881.0000          0.573         0.6731         0.7003       -41.7027       3.759243              1
     11881.5000         0.5714          0.675         0.7008       -41.3745       4.067841              1
     11882.0000         0.5699          0.677         0.7013       -41.3408       4.081936              1
     11882.5000         0.5683         0.6789         0.7018       -41.6016       3.801529              1
     11883.0000         0.5667         0.6808         0.7023       -41.8629       3.520626              1
     11883.5000         0.5652         0.6828         0.7028       -42.1237       3.240223              1
     11884.0000         0.5636          0.685         0.7034        -42.385        2.95932              1
     11884.5000          0.562         0.6872         0.7046       -42.5149       2.809814              1
     11885.0000         0.5604         0.6894         0.7059       -42.6065       2.698612              1
     11885.5000         0.5589         0.6916         0.7071       -42.6982       2.587307              1
     11886.0000         0.5573         0.6938         0.7084       -42.7899       2.476002              1
     11886.5000         0.5557          0.696         0.7096       -42.8815       2.364799              1
     11887.0000         0.5542         0.6982         0.7108       -42.9732       2.253494              1
     11887.5000         0.5526         0.7004         0.7121       -43.0648       2.142292              1
     11888.0000          0.551         0.7026         0.7133       -43.1472       2.040283              1
     11888.5000         0.5494         0.7049         0.7146       -42.9653       2.202579              1
     11889.0000         0.5547         0.7072         0.7158       -42.7835       2.364777              1
     11889.5000           0.56         0.7095         0.7172       -42.6017       2.526974              1
     11890.0000         0.5653         0.7119         0.7188       -42.4199       2.689171              1
     11890.5000         0.5706         0.7142         0.7203        -42.238       2.851467              1
     11891.0000         0.5759         0.7165         0.7219       -42.0565       3.013363              1
     11891.5000         0.5812         0.7188         0.7234       -41.8747        3.17556              1
