#------------------------------------------------------------------------------
# Created by    : vladimir.rabinovich
# Created on    : 09/19/2023 17:22:42
#------------------------------------------------------------------------------
~Version Information Section
VERS.           2.0     :   CWLS log ASCII Standard - VERSION 2.0
WRAP.           NO      :   One line per depth step
~Well Information Section
#MNEM       .UNIT                                         VALUE :DESCRIPTION
#------------------------------------------------------------------------------
STRT        .FT                                              96 :START DEPTH
STOP        .FT                                            7107 :STOP DEPTH
STEP        .FT                                             0.5 :STEP      
NULL        .                                           -999.25 :NULL      
COMP        .                                  XTO OFFSHORE INC :COMPANY   
WELL        .                               OCS G23162 ST00BP00 :WELL      
FLD         .                                 BRAZOS BLOCK 0398 :FIELD     
LOC         .                                                   :LOCATION  
CNTY        .                                BRAZOS LARGE BLOCK :LOCATION  
STAT        .                                             TEXAS :STATE     
CTRY        .                                     UNITED STATES :COUNTRY   
SRVC        .                                                   :SERVICE COMPANY
DATE        .                             9/13/2023 11:18:28 AM :LOG DATE  
API         .                                    42704403370000 :API NUMBER
UWI         .                                    42704403370000 :UNIQUE WELL ID
XCOORD      .                                  864551.184430364 :SURFACE X 
YCOORD      .                                  10381025.1526549 :SURFACE Y 
LAT         .                                        28.5842785 :LATITUDE  
LON         .                                       -95.4179199 :LONGITUDE 
ELEV        .FT                                             100 :ELEVATION VALUE
ELEV_TYPE   .                                                KB :ELEVATION REFERENCE TYPE
~Curve Information Section
#MNEM       .UNIT                                      API CODE :CURVE DESCRIPTION
#------------------------------------------------------------------------------
DEPT        .FT                                                 :DEPTH     
DCAL        .IN                                                 :          
DPHI        .FRAC                                               :          
DT          .US/F                                               :          
GR          .GAPI                                               :          
GR_NORM     .GAPI                                               :GammaRay Normalized
HT01        .OHMM                                               :          
HT02        .OHMM                                               :          
HT03        .OHMM                                               :          
HT06        .OHMM                                               :          
HT09        .OHMM                                               :          
HT12        .OHMM                                               :          
NPHI        .FRAC                                               :          
RWA         .OHMM                                               :          
SP          .MV                                                 :          
TENS        .LB                                                 :          
VSH_GR      .V/V                                                :Volume of Shale from GR
~A        DEPTH           DCAL           DPHI             DT             GR        GR_NORM           HT01           HT02           HT03           HT06           HT09           HT12           NPHI            RWA             SP           TENS         VSH_GR
# ...
      4288.0000          0.528         0.2933       115.0109         74.392       71.02093         0.6254         0.5803         0.5633          0.517         0.5091         0.5094         0.3752         0.0628        -999.25       2614.222      0.8089559
      4288.5000         0.5779         0.2996       115.4578        76.6529       73.53164         0.6202         0.5783          0.563         0.5164         0.5084         0.5087         0.3992         0.0616        -999.25       2619.631      0.8623753
      4289.0000         0.6285         0.2818       116.7031         75.763       72.54147         0.6176         0.5787         0.5651         0.5178         0.5097         0.5099         0.4094         0.0483        -999.25       2614.541      0.8413078
      4289.5000         0.6418         0.2574       118.3422        75.6908       72.45983         0.6227         0.5858         0.5737         0.5248         0.5163         0.5165         0.4013         0.0422        -999.25       2599.269      0.8395709
      4290.0000         0.6254         0.2585         120.85        81.0303        78.3912         0.6367         0.6008         0.5896         0.5381         0.5291          0.529         0.4088         0.0506        -999.25       2585.907      0.9657703
      4290.5000         0.6716         0.2679       123.0594        84.3495        82.0778         0.6567          0.621         0.6105         0.5556         0.5458         0.5456         0.4116         0.0526        -999.25        2588.77              1
      4291.0000         0.6012         0.2664         123.35        80.6936       78.01429         0.6766         0.6409         0.6307         0.5727         0.5622         0.5616         0.3969         0.0507        -999.25       2603.087      0.9577509
      4291.5000          0.524          0.258       119.2188        79.9961       77.23789         0.6884         0.6532         0.6433         0.5836         0.5725         0.5716         0.3844         0.0482        -999.25       2612.631      0.9412317
      4292.0000         0.4492         0.2509       114.6406        82.3532       79.85548         0.6848         0.6509         0.6414         0.5828         0.5715         0.5703         0.4181         0.0476        -999.25       2606.269      0.9969252
      4292.5000         0.4437         0.2573       117.2109        86.2495        84.1833         0.6662         0.6345         0.6252         0.5702         0.5592         0.5577         0.4799         0.0526        -999.25       2586.861              1
      4293.0000         0.4492         0.2718       125.9391        87.6686       85.75867         0.6443         0.6142         0.6049         0.5539         0.5434         0.5417         0.4809         0.0563        -999.25       2573.181              1
      4293.5000          0.498         0.2804       130.3266        82.8582       80.41238         0.6319         0.6021         0.5919         0.5437         0.5333         0.5313         0.4658          0.057        -999.25       2575.407              1
      4294.0000         0.5175           0.28       127.7359        82.1127       79.58264         0.6345         0.6032         0.5913         0.5437          0.533         0.5306         0.4693         0.0552        -999.25        2588.77        0.99112
      4294.5000          0.669         0.2798       124.0797        83.6279       81.26479         0.6476         0.6133         0.5991         0.5507         0.5394         0.5367         0.4755         0.0577        -999.25       2598.632              1
      4295.0000         0.8011         0.2792       123.6797         81.808       79.24127         0.6631         0.6252         0.6088         0.5591          0.547         0.5439         0.4644         0.0561        -999.25       2599.269      0.9838569
      4295.5000         0.9193          0.279       123.6016        76.7812       73.65454         0.6775         0.6358         0.6173         0.5662         0.5535         0.5501         0.4603          0.059        -999.25       2595.133      0.8649902
      4296.0000         0.9231         0.2827       122.2766         71.594       67.88959         0.6891         0.6437         0.6236         0.5712         0.5579         0.5542         0.4438         0.0598        -999.25       2591.951      0.7423316
      4296.5000         0.8719         0.2784       120.2094         69.261       65.29596         0.7016         0.6523         0.6308         0.5768          0.563         0.5591         0.4371          0.055        -999.25       2591.951      0.6871481
      4297.0000         0.7948         0.2709       117.4359         70.664       66.85345         0.7221         0.6676         0.6447         0.5879         0.5734         0.5693         0.4432         0.0542        -999.25       2594.815      0.7202861
      4297.5000         0.7945         0.2588       117.9062        72.6603       69.07014         0.7622         0.6993          0.674         0.6116         0.5958         0.5914         0.4216         0.0469        -999.25       2598.632      0.7674499
      4298.0000         0.7705         0.2273       120.1484        69.9184       66.02219          0.825         0.7491         0.7201         0.6486          0.631         0.6263         0.3997         0.0324        -999.25       2605.632      0.7025999
      4298.5000          0.686         0.2225       113.5203        67.6095       63.45533         0.8968         0.8049         0.7714         0.6895         0.6701         0.6651         0.3781         0.0472        -999.25       2613.904      0.6479858
      4299.0000         0.7043         0.2677        94.2734        74.6326       71.25739         0.9455         0.8407         0.8042         0.7154         0.6953         0.6903         0.3859          0.075        -999.25       2616.449      0.8139869
      4299.5000         0.7768          0.313        93.9516        80.4852       77.75887         0.9358         0.8299         0.7941         0.7078         0.6888         0.6845         0.4351         0.0913        -999.25       2616.449      0.9523163
      4300.0000         1.0998         0.3348       122.1297        78.9218       76.02035         0.8711         0.7758         0.7442         0.6683         0.6519          0.649         0.4829         0.0941        -999.25       2617.085      0.9153265
      4300.5000         1.1946         0.3313       140.1531        77.8314        74.8074         0.7905         0.7086          0.682         0.6182         0.6046         0.6033         0.5046         0.0802        -999.25       2627.903       0.889519
      4301.0000         1.1009         0.3063       143.8391        76.9175       73.79055         0.7244         0.6529         0.6301         0.5757         0.5646         0.5643         0.4847         0.0607        -999.25       2651.446       0.867884
      4301.5000         0.8881         0.2882       143.2328        73.9591       70.50202         0.6793         0.6141         0.5939         0.5457         0.5364          0.537         0.4667         0.0557        -999.25       2676.262      0.7979153
      4302.0000         0.8243         0.2864          136.2        72.2514       68.60318         0.6471         0.5862         0.5677         0.5239         0.5161         0.5174         0.4574         0.0546        -999.25       2692.169      0.7575145
      4302.5000         0.6618         0.2899       127.3922         74.825       71.46133         0.6238          0.566         0.5488         0.5081         0.5014         0.5035         0.4368         0.0559        -999.25        2690.26      0.8183261
      4303.0000         0.3987         0.2995       123.6359        73.0692       69.50904         0.6059         0.5507         0.5345         0.4961         0.4904         0.4932         0.4346         0.0589        -999.25       2674.353      0.7767881
      4303.5000         0.2216         0.3043       122.1297        64.6751       60.18086         0.5894         0.5369         0.5218         0.4854         0.4807         0.4841         0.4199         0.0552        -999.25       2662.581      0.5783162
