#------------------------------------------------------------------------------
# Created by    : vladimir.rabinovich
# Created on    : 09/19/2023 17:19:56
#------------------------------------------------------------------------------
~Version Information Section
VERS.           2.0     :   CWLS log ASCII Standard - VERSION 2.0
WRAP.           NO      :   One line per depth step
~Well Information Section
#MNEM       .UNIT                                         VALUE :DESCRIPTION
#------------------------------------------------------------------------------
STRT        .FT                                            3966 :START DEPTH
STOP        .FT                                           12200 :STOP DEPTH
STEP        .FT                                             0.5 :STEP      
NULL        .                                           -999.25 :NULL      
COMP        .                       HOUSTON OIL & MINERALS CORP :COMPANY   
WELL        .                                ST TR 00526-L SW/4 :WELL      
FLD         .                                           CAVALLO :FIELD     
LOC         .                                                   :LOCATION  
CNTY        .                      MATAGORDA ISLAND LARGE BLOCK :LOCATION  
STAT        .                                             TEXAS :STATE     
CTRY        .                                     UNITED STATES :COUNTRY   
SRVC        .                                                   :SERVICE COMPANY
DATE        .                             9/13/2023 11:19:05 AM :LOG DATE  
API         .                                    42703302090000 :API NUMBER
UWI         .                                    42703302090000 :UNIQUE WELL ID
XCOORD      .                                  601997.830501628 :SURFACE X 
YCOORD      .                                  10286578.1750905 :SURFACE Y 
LAT         .                                        28.3077871 :LATITUDE  
LON         .                                       -96.2273179 :LONGITUDE 
ELEV        .FT                                             113 :ELEVATION VALUE
ELEV_TYPE   .                                                KB :ELEVATION REFERENCE TYPE
~Curve Information Section
#MNEM       .UNIT                                      API CODE :CURVE DESCRIPTION
#------------------------------------------------------------------------------
DEPT        .FT                                                 :DEPTH     
ASFL        .OHMM                                               :          
CILD        .MMHO                                               :          
ILD         .OHMM                                               :          
SP          .MV                                                 :          
SP_NORM     .MV                                                 :SP Normalized
VSH_SP      .V/V                                                :Volume of Shale from SP
~A        DEPTH           ASFL           CILD            ILD             SP        SP_NORM         VSH_SP
# ...
      4498.0000         0.7434           2784         0.4686       -95.0197       -45.9179      0.3673535
      4498.5000         0.7873           2568         0.5281            -90       -40.8982      0.4380535
      4499.0000            0.8       2344.117         0.5678          -85.2       -36.0982      0.5056592
      4499.5000          0.812       2112.292         0.6075          -80.1       -30.9982      0.5774902
      4500.0000         0.8311           1896         0.6471          -75.3       -26.1982      0.6450957
      4500.5000          0.855       1506.417         0.6863          -64.2       -15.0982      0.8014339
      4501.0000         0.8861        1287.31         0.7451          -57.9      -8.798203      0.8901662
      4501.5000         0.8861       1227.199         0.7647          -55.2      -6.098202      0.9281943
      4502.0000         0.8821       1223.013         0.7843          -54.3        -5.1982      0.9408704
      4502.5000          0.851        1213.78         0.7843          -53.4      -4.298203      0.9535465
      4503.0000         0.7841       1218.641         0.8039          -52.5      -3.398201      0.9662225
      4503.5000         0.7482       1226.399         0.8235          -51.6      -2.498199      0.9788986
      4504.0000         0.7124       1234.166         0.8431          -50.7      -1.598202      0.9915746
      4504.5000         0.7084       1241.893         0.8431          -49.8     -0.6982002              1
      4505.0000         0.7044       1257.636         0.8431          -48.9      0.2017975              1
      4505.5000         0.7163       1290.713         0.8431         -47.25       1.851799              1
      4506.0000         0.7323       1285.237         0.8431          -45.9       3.201797              1
      4506.5000         0.7482        1289.05         0.8431          -45.6       3.501801              1
      4507.0000         0.7641        1296.87         0.8431          -45.6       3.501801              1
      4507.5000         0.7801           1304         0.8431          -45.3         3.8018              1
      4508.0000          0.796       1264.699         0.8431            -45       4.101799              1
      4508.5000          0.812        1244.52         0.8431       -44.7059       4.395901              1
      4509.0000         0.8351       1240.352         0.8431       -44.7059       4.395901              1
      4509.5000         0.8351           1232         0.8431       -44.7059       4.395901              1
      4510.0000          0.839           1240         0.8235       -44.7059       4.395901              1
      4510.5000          0.839           1236         0.8235       -44.7059       4.395901              1
      4511.0000         0.8311           1228         0.8235       -44.4118       4.689999              1
      4511.5000          0.804           1224         0.8039       -44.4118       4.689999              1
      4512.0000         0.7721           1220         0.8039       -44.4118       4.689999              1
      4512.5000         0.7602           1216         0.8039       -44.4118       4.689999              1
      4513.0000         0.7562           1212         0.8039       -44.4118       4.689999              1
      4513.5000         0.7681           1208         0.8039       -44.7059       4.395901              1
      4514.0000         0.7841           1208         0.8039       -44.7059       4.395901              1
      4514.5000            0.8           1208         0.8039       -44.7059       4.395901              1
      4515.0000          0.812           1208         0.8039            -45       4.101799              1
      4515.5000         0.8271           1208         0.8039          -45.3         3.8018              1
      4516.0000          0.843           1208         0.8039          -45.6       3.501801              1
      4516.5000          0.847           1208         0.8039          -45.6       3.501801              1
      4517.0000         0.8311           1200         0.8039          -45.6       3.501801              1
      4517.5000          0.812           1200         0.8039          -45.9       3.201797              1
      4518.0000          0.792       1192.078         0.8039          -46.5       2.601799              1
      4518.5000          0.792       1192.078         0.8039          -47.1       2.001801              1
      4519.0000          0.808       1184.157         0.8039          -47.7       1.401798              1
      4519.5000         0.8239       1184.157         0.8039            -48       1.101799              1
      4520.0000          0.843       1176.235         0.8039          -48.9      0.2017975              1
      4520.5000          0.859       1176.235         0.8235          -49.8     -0.6982002              1
      4521.0000         0.8861       1168.314         0.8235          -50.1     -0.9981995              1
      4521.5000         0.8861       1168.314         0.8235          -50.4      -1.298203      0.9959702
      4522.0000         0.8821       1168.314         0.8235          -50.4      -1.298203      0.9959702
      4522.5000          0.859       1160.392         0.8431          -50.1     -0.9981995              1
      4523.0000         0.8159       1160.392         0.8431          -49.8     -0.6982002              1
      4523.5000         0.8159       1160.392         0.8627          -48.9      0.2017975              1
      4524.0000         0.8351       1152.471         0.8627          -48.9      0.2017975              1
      4524.5000          0.855       1152.471         0.8627          -48.9      0.2017975              1
      4525.0000         0.8781       1144.549         0.8824          -48.9      0.2017975              1
      4525.5000         0.9139       1128.706         0.8824          -48.9      0.2017975              1
      4526.0000         0.9331       1120.784          0.902          -50.1     -0.9981995              1
      4526.5000          0.953       1104.941          0.902          -51.3        -2.1982      0.9838081
      4527.0000         0.9729       1089.098         0.9216          -52.8        -3.6982      0.9635378
      4527.5000          0.992       1073.255         0.9216            -54      -4.898201      0.9473216
      4528.0000         1.0159        1049.49         0.9412          -55.5      -6.398201      0.9270514
      4528.5000         1.1044       1025.725         0.9412          -56.7      -7.598202      0.9108351
      4529.0000          1.192       1001.961         0.9412          -57.9      -8.798203      0.8946189
      4529.5000         1.2797       982.1961         0.9412          -59.4       -10.2982      0.8743486
      4530.0000         1.3721       974.2745         0.9412          -62.1       -12.9982      0.8378622
      4530.5000         1.3681       974.2745         0.9412          -60.3       -11.1982      0.8621865
      4531.0000         0.7084       974.2745         0.9412          -59.4       -10.2982      0.8743486
      4531.5000         0.6916       982.1961         0.9412          -58.2      -9.098202      0.8905649
      4532.0000         0.6916       998.0392         0.9412          -56.1      -6.998199      0.9189432
      4532.5000         0.7339       1009.882         0.9412          -54.3        -5.1982      0.9432676
      4533.0000            0.8       1033.647         0.9412          -52.2      -3.098202       0.971646
      4533.5000         0.8311       1057.412         0.9412          -50.1     -0.9981995              1
      4534.0000          0.898       1089.098         0.9216          -49.5      -0.398201              1
      4534.5000          0.961       1112.863         0.9216          -49.5      -0.398201              1
      4535.0000         1.0239       1136.627          0.902          -50.1     -0.9981995              1
      4535.5000         1.0916           1204          0.902          -51.3        -2.1982      0.9838081
