#------------------------------------------------------------------------------
# Created by    : vladimir.rabinovich
# Created on    : 09/19/2023 17:20:32
#------------------------------------------------------------------------------
~Version Information Section
VERS.           2.0     :   CWLS log ASCII Standard - VERSION 2.0
WRAP.           NO      :   One line per depth step
~Well Information Section
#MNEM       .UNIT                                         VALUE :DESCRIPTION
#------------------------------------------------------------------------------
STRT        .FT                                             502 :START DEPTH
STOP        .FT                                            9122 :STOP DEPTH
STEP        .FT                                             0.5 :STEP      
NULL        .                                           -999.25 :NULL      
COMP        .                       BLUE DOLPHIN EXPLORATION CO :COMPANY   
WELL        .                                OCS 00714 ST00BP00 :WELL      
FLD         .                              GALVESTON BLOCK 0288 :FIELD     
LOC         .                                                   :LOCATION  
CNTY        .                             GALVESTON LARGE BLOCK :LOCATION  
STAT        .                                             TEXAS :STATE     
CTRY        .                                     UNITED STATES :COUNTRY   
SRVC        .                                                   :SERVICE COMPANY
DATE        .                             9/13/2023 11:19:24 AM :LOG DATE  
API         .                                    42706000680000 :API NUMBER
UWI         .                                    42706000680000 :UNIQUE WELL ID
XCOORD      .                                  1088404.51782723 :SURFACE X 
YCOORD      .                                  10474534.8869196 :SURFACE Y 
LAT         .                                        28.8520809 :LATITUDE  
LON         .                                       -94.7248272 :LONGITUDE 
ELEV        .FT                                              85 :ELEVATION VALUE
ELEV_TYPE   .                                                KB :ELEVATION REFERENCE TYPE
~Curve Information Section
#MNEM       .UNIT                                      API CODE :CURVE DESCRIPTION
#------------------------------------------------------------------------------
DEPT        .FT                                                 :DEPTH     
ASN         .OHMM                                               :          
ASN_1       .OHMM                                               :          
DT          .US/F                                               :          
ILD         .OHMM                                               :          
LAT         .OHMM                                               :          
LN          .OHMM                                               :          
SP          .MV                                                 :          
SP_NORM     .MV                                                 :SP Normalized
VSH_SP      .V/V                                                :Volume of Shale from SP
~A        DEPTH            ASN          ASN_1             DT            ILD            LAT             LN             SP        SP_NORM         VSH_SP
# ...
      8372.5000         1.3312        -999.25       104.9713         0.6853        -999.25        -999.25        -999.25       -3.86134      0.9266323
      8373.0000         1.3186        -999.25       100.1548         0.6834        -999.25        -999.25        -999.25      -3.210659      0.9433165
      8373.5000         1.3075        -999.25       102.8102         0.6842        -999.25        -999.25        -999.25      -2.239079      0.9682288
      8374.0000         1.2999        -999.25       104.8746         0.6809        -999.25        -999.25        -999.25      -2.660099      0.9574333
      8374.5000         1.2941        -999.25       100.4692         0.6744        -999.25        -999.25        -999.25      -2.185219      0.9696098
      8375.0000         1.2886        -999.25        96.9019         0.6662        -999.25        -999.25        -999.25      -1.432236      0.9889171
      8375.5000         1.2772        -999.25        94.0623         0.6575        -999.25        -999.25        -999.25      -1.598957      0.9846421
      8376.0000         1.2561        -999.25        93.9406          0.652        -999.25        -999.25        -999.25      -1.917374      0.9764776
      8376.5000         1.2334        -999.25        90.0276         0.6393        -999.25        -999.25        -999.25      -2.014694      0.9739822
      8377.0000         1.2118        -999.25        92.6515         0.6345        -999.25        -999.25        -999.25      -1.909714       0.976674
      8377.5000         1.1988        -999.25       106.6337         0.6331        -999.25        -999.25        -999.25      -2.044331      0.9732223
      8378.0000         1.1966        -999.25       109.2666          0.627        -999.25        -999.25        -999.25       -2.13195      0.9709756
      8378.5000         1.1981        -999.25        98.4205          0.623        -999.25        -999.25        -999.25      -2.235569      0.9683188
      8379.0000         1.2012        -999.25        96.9109         0.6214        -999.25        -999.25        -999.25       -2.28019      0.9671746
      8379.5000         1.2096        -999.25        96.9872         0.6166        -999.25        -999.25        -999.25      -2.153507      0.9704229
      8380.0000         1.2189        -999.25        95.2125         0.6118        -999.25        -999.25        -999.25      -1.665627      0.9829326
      8380.5000         1.2328        -999.25       100.9456         0.6087        -999.25        -999.25        -999.25      -1.690247      0.9823014
      8381.0000         1.2275        -999.25       103.1577         0.6071        -999.25        -999.25        -999.25      -1.894367      0.9770675
      8381.5000         1.2125        -999.25       100.8737         0.6102        -999.25        -999.25        -999.25      -2.021984      0.9737953
      8382.0000          1.211        -999.25        91.7192         0.6059        -999.25        -999.25        -999.25      -2.078903      0.9723358
      8382.5000         1.2059        -999.25        96.2819         0.5981        -999.25        -999.25        -999.25      -1.690826      0.9822865
      8383.0000          1.193        -999.25       104.4816         0.5968        -999.25        -999.25        -999.25     -0.9665451              1
      8383.5000         1.1768        -999.25        95.9314          0.595        -999.25        -999.25        -999.25      -1.716366      0.9816316
      8384.0000         1.1707        -999.25        98.3217         0.5924        -999.25        -999.25        -999.25      -4.033382      0.9222209
      8384.5000         1.1666        -999.25       101.1926          0.592        -999.25        -999.25        -999.25      -2.924702      0.9506487
      8385.0000         1.1693        -999.25       100.6804         0.5976        -999.25        -999.25        -999.25      -3.783421      0.9286302
      8385.5000         1.1737        -999.25       100.3323         0.6069        -999.25        -999.25        -999.25       -4.61834      0.9072221
      8386.0000         1.1798        -999.25       100.3973         0.6176        -999.25        -999.25        -999.25      -4.696461       0.905219
      8386.5000         1.1909        -999.25       102.4058         0.6194        -999.25        -999.25        -999.25      -4.315578      0.9149852
      8387.0000         1.2014        -999.25        104.504         0.6137        -999.25        -999.25        -999.25      -3.616699      0.9329051
      8387.5000         1.2105        -999.25       105.2018         0.6058        -999.25        -999.25        -999.25      -3.354118       0.939638
      8388.0000         1.1995        -999.25       103.6818         0.5936        -999.25        -999.25        -999.25      -3.567936      0.9341555
      8388.5000          1.181        -999.25       100.9276         0.5836        -999.25        -999.25        -999.25      -3.944656       0.924496
      8389.0000         1.1629        -999.25        98.6991         0.5769        -999.25        -999.25        -999.25      -4.196774      0.9180315
      8389.5000         1.1448        -999.25        99.7684         0.5703        -999.25        -999.25        -999.25      -4.079693      0.9210335
      8390.0000         1.1297        -999.25        99.3186         0.5599        -999.25        -999.25        -999.25      -3.882912      0.9260792
      8390.5000         1.1166        -999.25        95.0117         0.5495        -999.25        -999.25        -999.25      -4.108532       0.920294
      8391.0000         1.1075        -999.25        94.1683         0.5503        -999.25        -999.25        -999.25       -4.28215      0.9158423
      8391.5000         1.1047        -999.25       102.7054         0.5551        -999.25        -999.25        -999.25      -4.177971      0.9185136
      8392.0000         1.1071        -999.25       108.7487         0.5618        -999.25        -999.25        -999.25       -4.01479      0.9226977
      8392.5000         1.1122        -999.25       100.7888         0.5677        -999.25        -999.25        -999.25      -3.651608      0.9320101
      8393.0000         1.1236        -999.25        90.3351         0.5666        -999.25        -999.25        -999.25      -3.623528      0.9327301
      8393.5000         1.1385        -999.25        91.0972         0.5686        -999.25        -999.25        -999.25      -3.937946       0.924668
      8394.0000         1.1576        -999.25        94.1323         0.5803        -999.25        -999.25        -999.25      -4.509167      0.9100214
      8394.5000          1.176        -999.25        93.6227          0.592        -999.25        -999.25        -999.25      -4.464684       0.911162
      8395.0000         1.1933        -999.25        93.6453         0.6044        -999.25        -999.25        -999.25      -3.910404      0.9253743
      8395.5000         1.2067        -999.25        95.6093         0.6173        -999.25        -999.25        -999.25      -3.326721      0.9403405
      8396.0000         1.2201        -999.25        95.9497         0.6302        -999.25        -999.25        -999.25      -2.819542      0.9533451
      8396.5000         1.2354        -999.25        93.0273         0.6419        -999.25        -999.25        -999.25      -2.682461        0.95686
      8397.0000         1.2507        -999.25       103.3865         0.6534        -999.25        -999.25        -999.25      -2.622181      0.9584056
      8397.5000          1.271        -999.25       115.4321         0.6654        -999.25        -999.25        -999.25      -2.907097      0.9511001
      8398.0000         1.2889        -999.25       107.2108         0.6778        -999.25        -999.25        -999.25      -3.383118      0.9388944
      8398.5000         1.2993        -999.25        96.5902         0.6866        -999.25        -999.25        -999.25      -3.795635      0.9283171
