#------------------------------------------------------------------------------
# Created by    : vladimir.rabinovich
# Created on    : 09/19/2023 17:19:48
#------------------------------------------------------------------------------
~Version Information Section
VERS.           2.0     :   CWLS log ASCII Standard - VERSION 2.0
WRAP.           NO      :   One line per depth step
~Well Information Section
#MNEM       .UNIT                                         VALUE :DESCRIPTION
#------------------------------------------------------------------------------
STRT        .FT                                            3926 :START DEPTH
STOP        .FT                                            8446 :STOP DEPTH
STEP        .FT                                             0.5 :STEP      
NULL        .                                           -999.25 :NULL      
COMP        .                             WALTER OIL & GAS CORP :COMPANY   
WELL        .                               OCS G06101 ST00BP00 :WELL      
FLD         .                                           WILDCAT :FIELD     
LOC         .                                                   :LOCATION  
CNTY        .                             GALVESTON LARGE BLOCK :LOCATION  
STAT        .                                             TEXAS :STATE     
CTRY        .                                     UNITED STATES :COUNTRY   
SRVC        .                                                   :SERVICE COMPANY
DATE        .                             9/13/2023 11:19:36 AM :LOG DATE  
API         .                                    42706402050000 :API NUMBER
UWI         .                                    42706402050000 :UNIQUE WELL ID
XCOORD      .                                  1036351.71170487 :SURFACE X 
YCOORD      .                                  10440832.2127806 :SURFACE Y 
LAT         .                                         28.757227 :LATITUDE  
LON         .                                        -94.885733 :LONGITUDE 
ELEV        .FT                                              88 :ELEVATION VALUE
ELEV_TYPE   .                                                KB :ELEVATION REFERENCE TYPE
~Curve Information Section
#MNEM       .UNIT                                      API CODE :CURVE DESCRIPTION
#------------------------------------------------------------------------------
DEPT        .FT                                                 :DEPTH     
ASFL        .OHMM                                               :          
CALI        .IN                                                 :          
CILD        .MMHO                                               :          
GR          .GAPI                                               :          
GR_1        .GAPI                                               :          
GR_NORM     .GAPI                                               :GammaRay Normalized
ILD         .OHMM                                               :          
ILM         .OHMM                                               :          
NPHI        .%                                                  :          
RFOC        .OHMM                                               :          
RHOB        .G/C3                                               :          
SP          .MV                                                 :          
SP_NORM     .MV                                                 :SP Normalized
VSH_GR      .V/V                                                :Volume of Shale from GR
VSH_SP      .V/V                                                :Volume of Shale from SP
~A        DEPTH           ASFL           CALI           CILD             GR           GR_1        GR_NORM            ILD            ILM           NPHI           RFOC           RHOB             SP        SP_NORM         VSH_GR         VSH_SP
# ...
      8142.0000         1.0231        10.4707       1212.803        72.9294        73.1593       74.19933          0.839         0.8727        31.5941         1.0391         2.4331       -44.6854      -3.845409      0.8765815      0.9450656
      8142.5000         1.0231        10.4516       1213.738        72.6117        72.3375       73.78284         0.8365         0.8679        31.5309         1.0376         2.4312        -44.865      -4.029297      0.8677201      0.9424386
      8143.0000         1.0243        10.4412       1214.674        72.7661        72.0563       73.98599         0.8324          0.863        31.4656         1.0352          2.427       -44.9978      -4.166382      0.8720424      0.9404802
      8143.5000         1.0255        10.4327       1215.611        73.0664        73.1039       74.38063         0.8284          0.858        31.3972         1.0295         2.4221       -44.9451      -4.117966      0.8804389      0.9411719
      8144.0000         1.0267        10.4257       1216.547        73.3667         74.015       74.77527         0.8261         0.8531        31.3515         1.0156         2.4212       -44.9683      -4.145454      0.8888355      0.9407792
      8144.5000          1.028        10.4202       1217.482         73.667        74.6418       75.16991         0.8262         0.8536        31.3412         1.0049          2.422       -44.9976      -4.179039      0.8972321      0.9402995
      8145.0000         1.0287        10.4121       1218.418        73.9673         74.741       75.56454         0.8263         0.8552         31.405         0.9964         2.4226       -44.7799      -3.965622      0.9056286      0.9433482
      8145.5000         1.0287        10.4001       1219.352        74.0814        74.4397        75.7148         0.8258         0.8569        31.5157         0.9941         2.4225       -44.3857       -3.57571      0.9088255      0.9489184
      8146.0000         1.0287        10.3897       1220.287        73.9012        74.6693       75.47878         0.8248         0.8583        31.5772         0.9919         2.4222       -44.1948      -3.389095      0.9038039      0.9515843
      8146.5000         1.0286        10.3974       1221.223        73.7209        74.9836       75.24262         0.8238         0.8595        31.2762         1.0059         2.4219       -44.6519      -3.850483      0.8987792      0.9449931
      8147.0000         1.0275         10.405       1222.795        73.5405        74.7109       75.00635         0.8228         0.8606        30.6923          1.023         2.4194       -45.5076      -4.710464      0.8937521      0.9327077
      8147.5000          1.025        10.4152       1225.479        73.1768        73.8501        74.5295         0.8219         0.8594        30.2703         1.0316         2.4165       -46.3004      -5.507549      0.8836063      0.9213207
      8148.0000         1.0224        10.4284        1228.16        72.7726        72.9063       73.99947         0.8209         0.8583        30.1579         1.0381         2.4138       -46.3845      -5.595936      0.8723292      0.9200581
      8148.5000           1.02        10.4425       1230.844        72.9871        72.0216       74.28149           0.82         0.8573        30.5522         1.0284         2.4125          -46.4      -5.615723      0.8783296      0.9197754
      8149.0000         1.0176        10.4584       1233.525        73.5331        71.6781       74.99861         0.8191         0.8562        31.0379         1.0191         2.4134       -46.3784      -5.598408      0.8935875      0.9200227
      8149.5000         1.0155        10.4743       1236.213        74.0792        72.6458       75.71587         0.8182         0.8552        31.3041         1.0115         2.4145       -46.2614      -5.484699      0.9088482      0.9216471
      8150.0000         1.0134        10.4772       1238.895        74.6252        73.9885       76.43298         0.8165         0.8542        31.2465         1.0092         2.4158       -46.1293        -5.3526       0.924106      0.9235343
      8150.5000         1.0113        10.4781       1241.578        75.1714        73.6425       77.15038         0.8142         0.8533        31.0899         1.0218          2.417       -45.8694      -5.092701      0.9393697      0.9272471
      8151.0000         1.0092        10.4719       1244.262         75.837        72.2255       78.02446         0.8118         0.8513        31.5717         1.0251          2.418       -45.5806      -4.803902      0.9579672      0.9313728
      8151.5000         1.0077        10.4691       1247.158        76.5685        72.6357       78.98505          0.808          0.848        32.7298         1.0196         2.4189       -45.2251      -4.448402      0.9784054      0.9364514
      8152.0000         1.0071        10.4712       1251.107        77.2999        74.5562       79.94551         0.8032         0.8447        33.7252         1.0074         2.4196       -44.8608      -4.084103      0.9988406      0.9416557
      8152.5000         1.0064        10.4732       1255.057        78.0313        76.4034       80.90598         0.7985         0.8433        34.5527         0.9928         2.4205       -44.4908        -3.7141              1      0.9469414
      8153.0000         1.0058        10.4747       1259.004        78.7615          78.11       81.86485         0.7978         0.8423        34.7837         0.9903         2.4216       -43.9918      -3.215099              1        0.95407
      8153.5000         1.0049        10.4763       1262.959        79.4929         79.464        82.8253         0.7971         0.8409        34.7492         0.9891         2.4226       -43.4859      -2.709202              1      0.9612971
      8154.0000         1.0038        10.4712       1266.908        79.7356         80.428       83.14435         0.7963         0.8388        34.7183         0.9968         2.4228       -43.0687         -2.292              1      0.9672571
      8154.5000         1.0028        10.4656       1270.857        79.7168        80.3486       83.12016         0.7935         0.8395        34.8085         1.0047         2.4231       -42.6793      -1.902599              1        0.97282
      8155.0000         1.0017        10.4659       1274.805        79.6112        79.4161       82.98206         0.7907         0.8384        34.9391         1.0073         2.4223       -43.1449      -2.368202              1      0.9661685
      8155.5000         1.0007        10.4677       1281.539        79.3429        79.3842       82.63042         0.7879         0.8349        35.1287         1.0078          2.421       -43.4739      -2.697201              1      0.9614686
      8156.0000         0.9996        10.4676        1289.23        79.7954        79.3098       83.22481         0.7846         0.8324        35.1475         1.0065         2.4194       -43.4066      -2.629902              1        0.96243
      8156.5000         0.9986        10.4659       1296.922        80.2472        78.4976        83.8183         0.7813         0.8307           35.1         1.0026         2.4172       -42.8768      -2.100101              1      0.9699985
      8157.0000         0.9951        10.4662       1304.613        80.6997        78.4501        84.4127         0.7779          0.828        35.0001         1.0023          2.415       -42.6356      -1.858902              1      0.9734443
      8157.5000          0.991        10.4679       1312.318        81.1522        79.5924        85.0071          0.774          0.824        34.9946         1.0079         2.4163       -42.7142        -1.9375              1      0.9723215
      8158.0000          0.987        10.4686        1320.01         81.604        80.9388       85.60058         0.7702         0.8199        35.0657         1.0135         2.4199       -43.0184      -2.241699              1      0.9679757
      8158.5000          0.983        10.4668       1327.699        82.0912        81.9758       86.24052         0.7655         0.8123        35.1555         1.0112         2.4209       -43.3223      -2.545601              1      0.9636343
