#------------------------------------------------------------------------------
# Created by    : vladimir.rabinovich
# Created on    : 09/19/2023 17:22:17
#------------------------------------------------------------------------------
~Version Information Section
VERS.           2.0     :   CWLS log ASCII Standard - VERSION 2.0
WRAP.           NO      :   One line per depth step
~Well Information Section
#MNEM       .UNIT                                         VALUE :DESCRIPTION
#------------------------------------------------------------------------------
STRT        .FT                                            2222 :START DEPTH
STOP        .FT                                            8603 :STOP DEPTH
STEP        .FT                                             0.5 :STEP      
NULL        .                                           -999.25 :NULL      
COMP        .                                    HRUBETZ OIL CO :COMPANY   
WELL        .                                     ST TR 00028-L :WELL      
FLD         .                                           WILDCAT :FIELD     
LOC         .                                                   :LOCATION  
CNTY        .                           HIGH ISLAND LARGE BLOCK :LOCATION  
STAT        .                                             TEXAS :STATE     
CTRY        .                                     UNITED STATES :COUNTRY   
SRVC        .                                                   :SERVICE COMPANY
DATE        .                             9/13/2023 11:19:15 AM :LOG DATE  
API         .                                    42708303040000 :API NUMBER
UWI         .                                    42708303040000 :UNIQUE WELL ID
XCOORD      .                                  1211101.11829014 :SURFACE X 
YCOORD      .                                  10709910.5532953 :SURFACE Y 
LAT         .                                         29.503814 :LATITUDE  
LON         .                                       -94.3499952 :LONGITUDE 
ELEV        .FT                                              60 :ELEVATION VALUE
ELEV_TYPE   .                                                KB :ELEVATION REFERENCE TYPE
~Curve Information Section
#MNEM       .UNIT                                      API CODE :CURVE DESCRIPTION
#------------------------------------------------------------------------------
DEPT        .FT                                                 :DEPTH     
CALI        .IN                                                 :          
GR          .GAPI                                               :          
GR_NORM     .GAPI                                               :GammaRay Normalized
ILD         .OHMM                                               :          
ILM         .OHMM                                               :          
RHOB        .G/C3                                               :          
SFL         .OHMM                                               :          
SP          .MV                                                 :          
SP_NORM     .MV                                                 :SP Normalized
VSH_GR      .V/V                                                :Volume of Shale from GR
VSH_SP      .V/V                                                :Volume of Shale from SP
~A        DEPTH           CALI             GR        GR_NORM            ILD            ILM           RHOB            SFL             SP        SP_NORM         VSH_GR         VSH_SP
# ...
      3909.5000        17.1731        31.3923       32.76711         0.4166          0.606         1.6496         1.6255      -148.1333      -65.64196              0     0.06225771
      3910.0000        17.1718        31.5752       33.01058         0.4148         0.6078           1.65         1.6427      -148.4478      -65.95143   0.0002251483      0.0578367
      3910.5000        17.1706        31.4463       32.83944         0.4136         0.6087         1.6504         1.6386      -148.6152       -66.1138              0     0.05551714
      3911.0000        17.1693        31.1511       32.44714         0.4124         0.6096         1.6508         1.6345       -148.783      -66.27657              0     0.05319181
      3911.5000         17.173        30.8558       32.05471         0.4112         0.6105         1.6516         1.6322      -148.8618      -66.35034              0     0.05213797
      3912.0000        17.1873        30.4473       31.51174           0.41         0.6114         1.6529           1.63      -148.9319      -66.41541              0      0.0512085
      3912.5000        17.2016        29.9402       30.83766         0.4132         0.6123         1.6543         1.6278       -149.002      -66.48048              0     0.05027891
      3913.0000        17.2159        30.2699       31.27635         0.4185         0.6112         1.6557         1.6256      -148.7976      -66.27106              0     0.05327061
      3913.5000        17.2301        30.3228       31.34695         0.4239         0.6098          1.657         1.6234      -148.5808      -66.04922              0     0.05643975
      3914.0000        17.2444        29.7524        30.5887         0.4294         0.6084         1.6584         1.6209      -148.3643      -65.82769              0     0.05960442
      3914.5000        17.2352        28.3796       28.76342         0.4411         0.6382         1.6586         1.6183      -147.6538      -65.11215              0      0.0698264
      3915.0000        17.2089        27.2485       27.25955         0.4533         0.6754         1.6581         1.6158      -146.5518      -64.00513              0     0.08564094
      3915.5000        17.1826        26.8539       26.73508         0.4659         0.7181         1.6577         1.6132       -145.415      -62.86329              0       0.101953
      3916.0000        17.1506        28.2255       28.55927         0.4748         0.7146         1.6572         1.6023      -143.9219      -61.36517              0      0.1233547
      3916.5000        17.0555        30.8694       32.07535           0.48         0.7103         1.6567         1.5893       -142.429      -59.86724              0      0.1447537
      3917.0000        16.5198        33.8326       36.01603         0.4853         0.6825         1.6573         1.5763       -141.198       -58.6312     0.06417084      0.1624114
      3917.5000        15.9668        36.6357       39.74381         0.4822         0.6427         1.6581         1.5646      -140.2593      -57.68747      0.1434853      0.1758933
      3918.0000        15.5195        38.9762       42.85644         0.4703         0.6053         1.6589          1.557      -139.3184      -56.74155      0.2097114      0.1894064
      3918.5000        15.1713        41.3155       45.96746         0.4586          0.579         1.7723         1.5665      -138.3599      -55.77802      0.2759034      0.2031712
      3919.0000        14.9617        42.7757       47.90947         0.4493         0.5608         1.8858         1.5409      -137.4019      -54.81499      0.3172228      0.2169288
      3919.5000        14.8536        43.8818       49.38061         0.4403         0.5432         1.9428         1.5436      -136.7361      -54.14416      0.3485236       0.226512
      3920.0000        14.8465        44.8012       50.60346         0.4315         0.5349         1.9904         1.5926      -135.9873      -53.39034      0.3745418      0.2372809
      3920.5000        14.8731        45.9451       52.12486         0.4249         0.5301         2.0216         1.6432      -133.5776       -50.9756       0.406912      0.2717771
      3921.0000        14.8997        48.0838       54.96914         0.4226         0.5252         2.0473         1.6826      -128.3254      -45.71836      0.4674286      0.3468806
      3921.5000         14.928        50.8758       58.68216         0.4321         0.5392         2.0661         1.5785      -121.7369      -39.12484       0.546429      0.4410737
      3922.0000        14.9574        56.2396       65.81513         0.4664         0.5537         2.0625          1.431      -114.9796      -32.36251      0.6981943      0.5376784
      3922.5000        14.9868        64.7158       77.08692         0.5054         0.5685         2.0588          1.192      -101.7404      -19.11828      0.9380196      0.7268817
      3923.0000        15.0162        67.2778       80.49409         0.5533         0.6004         2.0845          1.157       -97.2257      -14.59855              1      0.7914493
      3923.5000        15.0456        66.3785       79.29848         0.6059         0.6378         2.1176         1.2833       -97.2632      -14.63102      0.9850742      0.7909854
      3924.0000        15.0635        65.6641       78.34873          0.653         0.6775          2.159         1.4234       -97.0582      -14.42098      0.9648666       0.793986
      3924.5000        15.0769        67.9312       81.36375         0.6976         0.7154         2.1994          1.463       -96.0511      -13.40886              1      0.8084449
      3925.0000        15.0903        69.6605        83.6636         0.7454         0.7501         2.1825         1.3462        -93.496      -10.84873              1      0.8450181
      3925.5000        15.1037        68.8713       82.61438         0.7753         0.7865         2.1744         1.2217        -92.967       -10.3147              1      0.8526471
      3926.0000        15.1171        67.5261       80.82583         0.8057         0.8209         2.1815         1.1562       -93.1888      -10.53146              1      0.8495505
      3926.5000        15.1296        66.1803       79.03644         0.8166         0.8376         2.2017         1.2224       -93.5625      -10.90014      0.9794987      0.8442838
      3927.0000        15.1383        65.2505       77.80027         0.7982         0.8546         2.2255         1.3811       -93.9243      -11.25691      0.9531972       0.839187
      3927.5000         15.147        64.8284       77.23921         0.7802         0.8639         2.2032         1.4221       -93.5392      -10.86678      0.9412598      0.8447604
      3928.0000        15.1557        65.3783       77.97073         0.7626         0.8631         2.1916         1.3752       -93.1538      -10.47635      0.9568239      0.8503379
      3928.5000        15.1644        66.5167       79.48481         0.7455         0.8624           2.18         1.3241       -92.7062      -10.02372      0.9890385       0.856804
      3929.0000         15.173        68.9026       82.65781         0.7288         0.8617         2.1685          1.236       -92.2584      -9.570892              1       0.863273
      3929.5000        15.1834        71.8585       86.58878           0.71         0.8551         2.1573         1.1538       -92.5225      -9.829956              1      0.8595721
      3930.0000        15.1963        74.4706       89.49075         0.6842         0.8455         2.1467         1.1139       -93.2832      -10.58563              1      0.8487767
      3930.5000        15.2093        75.8422       91.39258         0.6594         0.8361           2.12          1.084       -95.8162       -13.1136              1      0.8126628
      3931.0000        15.2637        74.4915       89.52028         0.6355         0.8247         2.0785         1.0393       -99.5123      -16.80466              1      0.7599334
      3931.5000        15.5508        71.5282        85.4123         0.6162         0.8032         2.0316         0.9934      -104.1115      -21.39884              1      0.6943023
