#------------------------------------------------------------------------------
# Created by    : vladimir.rabinovich
# Created on    : 09/19/2023 17:20:40
#------------------------------------------------------------------------------
~Version Information Section
VERS.           2.0     :   CWLS log ASCII Standard - VERSION 2.0
WRAP.           NO      :   One line per depth step
~Well Information Section
#MNEM       .UNIT                                         VALUE :DESCRIPTION
#------------------------------------------------------------------------------
STRT        .FT                                             400 :START DEPTH
STOP        .FT                                           11002 :STOP DEPTH
STEP        .FT                                             0.5 :STEP      
NULL        .                                           -999.25 :NULL      
COMP        .                            STANOLIND OIL & GAS CO :COMPANY   
WELL        .                                     ST TR 00245-L :WELL      
FLD         .                              GALVESTON BLOCK 0245 :FIELD     
LOC         .                                                   :LOCATION  
CNTY        .                             GALVESTON LARGE BLOCK :LOCATION  
STAT        .                                             TEXAS :STATE     
CTRY        .                                     UNITED STATES :COUNTRY   
SRVC        .                                                   :SERVICE COMPANY
DATE        .                             9/13/2023 11:19:42 AM :LOG DATE  
API         .                                    42706000160000 :API NUMBER
UWI         .                                    42706000160000 :UNIQUE WELL ID
XCOORD      .                                  1024804.26554262 :SURFACE X 
YCOORD      .                                  10549089.4715911 :SURFACE Y 
LAT         .                                        29.0543948 :LATITUDE  
LON         .                                       -94.9272588 :LONGITUDE 
ELEV        .FT                                              11 :ELEVATION VALUE
ELEV_TYPE   .                                                KB :ELEVATION REFERENCE TYPE
~Curve Information Section
#MNEM       .UNIT                                      API CODE :CURVE DESCRIPTION
#------------------------------------------------------------------------------
DEPT        .FT                                                 :DEPTH     
ASN         .OHMM                                               :          
LAT         .OHMM                                               :          
LN          .OHMM                                               :          
SP          .MV                                                 :          
SP_NORM     .MV                                                 :SP Normalized
VSH_SP      .V/V                                                :Volume of Shale from SP
~A        DEPTH            ASN            LAT             LN             SP        SP_NORM         VSH_SP
# ...
      8152.0000         0.8083         0.7824         0.4387       -64.0768      -11.79639      0.8886774
      8152.5000         0.7893         0.7831         0.4351       -64.2114      -11.92959      0.8871638
      8153.0000         0.7695         0.7822         0.4315       -64.3461      -12.06288      0.8856491
      8153.5000         0.7491         0.7712         0.4279       -63.6594      -11.37477      0.8934684
      8154.0000         0.7246         0.7594         0.4242       -62.6063      -10.32027      0.9054515
      8154.5000         0.6911         0.7486         0.4206       -61.6446      -9.357162      0.9163959
      8155.0000         0.6733         0.7378          0.417       -60.7598      -8.470955      0.9264664
      8155.5000         0.6685         0.7267         0.4127       -59.8359      -7.545647      0.9369813
      8156.0000         0.6795         0.7154         0.4082       -59.0198      -6.728142      0.9462711
      8156.5000         0.6902         0.7043         0.4037       -58.8821      -6.589035      0.9478519
      8157.0000         0.7008         0.6953         0.3992       -58.7444      -6.449932      0.9494326
      8157.5000         0.7114         0.6907         0.3948        -59.058      -6.762123      0.9458849
      8158.0000         0.7243         0.6969         0.3906        -60.226      -7.928719      0.9326282
      8158.5000          0.731          0.704          0.387        -61.843      -9.544312      0.9142692
      8159.0000         0.7362         0.7132         0.3834       -62.8871      -10.58701      0.9024204
      8159.5000          0.736         0.7225         0.3797       -63.6856       -11.3841      0.8933625
      8160.0000         0.7255         0.7247         0.3761       -63.3814       -11.0785      0.8968353
      8160.5000         0.7204          0.719         0.3766       -63.0766      -10.77229      0.9003149
      8161.0000         0.7153         0.7133         0.3778       -62.1929       -9.88718       0.910373
      8161.5000         0.7103         0.7085         0.3789       -61.3905      -9.083374      0.9195071
      8162.0000         0.7072         0.7047         0.3801       -61.2958      -8.987267      0.9205992
      8162.5000         0.7053         0.7001         0.3832       -61.2453      -8.935364      0.9211891
      8163.0000         0.7036         0.6912         0.3873       -61.6836      -9.372257      0.9162244
      8163.5000         0.7018         0.6829         0.3914       -62.2921      -9.979347      0.9093256
      8164.0000         0.6986         0.6756         0.3954       -63.4466      -11.13245      0.8962222
      8164.5000         0.6939         0.6683         0.3999        -64.162      -11.84644      0.8881087
      8165.0000         0.6891         0.6611         0.4085        -63.826      -11.50903      0.8919429
      8165.5000         0.6855         0.6521         0.4172       -63.4901      -11.17173      0.8957759
      8166.0000         0.6859         0.6436         0.4259       -63.0231      -10.70332      0.9010987
      8166.5000         0.6927         0.6363         0.4346       -62.6885      -10.36731      0.9049169
      8167.0000         0.6996          0.629         0.4423       -62.5258      -10.20321      0.9067817
      8167.5000         0.7071         0.6218         0.4488       -62.4013       -10.0773      0.9082125
      8168.0000         0.7148         0.6166         0.4554       -63.1658      -10.84039       0.899541
      8168.5000         0.7239         0.6125         0.4605       -63.9313      -11.60449      0.8908581
      8169.0000         0.7296         0.6164         0.4639       -63.5201      -11.19188      0.8955469
      8169.5000         0.7308         0.6203         0.4673       -62.2208      -9.891174      0.9103276
      8170.0000         0.7319         0.6237         0.4707       -60.9236      -8.592567      0.9250845
      8170.5000         0.7316         0.6228          0.476       -59.7089      -7.376465      0.9389038
      8171.0000         0.7308         0.6219         0.4816       -58.5945      -6.260658      0.9515834
      8171.5000         0.7329          0.621         0.4873       -57.2527       -4.91745      0.9668472
      8172.0000         0.7379         0.6173         0.4929       -55.4853      -3.148643      0.9869472
      8172.5000         0.7476         0.6134         0.4989       -53.7223      -1.384239              1
      8173.0000         0.7576         0.6077         0.5062       -51.9259      0.4135704              1
      8173.5000         0.7725         0.6004         0.5136       -50.7034       1.637474              1
      8174.0000         0.7846         0.5932         0.5209       -49.9512       2.391083              1
      8174.5000         0.7891         0.5866         0.5254       -49.3516       2.992088              1
      8175.0000         0.7921         0.5829         0.5282       -48.9245       3.420593              1
      8175.5000         0.7924         0.5793         0.5311       -48.7036       3.642899              1
      8176.0000         0.7928         0.5689         0.5339        -48.966       3.381905              1
      8176.5000         0.7932         0.5553         0.5382       -49.5511        2.79821              1
      8177.0000         0.7924         0.5599         0.5443       -50.3702       1.980518              1
      8177.5000         0.7916         0.5645         0.5504       -53.2454     -0.8932762              1
      8178.0000         0.7969         0.5686         0.5557       -55.8765      -3.522968      0.9826936
      8178.5000         0.8022          0.572         0.5581        -56.642       -4.28706      0.9740107
      8179.0000         0.8073         0.5755         0.5605       -57.1513      -4.794956      0.9682391
      8179.5000         0.8092         0.5789         0.5634       -57.4578      -5.100052      0.9647722
      8180.0000         0.8084         0.5823         0.5664       -58.1064      -5.747246      0.9574177
      8180.5000         0.8066         0.5858         0.5695       -59.1873       -6.82674      0.9451507
      8181.0000         0.8029         0.5892         0.5725       -61.3671      -9.005131      0.9203963
      8181.5000         0.7979         0.5928         0.5751       -61.1832      -8.819828       0.922502
      8182.0000          0.793         0.5963         0.5777       -60.3742      -8.009418      0.9317111
      8182.5000         0.7887         0.5999         0.5802        -59.564      -7.197811      0.9409339
      8183.0000         0.7848         0.5967         0.5828       -57.4935      -5.125908      0.9644783
      8183.5000         0.7863         0.5901         0.5854       -55.0373      -2.668301      0.9924057
      8184.0000         0.7881         0.5835         0.5882       -51.9794      0.3910027              1
      8184.5000          0.791         0.5769         0.5911       -49.5656        2.80621              1
      8185.0000         0.7886         0.5777         0.5939       -48.2684        4.10482              1
      8185.5000         0.7858         0.5792         0.5965        -47.427       4.947624              1
      8186.0000         0.7885         0.5807         0.5918       -46.6915       5.684528              1
      8186.5000         0.7912         0.5837          0.587       -46.2441       6.133339              1
      8187.0000         0.7941         0.5868         0.5823       -45.9081       6.470741              1
      8187.5000          0.799         0.5899         0.5734       -45.5833       6.796947              1
      8188.0000         0.8093         0.5983         0.5623       -45.2857       7.095951              1
      8188.5000         0.8242         0.6175         0.5512       -44.9703       7.412762              1
      8189.0000         0.8401         0.6397         0.5408       -44.6343       7.750168              1
      8189.5000         0.8536         0.6412         0.5317       -44.3691       8.016773              1
