#------------------------------------------------------------------------------
# Created by    : vladimir.rabinovich
# Created on    : 09/19/2023 17:21:34
#------------------------------------------------------------------------------
~Version Information Section
VERS.           2.0     :   CWLS log ASCII Standard - VERSION 2.0
WRAP.           NO      :   One line per depth step
~Well Information Section
#MNEM       .UNIT                                         VALUE :DESCRIPTION
#------------------------------------------------------------------------------
STRT        .FT                                            4495 :START DEPTH
STOP        .FT                                            9058 :STOP DEPTH
STEP        .FT                                             0.5 :STEP      
NULL        .                                           -999.25 :NULL      
COMP        .                          SEAGULL ENERGY E & P INC :COMPANY   
WELL        .                               OCS G11322 ST00BP00 :WELL      
FLD         .                                           WILDCAT :FIELD     
LOC         .                                                   :LOCATION  
CNTY        .                             GALVESTON LARGE BLOCK :LOCATION  
STAT        .                                             TEXAS :STATE     
CTRY        .                                     UNITED STATES :COUNTRY   
SRVC        .                                                   :SERVICE COMPANY
DATE        .                             9/13/2023 11:19:34 AM :LOG DATE  
API         .                                    42706402570000 :API NUMBER
UWI         .                                    42706402570000 :UNIQUE WELL ID
XCOORD      .                                  1032943.49501878 :SURFACE X 
YCOORD      .                                  10418025.6284813 :SURFACE Y 
LAT         .                                         28.694364 :LATITUDE  
LON         .                                        -94.895236 :LONGITUDE 
ELEV        .FT                                              97 :ELEVATION VALUE
ELEV_TYPE   .                                                KB :ELEVATION REFERENCE TYPE
~Curve Information Section
#MNEM       .UNIT                                      API CODE :CURVE DESCRIPTION
#------------------------------------------------------------------------------
DEPT        .FT                                                 :DEPTH     
CALI        .IN                                                 :          
DCAL        .IN                                                 :          
DPHI        .%                                                  :          
DRHO        .G/C3                                               :          
GR          .GAPI                                               :          
GR_1        .GAPI                                               :          
GR_NORM     .GAPI                                               :GammaRay Normalized
ILD         .OHMM                                               :          
ILM         .OHMM                                               :          
NPHI        .%                                                  :          
SGRD        .OHMM                                               :          
SP          .MV                                                 :          
SP_NORM     .MV                                                 :SP Normalized
VSH_GR      .V/V                                                :Volume of Shale from GR
VSH_SP      .V/V                                                :Volume of Shale from SP
~A        DEPTH           CALI           DCAL           DPHI           DRHO             GR           GR_1        GR_NORM            ILD            ILM           NPHI           SGRD             SP        SP_NORM         VSH_GR         VSH_SP
# ...
      4801.0000        -999.25         1.6469        28.4883         0.0058        -999.25        74.9855       74.74225         0.8832         0.8892        47.5876         1.0047       -45.5182      -3.295975      0.8881329      0.9450671
      4801.5000        -999.25         1.6362        28.4337         0.0042        -999.25        74.9048       74.64078         0.8713         0.8771        47.1509         1.0005       -45.3256      -3.103374       0.885974      0.9482771
      4802.0000        -999.25          1.626        28.4951         0.0027        -999.25        74.5419       74.18445         0.8555         0.8639        46.5441         0.9963       -45.1901      -2.967876      0.8762649      0.9505354
      4802.5000        -999.25         1.6202        28.5943         0.0014        -999.25        74.2781       73.85271         0.8395         0.8503        46.3148         0.9916       -45.1348      -2.912575      0.8692067      0.9514571
      4803.0000        -999.25         1.6268        28.7287         0.0009        -999.25        74.7407       74.43443         0.8255          0.835        46.5876         0.9865       -45.0827      -2.860474      0.8815837      0.9523255
      4803.5000        -999.25         1.6284        28.8796         0.0015        -999.25        74.3553       73.94979         0.8131         0.8227        47.0392         0.9807       -45.0361      -2.813873      0.8712721      0.9531021
      4804.0000        -999.25         1.6291        28.9881         0.0016        -999.25        73.4475       72.80826         0.8039         0.8126        47.3303         0.9691       -44.9937      -2.771473      0.8469842      0.9538088
      4804.5000        -999.25         1.6297        28.9486         0.0012        -999.25        72.1738        71.2066         0.7994         0.8044        47.3929         0.9607       -45.0057      -2.783474      0.8129063      0.9536088
      4805.0000        -999.25          1.636        28.8242         0.0022        -999.25        70.4254       69.00802         0.7965         0.8002        47.5175         0.9533       -45.0176      -2.795376      0.7661281      0.9534104
      4805.5000        -999.25         1.6305        28.6755         0.0034        -999.25        69.0277       67.25043         0.7945         0.7971        47.6794         0.9521       -44.9975      -2.775276      0.7287326      0.9537454
      4806.0000        -999.25         1.6155        28.4861         0.0045        -999.25         68.203       66.21339         0.7928         0.7952        47.8811         0.9567       -44.9678      -2.745575       0.706668      0.9542404
      4806.5000        -999.25         1.6227         28.315          0.005        -999.25        70.7273       69.38766         0.7915         0.7936        48.2037         0.9634       -44.9208      -2.698574      0.7742054      0.9550238
      4807.0000        -999.25         1.5974        28.1826         0.0051        -999.25        73.8682       73.33728         0.7895          0.792        48.5331         0.9621       -44.8734      -2.651176        0.85824      0.9558137
      4807.5000        -999.25         1.5554        28.0934         0.0056        -999.25        76.0214       76.04489         0.7867         0.7906        48.7953         0.9544       -44.8416      -2.619373      0.9158487      0.9563438
      4808.0000        -999.25         1.5097        28.1262         0.0061        -999.25        77.4711       77.86786         0.7826         0.7871        48.5088         0.9448       -44.7983      -2.576077      0.9546353      0.9570654
      4808.5000        -999.25         1.4579        28.2325         0.0061        -999.25         75.097       74.88247         0.7756         0.7796        48.1063         0.9353       -44.6869      -2.464676      0.8911164      0.9589221
      4809.0000        -999.25          1.428        28.3257         0.0058        -999.25        69.8611       68.29842         0.7623         0.7677        47.7137         0.9302       -44.5772      -2.354977      0.7510303      0.9607504
      4809.5000        -999.25         1.4032        28.4227          0.005        -999.25        69.0281       67.25093         0.7466         0.7552        47.3224         0.9247       -44.4763      -2.254074      0.7287432      0.9624321
      4810.0000        -999.25         1.4039        28.5851         0.0041        -999.25        69.5182       67.86723         0.7307         0.7403        47.1567         0.9187       -44.3754      -2.153175       0.741856      0.9641138
      4810.5000        -999.25         1.4046        29.0238         0.0036        -999.25        71.8507       70.80032         0.7169         0.7268        48.0977         0.9122       -44.2928      -2.070576       0.804262      0.9654904
      4811.0000        -999.25         1.3995        29.5715         0.0042        -999.25        74.4246       74.03694         0.7058         0.7148        49.4277         0.9071       -44.2305      -2.008274      0.8731264      0.9665288
      4811.5000        -999.25         1.3976        30.1764         0.0048        -999.25        76.7557       76.96825         0.6967         0.7003        50.6334         0.9029       -44.1763      -1.954075      0.9354948      0.9674321
      4812.0000        -999.25         1.3973        30.8052         0.0056        -999.25          78.76       79.48863         0.6911         0.6927        51.6722         0.8948       -44.1523      -1.930077      0.9891198       0.967832
      4812.5000        -999.25         1.3921        31.0598         0.0065        -999.25        78.3433       78.96464         0.6888         0.6894        52.4005         0.8918       -44.1283      -1.906075       0.977971      0.9682321
      4813.0000        -999.25         1.3868        30.9894         0.0066        -999.25        75.3726       75.22903         0.6889         0.6872        52.5372           0.89        -44.088      -1.865776      0.8984901      0.9689037
      4813.5000        -999.25         1.3857        30.8758         0.0068        -999.25        74.3606       73.95647         0.6903         0.6855        51.0309         0.8891       -44.0443      -1.822075      0.8714142      0.9696321
      4814.0000        -999.25         1.3922        30.7993         0.0071        -999.25        73.3948       72.74198         0.6893         0.6839         50.121         0.8893       -43.9875      -1.765274      0.8455741      0.9705788
      4814.5000        -999.25         1.3879        30.7717         0.0078        -999.25         70.432       69.01632         0.6892         0.6828        49.9587         0.8924       -43.9207      -1.698475      0.7663047      0.9716921
      4815.0000        -999.25         1.3884        30.7598         0.0086        -999.25        71.9615       70.93964         0.6893         0.6817        50.1191         0.8929       -43.8723      -1.650074      0.8072263      0.9724988
      4815.5000        -999.25         1.3941        30.7684         0.0094        -999.25        74.8597       74.58407         0.6885         0.6815        50.1522         0.8905        -43.844      -1.621777      0.8847674      0.9729704
      4816.0000        -999.25         1.3897        30.8143         0.0103        -999.25        76.5068       76.65527         0.6874         0.6816        50.2005         0.8879       -43.8139      -1.591675      0.9288355      0.9734721
      4816.5000        -999.25         1.3922        30.8128         0.0107        -999.25        76.7849       77.00497         0.6877          0.682        50.7794          0.885       -43.7824      -1.560173      0.9362759      0.9739971
      4817.0000        -999.25         1.4028        30.7787         0.0105        -999.25        75.2777        75.1097          0.689         0.6826        51.7908         0.8815       -43.7462      -1.523975      0.8959512      0.9746004
      4817.5000        -999.25         1.4056        30.7187         0.0103        -999.25        74.1621       73.70686         0.6902         0.6833        51.9365         0.8806       -43.6911      -1.468876      0.8661033      0.9755188
