#------------------------------------------------------------------------------
# Created by    : vladimir.rabinovich
# Created on    : 09/19/2023 17:22:40
#------------------------------------------------------------------------------
~Version Information Section
VERS.           2.0     :   CWLS log ASCII Standard - VERSION 2.0
WRAP.           NO      :   One line per depth step
~Well Information Section
#MNEM       .UNIT                                         VALUE :DESCRIPTION
#------------------------------------------------------------------------------
STRT        .FT                                            3744 :START DEPTH
STOP        .FT                                            9989 :STOP DEPTH
STEP        .FT                                             0.5 :STEP      
NULL        .                                           -999.25 :NULL      
COMP        .                          SEAGULL ENERGY E & P INC :COMPANY   
WELL        .                               OCS G07243 ST00BP00 :WELL      
FLD         .                                           WILDCAT :FIELD     
LOC         .                                                   :LOCATION  
CNTY        .                             GALVESTON LARGE BLOCK :LOCATION  
STAT        .                                             TEXAS :STATE     
CTRY        .                                     UNITED STATES :COUNTRY   
SRVC        .                                                   :SERVICE COMPANY
DATE        .                             9/13/2023 11:19:34 AM :LOG DATE  
API         .                                    42706403030000 :API NUMBER
UWI         .                                    42706403030000 :UNIQUE WELL ID
XCOORD      .                                   1005609.3052046 :SURFACE X 
YCOORD      .                                  10500547.7567395 :SURFACE Y 
LAT         .                                          28.92005 :LATITUDE  
LON         .                                        -94.984771 :LONGITUDE 
ELEV        .FT                                              96 :ELEVATION VALUE
ELEV_TYPE   .                                                KB :ELEVATION REFERENCE TYPE
~Curve Information Section
#MNEM       .UNIT                                      API CODE :CURVE DESCRIPTION
#------------------------------------------------------------------------------
DEPT        .FT                                                 :DEPTH     
DCAL        .IN                                                 :          
DPHI        .%                                                  :          
GR          .GAPI                                               :          
GR_NORM     .GAPI                                               :GammaRay Normalized
ILD         .OHMM                                               :          
ILM         .OHMM                                               :          
NPHI        .%                                                  :          
SFL         .OHMM                                               :          
SP          .MV                                                 :          
SP_NORM     .MV                                                 :SP Normalized
VSH_GR      .V/V                                                :Volume of Shale from GR
VSH_SP      .V/V                                                :Volume of Shale from SP
~A        DEPTH           DCAL           DPHI             GR        GR_NORM            ILD            ILM           NPHI            SFL             SP        SP_NORM         VSH_GR         VSH_SP
# ...
      5466.0000         1.0799        31.0187        74.0884       98.67332         0.6153         0.5509        50.8372         0.5663       -49.8851      -5.108145              1      0.9464113
      5466.5000         0.9878        30.2162        74.6213       99.41499         0.6276         0.5557        50.2277         0.5944        -49.408      -4.500926              1      0.9568806
      5467.0000         0.9391        28.8177        74.3229       98.99516         0.6401         0.5605         49.559          0.604       -48.9283      -3.890396              1       0.967407
      5467.5000         0.8914        29.0289         73.382       97.67764         0.6536         0.5654        49.3664         0.6045       -48.5541      -3.414143              1      0.9756182
      5468.0000         0.7583        30.4536        72.4575       96.38302         0.6694         0.5748        49.6273         0.5995       -48.3571      -3.163418              1      0.9799411
      5468.5000         0.6105        31.8379        71.7161       95.34425         0.6779         0.5849        49.9863         0.5906       -48.1979      -2.960796              1      0.9834346
      5469.0000         0.5514        32.2637        72.4746       96.40112          0.689         0.5958        51.0226         0.5811       -48.0693      -2.797127              1      0.9862564
      5469.5000         0.5508        31.4885        73.9701       98.48772         0.7013         0.6133        52.8508         0.5731        -48.071      -2.799287              1      0.9862192
      5470.0000         0.5888        30.3742        75.4436       100.5436         0.7149         0.6356        52.6904         0.5685       -48.2789      -3.063889              1      0.9816571
      5470.5000         0.5944        30.6776        75.9219        101.209         0.7373         0.6587        49.2723          0.592       -48.5236      -3.375327              1      0.9762875
      5471.0000         0.5359        31.8315        75.4182       100.5023         0.7575         0.6861        46.6293         0.6287       -48.8091       -3.73869              1      0.9700226
      5471.5000         0.5002        32.1027         71.556       95.10313         0.7733         0.7143        45.5858          0.666       -49.1912      -4.224998              1       0.961638
      5472.0000         0.4843        31.6151        67.4297       89.33496          0.791         0.7421        44.7551         0.7065       -49.6351      -4.789963              1      0.9518972
      5472.5000         0.5186        32.2369        64.2363       84.87023         0.8137         0.7611        41.5244         0.7323       -50.0155      -5.274106              1      0.9435499
      5473.0000         0.6618        32.0626        62.8586       82.94241         0.8269         0.7742        40.5994         0.7435       -50.3008      -5.637216              1      0.9372894
      5473.5000         0.9308        30.5664        63.3441       83.61785         0.8265         0.7597        40.5872         0.7368       -50.4919      -5.880435              1      0.9330959
      5474.0000         1.3144         30.792        64.4821       85.20495         0.8146          0.745        40.8954         0.7095       -50.5805      -5.993199              1      0.9311517
      5474.5000         1.6631        34.4308        65.5557       86.70211         0.8031         0.7306         42.363         0.6821       -50.6364      -6.064341              1      0.9299251
      5475.0000          1.443        33.9591        65.1207        86.0914         0.7925         0.7141        44.8345         0.6663       -50.5797       -5.99218              1      0.9311693
      5475.5000         1.1491        31.9816        63.1351       83.31422         0.7806         0.7025        43.7338         0.6581       -50.4615      -5.841741              1      0.9337631
      5476.0000           1.15        31.4638        61.1074       80.47821         0.7674         0.6942        41.7007         0.6517       -50.3582       -5.71027              1      0.9360298
      5476.5000         1.4894        33.9591        60.0462       78.99261         0.7517         0.6854         41.113         0.6463       -50.3233      -5.665851      0.9785663      0.9367957
      5477.0000         1.9067        35.6094        59.7972        78.6418         0.7367         0.6742        41.6848         0.6375       -50.2864      -5.618888      0.9711021      0.9376054
      5477.5000         1.7572        33.4588         61.018        80.3446         0.7231          0.663        43.6115         0.6189       -50.0296       -5.29205              1      0.9432405
      5478.0000         1.2279        29.0337        62.9143       82.99121         0.7154         0.6534        45.8351         0.5961       -49.6091      -4.756871              1      0.9524677
      5478.5000         0.8309         28.608        65.0248       85.93711         0.7072         0.6453        47.9882         0.5755       -49.1071      -4.117963              1      0.9634834
      5479.0000         0.8434        31.2828        67.4349       89.30161         0.6987         0.6368        48.3863         0.5592        -48.337      -3.137836              1      0.9803821
      5479.5000         0.8956        31.2351        70.8096       94.01384         0.6943         0.6263        48.4237         0.5513       -47.4125      -1.961195              1              1
      5480.0000         0.7346        29.9851        74.2185       98.77386         0.6913         0.6171        48.9888         0.5602       -46.6812       -1.03045              1              1
      5480.5000         0.5972        29.0452        75.6693        100.798         0.6934         0.6121        49.9767          0.577       -46.0977     -0.2878134              1              1
      5481.0000         0.5672        29.5959        73.4825       97.73972          0.696         0.6125        50.8599         0.5883       -45.6049      0.3393839              1              1
      5481.5000          0.596        30.2952        71.6388        95.1608         0.6965         0.6142        50.6383         0.5919       -45.2097      0.8423643              1              1
      5482.0000         0.6545        30.5463         70.667       93.80009         0.6974         0.6159         49.895         0.5954       -45.2114      0.8402037              1              1
      5482.5000         0.7315        30.4689        69.9679        92.8204          0.703         0.6175         49.069         0.5989       -45.2345      0.8108014              1              1
      5483.0000          0.791        30.0915        68.9435       91.38622         0.7087         0.6194        48.2399         0.6033       -45.2864      0.7447482              1              1
      5483.5000         0.7932         29.094        67.6964       89.64087         0.7144         0.6223        48.6799          0.609       -45.4024      0.5971104              1              1
      5484.0000         0.7199        27.9044        66.7351       88.29483         0.7202          0.627        49.4939         0.6166       -45.5861      0.3633097              1              1
      5484.5000         0.6127        27.7138        66.2864         87.665         0.7268         0.6323        47.6141         0.6248        -45.697       0.222168              1              1
      5485.0000         0.5063        28.2903        66.0715       87.36185         0.7375          0.638        45.7835         0.6327       -45.7267      0.1843664              1              1
      5485.5000         0.4258        28.8776        65.4236        86.4537         0.7423          0.645        44.8896         0.6379       -45.7784      0.1185656              1              1
      5486.0000         0.3946        29.2642        65.1112       86.01432         0.7443         0.6524        45.3991          0.641       -45.8419     0.03774816              1              1
