#------------------------------------------------------------------------------
# Created by    : vladimir.rabinovich
# Created on    : 09/19/2023 17:22:56
#------------------------------------------------------------------------------
~Version Information Section
VERS.           2.0     :   CWLS log ASCII Standard - VERSION 2.0
WRAP.           NO      :   One line per depth step
~Well Information Section
#MNEM       .UNIT                                         VALUE :DESCRIPTION
#------------------------------------------------------------------------------
STRT        .FT                                             671 :START DEPTH
STOP        .FT                                           10000 :STOP DEPTH
STEP        .FT                                             0.5 :STEP      
NULL        .                                           -999.25 :NULL      
COMP        .                                    MOBIL OIL CORP :COMPANY   
WELL        .                                     ST TR 00565-L :WELL      
FLD         .                                           WILDCAT :FIELD     
LOC         .                                                   :LOCATION  
CNTY        .                      MATAGORDA ISLAND LARGE BLOCK :LOCATION  
STAT        .                                             TEXAS :STATE     
CTRY        .                                     UNITED STATES :COUNTRY   
SRVC        .                                                   :SERVICE COMPANY
DATE        .                             9/13/2023 11:12:05 AM :LOG DATE  
API         .                                    42703000150000 :API NUMBER
UWI         .                                    42703000150000 :UNIQUE WELL ID
XCOORD      .                                  584511.465629887 :SURFACE X 
YCOORD      .                                  10263641.5286434 :SURFACE Y 
LAT         .                                         28.243485 :LATITUDE  
LON         .                                       -96.2796592 :LONGITUDE 
ELEV        .FT                                              11 :ELEVATION VALUE
ELEV_TYPE   .                                                KB :ELEVATION REFERENCE TYPE
~Curve Information Section
#MNEM       .UNIT                                      API CODE :CURVE DESCRIPTION
#------------------------------------------------------------------------------
DEPT        .FT                                                 :DEPTH     
SP          .MV                                                 :          
SP_NORM     .MV                                                 :SP Normalized
VSH_SP      .V/V                                                :Volume of Shale from SP
~A        DEPTH             SP        SP_NORM         VSH_SP
# ...
      6809.0000         11.508        -3.3447      0.9439708
      6809.5000        11.4242        -3.2609      0.9474625
      6810.0000        11.2819        -3.1186      0.9533917
      6810.5000        11.1395        -2.9762       0.959325
      6811.0000        10.9744        -2.8111      0.9662042
      6811.5000         10.741        -2.5777      0.9759291
      6812.0000        10.5076        -2.3443      0.9856542
      6812.5000        10.2745        -2.1112      0.9953666
      6813.0000        10.0411        -1.8778              1
      6813.5000         9.8678        -1.7045              1
      6814.0000         9.8334        -1.6701              1
      6814.5000         9.7989        -1.6356              1
      6815.0000         9.7645        -1.6012              1
      6815.5000         9.8378        -1.6745              1
      6816.0000        10.0386        -1.8753              1
      6816.5000         10.239        -2.0757      0.9968458
      6817.0000        10.4398        -2.2765      0.9884792
      6817.5000        10.6406        -2.4773      0.9801125
      6818.0000        10.8019        -2.6386      0.9733917
      6818.5000        10.9464        -2.7831      0.9673709
      6819.0000         11.091        -2.9277      0.9613459
      6819.5000        11.1178        -2.9545      0.9602292
      6820.0000        10.9007        -2.7374       0.969275
      6820.5000        10.6833          -2.52      0.9783334
      6821.0000        10.5831        -2.4198      0.9825084
      6821.5000        10.9497        -2.7864      0.9672334
      6822.0000        11.5728        -3.4095      0.9412708
      6822.5000        12.8855        -4.7222       0.886575
      6823.0000        14.8256        -6.6623      0.8057375
      6823.5000        18.0647        -9.9014       0.670775
      6824.0000        14.2634        -6.1001      0.8291625
      6824.5000        13.4333          -5.27        0.86375
      6825.0000        12.7656        -4.6023      0.8915708
      6825.5000        12.1965        -4.0332      0.9152833
      6826.0000        11.8266        -3.6633      0.9306958
      6826.5000         11.457        -3.2937      0.9460958
      6827.0000        11.1302        -2.9669      0.9597125
      6827.5000        10.9787        -2.8154       0.966025
      6828.0000        10.8271        -2.6638      0.9723417
      6828.5000        10.6756        -2.5123      0.9786541
      6829.0000        10.5239        -2.3606       0.984975
      6829.5000        10.4018        -2.2385      0.9900625
      6830.0000        10.3095        -2.1462      0.9939083
      6830.5000        10.2171        -2.0538      0.9977583
      6831.0000        10.1248        -1.9615              1
      6831.5000        10.0325        -1.8692              1
      6832.0000         9.9273         -1.764              1
      6832.5000         9.8192        -1.6559              1
      6833.0000         9.7112        -1.5479              1
      6833.5000         9.7201        -1.5568              1
      6834.0000         9.9447        -1.7814              1
      6834.5000        10.1691        -2.0058      0.9997583
      6835.0000         10.375        -2.2117      0.9911792
      6835.5000        10.5031        -2.3398      0.9858417
      6836.0000        10.6311        -2.4678      0.9805083
      6836.5000        10.5536        -2.3903      0.9837375
      6837.0000        10.4246        -2.2613      0.9891125
      6837.5000        10.3055        -2.1422       0.994075
      6838.0000        10.1868        -2.0235      0.9990208
      6838.5000         10.068        -1.9047              1
      6839.0000         9.9493         -1.786              1
      6839.5000         9.9229        -1.7596              1
      6840.0000         9.9978        -1.8345              1
      6840.5000        11.0155        -2.8522      0.9644917
      6841.0000        13.4314        -5.2681      0.8638292
      6841.5000        14.8093         -6.646      0.8064167
      6842.0000        16.1904        -8.0271      0.7488708
      6842.5000        16.8995        -8.7362       0.719325
      6843.0000        17.5307        -9.3674       0.693025
      6843.5000        17.9875        -9.8242      0.6739917
      6844.0000        18.0073         -9.844      0.6731667
      6844.5000        17.8884        -9.7251      0.6781209
      6845.0000        17.7532        -9.5899      0.6837541
      6845.5000        17.4849        -9.3216      0.6949334
      6846.0000        17.2167        -9.0534      0.7061083
      6846.5000        17.0793         -8.916      0.7118333
      6847.0000        17.4344        -9.2711      0.6970375
      6847.5000        17.7999        -9.6366      0.6818084
      6848.0000        18.1654       -10.0021      0.6665792
      6848.5000        18.5309       -10.3676        0.65135
      6849.0000        17.7836        -9.6203      0.6824875
      6849.5000         16.939        -8.7757      0.7176792
      6850.0000        15.1231        -6.9598      0.7933417
      6850.5000        14.4529        -6.2896      0.8212667
      6851.0000         13.779        -5.6157      0.8493459
      6851.5000        13.0291        -4.8658      0.8805917
      6852.0000        12.3025        -4.1392      0.9108667
      6852.5000        11.7905        -3.6272         0.9322
      6853.0000        11.2791        -3.1158      0.9535083
      6853.5000        10.8593         -2.696          0.971
      6854.0000        10.5142        -2.3509      0.9853792
      6854.5000        10.1694        -2.0061      0.9997458
      6855.0000         9.9102        -1.7469              1
      6855.5000          9.765        -1.6017              1
      6856.0000         9.6197        -1.4564              1
      6856.5000         9.5808        -1.4175              1
      6857.0000         9.5443         -1.381              1
      6857.5000         9.5078        -1.3445              1
      6858.0000         9.4882        -1.3249              1
      6858.5000         9.5023         -1.339              1
      6859.0000         9.5163         -1.353              1
      6859.5000         9.5304        -1.3671              1
      6860.0000         9.5445        -1.3812              1
      6860.5000         9.5607        -1.3974              1
      6861.0000         9.5818        -1.4185              1
      6861.5000         9.6029        -1.4396              1
      6862.0000          9.624        -1.4607              1
      6862.5000         9.6496        -1.4863              1
      6863.0000         9.7319        -1.5686              1
      6863.5000         9.8143         -1.651              1
      6864.0000         9.8967        -1.7334              1
      6864.5000         9.9791        -1.8158              1
      6865.0000        10.0677        -1.9044              1
      6865.5000        10.2383         -2.075       0.996875
      6866.0000        10.3195        -2.1562      0.9934916
      6866.5000        10.1852        -2.0219      0.9990875
      6867.0000        10.2323         -2.069       0.997125
      6867.5000        10.2794        -2.1161      0.9951625
      6868.0000        10.3265        -2.1632         0.9932
      6868.5000        10.3768        -2.2135      0.9911042
      6869.0000        10.5012        -2.3379      0.9859208
      6869.5000        10.6256        -2.4623      0.9807375
      6870.0000        10.7306        -2.5673      0.9763625
      6870.5000        10.7771        -2.6138       0.974425
      6871.0000        10.8709        -2.7076      0.9705167
      6871.5000        11.0245        -2.8612      0.9641166
      6872.0000        11.1545        -2.9912         0.9587
      6872.5000        10.8847        -2.7214      0.9699417
      6873.0000        10.6149        -2.4516      0.9811834
      6873.5000        10.2296        -2.0663      0.9972375
      6874.0000        10.3526        -2.1893      0.9921125
      6874.5000         10.479        -2.3157      0.9868459
