#------------------------------------------------------------------------------
# Created by    : vladimir.rabinovich
# Created on    : 09/19/2023 17:21:26
#------------------------------------------------------------------------------
~Version Information Section
VERS.           2.0     :   CWLS log ASCII Standard - VERSION 2.0
WRAP.           NO      :   One line per depth step
~Well Information Section
#MNEM       .UNIT                                         VALUE :DESCRIPTION
#------------------------------------------------------------------------------
STRT        .FT                                            3102 :START DEPTH
STOP        .FT                                            8740 :STOP DEPTH
STEP        .FT                                             0.5 :STEP      
NULL        .                                           -999.25 :NULL      
COMP        .                          SEAGULL ENERGY E & P INC :COMPANY   
WELL        .                               OCS G13314 ST00BP00 :WELL      
FLD         .                              GALVESTON BLOCK 0330 :FIELD     
LOC         .                                                   :LOCATION  
CNTY        .                             GALVESTON LARGE BLOCK :LOCATION  
STAT        .                                             TEXAS :STATE     
CTRY        .                                     UNITED STATES :COUNTRY   
SRVC        .                                                   :SERVICE COMPANY
DATE        .                             9/13/2023 11:19:54 AM :LOG DATE  
API         .                                    42706403240000 :API NUMBER
UWI         .                                    42706403240000 :UNIQUE WELL ID
XCOORD      .                                  980373.867630971 :SURFACE X 
YCOORD      .                                  10452895.3513713 :SURFACE Y 
LAT         .                                         28.787844 :LATITUDE  
LON         .                                        -95.061044 :LONGITUDE 
ELEV        .FT                                              95 :ELEVATION VALUE
ELEV_TYPE   .                                                KB :ELEVATION REFERENCE TYPE
~Curve Information Section
#MNEM       .UNIT                                      API CODE :CURVE DESCRIPTION
#------------------------------------------------------------------------------
DEPT        .FT                                                 :DEPTH     
CALI        .IN                                                 :          
DRHO        .G/C3                                               :          
DT          .US/F                                               :          
GR          .GAPI                                               :          
GR_1        .GAPI                                               :          
GR_NORM     .GAPI                                               :GammaRay Normalized
ILD         .OHMM                                               :          
ILM         .OHMM                                               :          
NPHI        .%                                                  :          
RFOC        .OHMM                                               :          
RHOB        .G/C3                                               :          
SP          .MV                                                 :          
SP_NORM     .MV                                                 :SP Normalized
VSH_GR      .V/V                                                :Volume of Shale from GR
VSH_SP      .V/V                                                :Volume of Shale from SP
~A        DEPTH           CALI           DRHO             DT             GR           GR_1        GR_NORM            ILD            ILM           NPHI           RFOC           RHOB             SP        SP_NORM         VSH_GR         VSH_SP
# ...
      8729.0000          5.326        -0.2361        -999.25        -999.25        60.7139       72.33511         1.1272          1.099         27.231         1.3183         2.3617       -52.8853      -14.68305      0.8369172      0.8164619
      8729.5000         5.2943        -0.2765        -999.25        -999.25         61.702       73.45117         1.0844         1.0439        27.4455         1.2739         2.3419       -58.2054      -20.00315      0.8606632      0.7499606
      8730.0000         5.2722        -0.2827        -999.25        -999.25        62.7493       74.63409         1.0472         0.9979        27.4042         1.2556         2.3263       -65.3351      -27.13285      0.8858318      0.6608394
      8730.5000         5.2534        -0.2794        -999.25        -999.25        62.3005       74.12717         1.0051         0.9566        27.2368         1.2717         2.3144       -75.4513      -37.24905      0.8750461      0.5343868
      8731.0000         5.2372        -0.2692        -999.25        -999.25        61.2239       72.91116         0.9582          0.908        26.8268         1.3213         2.3051       -83.0508      -44.84855      0.8491735      0.4393931
      8731.5000         5.2253        -0.2506        -999.25        -999.25        60.4641       72.05296         0.9144         0.8496        26.8583         1.3903         2.2919       -85.1447      -46.94245      0.8309141      0.4132194
      8732.0000         5.2247        -0.2224        -999.25        -999.25        60.2086       71.76438         0.8856         0.8014        27.6704         1.4221         2.2781       -86.1261      -47.92385      0.8247741      0.4009519
      8732.5000         5.2272        -0.2152        -999.25        -999.25        60.1662       71.71649         0.8632         0.7567        27.8748         1.3473         2.2774        -86.547      -48.34475      0.8237551      0.3956906
      8733.0000         5.2295        -0.2247        -999.25        -999.25        60.8676       72.50871          0.829          0.693         27.767         1.2292         2.2711         -86.87      -48.66776      0.8406109      0.3916531
      8733.5000         5.2278        -0.2329        -999.25        -999.25        62.1813       73.99254         0.8229         0.6535        27.5144          1.153          2.253       -86.7896      -48.58735      0.8721817      0.3926581
      8734.0000         5.2184        -0.2379        -999.25        -999.25        62.4153       74.25684         0.8239         0.6199        27.1412         1.0879         2.2405       -86.3549      -48.15265       0.877805      0.3980919
      8734.5000         5.2182        -0.2404        63.0734        -999.25        61.6126       73.35019         0.8292         0.5844        26.7355         1.0211         2.2266       -85.7183      -47.51605      0.8585147      0.4060493
      8735.0000         5.2211        -0.2433        68.3722        -999.25        60.9166       72.56406         0.8334          0.556        26.1678         0.9805         2.2128       -85.2065      -47.00425      0.8417884      0.4124469
      8735.5000         5.2309        -0.2451        76.8564        -999.25        60.9545       72.60687         0.8359         0.5431        26.0401           0.95          2.204       -85.0203      -46.81805      0.8426994      0.4147743
      8736.0000         5.2263        -0.2475        79.8573        -999.25        61.6027       73.33901         0.8385         0.5383        26.5177         0.9294         2.2001       -85.1799      -46.97765      0.8582768      0.4127793
      8736.5000         5.2365        -0.2527         81.632        -999.25        62.4916       74.34302         0.8398         0.5363        27.0297         0.9131         2.1956       -85.3978      -47.19555      0.8796387      0.4100556
      8737.0000         5.2391         -0.255        81.7872        -999.25        62.6517       74.52385         0.8408         0.5361        27.1736         0.9146         2.1902       -85.4838      -47.28156      0.8834862      0.4089805
      8737.5000          5.238        -0.2572        81.8759        -999.25         62.902       74.80656          0.842         0.5345        27.1958         0.9416         2.1869       -85.4192      -47.21695      0.8895014      0.4097881
      8738.0000          5.244        -0.2611        82.2632        -999.25        62.7057       74.58485         0.8423         0.5324        27.2525          1.002         2.1841       -85.3441      -47.14185      0.8847841      0.4107268
      8738.5000         5.2448        -0.2665        82.6779        -999.25        62.6773       74.55277          0.842         0.5323         27.374         1.0807         2.1818       -85.3726      -47.17035      0.8841016      0.4103706
      8739.0000         5.2498        -0.2719         82.714        -999.25        62.4898       74.34099         0.8409         0.5332        27.7513         1.1201         2.1795       -85.4661      -47.26385      0.8795955      0.4092018
      8739.5000        -999.25        -999.25        82.5367        -999.25        -999.25        -999.25         0.8437         0.5342        -999.25         1.0931        -999.25       -85.7665      -47.56425        -999.25      0.4054468
      8740.0000        -999.25        -999.25        82.1329        -999.25        -999.25        -999.25         0.8462         0.5361        -999.25         1.0662        -999.25       -85.9211      -47.71885        -999.25      0.4035144
