#------------------------------------------------------------------------------
# Created by    : vladimir.rabinovich
# Created on    : 09/19/2023 17:19:44
#------------------------------------------------------------------------------
~Version Information Section
VERS.           2.0     :   CWLS log ASCII Standard - VERSION 2.0
WRAP.           NO      :   One line per depth step
~Well Information Section
#MNEM       .UNIT                                         VALUE :DESCRIPTION
#------------------------------------------------------------------------------
STRT        .FT                                             490 :START DEPTH
STOP        .FT                                           13420 :STOP DEPTH
STEP        .FT                                             0.5 :STEP      
NULL        .                                           -999.25 :NULL      
COMP        .                                 MESA PETROLEUM CO :COMPANY   
WELL        .                                     ST TR 00012-L :WELL      
FLD         .                                           WILDCAT :FIELD     
LOC         .                                                   :LOCATION  
CNTY        .                           HIGH ISLAND LARGE BLOCK :LOCATION  
STAT        .                                             TEXAS :STATE     
CTRY        .                                     UNITED STATES :COUNTRY   
SRVC        .                                                   :SERVICE COMPANY
DATE        .                             9/13/2023 11:19:15 AM :LOG DATE  
API         .                                    42708302120000 :API NUMBER
UWI         .                                    42708302120000 :UNIQUE WELL ID
XCOORD      .                                  1361115.25412243 :SURFACE X 
YCOORD      .                                  10723579.9964947 :SURFACE Y 
LAT         .                                        29.5453665 :LATITUDE  
LON         .                                       -93.8786547 :LONGITUDE 
ELEV        .FT                                              80 :ELEVATION VALUE
ELEV_TYPE   .                                                KB :ELEVATION REFERENCE TYPE
~Curve Information Section
#MNEM       .UNIT                                      API CODE :CURVE DESCRIPTION
#------------------------------------------------------------------------------
DEPT        .FT                                                 :DEPTH     
ASFL        .OHMM                                               :          
CILD        .MMHO                                               :          
GR          .GAPI                                               :          
GR_NORM     .GAPI                                               :GammaRay Normalized
ILD         .OHMM                                               :          
SP          .MV                                                 :          
SP_NORM     .MV                                                 :SP Normalized
VSH_GR      .V/V                                                :Volume of Shale from GR
~A        DEPTH           ASFL           CILD             GR        GR_NORM            ILD             SP        SP_NORM         VSH_GR
# ...
      5652.5000         0.8082       5531.094        32.0441       31.70947         0.3383      -210.7471      -90.09755              0
      5653.0000         0.8037       5624.414        31.6789       30.98816          0.331      -210.8479      -90.21625              0
      5653.5000         0.7981       5704.617        31.4663       30.56825         0.3228      -210.9487      -90.33495              0
      5654.0000          0.791       5773.477        31.2538       30.14853         0.3145      -211.0496      -90.45374              0
      5654.5000         0.7839       5846.898        31.0412       29.72863         0.3062      -211.1079      -90.52993              0
      5655.0000         0.7916        5877.75        30.8287        29.3089         0.3011      -210.9751      -90.41502              0
      5655.5000         0.7994       5928.289        30.7089        29.0723         0.3122      -210.8423      -90.30013              0
      5656.0000         0.8088       6010.359        30.6187       28.89414         0.3233      -210.7095      -90.18523              0
      5656.5000         0.8354       6102.148        30.5285       28.71598         0.3347      -210.5769      -90.07052              0
      5657.0000          0.872       6163.102        30.5417       28.74206         0.3499      -210.3823      -89.89381              0
      5657.5000         0.9232       6279.406        30.7876       29.22772          0.365      -210.0935      -89.62291              0
      5658.0000         0.9714       5362.727        31.0298       29.70611         0.3946      -209.8047      -89.35201              0
      5658.5000         1.0135       4364.719        31.2724       30.18527         0.4346      -209.5159      -89.08109              0
      5659.0000         1.0823       3365.918        31.5413       30.71638         0.4846      -208.4771      -88.06019              0
      5659.5000         1.1976       2367.906         32.049       31.71914         0.5535      -206.8691      -86.47009              0
      5660.0000         1.2537       2073.121        32.5562       32.72093         0.6106      -204.7241      -84.34299              0
      5660.5000         1.2675       1982.701        33.1136       33.82186         0.6551      -203.5186      -83.15538     0.01748641
      5661.0000          1.192        1829.02        33.7004       34.98087         0.6811      -202.0505      -81.70518     0.04214608
      5661.5000         1.1242       1771.064        34.3155       36.19576         0.6753      -198.4006      -78.07317     0.06799479
      5662.0000         1.0801       1821.947          35.09       37.72549         0.6634      -194.0737      -73.76417      0.1005424
      5662.5000         0.9988       1887.811        35.8651       39.25641         0.6463      -189.9971      -69.70546      0.1331151
      5663.0000         0.9653       1969.881        36.9297       41.35912         0.6282      -185.5474      -65.27365      0.1778537
      5663.5000         0.9098       2185.594        38.0408       43.55367         0.6025      -182.2163      -61.96044      0.2245462
      5664.0000         0.8531       2372.719        39.0784       45.60307         0.5735      -180.0474      -59.80944      0.2681503
      5664.5000         0.8118       2573.012        40.0952       47.61137         0.5564      -181.0132      -60.79314      0.3108802
      5665.0000         0.7831       2709.918        41.0812       49.55884         0.5471      -182.3372      -62.13504      0.3523157
      5665.5000         0.7624       2712.891         42.055       51.48221         0.5348      -180.4846      -60.30034      0.3932385
      5666.0000         0.7448       2681.113        43.2434       53.82944         0.5224      -169.8684      -49.70202      0.4431796
      5666.5000         0.7262        2654.59        44.5472       56.40461          0.523      -153.3555      -33.20702      0.4979703
      5667.0000         0.7115       2631.605        46.4261       60.11566         0.5294      -142.0034      -21.87283      0.5769289
      5667.5000         0.7097       2601.398        48.1272       63.47554         0.5359      -139.9172      -19.80452      0.6484158
      5668.0000         0.7153       2526.941        49.4922       66.17157         0.5437      -139.0642      -18.96941      0.7057781
      5668.5000         0.7209       2467.219        50.6733       68.50438         0.5564      -138.7034       -18.6265      0.7554123
      5669.0000         0.7266       2349.047        51.5588       70.25336         0.5692      -138.5793       -18.5203      0.7926246
      5669.5000         0.7323       2205.188        52.3437       71.80362         0.5819      -138.6118       -18.5707      0.8256089
      5670.0000          0.738       2157.301        52.9882       73.07661         0.5924      -139.0439      -19.02069      0.8526937
      5670.5000         0.7437       2136.895        53.4266       73.94249         0.6012      -140.5833      -20.57799      0.8711168
      5671.0000         0.7458       2149.297        52.6865        72.4807         0.6099      -143.2275      -23.24007      0.8400148
      5671.5000         0.7463       2169.141         51.947       71.02012         0.6165      -146.3279      -26.35838      0.8089387
      5672.0000         0.7468       2314.027        50.7211       68.59879         0.6052      -149.1611      -29.20948      0.7574211
      5672.5000         0.7425       2646.879        48.8447       64.89268         0.5939      -152.6833      -32.74957      0.6785678
      5673.0000         0.7315       3014.648        46.8848       61.02168         0.5661      -155.9556      -36.03976      0.5962059
      5673.5000         0.7131       3225.648        43.2299       53.80278         0.5233      -158.0994      -38.20145      0.4426124
      5674.0000         0.6897       3326.234        39.3323       46.10455         0.4814      -156.7209      -36.84086      0.2788201
      5674.5000         0.6834       3484.949        37.9562       43.38658         0.4717      -153.8118      -33.94965      0.2209911
      5675.0000         0.6774       3469.746        40.5072        48.4251         0.4705       -151.165      -31.32074      0.3281936
      5675.5000         0.6809       3448.234        44.2405       55.79883         0.4774      -148.3245      -28.49814      0.4850815
      5676.0000         0.6844       3261.895        47.5446       62.32484         0.4859      -141.3657      -21.55724      0.6239327
      5676.5000         0.6901       2944.316        51.0498       69.24801         0.4943      -138.4958      -18.70524      0.7712342
      5677.0000         0.7005       2552.578        55.3228        77.6877         0.5127      -136.0503      -16.27762      0.9508021
      5677.5000          0.711        2160.84        57.3697       81.73058         0.5345      -133.1091      -13.35432              1
      5678.0000         0.7214       1808.146        58.6599       84.27892         0.5591      -129.4299      -9.693024              1
      5678.5000         0.7222       1732.854        59.9465       86.82007         0.5867      -126.9819      -7.262917              1
      5679.0000          0.717       1720.666        61.2441       89.38301         0.6027      -124.3745      -4.673409              1
      5679.5000         0.7117       1731.135        62.6066       92.07411         0.6035      -120.8496      -1.166405              1
      5680.0000         0.6991       1756.625        63.6424       94.11993         0.6044      -116.3608       3.304497              1
      5680.5000         0.6858       1791.496        64.2838       95.38676         0.6049      -114.3396         5.3078              1
      5681.0000         0.6727        1829.02        64.1808       95.18333         0.6034      -113.2358       6.393707              1
      5681.5000         0.6648       1890.119        63.4572       93.75413         0.6018      -112.2804       7.331207              1
