#------------------------------------------------------------------------------
# Created by    : vladimir.rabinovich
# Created on    : 09/19/2023 17:22:38
#------------------------------------------------------------------------------
~Version Information Section
VERS.           2.0     :   CWLS log ASCII Standard - VERSION 2.0
WRAP.           NO      :   One line per depth step
~Well Information Section
#MNEM       .UNIT                                         VALUE :DESCRIPTION
#------------------------------------------------------------------------------
STRT        .FT                                             597 :START DEPTH
STOP        .FT                                            8696 :STOP DEPTH
STEP        .FT                                             0.5 :STEP      
NULL        .                                           -999.25 :NULL      
COMP        .                MURPHY EXPLORATION & PRODUCTION CO :COMPANY   
WELL        .                               OCS G13308 ST00BP00 :WELL      
FLD         .                                           WILDCAT :FIELD     
LOC         .                                                   :LOCATION  
CNTY        .                             GALVESTON LARGE BLOCK :LOCATION  
STAT        .                                             TEXAS :STATE     
CTRY        .                                     UNITED STATES :COUNTRY   
SRVC        .                                                   :SERVICE COMPANY
DATE        .                             9/13/2023 11:19:54 AM :LOG DATE  
API         .                                    42706403460000 :API NUMBER
UWI         .                                    42706403460000 :UNIQUE WELL ID
XCOORD      .                                  1110706.35492259 :SURFACE X 
YCOORD      .                                  10520329.8149831 :SURFACE Y 
LAT         .                                         28.978895 :LATITUDE  
LON         .                                        -94.657168 :LONGITUDE 
ELEV        .FT                                              71 :ELEVATION VALUE
ELEV_TYPE   .                                                KB :ELEVATION REFERENCE TYPE
~Curve Information Section
#MNEM       .UNIT                                      API CODE :CURVE DESCRIPTION
#------------------------------------------------------------------------------
DEPT        .FT                                                 :DEPTH     
DCAL        .IN                                                 :          
DPHI        .%                                                  :          
DRHO        .G/C3                                               :          
DTLN        .US/F                                               :          
GR          .GAPI                                               :          
GR_1        .GAPI                                               :          
GR_NORM     .GAPI                                               :GammaRay Normalized
ILD         .OHMM                                               :          
ILM         .OHMM                                               :          
NPHI        .%                                                  :          
SFL         .OHMM                                               :          
SP          .MV                                                 :          
VSH_GR      .V/V                                                :Volume of Shale from GR
~A        DEPTH           DCAL           DPHI           DRHO           DTLN             GR           GR_1        GR_NORM            ILD            ILM           NPHI            SFL             SP         VSH_GR
# ...
      4967.0000         2.4489        27.1464        -0.0075        -999.25        -999.25        36.9954        47.9237         0.4881         0.5815        41.7136         0.6485       -68.8354      0.3175255
      4967.5000         2.6182        25.0576        -0.0063        -999.25        -999.25        41.6666       54.21682         0.5303          0.634         41.373         0.6458       -68.6831      0.4514218
      4968.0000         2.4631        21.3227        -0.0048        -999.25        -999.25        45.8671       59.86954         0.5922         0.7217        39.1602         0.7026       -67.9459      0.5716923
      4968.5000          2.078        17.7612        -0.0026        -999.25        -999.25        47.2844        61.7356         0.6482         0.8227        35.6166         0.8734       -66.6147      0.6113958
      4969.0000          1.711        14.3163        -0.0004        -999.25        -999.25         47.114       61.44151         0.6577         0.8771        31.5826         1.0533       -66.1538      0.6051386
      4969.5000         1.5132        11.8807         0.0011        -999.25        -999.25        45.4797       59.15574         0.6522         0.8734         28.516         1.1139       -65.9836       0.556505
      4970.0000          1.633        10.9009          0.001        -999.25        -999.25        42.9736       55.68383         0.6315         0.7935        27.1263         1.0176       -66.1936      0.4826346
      4970.5000         2.2688        11.7924        -0.0017        -999.25        -999.25        44.3492       57.49315         0.6057         0.7038        27.2238         0.8229        -66.783      0.5211309
      4971.0000         2.7483        16.8611         -0.008        -999.25        -999.25        48.0096       62.41105         0.5716         0.6262        29.0887         0.7227       -67.5542      0.6257669
      4971.5000         2.6729        21.1552        -0.0144        -999.25        -999.25        48.3852       62.85981         0.5323         0.5688        31.3389         0.6329       -68.1396      0.6353151
      4972.0000         2.4166        23.5042        -0.0208        -999.25        -999.25        47.2231       61.21648         0.4941         0.5244        32.9373         0.5754       -68.4044      0.6003506
      4972.5000         2.3269        24.8222        -0.0257        -999.25        -999.25        43.6675       56.31668         0.4644         0.5066        34.3255         0.5836       -68.6896      0.4960997
      4973.0000         2.5925        25.5644        -0.0256        -999.25        -999.25        40.6809       52.19104         0.4458         0.4983         34.894         0.6449       -69.0292      0.4083201
      4973.5000          2.713        25.3844        -0.0242        -999.25        -999.25        41.4803       53.21642         0.4347         0.4923        34.2007         0.6985       -69.3258      0.4301365
      4974.0000         1.9831        24.5657        -0.0225        -999.25        -999.25        44.6411       57.45457         0.4296         0.4877        33.5278         0.6874       -69.4669        0.52031
      4974.5000         1.4171        23.6836        -0.0219        -999.25        -999.25         48.329       62.40988         0.4225         0.4825        33.1929         0.6175       -69.4396      0.6257421
      4975.0000         1.1381        23.2301        -0.0222        -999.25        -999.25        53.2356       69.02328         0.4146         0.4764        34.4294         0.5457       -69.2406      0.7664528
      4975.5000         1.7421        23.5087        -0.0227        -999.25        -999.25        56.4944       73.39478         0.4054         0.4688        36.0846         0.5052       -69.1597      0.8594633
      4976.0000         2.3448        24.3258        -0.0232        -999.25        -999.25        55.6926       72.24164          0.395         0.4589        37.4886         0.4973       -69.3396      0.8349285
      4976.5000         2.4961        25.3313        -0.0237        -999.25        -999.25        44.6091       57.09982         0.3848         0.4425        38.7811         0.4889       -69.9701      0.5127621
      4977.0000         2.1192        26.7039        -0.0243        -999.25        -999.25        39.7246       50.39199         0.3762         0.4212        38.5389         0.4645       -70.4252      0.3700424
      4977.5000         1.7314        28.1138        -0.0249        -999.25        -999.25        35.0436       43.96103         0.3691         0.4007        37.7016         0.4318       -70.6528      0.2332134
      4978.0000         1.4939        29.3428        -0.0246        -999.25        -999.25        34.1191       42.64097         0.3654         0.3872        36.5974         0.4145       -70.8568       0.205127
      4978.5000         1.4098        29.1701        -0.0224        -999.25        -999.25        37.6305       47.35614         0.3656         0.3906        34.6985         0.4447       -70.8148      0.3054498
      4979.0000         1.4842        28.2102        -0.0219        -999.25        -999.25        43.2213       54.90042         0.3696         0.4016        32.9103         0.5044       -70.0946      0.4659664
      4979.5000         1.7349        27.2167        -0.0227        -999.25        -999.25        46.4384       59.21518         0.3773          0.419        32.3459         0.5613       -69.2688      0.5577698
      4980.0000         1.9393         26.428        -0.0246        -999.25        -999.25        47.4879       60.58083         0.3866         0.4392        32.8064         0.5794       -68.4419      0.5868263
      4980.5000         2.0018        26.0794        -0.0264        -999.25        -999.25        48.4117       61.77546            0.4         0.4664        33.9106         0.5709       -67.8406      0.6122437
      4981.0000         1.8986          26.36        -0.0275        -999.25        -999.25        48.8393       62.29498         0.4208         0.4915        34.7666         0.5582       -68.6387      0.6232973
      4981.5000         1.8797        26.8022         -0.028        -999.25        -999.25        48.1463       61.28988         0.4373         0.5092        35.4846         0.5558       -69.9849      0.6019124
      4982.0000          2.067         27.176        -0.0277        -999.25        -999.25        46.1613       58.52695          0.444         0.5176        35.6899          0.577       -70.1699      0.5431266
      4982.5000         2.3201        27.2542        -0.0275        -999.25        -999.25        41.4509         52.056         0.4407         0.5177        34.9871         0.6232       -68.8673      0.4054469
      4983.0000         2.4823        27.2958        -0.0274        -999.25        -999.25        39.5735       49.43947         0.4291         0.5096         34.028         0.6753       -68.1299      0.3497759
      4983.5000         1.8419        27.4251        -0.0265        -999.25        -999.25        40.5657       50.72715         0.4223         0.4965        33.9684         0.6656       -68.4155      0.3771734
      4984.0000         1.2824        27.4186        -0.0254        -999.25        -999.25        42.2257       52.92342         0.4234         0.4781        34.6477         0.5808       -69.5281      0.4239025
      4984.5000         1.1629        27.1945        -0.0225        -999.25        -999.25        45.6243       57.48511         0.4283          0.465        37.4916         0.5088       -69.6532      0.5209597
      4985.0000         1.4474        26.7068        -0.0197        -999.25        -999.25        50.4255       63.95512         0.4362         0.4637        39.5399         0.4793       -68.4155      0.6586195
      4985.5000         1.7749        25.5765        -0.0167        -999.25        -999.25        55.0992       70.25163         0.4417         0.4791        39.8787         0.4898       -66.1938      0.7925879
