#------------------------------------------------------------------------------
# Created by    : vladimir.rabinovich
# Created on    : 09/19/2023 17:20:12
#------------------------------------------------------------------------------
~Version Information Section
VERS.           2.0     :   CWLS log ASCII Standard - VERSION 2.0
WRAP.           NO      :   One line per depth step
~Well Information Section
#MNEM       .UNIT                                         VALUE :DESCRIPTION
#------------------------------------------------------------------------------
STRT        .FT                                             970 :START DEPTH
STOP        .FT                                            6500 :STOP DEPTH
STEP        .FT                                             0.5 :STEP      
NULL        .                                           -999.25 :NULL      
COMP        .                                CONTINENTAL OIL CO :COMPANY   
WELL        .                               OCS G03106 ST00BP00 :WELL      
FLD         .                       MATAGORDA ISLAND BLOCK 0687 :FIELD     
LOC         .                                                   :LOCATION  
CNTY        .                      MATAGORDA ISLAND LARGE BLOCK :LOCATION  
STAT        .                                             TEXAS :STATE     
CTRY        .                                     UNITED STATES :COUNTRY   
SRVC        .                                                   :SERVICE COMPANY
DATE        .                             9/13/2023 11:12:09 AM :LOG DATE  
API         .                                    42703400330000 :API NUMBER
UWI         .                                    42703400330000 :UNIQUE WELL ID
XCOORD      .                                  468864.661343862 :SURFACE X 
YCOORD      .                                  10154488.9405743 :SURFACE Y 
LAT         .                                         27.934663 :LATITUDE  
LON         .                                        -96.628194 :LONGITUDE 
ELEV        .FT                                              96 :ELEVATION VALUE
ELEV_TYPE   .                                                KB :ELEVATION REFERENCE TYPE
~Curve Information Section
#MNEM       .UNIT                                      API CODE :CURVE DESCRIPTION
#------------------------------------------------------------------------------
DEPT        .FT                                                 :DEPTH     
ASFL        .OHMM                                               :          
CALI        .IN                                                 :          
CILD        .MMHO                                               :          
DRHO        .G/C3                                               :          
DT          .US/F                                               :          
DTL         .US/F                                               :          
GR          .GAPI                                               :          
GR_1        .GAPI                                               :          
GR_NORM     .GAPI                                               :GammaRay Normalized
ILD         .OHMM                                               :          
ILM         .OHMM                                               :          
NPHI        .%                                                  :          
RHOB        .G/C3                                               :          
SFL         .OHMM                                               :          
SP          .MV                                                 :          
SP_NORM     .MV                                                 :SP Normalized
VSH_GR      .V/V                                                :Volume of Shale from GR
VSH_SP      .V/V                                                :Volume of Shale from SP
~A        DEPTH           ASFL           CALI           CILD           DRHO             DT            DTL             GR           GR_1        GR_NORM            ILD            ILM           NPHI           RHOB            SFL             SP        SP_NORM         VSH_GR         VSH_SP
# ...
      6486.0000         1.0375        10.5177       930.5625          0.159        -999.25       136.7163        48.2424        58.0071       75.30966         0.9982        -999.25        37.3359         2.2241         1.1328       -40.2642        -2.5283      0.9002056      0.9908914
      6486.5000         1.0467         10.562       923.7939         0.1699        -999.25       136.7187        49.1132        57.9543       75.55739         1.0016        -999.25        38.0656         2.1938         1.1305       -40.1583        -2.4224      0.9054763      0.9927173
      6487.0000         1.0567        10.5573       920.0166         0.1563        -999.25       136.7212        50.0164        57.9651       80.68452         1.0051        -999.25        38.3443         2.1314         1.0944       -40.0522        -2.3163              1      0.9945465
      6487.5000         1.0666        10.2266       916.2393         0.1339        -999.25       136.7236        50.7991        58.2009       82.79882         1.0119        -999.25         38.103         2.0897         1.0925        -39.928        -2.1922              1      0.9966862
      6488.0000         1.0765         9.9296       912.4658         0.1243        -999.25       136.7261         51.332        58.3004       79.20208         1.0207        -999.25        37.7106          2.104         1.1119       -39.7252        -1.9893       0.983023              1
      6488.5000         1.0864         9.9722       908.6885         0.1514        -999.25       136.7285        51.8648        57.9566       80.49908         1.0295        -999.25        37.1854         2.2217         1.1216       -39.5223        -1.7864              1              1
      6489.0000         1.0964        10.2752       904.9141         0.1736        -999.25        136.731        52.2663        57.2948       84.96108         1.0383        -999.25         36.734         2.2689         1.1168       -39.3198         -1.584              1              1
      6489.5000         1.1024        10.5912       901.1377         0.1893        -999.25       136.7334        52.6121        57.5276       82.30095         1.0471        -999.25        36.8904         2.3005         1.0949        -39.316        -1.5802              1              1
      6490.0000         1.1051        10.5546       897.3604         0.1936        -999.25       136.7358        52.9577        58.1648        83.9556         1.0559        -999.25         37.597         2.2988         1.0711       -39.3195        -1.5836              1              1
      6490.5000         1.1079        10.4693       893.5859         0.1901        -999.25       136.7383        53.1477        58.9896       82.97268         1.0645        -999.25         38.694         2.2723          1.044       -39.4863        -1.7505              1              1
      6491.0000         1.1106        10.4226       889.8096         0.1875        -999.25       136.7407        53.2638         59.293       80.41913         1.0725        -999.25        38.8497         2.2562          1.021       -39.8086        -2.0728              1      0.9987448
      6491.5000         1.1134        10.4468       887.5674          0.182        -999.25       136.7432          53.36        59.3608       81.68013         1.0804        -999.25        38.5012         2.2427         1.0178       -40.3509         -2.615              1      0.9893966
      6492.0000         1.1161        11.0439       888.0996         0.1669        -999.25       136.7456        53.1584         59.332       81.63268         1.0884        -999.25         37.947          2.176         1.0146       -41.3983        -3.6624              1      0.9713379
      6492.5000         1.1198        11.7072       888.6328         0.1386        -999.25        136.748        52.9568        59.2438       81.12751         1.0963        -999.25        37.4676         2.0983         1.0121       -42.8966        -5.1607              1      0.9455052
      6493.0000         1.1236        11.9228        889.166         0.1074        -999.25       136.7505        52.9445        59.1851       78.55698         1.1043        -999.25        37.3835         2.0133         1.0202       -44.9033        -7.1674      0.9692975      0.9109069
      6493.5000         1.1275        10.3624       889.6982         0.0767        -999.25       136.7529        52.9553        59.1423       80.82829         1.1122        -999.25        38.6635         1.9935         1.0283       -47.2889         -9.553              1      0.8697758
      6494.0000         1.1314         7.3281       890.2314         0.0577        -999.25       136.7554        52.9818        59.1778       79.56502         1.1159        -999.25        39.5728         2.0083         1.0357       -50.0656       -12.3298      0.9907451         0.8219
      6494.5000         1.1353         5.9756       890.7637         0.0464        -999.25       136.7578        53.0933        59.2431        78.5409         1.1178        -999.25          40.41         2.0504         1.0396       -52.7419       -15.0061      0.9689553      0.7757569
      6495.0000         1.1392         5.4837       891.2969         0.0424        -999.25       136.7603         53.205        59.2794       83.24535         1.1197        -999.25        41.9775         2.0794         1.0435       -55.4624       -17.7265              1      0.7288535
      6495.5000         1.1431         5.2117       891.8301         0.0367        -999.25       136.7627        53.3066        59.2717       82.64472         1.1216        -999.25         43.636         2.1011         1.0299       -59.5834       -21.8475              1      0.6578017
      6496.0000         1.1469         5.0541       892.3623         0.0313        -999.25       136.7651        53.3153        59.2405        84.6284         1.1236        -999.25        44.7184         2.1097         1.0138       -63.7239        -25.988              1      0.5864138
      6496.5000         1.1508         4.9792       892.8955         0.0264        -999.25       136.7676         53.324        59.2061       79.02737         1.1255        -999.25        43.5109         2.1068         1.0042       -65.7452       -28.0093      0.9793059      0.5515638
      6497.0000         1.1534         4.9351       893.1875         0.0239        -999.25         136.77        53.3327        59.2448       85.22894         1.1274        -999.25        41.8765         2.1018         1.0033       -67.6787       -29.9429              1      0.5182258
      6497.5000         1.1557         4.9281       893.3594         0.0242        -999.25       136.7725        53.2725        59.2543       82.83833         1.1293        -999.25        42.2205         2.0986         1.0024       -69.2614       -31.5255              1      0.4909397
      6498.0000          1.158         4.9279       893.5313         0.0257        -999.25       136.7749        53.2097        59.2366       83.13258         1.1312        -999.25        42.5148         2.0974          1.004       -70.5366       -32.8007              1      0.4689534
      6498.5000         1.1603         4.9312       893.7031         0.0292        -999.25       136.7773        53.2039        59.3044       82.84225         1.1332        -999.25        41.8641         2.1014         1.0065       -71.3212       -33.5853              1      0.4554259
      6499.0000         1.1626         4.9255        893.875         0.0322        -999.25       136.7798        52.2847        59.3529       79.26344         1.1351        -999.25        40.5198         2.1098          1.009       -71.8691       -34.1333      0.9843286      0.4459776
      6499.5000         1.1649        -999.25       894.0459        -999.25        -999.25        -999.25        52.2791        -999.25       85.01429         1.1372        -999.25        -999.25        -999.25        -999.25       -72.1034       -34.3675              1      0.4419397
