#------------------------------------------------------------------------------
# Created by    : vladimir.rabinovich
# Created on    : 09/19/2023 17:19:40
#------------------------------------------------------------------------------
~Version Information Section
VERS.           2.0     :   CWLS log ASCII Standard - VERSION 2.0
WRAP.           NO      :   One line per depth step
~Well Information Section
#MNEM       .UNIT                                         VALUE :DESCRIPTION
#------------------------------------------------------------------------------
STRT        .FT                                            4790 :START DEPTH
STOP        .FT                                           12963 :STOP DEPTH
STEP        .FT                                             0.5 :STEP      
NULL        .                                           -999.25 :NULL      
COMP        .                         ATLANTIC RICHFIELD CO THE :COMPANY   
WELL        .                               OCS G06150 ST00BP00 :WELL      
FLD         .                                           WILDCAT :FIELD     
LOC         .                                                   :LOCATION  
CNTY        .                           HIGH ISLAND LARGE BLOCK :LOCATION  
STAT        .                                             TEXAS :STATE     
CTRY        .                                     UNITED STATES :COUNTRY   
SRVC        .                                                   :SERVICE COMPANY
DATE        .                             9/13/2023 11:19:59 AM :LOG DATE  
API         .                                    42708402440000 :API NUMBER
UWI         .                                    42708402440000 :UNIQUE WELL ID
XCOORD      .                                  1291497.32246636 :SURFACE X 
YCOORD      .                                   10652058.279547 :SURFACE Y 
LAT         .                                         29.347015 :LATITUDE  
LON         .                                        -94.095521 :LONGITUDE 
ELEV        .FT                                             105 :ELEVATION VALUE
ELEV_TYPE   .                                                KB :ELEVATION REFERENCE TYPE
~Curve Information Section
#MNEM       .UNIT                                      API CODE :CURVE DESCRIPTION
#------------------------------------------------------------------------------
DEPT        .FT                                                 :DEPTH     
ALL         .OHMM                                               :          
CILD        .MMHO                                               :          
GR          .GAPI                                               :          
GR_NORM     .GAPI                                               :GammaRay Normalized
ILD         .OHMM                                               :          
SP          .MV                                                 :          
SP_NORM     .MV                                                 :SP Normalized
VSH_GR      .V/V                                                :Volume of Shale from GR
VSH_SP      .V/V                                                :Volume of Shale from SP
~A        DEPTH            ALL           CILD             GR        GR_NORM            ILD             SP        SP_NORM         VSH_GR         VSH_SP
# ...
      4869.5000        -999.25        -999.25         46.442       49.14247        -999.25        -999.25        -999.25        -999.25        -999.25
      4870.0000        -999.25        -999.25        47.3717       50.04394        -999.25        -999.25        -999.25        -999.25        -999.25
      4870.5000        -999.25        -999.25         48.302       50.94599        -999.25        -999.25        -999.25        -999.25        -999.25
      4871.0000        -999.25        -999.25        48.6697       51.30252        -999.25        -999.25        -999.25        -999.25        -999.25
      4871.5000        -999.25        -999.25        48.7169       51.34829        -999.25        -999.25        -999.25        -999.25        -999.25
      4872.0000         1.0132       639.0459        48.7642       51.39415         1.0958       -99.8107      -44.34852        -999.25      0.1632355
      4872.5000         1.0272       743.2783        48.7131        51.3446         1.1719       -99.5875      -44.12532        -999.25      0.1674468
      4873.0000         1.0577       799.5645        48.6431       51.27673         1.2061       -99.3643      -43.90212        -999.25      0.1716581
      4873.5000         1.0882       826.3916        48.6901        51.3223         1.2403       -99.1411      -43.67892        -999.25      0.1758695
      4874.0000         1.1187       853.1943        49.1941         51.811         1.2441       -98.9178      -43.45562        -999.25      0.1800826
      4874.5000         1.1507       878.1104        49.6978       52.29941         1.1987       -98.6771      -43.21492        -999.25      0.1846242
      4875.0000         1.1924       902.5313        50.2018       52.78811         1.1401        -98.432      -42.96982        -999.25      0.1892487
      4875.5000         1.2341       926.9512        50.7057        53.2767         1.0673        -98.187      -42.72482        -999.25      0.1938714
      4876.0000          1.119       951.3467        51.2095       53.76521         0.9945       -97.9419      -42.47972        -999.25      0.1984958
      4876.5000         0.9172       1023.664        52.6996       55.21006         0.9217       -97.6672      -42.20502        -999.25      0.2036789
      4877.0000         0.8717       1130.129        55.1434       57.57966         0.8524       -97.0209      -41.55872        -999.25      0.2158733
      4877.5000         0.8358       1266.574        59.0915       61.40788         0.8127        -96.374      -40.91182        -999.25      0.2280789
      4878.0000         0.8067       1347.877        62.8818       65.08309          0.773       -95.7275      -40.26532        -999.25       0.240277
      4878.5000         0.7906       1426.498        66.2924       68.39014         0.7333       -95.0812      -39.61902        -999.25      0.2524714
      4879.0000         0.7744       1496.135        69.7029       71.69709         0.6936       -94.4343      -38.97212        -999.25      0.2646769
      4879.5000         0.7583       1565.771        73.1108        75.0015         0.6513       -93.7384      -38.27622        -999.25      0.2778071
      4880.0000         0.7427       6200.547        74.8313       76.66976         0.5782       -92.9431      -37.48092        -999.25      0.2928129
      4880.5000         0.7302       6324.234        74.5314       76.37897         0.5051       -92.1469      -36.68472        -999.25      0.3078355
      4881.0000         0.7177       6463.711        73.2206       75.10798          0.432       -91.3516      -35.88942        -999.25      0.3228411
      4881.5000         0.7052       4078.273         71.863        73.7916         0.3767       -90.5563      -35.09412        -999.25      0.3378469
      4882.0000         0.6904       4301.227        75.5153         77.333         0.3289        -90.004      -34.54182        -999.25      0.3482676
      4882.5000         0.6746        4501.75        79.8407       81.52707         0.3088       -89.6145      -34.15232        -999.25      0.3556166
      4883.0000         0.6588       4869.344        82.9626       84.55418         0.2887       -89.2249      -33.76272        -999.25      0.3629676
      4883.5000         0.6364       4984.398        90.5975       91.95725         0.2686       -88.8353      -33.37312        -999.25      0.3703186
      4884.0000         0.6098       5099.453        94.6912       95.92665         0.2523       -88.4456      -32.98342        -999.25      0.3776713
      4884.5000         0.5434       5784.906        97.0659       98.22926         0.2382       -88.3905      -32.92832        -999.25      0.3787109
      4885.0000         0.4877       5992.578        98.8082       99.91864         0.2242       -89.0065      -33.54432        -999.25      0.3670883
      4885.5000         0.4652       6121.727        97.7256       98.86892         0.2101       -89.6223      -34.16012        -999.25      0.3554695
      4886.0000         0.4793       6201.734        95.3446        96.5602          0.196       -90.2382      -34.77602              1      0.3438488
      4886.5000         0.4983       6263.039        92.5161       106.8823         0.1859       -90.8055      -35.34332              1       0.333145
      4887.0000         0.5172       6231.813        89.2461       102.3527         0.2003       -91.3308      -35.86862              1      0.3232335
      4887.5000         0.5415       5906.609        74.5288       81.96636         0.2147       -91.8561      -36.39392              1      0.3133222
      4888.0000         0.6048       5724.352        61.1852       63.48287         0.2291       -92.3813      -36.91912      0.6485717      0.3034128
      4888.5000         0.6682       5464.266        58.0274        59.1087         0.2435       -92.9066      -37.44442      0.5555043      0.2935015
      4889.0000         0.6863       4938.141         56.152       56.51091         0.2578       -93.3888      -37.92662      0.5002321      0.2844034
      4889.5000         0.7019       4579.977        54.3802       54.05662         0.2722       -93.4193      -37.95712      0.4480132       0.283828
      4890.0000         0.7175       4330.813        52.7637       51.81745         0.3032       -93.4498      -37.98762      0.4003713      0.2832525
      4890.5000         0.7331       4011.328        51.9228       50.65264         0.3427       -93.4803      -38.01812      0.3755881       0.282677
      4891.0000         0.7487       4011.449        53.1052        52.2905         0.3822       -93.5109      -38.04872      0.4104362      0.2820996
      4891.5000         0.7642        4011.57        54.2692       53.90286         0.4217       -93.5414      -38.07922      0.4447418      0.2815242
      4892.0000         0.7798       3570.363        55.4073       55.47935         0.4612       -93.5719      -38.10972      0.4782841      0.2809487
      4892.5000         0.7997       2911.613        56.5453       57.05571         0.5005       -93.3743      -37.91212      0.5118235       0.284677
      4893.0000         0.8247       2253.258        57.6834       58.63219         0.5396       -93.1334      -37.67122      0.5453659      0.2892223
      4893.5000         0.8497       1825.262        59.1248       60.62882         0.5787       -92.8927      -37.43052      0.5878472      0.2937638
      4894.0000         0.8747       1764.111        60.6932       62.80135         0.6178       -93.0212      -37.55902      0.6340714      0.2913392
      4894.5000         0.8996       1703.309        62.2887       65.01144         0.6519       -94.0524      -38.59022      0.6810944      0.2718827
      4895.0000         0.9245        1647.57        64.0161       67.40422         0.6523       -95.0845      -39.62232      0.7320047       0.252409
      4895.5000         0.9494       1591.781        65.7449       69.79895         0.6526       -96.2737      -40.81152      0.7829564      0.2299714
