#------------------------------------------------------------------------------
# Created by    : vladimir.rabinovich
# Created on    : 09/19/2023 17:20:10
#------------------------------------------------------------------------------
~Version Information Section
VERS.           2.0     :   CWLS log ASCII Standard - VERSION 2.0
WRAP.           NO      :   One line per depth step
~Well Information Section
#MNEM       .UNIT                                         VALUE :DESCRIPTION
#------------------------------------------------------------------------------
STRT        .FT                                            1664 :START DEPTH
STOP        .FT                                            5300 :STOP DEPTH
STEP        .FT                                             0.5 :STEP      
NULL        .                                           -999.25 :NULL      
COMP        .                       CORPUS CHRISTI OIL & GAS CO :COMPANY   
WELL        .                                ST TR 00597-L NE/4 :WELL      
FLD         .                                           WILDCAT :FIELD     
LOC         .                                                   :LOCATION  
CNTY        .                      MATAGORDA ISLAND LARGE BLOCK :LOCATION  
STAT        .                                             TEXAS :STATE     
CTRY        .                                     UNITED STATES :COUNTRY   
SRVC        .                                                   :SERVICE COMPANY
DATE        .                             9/13/2023 11:12:01 AM :LOG DATE  
API         .                                    42703301570000 :API NUMBER
UWI         .                                    42703301570000 :UNIQUE WELL ID
XCOORD      .                                   499677.54355151 :SURFACE X 
YCOORD      .                                  10240770.6634848 :SURFACE Y 
LAT         .                                        28.1741034 :LATITUDE  
LON         .                                       -96.5406837 :LONGITUDE 
ELEV        .FT                                              79 :ELEVATION VALUE
ELEV_TYPE   .                                                KB :ELEVATION REFERENCE TYPE
~Curve Information Section
#MNEM       .UNIT                                      API CODE :CURVE DESCRIPTION
#------------------------------------------------------------------------------
DEPT        .FT                                                 :DEPTH     
ASFL        .OHMM                                               :          
CILD        .MMHO                                               :          
ILD         .OHMM                                               :          
SP          .MV                                                 :          
SP_NORM     .MV                                                 :SP Normalized
VSH_SP      .V/V                                                :Volume of Shale from SP
~A        DEPTH           ASFL           CILD            ILD             SP        SP_NORM         VSH_SP
# ...
      2880.0000         0.9725        996.404         1.0978       -69.6355       4.243172              1
      2880.5000         0.9685       1012.372         1.0778       -70.2334       3.632339              1
      2881.0000         0.9565       1020.356         1.0579       -70.8314       3.021416              1
      2881.5000         0.9485       1036.324         1.0379       -71.4293       2.410583              1
      2882.0000         0.9325       1044.308          1.018       -72.3271       1.499847              1
      2882.5000         0.9165       1052.292          0.998       -73.5246      0.2894287              1
      2883.0000         0.9004       1060.276          0.978       -74.1227     -0.3216095              1
      2883.5000         0.8884       1060.276         0.9581       -74.1212     -0.3330383              1
      2884.0000         0.8804        1068.26         0.9581       -73.5201       0.255127              1
      2884.5000         0.8844        1068.26         0.9581       -72.6192       1.143105              1
      2885.0000         0.9004        1068.26         0.9581        -72.018       1.731377              1
      2885.5000         0.9285       1060.276         0.9581       -71.7167       2.019745              1
      2886.0000         0.9365       1052.292         0.9581       -74.5653     -0.8417816              1
      2886.5000         0.9965       1044.308         0.9581       -77.4138      -3.703217      0.9483874
      2887.0000         0.9965       1036.324         0.9581       -80.2623      -6.564644      0.8616775
      2887.5000         1.1046        1028.34         0.9581       -84.0026      -10.31787      0.7479433
      2888.0000         1.1206       1036.324         0.9381       -82.6456      -8.973801      0.7886727
      2888.5000         1.1286        1068.26         0.9381       -81.2887      -7.629829      0.8293991
      2889.0000         1.1126       1132.132         0.9182       -79.9318      -6.285866      0.8701253
      2889.5000         1.0839       1188.021         0.8782       -78.2998      -4.666786      0.9191883
      2890.0000         1.0553       1267.861         0.8583       -81.7879      -8.167824      0.8130962
      2890.5000         1.0267       1347.701         0.8184        -85.276      -11.66885      0.7070044
      2891.0000         0.9981       1427.542         0.7984       -88.7641      -15.16988      0.6009129
      2891.5000         0.9695       1481.868         0.7585       -93.5887      -20.00741       0.454321
      2892.0000         0.9409        1483.43         0.7186       -93.8886      -20.32024      0.4448411
      2892.5000         0.9125        1523.35         0.6986       -94.4873      -20.93186      0.4263072
      2893.0000         0.9125       1531.334         0.6587       -94.4862       -20.9437      0.4259486
      2893.5000         0.9725       1419.558         0.6387       -94.4851      -20.95553        0.42559
      2894.0000         0.9805       1299.797         0.6387       -92.1116      -18.59496      0.4971226
      2894.5000         0.9845       1172.053         0.6387       -89.7382      -16.23448      0.5686521
      2895.0000         1.0769       1044.308         0.6587       -87.3647      -13.87392      0.6401843
      2895.5000         1.1692       948.4998         0.7585       -84.9912      -11.51335      0.7117167
      2896.0000         1.2616       884.6275         0.9182       -82.6178       -9.15287      0.7832463
      2896.5000          1.354       844.7074         1.0579       -80.2443      -6.792305      0.8547786
      2897.0000         1.4464       788.8192         1.2677       -77.6785      -4.239433      0.9321384
      2897.5000         1.5488       860.6754         1.1619       -77.6772       -4.25106      0.9317861
      2898.0000         1.4393       900.5956         1.1104       -77.6771      -4.263893      0.9313972
      2898.5000         1.3298       940.5158         1.0632       -81.2567      -7.856422      0.8225327
      2899.0000         1.2203       1116.165         0.8959       -84.8364      -11.44905      0.7136651
      2899.5000         1.1108       1188.021         0.8417        -88.416      -15.04158      0.6048006
      2900.0000         1.0325       1331.733         0.7509       -91.9956      -18.63411      0.4959361
      2900.5000         1.0526       1471.734         0.6795       -95.5753      -22.22675      0.3870683
      2901.0000         1.0445       1593.023         0.6277         -98.97      -25.63437       0.283807
      2901.5000         1.0805       1714.312         0.5833      -101.1359       -27.8132      0.2177818
      2902.0000         1.1005       1722.951         0.5804      -103.3017      -29.99193      0.1517598
      2902.5000         1.1005       1826.743         0.5474      -105.4676      -32.17075     0.08573474
      2903.0000         1.0925       1930.536          0.518      -107.6335      -34.34959      0.0197095
      2903.5000         1.0445        2018.36         0.4955        -110.67      -37.39902              0
      2904.0000          0.873       2106.184         0.4748      -110.8849      -37.62685              0
      2904.5000         0.8473       2170.057         0.4608        -111.27      -38.02487              0
      2905.0000         0.8204       2233.929         0.4476        -111.57      -38.33781              0
      2905.5000         0.8164       2289.817         0.4367        -112.17      -38.95073              0
      2906.0000         0.8364       2361.674         0.4234        -112.47      -39.26366              0
      2906.5000         0.8564       2457.482         0.4069        -113.07      -39.87659              0
      2907.0000         0.8724       2537.322         0.3941        -113.37      -40.18953              0
      2907.5000         0.7003       2529.338         0.3954        -113.67      -40.50245              0
      2908.0000         0.6763       2712.971         0.3686        -113.67      -40.51538              0
      2908.5000         0.6163       2816.763          0.355        -113.67      -40.52831              0
      2909.0000         0.5883        2968.46         0.3369        -113.37      -40.24124              0
      2909.5000         0.5843       2976.444          0.336        -110.07      -36.95417              0
      2910.0000         0.5563       3072.252         0.3255        -108.27       -35.1671              0
      2910.5000         0.5443       3255.885         0.3071        -107.07      -33.98003      0.0309083
      2911.0000         0.5323       3271.853         0.3056        -106.17      -33.09296      0.0577892
      2911.5000         0.5283       3158.536         0.3166        -105.87      -32.80589     0.06648809
      2912.0000         0.5363       3045.219         0.3284        -105.57      -32.51882     0.07518722
      2912.5000         0.5523       2931.902         0.3411        -106.17      -33.13174     0.05661381
      2913.0000         0.5603       2818.585         0.3548        -107.67      -34.64468     0.01076739
      2913.5000         0.6603       2705.268         0.3696        -107.67      -34.65761     0.01037551
      2914.0000         0.7013       2591.951         0.3858        -110.07      -37.07053              0
      2914.5000         0.7423       2478.634         0.4034        -108.87      -35.88347              0
      2915.0000         0.7833       2365.317         0.4228        -107.37       -34.3964      0.0182909
      2915.5000         0.8242       2217.961         0.4509        -107.67      -34.70932    0.008808482
      2916.0000         0.8484       2209.977         0.4525        -108.57      -35.62225              0
      2916.5000         0.8078       2209.977         0.4525        -109.47      -36.53519              0
      2917.0000         0.7671       2328.204         0.4295        -110.07      -37.14811              0
      2917.5000         0.7265       2446.431         0.4088        -110.07      -37.16104              0
