#------------------------------------------------------------------------------
# Created by    : vladimir.rabinovich
# Created on    : 09/19/2023 17:20:12
#------------------------------------------------------------------------------
~Version Information Section
VERS.           2.0     :   CWLS log ASCII Standard - VERSION 2.0
WRAP.           NO      :   One line per depth step
~Well Information Section
#MNEM       .UNIT                                         VALUE :DESCRIPTION
#------------------------------------------------------------------------------
STRT        .FT                                             309 :START DEPTH
STOP        .FT                                            9124 :STOP DEPTH
STEP        .FT                                             0.5 :STEP      
NULL        .                                           -999.25 :NULL      
COMP        .                         SONAT EXPLORATION GOM INC :COMPANY   
WELL        .                               OCS G03084 ST00BP00 :WELL      
FLD         .                                           WILDCAT :FIELD     
LOC         .                                                   :LOCATION  
CNTY        .                      MATAGORDA ISLAND LARGE BLOCK :LOCATION  
STAT        .                                             TEXAS :STATE     
CTRY        .                                     UNITED STATES :COUNTRY   
SRVC        .                                                   :SERVICE COMPANY
DATE        .                             9/13/2023 11:12:09 AM :LOG DATE  
API         .                                    42703400260000 :API NUMBER
UWI         .                                    42703400260000 :UNIQUE WELL ID
XCOORD      .                                  563826.313549269 :SURFACE X 
YCOORD      .                                  10238444.2560225 :SURFACE Y 
LAT         .                                         28.172716 :LATITUDE  
LON         .                                        -96.341662 :LONGITUDE 
ELEV        .FT                                              97 :ELEVATION VALUE
ELEV_TYPE   .                                                KB :ELEVATION REFERENCE TYPE
~Curve Information Section
#MNEM       .UNIT                                      API CODE :CURVE DESCRIPTION
#------------------------------------------------------------------------------
DEPT        .FT                                                 :DEPTH     
ASFL        .OHMM                                               :          
CILD        .MMHO                                               :          
DT          .US/F                                               :          
GR          .GAPI                                               :          
GR_NORM     .GAPI                                               :GammaRay Normalized
ILD         .OHMM                                               :          
SP          .MV                                                 :          
SP_NORM     .MV                                                 :SP Normalized
VSH_GR      .V/V                                                :Volume of Shale from GR
VSH_SP      .V/V                                                :Volume of Shale from SP
~A        DEPTH           ASFL           CILD             DT             GR        GR_NORM            ILD             SP        SP_NORM         VSH_GR         VSH_SP
       309.0000        -999.25        -999.25        -999.25         22.798       49.13409        -999.25        -999.25        -999.25      0.3432784        -999.25
       309.5000        -999.25        -999.25        -999.25        22.8501       49.21957        -999.25        -999.25        -999.25      0.3450972        -999.25
       310.0000        -999.25        -999.25        -999.25        22.6255       48.85109        -999.25        -999.25        -999.25      0.3372573        -999.25
       310.5000        -999.25        -999.25        -999.25        21.8838       47.63433        -999.25        -999.25        -999.25      0.3113688        -999.25
       311.0000        -999.25        -999.25        -999.25        21.4079       46.85362        -999.25        -999.25        -999.25      0.2947579        -999.25
       311.5000        -999.25        -999.25        -999.25        21.1671        46.4586        -999.25        -999.25        -999.25      0.2863531        -999.25
       312.0000        -999.25        -999.25        -999.25        21.1663       46.45728        -999.25        -999.25        -999.25       0.286325        -999.25
       312.5000        -999.25        -999.25        -999.25         20.507       45.37569        -999.25        -999.25        -999.25      0.2633125        -999.25
       313.0000        -999.25        -999.25        -999.25        20.3461       45.11173        -999.25        -999.25        -999.25      0.2576964        -999.25
       313.5000        -999.25        -999.25        -999.25        20.6573       45.62226        -999.25        -999.25        -999.25      0.2685587        -999.25
       314.0000        -999.25        -999.25        -999.25        20.2145       44.89585        -999.25        -999.25        -999.25      0.2531031        -999.25
       314.5000        -999.25        -999.25        -999.25        19.6012       43.88973        -999.25        -999.25        -999.25      0.2316964        -999.25
       315.0000        -999.25        -999.25        -999.25        19.6794       44.01802        -999.25        -999.25        -999.25      0.2344259        -999.25
       315.5000        -999.25        -999.25        -999.25        20.0915       44.69406        -999.25        -999.25        -999.25      0.2488097        -999.25
       316.0000        -999.25        -999.25        -999.25        20.9718        46.1382        -999.25        -999.25        -999.25      0.2795362        -999.25
       316.5000        -999.25        -999.25        -999.25        21.7794       47.46307        -999.25        -999.25        -999.25      0.3077248        -999.25
       317.0000        -999.25        -999.25        -999.25        23.7899       50.60055        -999.25        -999.25        -999.25      0.3744798        -999.25
       317.5000        -999.25        -999.25        -999.25        25.0901       52.41287        -999.25        -999.25        -999.25      0.4130397        -999.25
       318.0000        -999.25        -999.25        -999.25        27.0198       55.25788        -999.25        -999.25        -999.25       0.473572        -999.25
       318.5000        -999.25        -999.25        -999.25        29.8671       59.60822        -999.25        -999.25        -999.25      0.5661324        -999.25
       319.0000         0.2692        31.5703        -999.25         35.439       68.42828         0.8361      -157.7512      -1.255173      0.7537933              1
       319.5000         0.3206        34.2119        -999.25        39.2948        74.4331         0.8729      -153.0403      0.4543762      0.8815553      0.9350891
       320.0000         0.4659        56.2915        -999.25        44.1417       82.06378         0.9118      -148.3293       2.164017              1      0.6908547
       320.5000         0.6695       104.0986        -999.25        42.7536       79.46595         0.9542      -145.3191       2.172852      0.9886372      0.6895927
       321.0000         0.8731       409.2266        -999.25        42.8585       79.31739         0.9962      -141.1895       3.301102      0.9854764      0.5284141
       321.5000         0.9884       627.3838        -999.25        42.9633       79.16864         1.0379      -135.8252       5.664047      0.9823115      0.1908504
       322.0000         1.0315       720.9902        -999.25        43.1238       79.11127         1.0793      -133.5593       4.928589      0.9810908      0.2959159
       322.5000          1.086       783.0225        -999.25        43.3047       79.08739         1.1057      -131.6399       3.846634      0.9805829      0.4504809
       323.0000         1.1288       844.8018        -999.25        43.4857       79.06365          1.132      -129.4587       3.026459      0.9800777      0.5676488
       323.5000         1.1673       841.5479        -999.25        43.6666       79.03974         1.1583      -127.4487       2.035095       0.979569      0.7092721
       324.0000         1.2012       835.1416        -999.25        43.8575       79.03226         1.1785      -125.7429      0.7395401      0.9794099      0.8943514
       324.5000         1.2166       828.7363        -999.25        44.0573       79.03938         1.1976      -124.4045     -0.9234238      0.9795612              1
       325.0000         1.2225       822.3301        -999.25        44.2571       79.04648         1.2167      -123.1313     -0.4832382      0.9797123              1
       325.5000         1.2005       815.0625        -999.25        44.4569       79.05358         1.2358      -121.9519      0.3931503      0.9798634      0.9438357
       326.0000         1.1785       804.0439        -999.25        44.6866       79.10976         1.2533      -120.7726       1.269424      0.9810588      0.8186536
       326.5000          1.162       793.0254        -999.25        44.9787       79.26827           1.27      -119.9017       1.837296      0.9844313      0.7375292
       327.0000         1.1465       782.0059        -999.25        45.2707       79.42665         1.2873      -119.1105       2.325485      0.9878011      0.6677878
       327.5000         1.1516       770.9873        -999.25        45.1306       78.87617         1.3063       -119.507       1.625954      0.9760888      0.7677209
       328.0000         1.1605       751.9346        -999.25        44.0504       76.78342         1.3253      -119.8539      0.9760361      0.9315622      0.8605663
       328.5000         1.1697       731.1426        -999.25        43.4811       75.52882         1.3443      -120.2001      0.3268051      0.9048684      0.9533135
       329.0000         1.1821       710.8418        -999.25        42.9377        74.3167         1.3668      -120.0789       0.144989      0.8790788      0.9792873
       329.5000         1.1945       699.8223        -999.25        42.4297       73.16267         1.3926      -119.3011      0.6197662      0.8545248      0.9114619
       330.0000         1.2047       688.8027        -999.25        43.0091       73.79252         1.4184       -118.577        1.04084      0.8679259      0.8513085
       330.5000         1.2066       690.7998        -999.25        44.4744       75.87568         1.4274       -117.853        1.46183      0.9122485      0.7911671
       331.0000         1.1924       694.7783        -999.25         45.881       77.86255         1.4305      -117.1289       1.882904      0.9545223      0.7310137
       331.5000         1.1777       698.7559        -999.25        46.5291        78.6051         1.4305      -116.6748       2.033981      0.9703214      0.7094312
       332.0000         1.1635       702.7344        -999.25        47.1771       79.34749         1.4132      -117.1582       1.247551      0.9861168      0.8217784
       332.5000         1.1515       710.7373        -999.25        47.5143       79.58001         1.3958      -117.9647      0.1380386       0.991064      0.9802802
       333.0000          1.137       719.2568        -999.25         47.129       78.62725         1.3767      -118.9771      -1.177383      0.9707926              1
