#------------------------------------------------------------------------------
# Created by    : vladimir.rabinovich
# Created on    : 09/19/2023 17:22:54
#------------------------------------------------------------------------------
~Version Information Section
VERS.           2.0     :   CWLS log ASCII Standard - VERSION 2.0
WRAP.           NO      :   One line per depth step
~Well Information Section
#MNEM       .UNIT                                         VALUE :DESCRIPTION
#------------------------------------------------------------------------------
STRT        .FT                                             494 :START DEPTH
STOP        .FT                                            6854 :STOP DEPTH
STEP        .FT                                             0.5 :STEP      
NULL        .                                           -999.25 :NULL      
COMP        .                          HUMBLE OIL & REFINING CO :COMPANY   
WELL        .                                     ST TR 00247-L :WELL      
FLD         .                                           WILDCAT :FIELD     
LOC         .                                                   :LOCATION  
CNTY        .                             GALVESTON LARGE BLOCK :LOCATION  
STAT        .                                             TEXAS :STATE     
CTRY        .                                     UNITED STATES :COUNTRY   
SRVC        .                                                   :SERVICE COMPANY
DATE        .                             9/13/2023 11:19:42 AM :LOG DATE  
API         .                                    42706000180000 :API NUMBER
UWI         .                                    42706000180000 :UNIQUE WELL ID
XCOORD      .                                  979775.061814126 :SURFACE X 
YCOORD      .                                  10543201.0009156 :SURFACE Y 
LAT         .                                        29.0361078 :LATITUDE  
LON         .                                       -95.0678326 :LONGITUDE 
ELEV        .FT                                              11 :ELEVATION VALUE
ELEV_TYPE   .                                                KB :ELEVATION REFERENCE TYPE
~Curve Information Section
#MNEM       .UNIT                                      API CODE :CURVE DESCRIPTION
#------------------------------------------------------------------------------
DEPT        .FT                                                 :DEPTH     
LAT         .OHMM                                               :          
LN          .OHMM                                               :          
SN          .OHMM                                               :          
SP          .MV                                                 :          
SP_NORM     .MV                                                 :SP Normalized
VSH_SP      .V/V                                                :Volume of Shale from SP
~A        DEPTH            LAT             LN             SN             SP        SP_NORM         VSH_SP
# ...
      1748.0000         0.9507         0.6955         0.9257       -83.4841      -7.874344      0.8142069
      1748.5000         1.0032         0.6906         0.9027       -76.9755      -1.365746       0.990115
      1749.0000         1.0557         0.6858         0.8796       -75.4946      0.1151581              1
      1749.5000          1.085         0.6809         0.8619       -74.7012      0.9085541              1
      1750.0000         1.0986         0.6917         0.8457       -73.9758       1.633957              1
      1750.5000         1.0988         0.7056         0.8295       -73.8433       1.766457              1
      1751.0000         1.0988         0.7195         0.8133       -74.0573        1.55246              1
      1751.5000         1.0923         0.7333         0.7971       -74.2711       1.338654              1
      1752.0000         1.0858         0.7383         0.8005       -75.2008      0.4089584              1
      1752.5000         1.0793         0.7419         0.8226       -77.5017      -1.891945      0.9758934
      1753.0000         1.0747         0.7455         0.8448        -79.802      -4.192245      0.9137231
      1753.5000         1.0646         0.7394         0.8653       -82.1029      -6.493141      0.8515368
      1754.0000         1.0367         0.7288         0.8846       -84.0656      -8.455841      0.7984908
      1754.5000         1.0088         0.7181         0.9039         -85.92      -10.31024      0.7483718
      1755.0000         0.9809         0.7074         0.9231       -87.0944      -11.48464      0.7166313
      1755.5000          0.953         0.6968         0.9422       -88.1274      -12.51765      0.6887122
      1756.0000         0.9252         0.6861         0.9325       -88.7028      -13.09304      0.6731611
      1756.5000         0.8973         0.6754         0.9228       -88.8789      -13.26914      0.6684015
      1757.0000         0.8709         0.6671         0.9131       -89.0576      -13.44785      0.6635717
      1757.5000         0.8451          0.662         0.9034       -90.2159      -14.60614      0.6322665
      1758.0000         0.8193         0.6569         0.8938       -91.3896      -15.77985      0.6005447
      1758.5000         0.7935         0.6517         0.8841       -92.7557      -17.14594      0.5636232
      1759.0000         0.7968         0.6466         0.8744       -93.8003      -18.19054      0.5353907
      1759.5000         0.8036         0.6415         0.8681       -92.6777      -17.06794      0.5657313
      1760.0000         0.8189          0.642         0.8629       -91.8231      -16.21334      0.5888286
      1760.5000         0.8374         0.6506         0.8576       -91.0309      -15.42114      0.6102394
      1761.0000          0.808         0.6593         0.8524        -90.239      -14.62924      0.6316421
      1761.5000         0.7762          0.668         0.8472       -91.2935      -15.68375       0.603142
      1762.0000         0.7445         0.6766          0.842       -92.4742      -16.86444      0.5712313
      1762.5000         0.7127         0.6853         0.8367       -94.1239      -18.51414      0.5266447
      1763.0000          0.681         0.6878         0.8291       -95.7736      -20.16384      0.4820583
      1763.5000         0.6493         0.6892         0.8195       -96.5543      -20.94454      0.4609583
      1764.0000         0.6177         0.6906         0.8099       -97.1295      -21.51974      0.4454123
      1764.5000          0.586         0.6919         0.8003       -97.7048      -22.09505      0.4298636
      1765.0000         0.5544         0.6933         0.7906       -98.1237      -22.51395       0.418542
      1765.5000         0.5227         0.6947          0.781       -97.8848      -22.27505      0.4249987
      1766.0000          0.491         0.6951         0.7714       -97.4208      -21.81104      0.4375394
      1766.5000         0.4812         0.6942         0.7617       -97.2094      -21.59964       0.443253
      1767.0000         0.4725         0.6932          0.765       -97.0863      -21.47655      0.4465798
      1767.5000         0.4638         0.6923         0.7699       -96.9972      -21.38744       0.448988
      1768.0000         0.4551         0.6914         0.7748       -96.9694      -21.35964      0.4497394
      1768.5000         0.4499         0.6905         0.7797       -96.9414      -21.33164      0.4504962
      1769.0000         0.4651         0.6883         0.7846       -96.4727      -20.86295      0.4631636
      1769.5000         0.4802         0.6821         0.7896       -95.6597      -20.04994      0.4851367
      1770.0000         0.4954         0.6758         0.8001       -94.8652      -19.25544      0.5066097
      1770.5000         0.5105         0.6695         0.8129       -94.3059      -18.69614      0.5217258
      1771.0000         0.5576         0.6633         0.8257       -93.7466      -18.13684      0.5368422
      1771.5000         0.6114          0.657         0.8385       -93.4194      -17.80965      0.5456852
      1772.0000         0.6653         0.6507         0.8513       -93.1072      -17.49744      0.5541231
      1772.5000         0.7191         0.6478         0.8582       -91.0148      -15.40504      0.6106745
      1773.0000         0.7453         0.6471         0.8601       -82.7546      -7.144844      0.8339232
      1773.5000         0.7651         0.6464         0.8621       -80.1301       -4.52034      0.9048557
      1774.0000         0.7848         0.6456         0.8641       -78.9259      -3.316147      0.9374014
      1774.5000         0.8046         0.6449         0.8623       -78.2314      -2.621643      0.9561718
      1775.0000         0.8244         0.6441         0.8536       -78.0139      -2.404144      0.9620501
      1775.5000          0.845         0.6434         0.8449       -77.9415      -2.331741       0.964007
      1776.0000         0.8706         0.6468         0.8362       -77.9153      -2.305542      0.9647151
      1776.5000         0.8962         0.6564         0.8275        -77.889      -2.279243      0.9654258
      1777.0000         0.9218          0.666         0.8188       -77.7239      -2.114143       0.969888
      1777.5000         0.9477         0.6756         0.8101       -77.3687      -1.758942      0.9794881
      1778.0000         0.9796         0.6852         0.8042       -77.0132      -1.403442      0.9890962
      1778.5000         0.9571         0.6948         0.8207       -76.8605       -1.25074      0.9932232
      1779.0000         0.9087         0.7021         0.8371       -79.5746      -3.964844      0.9198691
      1779.5000         0.8509         0.7024         0.8535       -83.5607      -7.950943      0.8121367
      1780.0000         0.7871         0.7026         0.8699       -87.1786      -11.56884      0.7143556
      1780.5000         0.7234         0.7029         0.8863       -89.8667      -14.25694      0.6417043
      1781.0000         0.6597         0.7031         0.9217       -91.5895      -15.97974      0.5951421
      1781.5000         0.5968         0.7034         0.9627       -92.1627      -16.55294      0.5796503
      1782.0000         0.5815         0.7036         1.0038       -92.8845      -17.27474      0.5601421
      1782.5000         0.5661         0.7034         1.0448       -94.2021      -18.59235      0.5245312
      1783.0000         0.5508         0.7031         1.0859       -95.5198      -19.91004      0.4889178
      1783.5000         0.5354         0.7028         1.1243       -98.8495      -23.23975      0.3989258
      1784.0000          0.518         0.7026         1.1435      -101.4453      -25.83554      0.3287692
      1784.5000         0.4921         0.7023         1.1628      -103.1293      -27.51955      0.2832555
      1785.0000         0.4662          0.702         1.1821      -104.3507      -28.74094      0.2502448
      1785.5000         0.4403         0.7017         1.2013      -105.2264      -29.61665      0.2265771
