#------------------------------------------------------------------------------
# Created by    : vladimir.rabinovich
# Created on    : 09/19/2023 17:21:35
#------------------------------------------------------------------------------
~Version Information Section
VERS.           2.0     :   CWLS log ASCII Standard - VERSION 2.0
WRAP.           NO      :   One line per depth step
~Well Information Section
#MNEM       .UNIT                                         VALUE :DESCRIPTION
#------------------------------------------------------------------------------
STRT        .FT                                            4200 :START DEPTH
STOP        .FT                                            8641 :STOP DEPTH
STEP        .FT                                             0.5 :STEP      
NULL        .                                           -999.25 :NULL      
COMP        .                                       HUNT OIL CO :COMPANY   
WELL        .                               OCS G25526 ST00BP00 :WELL      
FLD         .                                           WILDCAT :FIELD     
LOC         .                                                   :LOCATION  
CNTY        .                             GALVESTON LARGE BLOCK :LOCATION  
STAT        .                                             TEXAS :STATE     
CTRY        .                                     UNITED STATES :COUNTRY   
SRVC        .                                                   :SERVICE COMPANY
DATE        .                             9/13/2023 11:19:33 AM :LOG DATE  
API         .                                    42706404520000 :API NUMBER
UWI         .                                    42706404520000 :UNIQUE WELL ID
XCOORD      .                                  1090250.84236946 :SURFACE X 
YCOORD      .                                  10532258.5226608 :SURFACE Y 
LAT         .                                         29.010895 :LATITUDE  
LON         .                                        -94.721682 :LONGITUDE 
ELEV        .FT                                             108 :ELEVATION VALUE
ELEV_TYPE   .                                                KB :ELEVATION REFERENCE TYPE
~Curve Information Section
#MNEM       .UNIT                                      API CODE :CURVE DESCRIPTION
#------------------------------------------------------------------------------
DEPT        .FT                                                 :DEPTH     
CALI        .IN                                                 :          
DCAL        .IN                                                 :          
DFL         .OHMM                                               :          
DLOD        .LB                                                 :          
DPHI        .DEC                                                :          
DRHO        .G/C3                                               :          
GR          .GAPI                                               :          
GR_NORM     .GAPI                                               :GammaRay Normalized
HDCN        .MMHO                                               :          
HO24        .OHMM                                               :          
HO30        .OHMM                                               :          
HO40        .OHMM                                               :          
HO60        .OHMM                                               :          
HO90        .OHMM                                               :          
HT24        .OHMM                                               :          
HT30        .OHMM                                               :          
HT40        .OHMM                                               :          
HT60        .OHMM                                               :          
HT90        .OHMM                                               :          
NPHI        .DEC                                                :          
RHOB        .G/C3                                               :          
RWA         .OHMM                                               :          
SP_NORM     .MV                                                 :SP Normalized
SPA         .MV                                                 :          
TENS        .LBS                                                :          
VSH_GR      .V/V                                                :Volume of Shale from GR
VSH_SP      .V/V                                                :Volume of Shale from SP
~A        DEPTH           CALI           DCAL            DFL           DLOD           DPHI           DRHO             GR        GR_NORM           HDCN           HO24           HO30           HO40           HO60           HO90           HT24           HT30           HT40           HT60           HT90           NPHI           RHOB            RWA        SP_NORM            SPA           TENS         VSH_GR         VSH_SP
# ...
      8330.0000        12.7902         0.5402         0.3039       1420.484         0.3297        -0.0086        44.3752       40.29257       3786.211         0.2861          0.281         0.2771         0.2724         0.2667         0.2848         0.2793         0.2752         0.2701         0.2641         0.3152         2.1061         0.0376      -56.59435       127.7713       4046.569       0.155161     0.05974833
      8330.5000        12.7025         0.4525          0.305        1436.79         0.3325        -0.0112        45.8145       41.89681       3804.353         0.2867         0.2813         0.2772         0.2721         0.2661         0.2842         0.2786         0.2743          0.269         0.2629         0.3126         2.1014         0.0377      -56.40658       127.8541       4031.896      0.1892939     0.06304249
      8331.0000        12.7775         0.5275         0.2993       1416.408         0.3323        -0.0089        44.6411       40.58894       3819.849         0.2874         0.2814          0.277         0.2714          0.265         0.2842         0.2783         0.2738         0.2683         0.2618         0.3169         2.1018         0.0373      -56.44671       127.8364       4019.953      0.1614669     0.06233838
      8331.5000        12.8354         0.5854         0.2982        1402.14         0.3316         -0.004        41.8771       37.50819       3834.873         0.2874         0.2813         0.2767          0.271         0.2643         0.2838         0.2777         0.2731         0.2674         0.2608         0.3237         2.1028         0.0387      -56.70161        127.724       4014.323     0.09591886     0.05786641
      8332.0000        12.8404         0.5904         0.3076       1393.986         0.3303         0.0001        42.7793       38.51378       3851.767         0.2862         0.2801         0.2756           0.27         0.2634         0.2826         0.2765         0.2719         0.2662         0.2596         0.3216         2.1049          0.038      -57.06401       127.5642       4017.565      0.1173144     0.05150865
      8332.5000        12.8421         0.5921         0.2858       1408.254         0.3308         0.0057        45.4808       41.52488        3867.71         0.2835         0.2776         0.2733         0.2678         0.2615         0.2812         0.2752         0.2707         0.2651         0.2586         0.3253         2.1042         0.0367      -57.41279       127.4104       4024.901      0.1813803     0.04538961
      8333.0000        12.8539         0.6039         0.2789       1420.484         0.3366         0.0039        47.4781       43.75106       3869.585         0.2821         0.2765         0.2722          0.267         0.2608         0.2809         0.2749         0.2704         0.2649         0.2584         0.3337         2.0946         0.0411      -56.68824       127.7299       4023.707       0.228746     0.05810098
      8333.5000         12.874          0.624         0.2852       1412.331         0.3457        -0.0066         48.177       44.53006       3849.365          0.284         0.2784         0.2743         0.2691          0.263         0.2822         0.2762         0.2718         0.2662         0.2598         0.3276         2.0796         0.0424      -56.17846       127.9547       4016.029      0.2453204     0.06704465
      8334.0000        12.8699         0.6199         0.2861       1408.254         0.3524        -0.0201        47.1913        43.4314       3816.195         0.2876         0.2819         0.2776         0.2723          0.266          0.285         0.2789         0.2743         0.2687          0.262         0.3173         2.0686         0.0422      -55.50763       128.2505       4008.352      0.2219446     0.07881352
      8334.5000        12.8604         0.6104         0.2908       1406.216          0.346        -0.0243        47.7389       44.04176       3772.445         0.2898         0.2841         0.2798         0.2745         0.2682         0.2894         0.2829          0.278         0.2721         0.2651         0.3127         2.0791         0.0389      -54.83684       128.5463       4002.721       0.234931      0.0905818
      8335.0000        12.8565         0.6065          0.298       1410.293         0.3363        -0.0228        51.0348       47.71537        3707.16         0.2952         0.2892         0.2847         0.2792         0.2727         0.2961         0.2891         0.2838         0.2773         0.2697         0.3119         2.0951         0.0383      -54.30005        128.783       4003.063       0.313093     0.09999921
      8335.5000        12.8689         0.6189         0.3204       1396.025         0.3312        -0.0238        52.9644        49.8661       3624.375         0.3083         0.3011         0.2957         0.2891         0.2813          0.305         0.2971         0.2913         0.2842         0.2759         0.3147         2.1035         0.0406      -53.36073       129.1972       4006.134      0.3588532      0.1164784
      8336.0000        12.8577         0.6077         0.3354        1402.14         0.3347        -0.0282        49.6476       46.16919       3561.339         0.3208         0.3122         0.3059          0.298          0.289         0.3112          0.303         0.2969         0.2894         0.2808         0.3074         2.0978         0.0408      -52.67655       129.4989       4005.792      0.2801955      0.1284816
      8336.5000        12.8605         0.6105         0.3441       1408.254         0.3381        -0.0277        46.2422       42.37353       3556.906         0.3185         0.3102         0.3041         0.2965         0.2877         0.3101         0.3023         0.2965         0.2894         0.2811         0.2954         2.0922         0.0381       -53.2401       129.2504       4010.399      0.1994368      0.1185947
      8337.0000        12.8448         0.5948         0.3391       1414.369         0.3376         -0.023        45.0896       41.08884        3602.54         0.3052         0.2987         0.2938         0.2878         0.2808         0.3024         0.2958         0.2908         0.2847         0.2776         0.3007         2.0929         0.0395      -54.47445       128.7061       4016.029       0.172103     0.09693956
      8337.5000        12.7964         0.5464         0.3131       1408.254         0.3292         -0.012        47.3895       43.65231       3660.736         0.2945         0.2896         0.2859         0.2812         0.2758         0.2934          0.288          0.284          0.279         0.2732          0.311         2.1069         0.0375      -55.41375       128.2919       4021.489      0.2266449     0.08046047
      8338.0000        12.7801         0.5301         0.3169       1408.254         0.3203        -0.0029        49.3295       45.81463       3707.682         0.2886         0.2845         0.2813         0.2774         0.2727         0.2865         0.2821         0.2788         0.2746         0.2697         0.3125         2.1215          0.035      -55.41375       128.2919       4023.707      0.2726518     0.08046047
      8338.5000        12.7828         0.5328         0.3218       1414.369          0.317         0.0023        48.7558       45.17518        3734.27         0.2842         0.2808         0.2782         0.2749         0.2711         0.2824         0.2786         0.2757         0.2721         0.2678         0.3098         2.1269         0.0357      -55.27949       128.3511       4020.124      0.2590464     0.08281594
      8339.0000        12.8001         0.5501         0.3195       1398.063         0.3196         0.0018        47.0401       43.26287       3734.828         0.2817         0.2786         0.2763         0.2734         0.2699         0.2817         0.2781         0.2753         0.2719         0.2677         0.3091         2.1226         0.0353      -54.89034       128.5227       4016.711      0.2183589     0.08964318
      8339.5000        12.7658         0.5158         0.3314       1414.369         0.3211         0.0022        44.9019       40.87963       3694.248         0.2846         0.2815         0.2791         0.2761         0.2725         0.2856         0.2817         0.2788         0.2751         0.2707         0.3153         2.1202         0.0367      -54.63544       128.6351       4018.417      0.1676517       0.094115
