#------------------------------------------------------------------------------
# Created by    : vladimir.rabinovich
# Created on    : 09/19/2023 17:22:51
#------------------------------------------------------------------------------
~Version Information Section
VERS.           2.0     :   CWLS log ASCII Standard - VERSION 2.0
WRAP.           NO      :   One line per depth step
~Well Information Section
#MNEM       .UNIT                                         VALUE :DESCRIPTION
#------------------------------------------------------------------------------
STRT        .FT                                            3080 :START DEPTH
STOP        .FT                                           13004 :STOP DEPTH
STEP        .FT                                             0.5 :STEP      
NULL        .                                           -999.25 :NULL      
COMP        .                                     INEXCO OIL CO :COMPANY   
WELL        .                                     ST TR 00006-L :WELL      
FLD         .                                           WILDCAT :FIELD     
LOC         .                                                   :LOCATION  
CNTY        .                           HIGH ISLAND LARGE BLOCK :LOCATION  
STAT        .                                             TEXAS :STATE     
CTRY        .                                     UNITED STATES :COUNTRY   
SRVC        .                                                   :SERVICE COMPANY
DATE        .                             9/13/2023 11:19:15 AM :LOG DATE  
API         .                                    42708302350000 :API NUMBER
UWI         .                                    42708302350000 :UNIQUE WELL ID
XCOORD      .                                  1306008.37969423 :SURFACE X 
YCOORD      .                                  10751503.0860356 :SURFACE Y 
LAT         .                                          29.62091 :LATITUDE  
LON         .                                         -94.05279 :LONGITUDE 
ELEV        .FT                                              84 :ELEVATION VALUE
ELEV_TYPE   .                                                KB :ELEVATION REFERENCE TYPE
~Curve Information Section
#MNEM       .UNIT                                      API CODE :CURVE DESCRIPTION
#------------------------------------------------------------------------------
DEPT        .FT                                                 :DEPTH     
DT          .US/F                                               :          
GR          .GAPI                                               :          
GR_NORM     .GAPI                                               :GammaRay Normalized
ILD         .OHMM                                               :          
SFL         .OHMM                                               :          
SP          .MV                                                 :          
SP_NORM     .MV                                                 :SP Normalized
VSH_GR      .V/V                                                :Volume of Shale from GR
VSH_SP      .V/V                                                :Volume of Shale from SP
~A        DEPTH             DT             GR        GR_NORM            ILD            SFL             SP        SP_NORM         VSH_GR         VSH_SP
# ...
     11639.5000        -999.25        41.7089       72.11026         0.4556         0.6587       -41.3676      -1.367599      0.8321332      0.9950324
     11640.0000        -999.25        41.9958       72.71171         0.4649         0.6157       -40.8273      -0.827301      0.8449299              1
     11640.5000        -999.25        40.9276       70.47997         0.4732         0.5675       -40.8085     -0.8084984      0.7974461              1
     11641.0000        -999.25        40.2805       69.12862         0.4825         0.5438        -40.985     -0.9850006      0.7686941              1
     11641.5000        -999.25        39.9731       68.48756         0.4872         0.5461       -40.9617     -0.9617004      0.7550545              1
     11642.0000        -999.25        39.8193       68.16763          0.486         0.5496       -40.7979     -0.7979012      0.7482473              1
     11642.5000        -999.25        41.3994       71.47279         0.4765         0.5578         -40.66     -0.6599998      0.8185699              1
     11643.0000        -999.25        42.5825       73.94797          0.464         0.5643       -40.5986     -0.5985985      0.8712333              1
     11643.5000        -999.25        43.5534       75.97947         0.4486         0.5719       -40.7162     -0.7162018      0.9144568              1
     11644.0000        -999.25        44.3571       77.66143         0.4337         0.5925       -40.8793     -0.8792992      0.9502432              1
     11644.5000        -999.25        45.2469       79.52338         0.4186         0.6416        -41.016      -1.015999      0.9898592      0.9997838
     11645.0000        -999.25        45.4955       80.04475         0.4038         0.6326       -40.8937     -0.8936996              1              1
     11645.5000        -999.25        45.2956        79.6284         0.3884         0.5945       -40.7894     -0.7893982      0.9920935              1
     11646.0000        -999.25        45.0273       79.06905         0.3733         0.5251       -40.7279     -0.7279015      0.9801926              1
     11646.5000        -999.25        44.9212       78.84882         0.3593         0.4647       -40.7369     -0.7369003      0.9755067              1
     11647.0000        -999.25        45.9833       81.07101          0.346         0.4546       -40.7961     -0.7961006              1              1
     11647.5000        -999.25         45.821       80.73331         0.3338         0.4901       -40.8506     -0.8506012              1              1
     11648.0000        -999.25        44.5244       78.02402         0.3235         0.4985       -40.9412     -0.9412003      0.9579578              1
     11648.5000        -999.25        43.5542       75.99721         0.3158         0.5553       -41.0942        -1.0942      0.9148342       0.998727
     11649.0000        -999.25        43.4756       75.83447         0.3114         0.5298       -41.0375      -1.037498      0.9113718      0.9994932
     11649.5000        -999.25        43.7431       76.39535         0.3103         0.4976       -40.6026     -0.6026001      0.9233053              1
     11650.0000        -999.25        45.6151       80.31084         0.3118         0.4597       -40.0192    -0.01919937              1              1
     11650.5000        -999.25         47.562       84.38293         0.3136         0.4393       -39.9438     0.05619812              1              1
     11651.0000        -999.25        49.0344       87.46297         0.3233         0.4341       -39.8544      0.1455994              1              1
     11651.5000        -999.25        49.3641       88.15388          0.339         0.4299       -40.0635    -0.06349945              1              1
     11652.0000        -999.25        48.4581       86.26125         0.3569         0.4268       -40.4373     -0.4373016              1              1
     11652.5000        -999.25        46.8981        83.0013         0.3783         0.4394       -40.5786     -0.5786018              1              1
     11653.0000        -999.25        45.4978       80.07522         0.4033         0.4808        -40.581     -0.5810013              1              1
     11653.5000        -999.25        44.3047       77.58234         0.4348         0.5578        -40.851     -0.8510017      0.9485604              1
     11654.0000        -999.25        43.3038       75.49131          0.471         0.5905       -40.9695     -0.9695015      0.9040704              1
     11654.5000        -999.25        43.5584       76.02522          0.508         0.5726       -41.3202      -1.320202      0.9154302      0.9956729
     11655.0000        -999.25        42.4726       73.75669         0.5305         0.5646       -41.2603        -1.2603      0.8671637      0.9964824
     11655.5000        -999.25          42.52       73.85739         0.5388         0.5954        -41.455      -1.455002      0.8693062      0.9938513
     11656.0000        -999.25         42.525       73.86946         0.5353         0.6412       -41.9623      -1.962299       0.869563      0.9869959
     11656.5000        -999.25         41.662       72.06672         0.5242         0.6868       -41.3477      -1.347698      0.8312068      0.9953014
     11657.0000        -999.25        41.8124       72.38279         0.5054         0.7162       -40.7162     -0.7162018      0.8379317              1
     11657.5000        -999.25        42.4751       73.76993         0.4774         0.7206       -40.4182     -0.4182014      0.8674453              1
     11658.0000        -999.25        42.5987       74.02995         0.4741          0.656       -40.2338      -0.233799      0.8729776              1
     11658.5000        -999.25        39.9841       68.56509         0.4728         0.5473       -39.9355      0.0644989      0.7567042              1
     11659.0000        -999.25        37.8649       64.13596         0.4694         0.5313       -39.6248      0.3751984      0.6624673              1
     11659.5000        -999.25        36.6044       61.50216          0.456         0.5455       -39.4267      0.5732994       0.606429              1
     11660.0000        -999.25        38.8359       66.16928         0.4408         0.5628       -39.3629      0.6371002      0.7057294              1
     11660.5000        -999.25        41.1317       70.97085         0.4373         0.5692       -39.4155      0.5844994      0.8078904              1
     11661.0000        -999.25        41.3369       71.40147         0.4413         0.5933       -39.2697      0.7303009      0.8170525              1
     11661.5000        -999.25        40.6605       69.98888         0.4496         0.6321       -39.2588      0.7411995      0.7869976              1
     11662.0000        -999.25        39.2228       66.98461         0.4603         0.6434       -39.4245      0.5755005      0.7230768              1
     11662.5000        -999.25        38.0971       64.63264         0.4703         0.6189       -39.7115      0.2885017       0.673035              1
     11663.0000        -999.25        37.2734       62.91211         0.4776         0.6008        -40.051    -0.05099869      0.6364278              1
     11663.5000        -999.25        36.7536       61.82693         0.4792         0.6185       -40.6625     -0.6624985      0.6133391              1
     11664.0000        -999.25         37.206       62.77441         0.4719         0.6696       -41.5062      -1.506199      0.6334982      0.9931595
     11664.5000        -999.25         38.011       64.45906         0.4598         0.6329       -41.5567      -1.556702      0.6693417       0.992477
     11665.0000        -999.25        39.3351       67.22901         0.4469         0.5883       -41.0856      -1.085602      0.7282768      0.9988432
     11665.5000        -999.25        41.4567       71.66635         0.4353         0.5359       -40.5658     -0.5657997      0.8226883              1
