#------------------------------------------------------------------------------
# Created by    : vladimir.rabinovich
# Created on    : 09/19/2023 17:22:15
#------------------------------------------------------------------------------
~Version Information Section
VERS.           2.0     :   CWLS log ASCII Standard - VERSION 2.0
WRAP.           NO      :   One line per depth step
~Well Information Section
#MNEM       .UNIT                                         VALUE :DESCRIPTION
#------------------------------------------------------------------------------
STRT        .FT                                             712 :START DEPTH
STOP        .FT                                            8940 :STOP DEPTH
STEP        .FT                                             0.5 :STEP      
NULL        .                                           -999.25 :NULL      
COMP        .                                      SHELL OIL CO :COMPANY   
WELL        .                               OCS G03086 ST00BP00 :WELL      
FLD         .                                           WILDCAT :FIELD     
LOC         .                                                   :LOCATION  
CNTY        .                      MATAGORDA ISLAND LARGE BLOCK :LOCATION  
STAT        .                                             TEXAS :STATE     
CTRY        .                                     UNITED STATES :COUNTRY   
SRVC        .                                                   :SERVICE COMPANY
DATE        .                             9/13/2023 11:19:05 AM :LOG DATE  
API         .                                    42703400050000 :API NUMBER
UWI         .                                    42703400050000 :UNIQUE WELL ID
XCOORD      .                                  597395.628989583 :SURFACE X 
YCOORD      .                                    10217429.66268 :SURFACE Y 
LAT         .                                         28.117488 :LATITUDE  
LON         .                                        -96.235866 :LONGITUDE 
ELEV        .FT                                              93 :ELEVATION VALUE
ELEV_TYPE   .                                                KB :ELEVATION REFERENCE TYPE
~Curve Information Section
#MNEM       .UNIT                                      API CODE :CURVE DESCRIPTION
#------------------------------------------------------------------------------
DEPT        .FT                                                 :DEPTH     
CALI        .IN                                                 :          
DRHO        .G/C3                                               :          
DT          .US/F                                               :          
GR          .GAPI                                               :          
GR_1        .GAPI                                               :          
GR_NORM     .GAPI                                               :GammaRay Normalized
ILD         .OHMM                                               :          
NPHI        .%                                                  :          
RHOB        .G/C3                                               :          
SFL         .OHMM                                               :          
SP          .MV                                                 :          
SP_NORM     .MV                                                 :SP Normalized
VSH_GR      .V/V                                                :Volume of Shale from GR
VSH_SP      .V/V                                                :Volume of Shale from SP
~A        DEPTH           CALI           DRHO             DT             GR           GR_1        GR_NORM            ILD           NPHI           RHOB            SFL             SP        SP_NORM         VSH_GR         VSH_SP
# ...
      4546.0000        10.7187         0.0516       101.9615        66.1355        54.9042       48.73075         0.4404        27.9082         2.2825         0.8248       -91.1589      -24.54424      0.3346969      0.4649037
      4546.5000        10.7728         0.0603       104.1571        67.3087        55.0325       48.98159          0.417        28.9358         2.2702         0.7752       -90.2125      -23.64164      0.3400337      0.4854173
      4547.0000        10.8807         0.0648       108.4393        68.5785        55.1113       49.12842         0.4283        31.4653         2.2651         0.7656       -89.3542      -22.82715      0.3431578      0.5039284
      4547.5000        11.0024         0.0537       111.8538        68.8745        54.6972       48.23954         0.4521        32.6266         2.2587         0.7533       -87.9526      -21.46935      0.3242455      0.5347876
      4548.0000        11.1066         0.0293       114.5486        67.9352        54.0975       46.96069         0.4813        31.1536          2.255         0.7519        -88.249      -21.80955       0.297036      0.5270557
      4548.5000        11.1443         0.0077       109.2156        65.9038        53.6252       45.94955         0.5192        28.0457         2.2643         0.8592       -91.4591      -25.06345      0.2755224      0.4531033
      4549.0000        11.0654         0.0017       103.9148        64.3557        53.4749       45.61499         0.5589        24.0207         2.3071         1.0543       -95.7855      -29.43365       0.268404      0.3537806
      4549.5000        10.8841         0.0061        94.7717        63.6249         53.579       45.81497         0.5986        22.1835         2.3433         1.2813       -101.062      -34.75396       0.272659      0.2328646
      4550.0000        10.7944          0.013        87.7253        63.7484        53.8984       46.46734         0.6438        21.8306         2.3461          1.476      -103.0355      -36.77126      0.2865391      0.1870167
      4550.5000        10.7233         0.0142        86.1826        63.9009        54.1296       46.93438         0.6397        23.5209         2.3154         1.3783      -104.9854      -38.76497      0.2964761      0.1417053
      4551.0000        10.5921         0.0136        89.1816        63.9721        54.2957       47.26462         0.5891        23.7154          2.272         1.3496      -105.6458      -39.46917      0.3035026      0.1257007
      4551.5000        10.5147         0.0171        94.0894        63.7725        53.6752       45.94208          0.512        25.7619         2.2423         1.3089      -106.7454      -40.61257      0.2753634     0.09971428
      4552.0000        10.5422         0.0194        99.7314        62.5074        52.2983       43.03019         0.4445        27.0139         2.2286         1.1759      -107.9237      -41.83468      0.2134083     0.07193912
      4552.5000        10.5944         0.0146       105.8185        60.4959        51.2094       40.72345         0.3766         27.752         2.1929          0.972       -108.244      -42.19878      0.1643287       0.063664
      4553.0000        10.6367         0.0099       111.5298        59.6048        50.3473       38.89327          0.322        28.1768         2.1758          0.859      -108.3921      -42.39069      0.1253887     0.05930259
      4553.5000        10.6624         0.0092       113.1171         60.263        49.5274       37.15174         0.2861        29.1643         2.1716          0.761      -108.6243      -42.66669     0.08833492     0.05302984
      4554.0000        10.6901         0.0103       103.4054        61.2444        48.6716        35.3348         0.2591        29.8163          2.177         0.6917      -108.8878        -42.974     0.04967669     0.04604548
      4554.5000        10.6873         0.0218       101.5778           62.3        48.7947       35.57469         0.2393        29.8304         2.1851         0.6555      -109.3374       -43.4674     0.05478068     0.03483183
      4555.0000        10.6525         0.0252       101.4395        63.0716        49.4505        36.9339         0.2211        30.2729         2.1931         0.6191      -109.6587       -43.8325     0.08370006     0.02653417
      4555.5000        10.5948         0.0229       101.1825         63.335        49.6941       37.42698         0.2148        30.4912           2.19         0.6165      -109.9667       -44.1843     0.09419113     0.01853856
      4556.0000        10.5161         0.0191        100.705        62.7191        49.6156       37.24329         0.2151        30.3006          2.192         0.6611      -110.5322      -44.79361     0.09028284     0.00469069
      4556.5000        10.4043         0.0164       100.2528        62.0242        49.5086        36.9997         0.2235        29.8772         2.1994         0.6819      -111.4501      -45.75532     0.08509997              0
      4557.0000        10.2581         0.0145       100.0693        61.3049        49.4775       36.91561         0.2419        29.7327         2.2034          0.671      -112.9572      -47.30621     0.08331088              0
      4557.5000        10.1213         0.0136       100.0922        61.0776        49.9522       37.89429         0.2688        29.3677         2.2029         0.6601      -114.3004      -48.69321      0.1041338              0
      4558.0000        10.0639         0.0124       100.3336        61.5633        50.5048       39.03664         0.3013        28.6376         2.2046         0.6926      -114.4542      -48.89082      0.1284391              0
      4558.5000        10.0505         0.0118       100.1202        62.5273         50.733       39.49739         0.3316        27.5294         2.2152         0.7034      -112.7128      -47.19322      0.1382423              0
      4559.0000        10.0627         0.0122        98.6312        62.7232          50.89       39.80851         0.3705        25.9193         2.2437         0.7037       -110.686      -45.21023       0.144862              0
      4559.5000        10.0799          0.014        96.1786         62.491        51.1848       40.40919         0.4242        24.7684          2.272         0.8342      -110.6699      -45.23793      0.1576423              0
      4560.0000        10.0915         0.0213        94.8517        62.4426          51.77       41.62005         0.4865        26.0324         2.2847         1.7661      -110.2631      -44.87494      0.1834053    0.002842296
      4560.5000        10.0964         0.0327        95.1896        62.1325        52.3939       42.91223         0.5353        28.4353          2.294         0.9388      -108.2202      -42.87584      0.2108985     0.04827638
      4561.0000        10.1017         0.0377        94.9714        61.7128        52.2686       42.63019         0.5593        30.0507         2.2826         0.7717      -106.2914      -40.99084      0.2048977     0.09111734
      4561.5000         10.104         0.0301         93.339        61.5305        50.9253        39.7889         0.5183        28.3679         2.2727         1.1506      -106.8099      -41.55315      0.1444447     0.07833758
      4562.0000        10.0984         0.0232        90.8678        61.4148        49.8635       37.53911         0.4673        26.1598           2.28         1.5688       -108.828      -43.61505     0.09657677     0.03147611
      4562.5000        10.0789         0.0254        86.1604        61.5262        49.2111       36.14953         0.4295        26.4363         2.2853         1.6063      -109.7799      -44.61076     0.06701133    0.008846456
      4563.0000         10.068         0.0352        86.5089        61.9759        49.1768        36.0587         0.3949        27.7932         2.2774         1.4385      -110.3831      -45.25776     0.06507882              0
      4563.5000        10.0636         0.0503        90.2968          62.05        49.9033       37.56647         0.3733        29.4828         2.2686         1.1646      -110.7493      -45.66776     0.09715896              0
