#------------------------------------------------------------------------------
# Created by    : vladimir.rabinovich
# Created on    : 09/19/2023 17:19:47
#------------------------------------------------------------------------------
~Version Information Section
VERS.           2.0     :   CWLS log ASCII Standard - VERSION 2.0
WRAP.           NO      :   One line per depth step
~Well Information Section
#MNEM       .UNIT                                         VALUE :DESCRIPTION
#------------------------------------------------------------------------------
STRT        .FT                                            2960 :START DEPTH
STOP        .FT                                           11758 :STOP DEPTH
STEP        .FT                                             0.5 :STEP      
NULL        .                                           -999.25 :NULL      
COMP        .                             CHAMPLIN PETROLEUM CO :COMPANY   
WELL        .                               OCS G06095 ST00BP00 :WELL      
FLD         .                                           WILDCAT :FIELD     
LOC         .                                                   :LOCATION  
CNTY        .                             GALVESTON LARGE BLOCK :LOCATION  
STAT        .                                             TEXAS :STATE     
CTRY        .                                     UNITED STATES :COUNTRY   
SRVC        .                                                   :SERVICE COMPANY
DATE        .                             9/13/2023 11:19:27 AM :LOG DATE  
API         .                                    42706401150000 :API NUMBER
UWI         .                                    42706401150000 :UNIQUE WELL ID
XCOORD      .                                  1057213.14222316 :SURFACE X 
YCOORD      .                                  10507856.7651171 :SURFACE Y 
LAT         .                                        28.9424301 :LATITUDE  
LON         .                                       -94.8238502 :LONGITUDE 
ELEV        .FT                                              89 :ELEVATION VALUE
ELEV_TYPE   .                                                KB :ELEVATION REFERENCE TYPE
~Curve Information Section
#MNEM       .UNIT                                      API CODE :CURVE DESCRIPTION
#------------------------------------------------------------------------------
DEPT        .FT                                                 :DEPTH     
ASFL        .OHMM                                               :          
CILD        .MMHO                                               :          
GR          .GAPI                                               :          
GR_NORM     .GAPI                                               :GammaRay Normalized
ILD         .OHMM                                               :          
SP          .MV                                                 :          
SP_NORM     .MV                                                 :SP Normalized
VSH_GR      .V/V                                                :Volume of Shale from GR
VSH_SP      .V/V                                                :Volume of Shale from SP
~A        DEPTH           ASFL           CILD             GR        GR_NORM            ILD             SP        SP_NORM         VSH_GR         VSH_SP
# ...
      3569.5000         0.6559       1734.195        49.8843       76.83317         0.5877        55.7916     -0.9589806      0.9326206              1
      3570.0000         0.6488        1739.08        49.9755        77.0267         0.5905        55.8734      -1.042934      0.9367384      0.9991055
      3570.5000         0.6444       1743.967        50.3649       77.83305         0.5932        56.0052      -1.176884      0.9538946      0.9963149
      3571.0000         0.6502        1748.85        50.7371       78.60405         0.5959        56.2399      -1.413734      0.9702989      0.9913805
      3571.5000         0.6561       1751.666        50.0311       77.15944         0.5985        56.4745       -1.65049      0.9395626      0.9864481
      3572.0000         0.6619       1752.814        48.9899       75.02601         0.6011        56.7094      -1.887543      0.8941704      0.9815095
      3572.5000          0.667       1753.963        48.1335       73.27233         0.6036        56.9441      -2.124393      0.8568581      0.9765751
      3573.0000         0.6711       1744.096        47.5108       71.99888         0.6062        57.1788      -2.361244      0.8297634      0.9716408
      3573.5000         0.6752       1730.553        46.8881       70.72546         0.6088         57.132      -2.316597      0.8026693      0.9725709
      3574.0000         0.6792        1717.01        46.4758       69.88437         0.6113        56.9135      -2.100254      0.7847738       0.977078
      3574.5000         0.6833       1703.467        46.2426       69.41132         0.6139         56.695      -1.883904       0.774709      0.9815853
      3575.0000         0.6874        1688.07        46.0962       69.11665         0.6165        56.4457      -1.636757      0.7684394      0.9867342
      3575.5000         0.6898        1671.15        46.5825       70.12209         0.6095        56.1565      -1.349709      0.7898318      0.9927144
      3576.0000         0.6893        1654.23        47.2686       71.53814         0.6011        55.8675      -1.062859      0.8199604      0.9986904
      3576.5000         0.6888       1637.311        47.9547       72.95418         0.5927        55.5785     -0.7760124      0.8500889              1
      3577.0000         0.6883       1620.391        48.6408       74.37019         0.5843        55.2895     -0.4891663      0.8802169              1
      3577.5000         0.6878       1618.742        49.3275       75.78746         0.5759        55.0004     -0.2022171      0.9103715              1
      3578.0000         0.6846       1618.088        50.3794       77.95519         0.5675        54.7163     0.07973099      0.9564934              1
      3578.5000         0.6803       1630.063        51.4312       80.12269         0.5592        54.5303      0.2635803              1              1
      3579.0000          0.676       1643.813        52.2803       81.87368         0.5508        54.3445      0.4472237              1              1
      3579.5000         0.6708       1657.561        52.6321       82.60275         0.5424        54.1586      0.6309738              1              1
      3580.0000         0.6616       1671.311        52.8204       82.99585          0.534        53.9727       0.814724              1              1
      3580.5000         0.6523       1685.059        52.4227       82.18477         0.5256        53.7867      0.9985695              1              1
      3581.0000         0.6431       1716.004        52.0247       81.37306         0.5172        53.6075       1.175621              1              1
      3581.5000         0.6341       1748.455        51.6317       80.57163         0.5119        53.4321       1.348866              1              1
      3582.0000          0.626       1780.883        51.2787       79.85241         0.5089        53.2568       1.522011      0.9968598              1
      3582.5000         0.6194       1810.605        51.0237       79.33456         0.5059        53.0815        1.69516      0.9858418              1
      3583.0000         0.6128       1880.967        51.7084        80.7477         0.5029        52.9063        1.86821              1              1
      3583.5000         0.6063       1926.338        52.6915       82.77404         0.5033         52.731       2.041359              1              1
      3584.0000         0.5997       1970.438          53.77       84.99645         0.5056        52.5665       2.203701              1              1
      3584.5000         0.5931       2011.926        54.8485        87.2188         0.5079        52.4081       2.359951              1              1
      3585.0000         0.5883       2050.777        56.0188       89.62984         0.5102        52.2498       2.516098              1              1
      3585.5000         0.5851       2089.629        57.2371       92.13951         0.5125        52.0913       2.672447              1              1
      3586.0000         0.5819       2117.023        58.4612       94.66108         0.5216        51.9329       2.828697              1              1
      3586.5000         0.5797       2138.672        59.7003       97.21349         0.5312        51.8648       2.894646              1              1
      3587.0000         0.5817       2160.309        60.9286       99.74368         0.5407        51.8002       2.957088              1              1
      3587.5000         0.5837       2138.355           62.1        102.157         0.5503        51.7355       3.019638              1              1
      3588.0000         0.5856       2113.691        62.9698       103.9505         0.5598        51.6709       3.082088              1              1
      3588.5000         0.5876       2089.031        62.6035       103.2039         0.5704        51.6063       3.144535              1              1
      3589.0000         0.5896       2064.367        60.1468       98.16178         0.5811        51.5768       3.171883              1              1
      3589.5000         0.5916       2028.729        56.9534       91.60575         0.5919        51.5499       3.196629              1              1
      3590.0000         0.6003       1991.313        54.4576       86.48324         0.6026        51.5229       3.221478              1              1
      3590.5000          0.611       1949.965        52.5684       82.60728         0.6115        51.5914       3.150826              1              1
      3591.0000         0.6217       1868.543        50.6636       78.69923         0.6168        51.7264       3.013676      0.9723241              1
      3591.5000         0.6324       1782.602        48.7542       74.78171         0.6222        51.8615       2.876423      0.8889725              1
      3592.0000         0.6427       1727.652        47.0095       71.20267         0.6276        51.9966       2.739166      0.8128227              1
      3592.5000         0.6528        1683.93        45.5276       68.16364         0.6329        52.1317       2.601917      0.7481626              1
      3593.0000         0.6628       1652.242        45.5623       68.24111         0.6383        52.4432       2.288265      0.7498109              1
      3593.5000         0.6729       1630.746        47.1599       71.53019         0.6425        52.7601       1.969212      0.8197913              1
      3594.0000         0.6749        1610.09        49.0812       75.48445         0.6405        53.0771       1.650063      0.9039245              1
      3594.5000         0.6691       1618.309        50.8947       79.21721         0.6385         53.394       1.331005      0.9833449              1
      3595.0000         0.6633       1630.357        51.5532       80.57653         0.6365        53.7133       1.009556              1              1
      3595.5000         0.6575       1645.547        50.3989        78.2107         0.6345        54.1732      0.5475044      0.9619298              1
