#------------------------------------------------------------------------------
# Created by    : vladimir.rabinovich
# Created on    : 09/19/2023 17:22:21
#------------------------------------------------------------------------------
~Version Information Section
VERS.           2.0     :   CWLS log ASCII Standard - VERSION 2.0
WRAP.           NO      :   One line per depth step
~Well Information Section
#MNEM       .UNIT                                         VALUE :DESCRIPTION
#------------------------------------------------------------------------------
STRT        .FT                                            2180 :START DEPTH
STOP        .FT                                            6738 :STOP DEPTH
STEP        .FT                                             0.5 :STEP      
NULL        .                                           -999.25 :NULL      
COMP        .                          SEAGULL ENERGY E & P INC :COMPANY   
WELL        .                               OCS G08131 ST00BP00 :WELL      
FLD         .                              GALVESTON BLOCK 0384 :FIELD     
LOC         .                                                   :LOCATION  
CNTY        .                             GALVESTON LARGE BLOCK :LOCATION  
STAT        .                                             TEXAS :STATE     
CTRY        .                                     UNITED STATES :COUNTRY   
SRVC        .                                                   :SERVICE COMPANY
DATE        .                             9/13/2023 11:19:36 AM :LOG DATE  
API         .                                    42706401890000 :API NUMBER
UWI         .                                    42706401890000 :UNIQUE WELL ID
XCOORD      .                                  986765.057424596 :SURFACE X 
YCOORD      .                                  10402321.6077632 :SURFACE Y 
LAT         .                                          28.64909 :LATITUDE  
LON         .                                        -95.038398 :LONGITUDE 
ELEV        .FT                                             100 :ELEVATION VALUE
ELEV_TYPE   .                                                KB :ELEVATION REFERENCE TYPE
~Curve Information Section
#MNEM       .UNIT                                      API CODE :CURVE DESCRIPTION
#------------------------------------------------------------------------------
DEPT        .FT                                                 :DEPTH     
CALN        .IN                                                 :          
DRHO        .G/CM3                                              :          
GR          .GAPI                                               :          
GR_NORM     .GAPI                                               :GammaRay Normalized
ILD         .OHMM                                               :          
ILM         .OHMM                                               :          
NPSS        .V/V                                                :Neutron Porosity Sandstone
RHOB        .G/CM3                                              :          
SFL         .OHMM                                               :          
SP          .MV                                                 :          
SP_NORM     .MV                                                 :SP Normalized
TENN        .LB                                                 :          
VSH_GR      .V/V                                                :Volume of Shale from GR
VSH_SP      .V/V                                                :Volume of Shale from SP
~A        DEPTH           CALN           DRHO             GR        GR_NORM            ILD            ILM           NPSS           RHOB            SFL             SP        SP_NORM           TENN         VSH_GR         VSH_SP
# ...
      2828.0000         14.867         -0.005        53.7569       46.99314         0.7268         0.8057         0.3971         2.0712         1.0351       -29.2431      -24.86145       1677.479      0.2977265      0.6448364
      2828.5000        15.0834         -0.006        53.9667       47.17634         0.7133         0.7988         0.3935         2.0742         1.0262       -28.2333      -23.85315       1679.677      0.3016243      0.6592407
      2829.0000        15.4224         -0.008        56.1765       49.15954         0.6936         0.7841         0.3929         2.0811         0.9341       -26.0235      -21.64485       1759.941        0.34382      0.6907879
      2829.5000        14.9229         -0.009        58.7863       51.50274         0.6937         0.7697         0.4008         2.0901         0.8913       -24.2137      -19.83655        1800.99      0.3936752      0.7166207
      2830.0000        13.9404          -0.01        61.7957       54.20556         0.6937         0.7699         0.4164          2.095          0.935       -23.2039      -18.82825       1724.757      0.4511822       0.731025
      2830.5000           13.6          -0.01           63.4       55.64381         0.6937         0.7701         0.4243          2.098          0.981          -23.2      -18.82585       1645.882      0.4817832      0.7310593
      2831.0000        14.1176        -0.0091             63       55.27819         0.6937         0.7774         0.4182          2.097         0.9532          -23.6      -19.22735       1604.706       0.474004      0.7253236
      2831.5000        14.8039        -0.0091           61.2       53.65257         0.6937         0.7774         0.4092          2.093            0.9          -24.2      -19.82885       1681.177      0.4394163      0.7167307
      2832.0000        14.6863        -0.0092           58.8       51.48694            0.7         0.7849         0.4128          2.084         0.8838            -25      -20.63035       1679.216      0.3933391      0.7052807
      2832.5000        14.2549        -0.0062           57.6       50.40131         0.7067         0.7924         0.4249          2.068         0.8838          -26.4      -22.03185       1677.255      0.3702407      0.6852593
      2833.0000        14.0588        -0.0013           56.4       49.31569            0.7         0.7924         0.4176          2.061         0.9262          -28.6      -24.23335       1675.294      0.3471424      0.6538093
      2833.5000        14.4706         0.0037           55.6       48.59006            0.7         0.7849          0.393          2.065         1.0184       -30.3922      -26.02705       1634.118      0.3317034       0.628185
      2834.0000        14.4902         0.0076           55.8       48.76444         0.6874         0.7774         0.3894          2.077         1.1157       -30.3922      -26.02855       1592.941      0.3354136      0.6281636
      2834.5000        14.9412         0.0056           58.6       51.27881         0.6812         0.7701         0.4038          2.088         1.1466          -29.6      -25.23784        1590.98      0.3889109      0.6394594
      2835.0000        16.2353         0.0045           60.8       53.25319         0.6751         0.7627         0.4188          2.096         1.0372          -27.8      -23.43934        1589.02      0.4309189      0.6651523
      2835.5000             17         0.0035           62.2       54.50757         0.6629         0.7483          0.428          2.095         0.8447            -27      -22.64084       1626.275      0.4576078      0.6765594
      2836.0000          17.42         0.0014           61.4       53.78194         0.6569         0.7342         0.4237          2.086         0.7774          -27.6      -23.24234       1624.314       0.442169      0.6679665
      2836.5000           17.6         0.0034           59.4       51.97631          0.651         0.7272         0.4128          2.072          0.822            -30      -25.64384       1661.569      0.4037514      0.6336594
      2837.0000          17.64         0.0053           57.2       49.99069         0.6393         0.7135         0.4002           2.06         0.9262       -33.1373      -28.78264       1659.608      0.3615041      0.5888194
      2837.5000        16.6863         0.0073           55.4       48.36507         0.6278         0.7067         0.3984         2.0471         1.0184       -35.6863      -31.33314       1618.431      0.3269163      0.5523837
      2838.0000           15.2         0.0102           53.6       46.73944         0.6222         0.7067          0.411         2.0333         1.0855       -37.2549      -32.90324       1616.471      0.2923285      0.5299537
      2838.5000        14.2549         0.0012           53.4       46.55382         0.6165         0.6937           0.42         2.0225         1.1157       -37.8431      -33.49294       1575.294      0.2883792      0.5215294
      2839.0000        14.1569        -0.0039           53.2       46.36819         0.6165         0.6812         0.4188         2.0235         1.0757       -36.2745      -31.92584       1573.333      0.2844297      0.5439166
      2839.5000        14.2157        -0.0079           53.4       46.54257         0.6055         0.6751         0.4146         2.0402         0.9624       -33.5294      -29.18224       1571.373      0.2881398      0.5831109
      2840.0000         14.451         -0.011           54.4       47.43694            0.6         0.6874          0.417           2.06         0.8371       -30.7843      -26.43864       1569.412       0.307169      0.6223052
      2840.5000        15.0606         -0.013        56.8019       49.59303            0.6         0.7002         0.4212          2.072         0.7484       -28.5942      -24.25004       1568.627      0.3530431      0.6535709
      2841.0000        15.6406         -0.015        58.6022       51.20767            0.6         0.7139         0.4219          2.068         0.7702       -28.5846      -24.24194       1568.627      0.3873973      0.6536866
      2841.5000         15.222         -0.015        57.4065       50.12592         0.6055         0.7008         0.4256          2.056         0.8524       -31.1533      -26.81214       1568.627      0.3643813      0.6169695
      2842.0000        14.4525         -0.012        53.8227       46.89488         0.6167         0.7012         0.4299         2.0441          0.981       -33.5065      -29.16684       1568.627      0.2956357      0.5833309
      2842.5000          13.98         -0.008        49.8466       43.31076         0.6225         0.7015         0.4287         2.0333         1.0858       -35.2731      -30.93494       1568.627      0.2193779      0.5580723
      2843.0000        14.5915         -0.003        49.6564       43.13396         0.6283         0.7018         0.4232         2.0342         1.1161       -36.4508      -32.11414       1568.627      0.2156161      0.5412266
      2843.5000        15.3046          0.004        50.4629       43.85418         0.6284         0.6957         0.4227          2.047         1.0662       -36.6448      -32.30963       1568.627      0.2309399      0.5384338
      2844.0000        16.0395          0.014        50.8691       44.21413         0.6227          0.696         0.4233          2.059              1       -38.2221      -33.88843       1568.627      0.2385986      0.5158796
      2844.5000         16.435          0.023         50.283       43.68102          0.617         0.6899         0.4113          2.063          0.981          -40.2      -35.86783       1568.627      0.2272558      0.4876024
      2845.0000        16.3365          0.025        49.6952       43.14638          0.617         0.6774         0.3963          2.056         1.0185          -42.2      -37.86933       1568.627      0.2158804      0.4590096
      2845.5000        15.1688          0.017        48.5069       42.07129            0.6         0.6713         0.3885         2.0361              1          -44.6      -40.27083       1568.627      0.1930061      0.4247025
