#------------------------------------------------------------------------------
# Created by    : vladimir.rabinovich
# Created on    : 09/19/2023 17:22:47
#------------------------------------------------------------------------------
~Version Information Section
VERS.           2.0     :   CWLS log ASCII Standard - VERSION 2.0
WRAP.           NO      :   One line per depth step
~Well Information Section
#MNEM       .UNIT                                         VALUE :DESCRIPTION
#------------------------------------------------------------------------------
STRT        .FT                                            4658 :START DEPTH
STOP        .FT                                           10852 :STOP DEPTH
STEP        .FT                                             0.5 :STEP      
NULL        .                                           -999.25 :NULL      
COMP        .                             WALTER OIL & GAS CORP :COMPANY   
WELL        .                               OCS G04721 ST00BP00 :WELL      
FLD         .                              GALVESTON BLOCK 0350 :FIELD     
LOC         .                                                   :LOCATION  
CNTY        .                             GALVESTON LARGE BLOCK :LOCATION  
STAT        .                                             TEXAS :STATE     
CTRY        .                                     UNITED STATES :COUNTRY   
SRVC        .                                                   :SERVICE COMPANY
DATE        .                             9/13/2023 11:19:36 AM :LOG DATE  
API         .                                    42706401870000 :API NUMBER
UWI         .                                    42706401870000 :UNIQUE WELL ID
XCOORD      .                                  1032064.33467067 :SURFACE X 
YCOORD      .                                   10428906.138822 :SURFACE Y 
LAT         .                                        28.7242451 :LATITUDE  
LON         .                                       -94.8985179 :LONGITUDE 
ELEV        .FT                                              92 :ELEVATION VALUE
ELEV_TYPE   .                                                KB :ELEVATION REFERENCE TYPE
~Curve Information Section
#MNEM       .UNIT                                      API CODE :CURVE DESCRIPTION
#------------------------------------------------------------------------------
DEPT        .FT                                                 :DEPTH     
DT          .US/F                                               :          
GR          .GAPI                                               :          
GR_1        .GAPI                                               :          
GR_NORM     .GAPI                                               :GammaRay Normalized
ILD         .OHMM                                               :          
ILM         .OHMM                                               :          
NPHI        .%                                                  :          
RFOC        .OHMM                                               :          
RHOB        .G/C3                                               :          
SP          .MV                                                 :          
SP_NORM     .MV                                                 :SP Normalized
VSH_GR      .V/V                                                :Volume of Shale from GR
VSH_SP      .V/V                                                :Volume of Shale from SP
~A        DEPTH             DT             GR           GR_1        GR_NORM            ILD            ILM           NPHI           RFOC           RHOB             SP        SP_NORM         VSH_GR         VSH_SP
# ...
      7983.0000        -999.25        53.7085        -999.25       51.51736         1.2352          1.352        24.9144         1.3159           2.44        -66.797      -21.85434      0.3939864      0.6637794
      7983.5000        -999.25        48.2435        -999.25       44.20657         1.4717         1.4813        24.4759         1.5485         2.5068       -69.5221      -25.03524      0.2384377      0.6148424
      7984.0000        -999.25        45.3752        -999.25       40.36951         1.5623         1.5489        25.1414         1.8172         2.5621       -71.3783      -27.20243      0.1567981      0.5815011
      7984.5000        -999.25         43.435        -999.25       37.77402         1.5006         1.4383        27.9861         2.1077         2.5686       -73.7258      -29.94279       0.101575      0.5393416
      7985.0000        -999.25        46.6094        -999.25       42.02057         1.3579         1.3038        31.9004         1.8298         2.4203       -75.1304      -31.58311      0.1919269       0.514106
      7985.5000        -999.25        49.5714        -999.25       45.98297         1.1616         1.0179        35.8058         1.3051         2.3394       -77.8307      -34.73508      0.2762333      0.4656141
      7986.0000        -999.25        50.1379        -999.25       46.74081          0.824         0.8253        36.9285         0.9842         2.2904       -82.8564      -40.60001      0.2923576      0.3753844
      7986.5000        -999.25        49.3431        -999.25       45.67757         0.6164         0.7127        37.0933          0.895         2.2625       -86.5343      -44.89252      0.2697355      0.3093459
      7987.0000        -999.25        48.6248        -999.25       44.71666         0.5009         0.6118        37.0327         0.8887         2.2758       -89.9012      -48.82219      0.2492907      0.2488894
      7987.5000        -999.25        49.1222        -999.25       45.38205           0.43         0.5489        36.4332         0.8809         2.2797       -91.3206      -50.47977      0.2634479      0.2233882
      7988.0000        -999.25        50.4798        -999.25       47.19818         0.3867         0.4948        35.5115         0.8421         2.2687       -91.9568      -51.22363      0.3020889      0.2119442
      7988.5000        -999.25        50.8544        -999.25        47.6993         0.3582         0.4532        34.5642         0.8055         2.2594       -91.7075      -50.93438       0.312751      0.2163941
      7989.0000        -999.25        51.0402        -999.25       47.94785         0.3401         0.4348        34.1011         0.7951           2.25       -91.4581      -50.64504      0.3180394      0.2208456
      7989.5000        -999.25        51.2225        -999.25       48.19172         0.3298         0.4242        33.9526          0.796         2.2423       -91.2042      -50.35044      0.3232282      0.2253778
      7990.0000        -999.25        51.4048        -999.25        48.4356          0.327         0.4306        34.0674         0.8041         2.2365       -90.9269      -50.02855      0.3284169      0.2303301
      7990.5000        -999.25        53.1235        -999.25       50.73478         0.3315         0.4422        34.2404         0.8182         2.2405       -90.2357      -49.22377      0.3773358      0.2427113
      7991.0000        -999.25        54.6897        -999.25       52.82996         0.3458         0.4482        34.3004          0.834         2.2572       -88.8522       -47.6113      0.4219141      0.2675185
      7991.5000        -999.25        55.4857        -999.25       53.89481         0.3619         0.4549        33.9666         0.8254         2.2813        -86.875      -45.30618      0.4445704      0.3029818
      7992.0000        -999.25        55.6003        -999.25       54.04811         0.3784         0.4701        33.1329         0.7978         2.2805       -84.5361      -42.57908      0.4478321      0.3449372
      7992.5000        -999.25        55.5827        -999.25       54.02457         0.3942         0.4858        32.8922         0.7767         2.2654       -83.4032      -41.25898      0.4473312      0.3652465
      7993.0000        -999.25        55.7214        -999.25       54.21012         0.4109         0.5035        32.9908         0.7658         2.2517       -83.0403      -40.83722      0.4512791      0.3717351
      7993.5000        -999.25        56.1485        -999.25       54.78146         0.4294         0.5227        33.1548         0.7776          2.273       -82.0394      -39.67112      0.4634354      0.3896751
      7994.0000        -999.25        58.4034        -999.25       57.79795          0.449         0.5422        32.8517         0.7896         2.3056        -79.687      -36.92827       0.527616      0.4318728
      7994.5000        -999.25        61.1927        -999.25       61.52934         0.4714         0.5621         32.489         0.8197         2.3231       -77.6604      -34.56552      0.6070072      0.4682227
      7995.0000        -999.25        62.8453        -999.25       63.74008         0.4949         0.5824        32.7871         0.8503          2.328       -76.7563      -33.51236      0.6540443      0.4844252
      7995.5000        -999.25        62.2529        -999.25       62.94761         0.5178         0.6013        32.8601         0.8788         2.3292       -76.5549      -33.27901      0.6371831      0.4880153
      7996.0000        -999.25        59.8499        -999.25         59.733         0.5417         0.6207        32.6906         0.8977         2.3333       -76.7947      -33.56039      0.5687873      0.4836862
      7996.5000        -999.25        57.2926        -999.25       56.31197         0.5655         0.6394        32.5062         0.9141         2.3484       -76.3732      -33.07026      0.4959994      0.4912267
      7997.0000        -999.25        55.8979        -999.25       54.44622         0.5896         0.6569        32.5854         0.9343         2.3409        -75.777      -32.37631      0.4563026      0.5019029
      7997.5000        -999.25        57.2975        -999.25       56.31853          0.613         0.6913        34.5448         0.9443         2.3321       -74.3132      -30.67017       0.496139      0.5281513
      7998.0000        -999.25        61.9628        -999.25       62.55953         0.6357         0.7196        36.8142         0.9454         2.3243       -71.7683      -27.70273      0.6289262      0.5738041
      7998.5000        -999.25         66.401        -999.25       68.49671         0.6583         0.7366        39.6036         0.8402         2.3347       -67.6807      -22.93549      0.7552492      0.6471463
      7999.0000        -999.25        70.1826        -999.25       73.55555         0.6798         0.7497        40.0264         0.7751         2.3434       -62.7094      -17.13725       0.862884      0.7363499
      7999.5000        -999.25        74.1666        -999.25       78.88512         0.7051         0.7599        39.7933         0.7733         2.3535       -58.6069      -12.35262      0.9762793      0.8099597
      8000.0000        -999.25        76.3733        -999.25       81.83713         0.7367         0.7756        38.7819         0.8018         2.3665       -54.8943      -8.022872              1      0.8765712
      8000.5000        -999.25        75.6476        -999.25       80.86632          0.764         0.7956        37.8948         0.8486         2.3717        -52.152       -4.82514              1      0.9257671
      8001.0000        -999.25        74.3381        -999.25       79.11453         0.7889         0.8201        37.5657          0.874         2.3731       -50.5599      -2.969307      0.9811603      0.9543183
      8001.5000        -999.25        74.1155        -999.25       78.81677         0.8088         0.8381        37.2075         0.8855         2.3741       -49.9884      -2.304174       0.974825      0.9645512
