#------------------------------------------------------------------------------
# Created by    : vladimir.rabinovich
# Created on    : 09/19/2023 17:22:53
#------------------------------------------------------------------------------
~Version Information Section
VERS.           2.0     :   CWLS log ASCII Standard - VERSION 2.0
WRAP.           NO      :   One line per depth step
~Well Information Section
#MNEM       .UNIT                                         VALUE :DESCRIPTION
#------------------------------------------------------------------------------
STRT        .FT                                             394 :START DEPTH
STOP        .FT                                            7700 :STOP DEPTH
STEP        .FT                                             0.5 :STEP      
NULL        .                                           -999.25 :NULL      
COMP        .                                   MARATHON OIL CO :COMPANY   
WELL        .                                     ST TR 00248-L :WELL      
FLD         .                                           WILDCAT :FIELD     
LOC         .                                                   :LOCATION  
CNTY        .                             GALVESTON LARGE BLOCK :LOCATION  
STAT        .                                             TEXAS :STATE     
CTRY        .                                     UNITED STATES :COUNTRY   
SRVC        .                                                   :SERVICE COMPANY
DATE        .                             9/13/2023 11:19:42 AM :LOG DATE  
API         .                                    42706000210000 :API NUMBER
UWI         .                                    42706000210000 :UNIQUE WELL ID
XCOORD      .                                  969160.596945075 :SURFACE X 
YCOORD      .                                  10521676.5956168 :SURFACE Y 
LAT         .                                        28.9764138 :LATITUDE  
LON         .                                       -95.0998408 :LONGITUDE 
ELEV        .FT                                              10 :ELEVATION VALUE
ELEV_TYPE   .                                                KB :ELEVATION REFERENCE TYPE
~Curve Information Section
#MNEM       .UNIT                                      API CODE :CURVE DESCRIPTION
#------------------------------------------------------------------------------
DEPT        .FT                                                 :DEPTH     
LAT         .OHMM                                               :          
LN          .OHMM                                               :          
SN          .OHMM                                               :          
SP          .MV                                                 :          
SP_NORM     .MV                                                 :SP Normalized
VSH_SP      .V/V                                                :Volume of Shale from SP
~A        DEPTH            LAT             LN             SN             SP        SP_NORM         VSH_SP
# ...
      5714.0000         0.8952         0.6321         0.9176       -79.6399      -4.658043      0.9553897
      5714.5000          0.876         0.6127         0.9617       -79.7996       -4.82457      0.9533589
      5715.0000         0.8195         0.5933         1.0059       -79.4825      -4.514305      0.9571426
      5715.5000         0.7005         0.5739         1.0815       -79.1659      -4.204536      0.9609203
      5716.0000         0.7101         0.5581         1.2039       -80.2943      -5.339767       0.947076
      5716.5000         0.7546         0.5448         1.3263       -84.9178        -9.9701      0.8906085
      5717.0000         0.7992         0.5315         1.4487       -89.2032      -14.26234      0.8382642
      5717.5000         0.8437         0.5183         1.5712       -92.9862      -18.05217      0.7920467
      5718.0000         0.8883          0.505         1.6805       -96.7644       -21.8372      0.7458879
      5718.5000         0.9329         0.4917         1.7115      -100.6158      -25.69543      0.6988361
      5719.0000         0.9424         0.4784         1.7425      -105.2439      -30.33036      0.6423127
      5719.5000          0.919         0.4663         1.7735      -109.9131       -35.0064      0.5852878
      5720.0000         0.8955         0.4648         1.7879      -114.8062      -39.90633      0.5255326
      5720.5000         0.8721         0.4634         1.7984      -119.6947      -44.80167      0.4658333
      5721.0000         0.8486         0.4619         1.8088      -123.7494       -48.8632      0.4163025
      5721.5000         0.8252         0.4605         1.8193       -126.726      -51.84663      0.3799192
      5722.0000         0.7807          0.459         1.8507         -129.7      -54.82746      0.3435676
      5722.5000         0.7362         0.4576         1.9043      -132.6765      -57.81079      0.3071855
      5723.0000         0.6916         0.4562         1.9579      -136.2607      -61.40182      0.2633924
      5723.5000         0.6471         0.4547         2.0115      -139.6506      -64.79856      0.2219688
      5724.0000         0.6026          0.452         2.0148      -142.5061       -67.6609      0.1870622
      5724.5000         0.5816         0.4493         1.9337      -144.8716      -70.03323      0.1581314
      5725.0000         0.5866         0.4467         1.8526      -145.8333      -71.00175      0.1463201
      5725.5000         0.5916          0.444         1.7715      -146.7949       -71.9702      0.1345098
      5726.0000          0.589         0.4414         1.6951      -147.6824      -72.86452      0.1236034
      5726.5000         0.5708         0.4387         1.6217      -147.7964      -72.98536      0.1221298
      5727.0000         0.5527          0.436         1.5483      -147.9106      -73.10639      0.1206538
      5727.5000         0.5345         0.4334         1.5197      -148.0247      -73.22733       0.119179
      5728.0000         0.5164         0.4307         1.6254      -148.1387      -73.34816      0.1177054
      5728.5000         0.4785         0.4286          1.731      -148.2527      -73.46899      0.1162319
      5729.0000         0.4276         0.4274         1.8367       -148.353      -73.57612      0.1149254
      5729.5000         0.3766         0.4262         1.9423      -147.9988      -73.22874      0.1191617
      5730.0000         0.3257          0.425         2.0479      -147.6445      -72.88129      0.1233989
      5730.5000         0.2748         0.4238         1.9909        -147.29      -72.53362      0.1276388
      5731.0000         0.2238         0.4226         1.9313      -146.9358      -72.18626      0.1318749
      5731.5000         0.1729         0.4213         1.8717      -146.5813      -71.83858      0.1361148
      5732.0000         0.1607         0.4201         1.7327      -144.1372      -69.40132      0.1658375
      5732.5000         0.1884         0.4189         1.5765      -141.6587      -66.92966      0.1959798
      5733.0000         0.2162         0.4188         1.4203      -139.1824      -64.46018      0.2260953
      5733.5000         0.2439         0.4247         1.2642      -136.7039      -61.98852      0.2562376
      5734.0000         0.3043         0.4306         1.0931      -110.9137      -36.20515      0.5706689
      5734.5000         0.3747         0.4366         0.9035       -94.9781      -20.27638      0.7649221
      5735.0000         0.4451         0.4425         0.7139       -85.3884      -10.69351      0.8817865
      5735.5000         0.5156         0.4484         0.5519        -80.902      -6.213943      0.9364153
      5736.0000         0.5861         0.4544          0.539        -76.411      -1.729782      0.9911002
      5736.5000         0.6565         0.4603         0.5874       -73.2974       1.376984              1
      5737.0000         0.6944         0.4698         0.6358       -72.2751       2.392456              1
      5737.5000           0.66         0.4883         0.6842       -72.5048       2.155922              1
      5738.0000         0.6255         0.5068         0.7326       -73.3557       1.298195              1
      5738.5000         0.5911         0.5253         0.7811       -74.2065      0.4405594              1
      5739.0000         0.5566         0.5438         0.8073       -75.0575     -0.4172745              1
      5739.5000         0.5222         0.5623         0.8176       -75.9084      -1.275009      0.9966462
      5740.0000         0.4877         0.5808         0.8279       -75.0929     -0.4663467              1
      5740.5000           0.46         0.5992         0.8381       -73.6412      0.9785309              1
      5741.0000         0.4367         0.6166         0.8484       -72.1907       2.422195              1
      5741.5000         0.4133         0.6303         0.8586       -70.7401       3.865967              1
      5742.0000           0.39         0.6441         0.8433       -69.2883       5.310928              1
      5742.5000         0.3667         0.6578         0.8161        -69.058       5.534401              1
      5743.0000         0.3433         0.6715         0.7889       -69.2043       5.381264              1
      5743.5000           0.32         0.6853         0.7617       -69.3506       5.228127              1
      5744.0000         0.2967          0.699         0.7346       -69.4969       5.074997              1
      5744.5000         0.2733         0.7127         0.7074       -69.6433       4.921761              1
      5745.0000           0.25         0.7264         0.6802       -69.7897       4.768532              1
      5745.5000         0.2404         0.7402          0.653        -69.936       4.615402              1
      5746.0000         0.2351          0.747          0.647       -70.0824       4.462173              1
      5746.5000         0.2299         0.7442           0.72       -70.3472       4.190536              1
      5747.0000         0.2247         0.7415         0.7931       -71.2393       3.291595              1
      5747.5000         0.2194         0.7387         0.8661       -72.1324        2.39167              1
      5748.0000         0.2142         0.7359         0.9392       -73.0244       1.492836              1
      5748.5000          0.209         0.7331         1.0122       -73.9176       0.592804              1
      5749.0000         0.2037         0.7303         1.0853       -77.4298      -2.926231      0.9765094
      5749.5000         0.1985         0.7275         1.1583       -82.6517      -8.154968      0.9127443
      5750.0000         0.1933         0.7247          1.221       -87.7825      -13.29259      0.8500903
      5750.5000         0.1941         0.7236         1.2762       -92.8125      -18.32943      0.7886655
      5751.0000         0.2074         0.7309         1.3315       -99.3458      -24.86956      0.7089078
      5751.5000         0.2207         0.7382         1.3868      -101.0111      -26.54169      0.6885159
