#------------------------------------------------------------------------------
# Created by    : vladimir.rabinovich
# Created on    : 09/19/2023 17:20:57
#------------------------------------------------------------------------------
~Version Information Section
VERS.           2.0     :   CWLS log ASCII Standard - VERSION 2.0
WRAP.           NO      :   One line per depth step
~Well Information Section
#MNEM       .UNIT                                         VALUE :DESCRIPTION
#------------------------------------------------------------------------------
STRT        .FT                                             601 :START DEPTH
STOP        .FT                                            9006 :STOP DEPTH
STEP        .FT                                             0.5 :STEP      
NULL        .                                           -999.25 :NULL      
COMP        .                                        SUN OIL CO :COMPANY   
WELL        .                               OCS G01715 ST00BP00 :WELL      
FLD         .                                           WILDCAT :FIELD     
LOC         .                                                   :LOCATION  
CNTY        .                                BRAZOS LARGE BLOCK :LOCATION  
STAT        .                                             TEXAS :STATE     
CTRY        .                                     UNITED STATES :COUNTRY   
SRVC        .                                                   :SERVICE COMPANY
DATE        .                             9/13/2023 11:18:52 AM :LOG DATE  
API         .                                    42704000710000 :API NUMBER
UWI         .                                    42704000710000 :UNIQUE WELL ID
XCOORD      .                                  842225.693118258 :SURFACE X 
YCOORD      .                                  10368215.6352389 :SURFACE Y 
LAT         .                                          28.54781 :LATITUDE  
LON         .                                        -95.486614 :LONGITUDE 
ELEV        .FT                                              79 :ELEVATION VALUE
ELEV_TYPE   .                                                KB :ELEVATION REFERENCE TYPE
~Curve Information Section
#MNEM       .UNIT                                      API CODE :CURVE DESCRIPTION
#------------------------------------------------------------------------------
DEPT        .FT                                                 :DEPTH     
ASN         .OHMM                                               :          
CALI        .IN                                                 :          
CILD        .MMHO                                               :          
DT          .US/F                                               :          
ILD         .OHMM                                               :          
SP          .MV                                                 :          
SP_NORM     .MV                                                 :SP Normalized
VSH_SP      .V/V                                                :Volume of Shale from SP
~A        DEPTH            ASN           CALI           CILD             DT            ILD             SP        SP_NORM         VSH_SP
# ...
      1722.0000         0.9707        12.2871       1181.959       175.6436         0.7482       -29.3854       1.448662              1
      1722.5000         0.9636        12.3336       1195.041       176.5474         0.7417       -29.0807       1.759064              1
      1723.0000         0.9567        12.3931       1208.125       176.9172         0.7347       -29.7231       1.122362              1
      1723.5000         0.9456        12.4349       1221.209       177.2051         0.7275       -30.2648      0.5863628              1
      1724.0000         0.9357        12.3313       1234.566       177.7166         0.7254       -30.5235      0.3333607              1
      1724.5000         0.9283         12.278           1248        178.228         0.7226       -30.6246      0.2379608              1
      1725.0000         0.9236        12.2873       1261.436       179.0139         0.7181       -30.7632      0.1050587              1
      1725.5000         0.9207        12.3196        1273.23       179.3853          0.715       -31.0221       -0.14814              1
      1726.0000         0.9181        12.2928       1284.027       179.3479         0.7128       -31.2813     -0.4016399              1
      1726.5000         0.9154        12.2502       1294.822       179.0105         0.7106       -31.4485     -0.5631409              1
      1727.0000         0.9179         12.225       1305.502       178.5081          0.708       -31.7113     -0.8202419              1
      1727.5000         0.9204        12.2224       1315.879       178.1433         0.7036       -31.7197     -0.8229427              1
      1728.0000         0.9226        12.2281       1325.717       178.0386         0.7014       -31.4539     -0.5514412              1
      1728.5000         0.9243        12.2368       1334.283        178.177         0.7015       -31.3658     -0.4576435              1
      1729.0000         0.9253        12.2494       1338.053       178.4031         0.6993       -31.4205     -0.5066433              1
      1729.5000         0.9251        12.2619       1341.412       178.6289         0.6979       -31.6183     -0.6987438              1
      1730.0000         0.9218        12.2556        1344.77       178.5991          0.698       -32.0051      -1.079845              1
      1730.5000         0.9163         12.245       1348.127       178.5493         0.7012       -32.1323      -1.201347              1
      1731.0000         0.9141        12.2387       1351.137       178.6453         0.7079       -32.1653      -1.228643              1
      1731.5000         0.9151        12.2429       1352.855       178.7646         0.7145        -32.166      -1.223646              1
      1732.0000           0.92         12.247       1354.574       178.8208         0.7195       -32.1107      -1.162645              1
      1732.5000         0.9251        12.2514       1356.291       178.8677          0.723        -32.274      -1.321617              1
      1733.0000         0.9322         12.257        1358.01       178.8276         0.7254        -32.622      -1.669621              1
      1733.5000         0.9424        12.2626       1359.285       178.7263          0.726        -32.975      -2.022617      0.9992461
      1734.0000         0.9566        12.2682       1357.303       178.5237         0.7261       -33.0053      -2.052917      0.9982361
      1734.5000         0.9669         12.275       1355.316       177.8774         0.7318       -32.8958       -1.94342              1
      1735.0000         0.9753        12.2818       1353.332       177.2312         0.7389       -32.8685      -1.916119              1
      1735.5000          0.981        12.2831       1341.303       176.4495          0.745        -32.956       -2.00362      0.9998793
      1736.0000         0.9816        12.2789       1329.193       175.8193         0.7511       -32.9016      -1.949219              1
      1736.5000         0.9831        12.2748       1317.086       175.1602         0.7572       -32.6777      -1.725319              1
      1737.0000         0.9944        12.3176       1301.762       174.0781         0.7648       -32.4258      -1.473419              1
      1737.5000         1.0049         12.373       1283.217       173.2275         0.7771        -32.205      -1.252621              1
      1738.0000         1.0139        12.4553       1264.674       173.4297           0.79       -32.1723      -1.219917              1
      1738.5000          1.024        12.5138       1248.742       173.7839         0.8026       -32.2792       -1.32682              1
      1739.0000         1.0342        12.4272        1233.49       174.1218          0.812       -32.5928      -1.640419              1
      1739.5000         1.0458        12.4056       1218.129       174.0688         0.8218       -33.0468      -2.094418      0.9968528
      1740.0000         1.0607        12.4508        1202.48       173.8115         0.8323       -33.5562      -2.603817      0.9798728
      1740.5000         1.0773        12.4083        1186.83       174.4312         0.8443       -34.1702      -3.217819       0.959406
      1741.0000         1.0957        12.3445       1172.268       173.5337          0.859        -34.439      -3.486618      0.9504461
      1741.5000         1.1118        12.2923       1159.545       160.0388         0.8735       -34.4633      -3.510918      0.9496361
      1742.0000         1.1266        12.2616       1146.824         158.22         0.8878       -34.7822      -3.829819       0.939006
      1742.5000         1.1389         12.247       1134.102        158.405         0.8969       -35.2467      -4.294319      0.9235227
      1743.0000         1.1475        12.2416       1121.994       157.3491         0.9038       -35.2118      -4.259418      0.9246861
      1743.5000         1.1505        12.2728       1110.529       155.9343         0.9079       -34.7649      -3.812519      0.9395827
      1744.0000         1.1449        12.4114       1099.063       154.8208         0.9116       -34.7715      -3.819118      0.9393627
      1744.5000         1.1478        12.5307       1087.598       153.6772         0.9139       -35.3245       -4.37212      0.9209293
      1745.0000         1.1704        12.5703       1075.615       154.4053         0.9165       -36.1305       -5.17812      0.8940627
      1745.5000         1.1878        12.5718       1063.512       155.5171          0.919       -37.0222       -6.06982      0.8643393
      1746.0000          1.202        12.5513       1051.402       153.9592         0.9191       -37.6027      -6.650318      0.8449894
      1746.5000          1.198        12.5128       1043.623       152.4958         0.9196       -37.9429       -6.99052      0.8336493
      1747.0000         1.1821         12.452       1040.129       151.8494         0.9218       -37.8324       -6.88002      0.8373327
      1747.5000         1.1625        12.3834       1036.635       151.0437         0.9224       -37.5985      -6.646118      0.8451294
      1748.0000         1.1421         12.321       1034.137       150.6643         0.9199       -37.0818      -6.129417      0.8623527
      1748.5000          1.126        12.2742       1033.268       151.9756         0.9174        -36.686       -5.73362       0.875546
      1749.0000         1.1245        12.2838         1032.4       153.4875         0.9168        -36.343      -5.390617      0.8869794
      1749.5000         1.1388         12.309       1031.531       154.2756         0.9189       -35.8864      -4.934017      0.9021994
      1750.0000         1.1543         12.263       1030.662       154.7844         0.9198        -35.373       -4.42062      0.9193127
      1750.5000         1.1627        12.2092       1029.742       155.1023         0.9226       -34.6578      -3.705418      0.9431527
      1751.0000         1.1593        12.2675        1028.35       155.6067         0.9275       -33.8593      -2.906918      0.9697694
