#------------------------------------------------------------------------------
# Created by    : vladimir.rabinovich
# Created on    : 09/19/2023 17:19:48
#------------------------------------------------------------------------------
~Version Information Section
VERS.           2.0     :   CWLS log ASCII Standard - VERSION 2.0
WRAP.           NO      :   One line per depth step
~Well Information Section
#MNEM       .UNIT                                         VALUE :DESCRIPTION
#------------------------------------------------------------------------------
STRT        .FT                                             130 :START DEPTH
STOP        .FT                                            9502 :STOP DEPTH
STEP        .FT                                             0.5 :STEP      
NULL        .                                           -999.25 :NULL      
COMP        .            MOBIL PRODUCING TEXAS & NEW MEXICO INC :COMPANY   
WELL        .                               OCS G07243 ST00BP00 :WELL      
FLD         .                                           WILDCAT :FIELD     
LOC         .                                                   :LOCATION  
CNTY        .                             GALVESTON LARGE BLOCK :LOCATION  
STAT        .                                             TEXAS :STATE     
CTRY        .                                     UNITED STATES :COUNTRY   
SRVC        .                                                   :SERVICE COMPANY
DATE        .                             9/13/2023 11:19:36 AM :LOG DATE  
API         .                                    42706401330000 :API NUMBER
UWI         .                                    42706401330000 :UNIQUE WELL ID
XCOORD      .                                  993943.906145108 :SURFACE X 
YCOORD      .                                  10496155.9223708 :SURFACE Y 
LAT         .                                         28.907432 :LATITUDE  
LON         .                                        -95.020991 :LONGITUDE 
ELEV        .FT                                              92 :ELEVATION VALUE
ELEV_TYPE   .                                                KB :ELEVATION REFERENCE TYPE
~Curve Information Section
#MNEM       .UNIT                                      API CODE :CURVE DESCRIPTION
#------------------------------------------------------------------------------
DEPT        .FT                                                 :DEPTH     
ASFL        .OHMM                                               :          
CILD        .MMHO                                               :          
DT          .US/F                                               :          
GR          .GAPI                                               :          
GR_NORM     .GAPI                                               :GammaRay Normalized
ILD         .OHMM                                               :          
SP          .MV                                                 :          
SP_NORM     .GAPI                                               :SP Normalized
VSH_GR      .V/V                                                :Volume of Shale from GR
VSH_SP      .V/V                                                :Volume of Shale from SP
~A        DEPTH           ASFL           CILD             DT             GR        GR_NORM            ILD             SP        SP_NORM         VSH_GR         VSH_SP
# ...
      2016.5000         0.3963       2728.094        -999.25        26.7381       41.00933         0.4048        -999.25        -999.25      0.1704113        -999.25
      2017.0000         0.3963       2703.535        -999.25        26.5265       40.68819         0.4107        -999.25        -999.25      0.1635785        -999.25
      2017.5000         0.3963        2678.98        -999.25        26.3225       40.37857         0.4165        -999.25        -999.25      0.1569908        -999.25
      2018.0000         0.3964       2654.418        -999.25        26.1871       40.17279         0.4223        -999.25        -999.25      0.1526126        -999.25
      2018.5000         0.3964       2629.867        -999.25        26.0517       39.96704         0.4281        -999.25        -999.25      0.1482348        -999.25
      2019.0000         0.3964       2614.109        -999.25        25.9876       39.86922         0.4361        -999.25        -999.25      0.1461536        -999.25
      2019.5000         0.3963       2605.199        -999.25        25.9245       39.77291         0.4439        -999.25        -999.25      0.1441046        -999.25
      2020.0000         0.3962       2596.289        -999.25        25.8519       39.66221         0.4493        -999.25        -999.25      0.1417492        -999.25
      2020.5000         0.3961       2587.379        -999.25        25.7541       39.51337         0.4548        -999.25        -999.25      0.1385823        -999.25
      2021.0000         0.3952        2578.66        -999.25        25.6391       39.33849         0.4501        -999.25        -999.25      0.1348616        -999.25
      2021.5000         0.3937       2592.738        -999.25        25.4274       39.01722         0.4446        -999.25        -999.25      0.1280259        -999.25
      2022.0000         0.3923       2608.461        -999.25        25.2568       38.75816         0.4391        -999.25        -999.25       0.122514        -999.25
      2022.5000         0.3972       2639.832        -999.25        25.2111       38.68819         0.4307        -999.25        -999.25      0.1210253        -999.25
      2023.0000          0.405       2671.195        -999.25        25.1727       38.62929         0.4188        -999.25        -999.25      0.1197721        -999.25
      2023.5000         0.4129       2702.555        -999.25        25.1508       38.59534         0.4069        -999.25        -999.25      0.1190499        -999.25
      2024.0000         0.4242       2443.844        -999.25        25.1288       38.56126         0.4162        -999.25        -999.25      0.1183248        -999.25
      2024.5000         0.4437        2357.68        -999.25        25.1014       38.45564         0.4435        -999.25        -999.25      0.1160775        -999.25
      2025.0000         0.4631       2258.703        -999.25        25.0739       38.21471         0.4905        -999.25        -999.25      0.1109513        -999.25
      2025.5000         0.4824       2183.707        -999.25        25.0463       37.97362         0.5268        -999.25        -999.25      0.1058217        -999.25
      2026.0000         0.5016       2110.555        -999.25        24.9435       37.61869         0.5491        -999.25        -999.25     0.09826993        -999.25
      2026.5000         0.5154       2044.293        -999.25        24.7553       37.13445         0.5605        -999.25        -999.25       0.087967        -999.25
      2027.0000         0.5035       2013.473        -999.25         24.567       36.65006         0.5704        -999.25        -999.25      0.0776609        -999.25
      2027.5000         0.4916       2052.887        -999.25        24.3747       36.15963         0.5747        -999.25        -999.25     0.06722625        -999.25
      2028.0000         0.4797       2098.637        -999.25        24.0461       35.46283         0.5786        -999.25        -999.25     0.05240063        -999.25
      2028.5000         0.4693       2162.383        -999.25        23.7177       34.76633         0.5686        -999.25        -999.25     0.03758159        -999.25
      2029.0000         0.4594       2242.492        -999.25        23.3636       34.03094         0.5574        -999.25        -999.25     0.02193483        -999.25
      2029.5000         0.4495       2321.082        -999.25        22.9677       33.23226         0.5309        -999.25        -999.25    0.004941656        -999.25
      2030.0000         0.4396       2364.777        -999.25        23.3225       33.57011         0.5059        -999.25        -999.25     0.01213001        -999.25
      2030.5000         0.4297       2408.461        -999.25        23.9292       34.28933          0.484        -999.25        -999.25     0.02743262        -999.25
      2031.0000         0.4247       2430.395        -999.25        24.2899       34.63613         0.4629        -999.25        -999.25     0.03481122        -999.25
      2031.5000         0.4197       2452.336        -999.25        24.6505       34.98277         0.4442        -999.25        -999.25     0.04218649        -999.25
      2032.0000         0.4146        2474.27        -999.25        25.0112       35.32955         0.4479        -999.25        -999.25     0.04956493        -999.25
      2032.5000          0.411       2485.539        -999.25        25.2976       35.56385         0.4515        -999.25        -999.25     0.05454993        -999.25
      2033.0000         0.4159        2473.16        -999.25        25.4554       35.60345         0.4576        -999.25        -999.25     0.05539249        -999.25
      2033.5000         0.4207       2455.758        -999.25        25.6133        35.6432         0.4639        -999.25        -999.25     0.05623838        -999.25
      2034.0000         0.4246       2438.355        -999.25        25.7711       35.68281         0.4702        -999.25        -999.25     0.05708102        -999.25
      2034.5000         0.4279       2420.953        -999.25         25.808       35.53937         0.4757        -999.25        -999.25      0.0540291        -999.25
      2035.0000         0.4311       2400.023        -999.25        25.8477       35.40017         0.4785        -999.25        -999.25     0.05106743        -999.25
      2035.5000         0.4289       2374.051        -999.25        26.0715       35.53969         0.4814        -999.25        -999.25       0.054036        -999.25
      2036.0000         0.4266       2357.496        -999.25        29.1102       39.94091         0.4842        -999.25        -999.25      0.1476789        -999.25
      2036.5000         0.4244       2379.719        -999.25        31.2069       42.91594         0.4862        -999.25        -999.25      0.2109774        -999.25
      2037.0000         0.4217       2398.211        -999.25        32.1692       44.17355          0.484        -999.25        -999.25       0.237735        -999.25
      2037.5000         0.4189       2416.703        -999.25        33.0722       45.34136         0.4778        -999.25        -999.25      0.2625821        -999.25
      2038.0000          0.419       2427.191        -999.25        37.6764       52.11268         0.4662        -999.25        -999.25      0.4066528        -999.25
      2038.5000         0.4235       2405.227        -999.25        45.8886       64.34644         0.4564        -999.25        -999.25      0.6669456        -999.25
      2039.0000          0.428       2384.172        -999.25        48.0634       67.43973         0.4614        -999.25        -999.25      0.7327602        -999.25
      2039.5000         0.4325       2363.113        -999.25        50.0709       70.27973         0.4664        -999.25        -999.25      0.7931858        -999.25
      2040.0000          0.437       2342.055        -999.25        52.9689        74.4679         0.4727        -999.25        -999.25      0.8822958        -999.25
      2040.5000         0.4415       2320.996        -999.25         54.877       77.15741         0.4791        -999.25        -999.25      0.9395193        -999.25
