#------------------------------------------------------------------------------
# Created by    : vladimir.rabinovich
# Created on    : 09/19/2023 17:22:54
#------------------------------------------------------------------------------
~Version Information Section
VERS.           2.0     :   CWLS log ASCII Standard - VERSION 2.0
WRAP.           NO      :   One line per depth step
~Well Information Section
#MNEM       .UNIT                                         VALUE :DESCRIPTION
#------------------------------------------------------------------------------
STRT        .FT                                            1705 :START DEPTH
STOP        .FT                                           10298 :STOP DEPTH
STEP        .FT                                             0.5 :STEP      
NULL        .                                           -999.25 :NULL      
COMP        .                            STANOLIND OIL & GAS CO :COMPANY   
WELL        .                                       ST TR 00219 :WELL      
FLD         .                                           WILDCAT :FIELD     
LOC         .                                                   :LOCATION  
CNTY        .                             GALVESTON LARGE BLOCK :LOCATION  
STAT        .                                             TEXAS :STATE     
CTRY        .                                     UNITED STATES :COUNTRY   
SRVC        .                                                   :SERVICE COMPANY
DATE        .                             9/13/2023 11:19:42 AM :LOG DATE  
API         .                                    42706000170000 :API NUMBER
UWI         .                                    42706000170000 :UNIQUE WELL ID
XCOORD      .                                  1024804.26554262 :SURFACE X 
YCOORD      .                                  10549089.4715911 :SURFACE Y 
LAT         .                                        29.0543948 :LATITUDE  
LON         .                                       -94.9272588 :LONGITUDE 
ELEV        .FT                                              60 :ELEVATION VALUE
ELEV_TYPE   .                                                GL :ELEVATION REFERENCE TYPE
~Curve Information Section
#MNEM       .UNIT                                      API CODE :CURVE DESCRIPTION
#------------------------------------------------------------------------------
DEPT        .FT                                                 :DEPTH     
LAT         .OHMM                                               :          
LN          .OHMM                                               :          
SN          .OHMM                                               :          
SP          .MV                                                 :          
SP_NORM     .MV                                                 :SP Normalized
VSH_SP      .V/V                                                :Volume of Shale from SP
~A        DEPTH            LAT             LN             SN             SP        SP_NORM         VSH_SP
      1705.0000        -999.25         0.0786         0.1084       -79.4806      -1.431816              1
      1705.5000        -999.25          0.098         0.1182       -81.2407      -3.191917      0.9709288
      1706.0000        -999.25         0.1271         0.1391       -82.9666      -4.917816      0.9288337
      1706.5000        -999.25         0.1695         0.1973       -84.5563      -6.507515      0.8900606
      1707.0000        -999.25         0.2292         0.2735       -86.1459      -8.097115      0.8512899
      1707.5000        -999.25         0.3517         0.3766        -87.735      -9.686218      0.8125312
      1708.0000        -999.25         0.4476         0.4798       -89.5829      -11.53412      0.7674605
      1708.5000        -999.25         0.5216         0.6181       -91.6122      -13.56342      0.7179655
      1709.0000        -999.25         0.5957          0.758       -93.6414      -15.59262      0.6684726
      1709.5000        -999.25         0.6351         0.9072       -95.9802      -17.93142      0.6114288
      1710.0000        -999.25          0.671         1.0621       -98.4188      -20.37002      0.5519508
      1710.5000        -999.25         0.6915         1.1954      -101.2286      -23.17982      0.4834191
      1711.0000        -999.25         0.7055         1.2627      -103.5653      -25.51652      0.4264264
      1711.5000        -999.25         0.7195         1.3235       -99.3905      -21.34172      0.5282507
      1712.0000        -999.25         0.7335         1.3226       -97.1001      -19.05132      0.5841143
      1712.5000        -999.25         0.7419         1.3119        -95.676      -17.62722      0.6188483
      1713.0000        -999.25         0.7483         1.3011       -95.1022      -17.05342      0.6328434
      1713.5000        -999.25         0.7546         1.3244       -95.5449      -17.49612      0.6220459
      1714.0000        -999.25          0.761         1.3506       -97.1006      -19.05182       0.584102
      1714.5000        -999.25         0.7673         1.3768       -96.2927      -18.24392      0.6038069
      1715.0000        -999.25         0.7787         1.3569       -94.6934      -16.64462      0.6428143
      1715.5000        -999.25         0.7934         1.3335         -92.05      -14.00122      0.7072873
      1716.0000        -999.25         0.8073         1.3102       -87.7737      -9.724915      0.8115875
      1716.5000        -999.25         0.8189         1.2896       -83.1952      -5.146416      0.9232581
      1717.0000        -999.25         0.8249         1.2689       -80.6921      -2.643318      0.9843093
      1717.5000        -999.25         0.8242         1.2483       -81.3311      -3.282318       0.968724
      1718.0000        -999.25         0.8234         1.2295       -83.2648      -5.216019      0.9215605
      1718.5000        -999.25         0.8226         1.2117       -83.8384      -5.789619      0.9075702
      1719.0000        -999.25         0.8218         1.1904       -82.1107       -4.06192      0.9497092
      1719.5000        -999.25         0.8204         1.1662       -80.3837      -2.334915      0.9918314
      1720.0000          0.084         0.8177         1.1486       -79.4409       -1.39212              1
      1720.5000         0.1414          0.815         1.1377       -83.0846       -5.03582      0.9259556
      1721.0000         0.1999         0.8122         1.1504       -87.1511      -9.102318      0.8267727
      1721.5000          0.264         0.8095         1.1635       -91.1617      -13.11292      0.7289533
      1722.0000         0.3281         0.8068         1.1866       -95.1826      -17.13382      0.6308824
      1722.5000         0.3695          0.804         1.2097       -99.3289      -21.28012      0.5297531
      1723.0000         0.4081         0.8013         1.2327      -103.2551      -25.20631      0.4339923
      1723.5000         0.4467         0.7986         1.2401       -105.261      -27.21222      0.3850678
      1724.0000         0.4852         0.7958         1.2393      -107.2668      -29.21802      0.3361459
      1724.5000          0.523         0.7931         1.2386      -109.1997      -31.15092       0.289002
      1725.0000         0.5284         0.7901         1.2378      -111.0476      -32.99882      0.2439313
      1725.5000         0.5339         0.7846          1.237      -109.1957      -31.14692      0.2890995
      1726.0000         0.5467         0.7792         1.2329      -107.3809      -29.33212      0.3333631
      1726.5000         0.5635         0.7737         1.2286      -105.5654      -27.51662      0.3776435
      1727.0000         0.5803         0.7683         1.2243        -103.75      -25.70122      0.4219215
      1727.5000         0.5971         0.7617           1.22      -101.9352      -23.88642      0.4661849
      1728.0000         0.6078         0.7532          1.204       -100.829      -22.78022      0.4931654
      1728.5000         0.6112         0.7447         1.1852      -100.2533      -22.20452      0.5072068
      1729.0000         0.6082         0.7362         1.1664       -99.6775      -21.62872      0.5212508
      1729.5000         0.6021         0.7277         1.1477       -98.9514      -20.90262      0.5389605
      1730.0000          0.596         0.7192         1.1289       -97.9658      -19.91702      0.5629996
      1730.5000         0.6049         0.7161         1.1094       -96.9801      -18.93132       0.587041
      1731.0000          0.615         0.7153         1.0899       -95.9945      -17.94572      0.6110801
      1731.5000         0.6252         0.7145         1.0703       -94.0724      -15.97879      0.6590539
      1732.0000         0.6389         0.7138         1.0508       -91.7924      -13.61028      0.7168224
      1732.5000         0.6557          0.713         1.0312       -89.5128      -11.24219      0.7745808
      1733.0000         0.6725         0.7122         1.0145       -87.5189      -9.159782      0.8253711
      1733.5000         0.6893         0.7151         1.0013       -85.6798      -7.232185      0.8723857
      1734.0000         0.7045         0.7189          0.988        -84.345      -5.808876      0.9071006
      1734.5000         0.7167         0.7227         0.9748        -83.047      -4.422371      0.9409178
      1735.0000         0.7289         0.7266         0.9615       -81.8334       -3.12027      0.9726763
      1735.5000         0.7411         0.7304         0.9483       -80.6198      -1.818169              1
      1736.0000         0.7536         0.7342          0.935       -79.1288     -0.2386703              1
      1736.5000         0.7668          0.738         0.9218       -77.8212       1.157433              1
      1737.0000         0.7662         0.7419         0.9085       -77.2429       1.824234              1
      1737.5000         0.7618         0.7457         0.8953       -78.1016       1.054031              1
      1738.0000         0.7573         0.7495          0.882       -78.9603      0.2838364              1
      1738.5000         0.7528         0.7533          0.872       -79.8187     -0.4860687              1
      1739.0000         0.7483         0.7571         0.8624        -80.924      -1.502869              1
      1739.5000         0.7439          0.761         0.8528       -82.1222      -2.612556      0.9850596
      1740.0000            0.7         0.7648           0.87        -83.896      -4.297859      0.9439546
      1740.5000         0.6503         0.7686           0.91       -87.2058      -7.519157      0.8653864
      1741.0000         0.6005         0.7724           0.95       -91.9109      -12.13575      0.7527866
      1741.5000         0.5508         0.7763           0.99      -105.8049      -25.94125       0.416067
      1742.0000         0.5011         0.7801         1.0301      -110.5967      -30.64455      0.3013524
      1742.5000         0.4514         0.7839         1.0716      -114.0085      -33.96785      0.2202964
