#------------------------------------------------------------------------------
# Created by    : vladimir.rabinovich
# Created on    : 09/19/2023 17:22:28
#------------------------------------------------------------------------------
~Version Information Section
VERS.           2.0     :   CWLS log ASCII Standard - VERSION 2.0
WRAP.           NO      :   One line per depth step
~Well Information Section
#MNEM       .UNIT                                         VALUE :DESCRIPTION
#------------------------------------------------------------------------------
STRT        .FT                                            2000 :START DEPTH
STOP        .FT                                            7372 :STOP DEPTH
STEP        .FT                                             0.5 :STEP      
NULL        .                                           -999.25 :NULL      
COMP        .                       CORPUS CHRISTI OIL & GAS CO :COMPANY   
WELL        .                                ST TR 00596-L SE/4 :WELL      
FLD         .                                           WILDCAT :FIELD     
LOC         .                                                   :LOCATION  
CNTY        .                      MATAGORDA ISLAND LARGE BLOCK :LOCATION  
STAT        .                                             TEXAS :STATE     
CTRY        .                                     UNITED STATES :COUNTRY   
SRVC        .                                                   :SERVICE COMPANY
DATE        .                             9/13/2023 11:19:13 AM :LOG DATE  
API         .                                    42703300520000 :API NUMBER
UWI         .                                    42703300520000 :UNIQUE WELL ID
XCOORD      .                                  480173.649028781 :SURFACE X 
YCOORD      .                                  10231220.1013933 :SURFACE Y 
LAT         .                                        28.1462983 :LATITUDE  
LON         .                                       -96.6002451 :LONGITUDE 
ELEV        .FT                                              82 :ELEVATION VALUE
ELEV_TYPE   .                                                GL :ELEVATION REFERENCE TYPE
~Curve Information Section
#MNEM       .UNIT                                      API CODE :CURVE DESCRIPTION
#------------------------------------------------------------------------------
DEPT        .FT                                                 :DEPTH     
CILD        .MMHO                                               :          
ILD         .OHMM                                               :          
SN          .OHMM                                               :          
SP          .MV                                                 :          
SP_NORM     .MV                                                 :SP Normalized
VSH_SP      .V/V                                                :Volume of Shale from SP
~A        DEPTH           CILD            ILD             SN             SP        SP_NORM         VSH_SP
# ...
      4850.0000       1155.644         0.8223         1.0962       -13.7258       9.068733              1
      4850.5000       1143.692         0.8223         1.0922       -12.1966       10.59343              1
      4851.0000       1131.739         0.8422         1.0882       -12.0092       10.77633              1
      4851.5000       1119.413         0.8422         1.0842       -11.9966       10.78443              1
      4852.0000       1129.846         0.8222         1.0842       -11.7965       10.98003              1
      4852.5000       1140.278         0.8222         1.0778       -11.5964       11.17563              1
      4853.0000        1150.71         0.8222         1.0722       -11.3963       11.37123              1
      4853.5000       1161.142         0.8021         1.0682       -11.1963       11.56673              1
      4854.0000       1171.575         0.7821         1.0602       -11.7976       10.96093              1
      4854.5000       1182.007         0.7621         1.0562       -12.5843       10.16973              1
      4855.0000       1192.439         0.7621         1.0522       -12.5996       10.14993              1
      4855.5000       1202.871         0.7621         1.0482       -13.2377       9.507325              1
      4856.0000       1213.304          0.762         1.0402       -13.8759       8.864624              1
      4856.5000       1223.736          0.762         1.0322       -14.5141       8.221925              1
      4857.0000       1234.168          0.742         1.0322       -15.1522       7.579324              1
      4857.5000       1244.601          0.742          1.039        -15.807       6.920024              1
      4858.0000       1255.033          0.742         1.0442       -16.0035       6.719023              1
      4858.5000       1259.354         0.7419         1.0509       -16.0077       6.710321              1
      4859.0000       1246.182         0.7619         1.0562       -16.0079       6.705622              1
      4859.5000       1235.355         0.7819         1.0682       -16.2086       6.500422              1
      4860.0000       1204.904         0.8018         1.0762       -16.2092       6.495321              1
      4860.5000       1174.452         0.8515         1.0962       -15.6084       7.091619              1
      4861.0000       1144.001         0.8741         1.1122       -15.6087       7.086819              1
      4861.5000       1113.549          0.898         1.1442       -15.4086       7.282419              1
      4862.0000       1083.098         0.9233         1.1814       -15.2085       7.478018              1
      4862.5000       1052.646           0.95         1.2187       -15.0084       7.673618              1
      4863.0000       1022.195         0.9783         1.2559       -14.8084       7.869117              1
      4863.5000       991.7435         1.0083         1.2932       -14.6083       8.064715              1
      4864.0000        961.292         1.0403         1.3304       -14.4082       8.260316              1
      4864.5000       930.8406         1.0743         1.3677       -14.2081       8.455914              1
      4865.0000       900.3891         1.1106          1.405       -13.8077       8.851815              1
      4865.5000       863.3953         1.1582         1.4422       -13.8079       8.847114              1
      4866.0000       811.4011         1.2324         1.4795       -13.6079       9.042613              1
      4866.5000       798.9796         1.2516         1.5167       -13.8085       8.837513              1
      4867.0000       795.4007         1.2572          1.554       -13.8088       8.832712              1
      4867.5000       784.0524         1.2754         1.6041       -13.8091       8.827912              1
      4868.0000       772.7041         1.2942          1.607       -14.0097       8.622811              1
      4868.5000       761.3557         1.3214         1.6281       -15.4126       7.215412              1
      4869.0000       750.0074         1.3413         1.6561       -15.8498        6.77371              1
      4869.5000       738.6591         1.3613         1.6721       -16.2147       6.404308              1
      4870.0000       723.3902         1.3613          1.676       -17.1891       5.425409              1
      4870.5000       720.4168         1.3813         1.6928       -18.0186       4.591408              1
      4871.0000       719.3876         1.4013           1.72       -21.6848      0.9207096              1
      4871.5000       719.3844         1.4612          1.736       -25.6334      -3.032393      0.9822001
      4872.0000       719.3812         1.4812          1.756        -25.834      -3.237494      0.9786639
      4872.5000       715.3786         1.5012          1.764       -24.8325      -2.240494      0.9958535
      4873.0000       711.3759         1.5212          1.768        -24.432      -1.844494              1
      4873.5000       691.3753         1.5211          1.772       -24.0316      -1.448595              1
      4874.0000       687.3725         1.5411           1.78       -23.4308     -0.8522949              1
      4874.5000        672.168         1.5411           1.78         -22.83     -0.2559967              1
      4875.0000       679.3646         1.5411          1.776        -21.628      0.9415035              1
      4875.5000       679.3637          1.521          1.768       -21.6283      0.9367027              1
      4876.0000       683.3599          1.501          1.764       -20.8271       1.733402              1
      4876.5000       687.3562          1.521          1.756       -20.4266       2.129402              1
      4877.0000       690.3741          1.501          1.752       -20.6273         1.9242              1
      4877.5000       693.3921          1.501         1.7497       -20.4272       2.119801              1
      4878.0000         696.41         1.4809         1.7473       -21.1002       1.442299              1
      4878.5000        699.428         1.4609          1.745       -21.6301      0.9078999              1
      4879.0000        703.335         1.4609           1.74       -22.6652     -0.1317005              1
      4879.5000       707.3346         1.4455          1.716       -23.7003      -1.171303              1
      4880.0000        711.331           1.43          1.708       -24.7353      -2.210802      0.9963655
      4880.5000       727.3262         1.4208          1.708       -25.7704      -3.250402      0.9784414
      4881.0000       740.3379         1.4008          1.712       -26.6412      -4.125702      0.9633499
      4881.5000       743.3184         1.4008           1.72       -26.8419      -4.330904       0.959812
      4882.0000       751.0738         1.4008          1.736       -26.8422      -4.335705      0.9597293
      4882.5000       758.8292         1.3808          1.764       -27.2433      -4.741304      0.9527361
      4883.0000       766.5845         1.3807          1.776       -27.8448      -5.347307      0.9422878
      4883.5000       774.3399         1.4007          1.808       -27.4443      -4.951305      0.9491154
      4884.0000       783.2966         1.4607          1.816       -27.0439      -4.555407      0.9559413
      4884.5000       779.2969         1.5007         1.8271       -27.0442      -4.560209      0.9558585
      4885.0000       749.2828         1.6406          1.836       -27.4453      -4.965807      0.9488654
      4885.5000       719.2686         1.6806          1.868       -28.0468       -5.57181      0.9384171
      4886.0000       689.2544         1.6806          1.856       -28.0471      -5.576609      0.9383343
      4886.5000       659.2403         1.6806         1.8451        -27.847       -5.38101      0.9417067
      4887.0000       619.2884         1.6148         1.8341       -27.6469      -5.185411      0.9450791
      4887.5000       616.2827         1.6226         1.8231       -27.4469       -4.98991      0.9484499
