#------------------------------------------------------------------------------
# Created by    : vladimir.rabinovich
# Created on    : 09/19/2023 17:22:18
#------------------------------------------------------------------------------
~Version Information Section
VERS.           2.0     :   CWLS log ASCII Standard - VERSION 2.0
WRAP.           NO      :   One line per depth step
~Well Information Section
#MNEM       .UNIT                                         VALUE :DESCRIPTION
#------------------------------------------------------------------------------
STRT        .FT                                            4012 :START DEPTH
STOP        .FT                                            9352 :STOP DEPTH
STEP        .FT                                             0.5 :STEP      
NULL        .                                           -999.25 :NULL      
COMP        .                                   KERR-MCGEE CORP :COMPANY   
WELL        .                                ST TR 00007-L SE/4 :WELL      
FLD         .                                           WILDCAT :FIELD     
LOC         .                                                   :LOCATION  
CNTY        .                           HIGH ISLAND LARGE BLOCK :LOCATION  
STAT        .                                             TEXAS :STATE     
CTRY        .                                     UNITED STATES :COUNTRY   
SRVC        .                                                   :SERVICE COMPANY
DATE        .                             9/13/2023 11:19:15 AM :LOG DATE  
API         .                                    42708302700000 :API NUMBER
UWI         .                                    42708302700000 :UNIQUE WELL ID
XCOORD      .                                   1285759.2062487 :SURFACE X 
YCOORD      .                                  10728779.4927599 :SURFACE Y 
LAT         .                                        29.5578886 :LATITUDE  
LON         .                                       -94.1158411 :LONGITUDE 
ELEV        .FT                                             125 :ELEVATION VALUE
ELEV_TYPE   .                                                KB :ELEVATION REFERENCE TYPE
~Curve Information Section
#MNEM       .UNIT                                      API CODE :CURVE DESCRIPTION
#------------------------------------------------------------------------------
DEPT        .FT                                                 :DEPTH     
CALI        .IN                                                 :          
CILD        .MMHO                                               :          
DPHI        .%                                                  :          
ILD         .OHMM                                               :          
ILM         .OHMM                                               :          
SFL         .OHMM                                               :          
SP          .MV                                                 :          
SP_NORM     .MV                                                 :SP Normalized
VSH_SP      .V/V                                                :Volume of Shale from SP
~A        DEPTH           CALI           CILD           DPHI            ILD            ILM            SFL             SP        SP_NORM         VSH_SP
# ...
      8994.0000         9.1418       2163.621        20.3282         0.4646         0.4725         0.6706       -44.3688        -0.6906      0.9901343
      8994.5000         8.8125       2285.078        21.9411         0.4502         0.4587          0.681       -53.7795       -10.1013      0.8556957
      8995.0000         8.6759       2338.203        22.9286         0.4374         0.4453         0.7067       -68.5908       -24.9126      0.6441057
      8995.5000         8.6162        2352.43        23.4329         0.4288         0.4335         0.7188       -82.0337       -38.3555      0.4520643
      8996.0000         8.6136       2343.648        23.1324         0.4256         0.4285         0.7254       -82.7106       -39.0324      0.4423943
      8996.5000         8.6219       2306.957        22.5077         0.4277         0.4258         0.7131       -78.4553       -34.7771      0.5031843
      8997.0000          8.642       2253.879        21.6689         0.4319         0.4303         0.6956       -72.5718       -28.8936      0.5872343
      8997.5000         8.6636       2203.426        20.7668         0.4359         0.4374         0.6768       -67.3981       -23.7199      0.6611443
      8998.0000         8.6772       2191.703        19.6689         0.4392         0.4447         0.6632        -63.805       -20.1268      0.7124743
      8998.5000         8.6853       2205.266        19.3098         0.4425         0.4493         0.6573       -60.6949       -17.0167      0.7569043
      8999.0000         8.6819       2243.676        19.6027         0.4398         0.4504         0.6699       -58.6021       -14.9239      0.7868015
      8999.5000           8.64       2284.539        19.9772         0.4371         0.4503         0.6839       -57.1412        -13.463      0.8076714
      9000.0000         8.5892       2320.395         20.354         0.4318         0.4387         0.6769       -61.3316       -17.6534      0.7478086
      9000.5000         8.5328       2353.703        20.3628         0.4238         0.4252         0.6617       -69.1287       -25.4505      0.6364214
      9001.0000         8.5033       2371.672        20.0081         0.4158         0.4157         0.6432       -71.6315       -27.9533      0.6006671
      9001.5000         8.4933       2370.793        19.3945         0.4096         0.4136         0.6288       -72.3322        -28.654      0.5906572
      9002.0000         8.5536       2347.621        18.5608           0.41         0.4176          0.671       -70.7643       -27.0861      0.6130557
      9002.5000          8.661       2318.043        17.1289         0.4245         0.4254         0.7311       -68.4957       -24.8175      0.6454643
      9003.0000         8.7302       2288.512        16.0263         0.4389         0.4351         0.7963       -65.7991       -22.1209      0.6839871
      9003.5000         8.7667       2239.457        16.4637         0.4447         0.4451         0.7962       -62.9489       -19.2707      0.7247043
      9004.0000          8.778       2196.289        18.1708         0.4505         0.4509         0.6527        -59.085       -15.4068      0.7799029
      9004.5000         8.7892       2179.121        20.1811          0.456         0.4543          0.596        -58.463       -14.7848      0.7887886
      9005.0000           8.79       2172.844         21.426         0.4542         0.4576         0.6178       -64.0245       -20.3463      0.7093385
      9005.5000         8.7539       2177.852        21.5909         0.4524          0.461         0.6522       -67.8225       -24.1443      0.6550815
      9006.0000         8.7179       2178.289         21.042         0.4512          0.464         0.6891       -69.3528       -25.6746        0.63322
      9006.5000         8.6819         2170.5         20.436         0.4537         0.4622         0.6923        -69.834       -26.1558      0.6263457
      9007.0000         8.6315       2163.352        20.2447         0.4562         0.4603         0.6685       -66.5822        -22.904         0.6728
      9007.5000         8.6581       2156.754        20.1576         0.4562         0.4582         0.6495       -62.8464       -19.1682      0.7261686
      9008.0000         8.8035       2157.465        20.1739         0.4551         0.4547         0.6319       -56.6482         -12.97      0.8147143
      9008.5000         8.9135       2172.203        20.5887         0.4498         0.4511          0.616       -52.2099        -8.5317      0.8781186
      9009.0000         8.8922       2206.246        21.5143         0.4407         0.4432         0.6016       -53.6863       -10.0081      0.8570272
      9009.5000         8.8024       2247.305         22.468         0.4282         0.4355         0.6111       -56.9628       -13.2846        0.81022
      9010.0000         8.7135       2289.492         23.192         0.4154         0.4279         0.6372        -62.056       -18.3778        0.73746
      9010.5000         8.6249       2332.609        23.8608         0.4046         0.4209         0.6669       -66.2565       -22.5783      0.6774529
      9011.0000         8.5788       2361.945         24.345         0.3955         0.4159         0.6414       -66.5028       -22.8246      0.6739343
      9011.5000         8.5807       2378.012        24.7298         0.4034         0.4115         0.6231       -67.6908       -24.0126      0.6569629
      9012.0000         8.5826       2384.707        25.0065         0.4192         0.4174         0.6382       -71.0643       -27.3861        0.60877
      9012.5000          8.604       2361.992        25.0504         0.4363         0.4375         0.6844       -76.1063       -32.4281      0.5367414
      9013.0000         8.6325       2300.973        24.5635         0.4553         0.4578         0.7482       -80.9507       -37.2725      0.4675357
      9013.5000         8.6609       2237.398        23.2744         0.4752         0.4784         0.7476        -79.875       -36.1968      0.4829029
      9014.0000         8.6819       2126.145        18.6359         0.4955         0.4988         0.6995       -76.7136       -33.0354      0.5280657
      9014.5000          8.701       2027.252         14.895         0.5162         0.5191         0.6608        -72.162       -28.4838      0.5930886
      9015.0000         8.7179       1910.307        14.5143         0.5351         0.5388         0.6262       -65.3271       -21.6489        0.69073
      9015.5000          8.733       1801.408        14.4228         0.5518         0.5531         0.6091       -57.1165       -13.4383      0.8080243
      9016.0000         8.7482       1712.816        14.0606         0.5691         0.5666         0.6087       -53.5198        -9.8416      0.8594057
      9016.5000         8.7784       1678.822        13.2987         0.5705         0.5786         0.6164       -51.0281        -7.3499      0.8950014
      9017.0000         8.8197       1688.438        13.6258          0.571         0.5754         0.6242       -49.5609        -5.8827      0.9159614
      9017.5000          8.834        1732.34        14.8833         0.5498         0.5642         0.6209       -48.8144        -5.1362      0.9266257
      9018.0000         8.8077       1790.813        17.1878         0.5245         0.5402         0.6159       -48.4499        -4.7717      0.9318328
      9018.5000         8.7748       1886.172        19.3835         0.4965         0.5081         0.6246       -49.6743        -5.9961      0.9143414
      9019.0000          8.712       2086.313         22.103         0.4705         0.4761         0.6466       -52.3782           -8.7      0.8757143
      9019.5000         8.6492       2202.273        26.8063         0.4483         0.4469         0.6985       -56.6848       -13.0066      0.8141914
      9020.0000         8.6136       2298.813        29.5817         0.4271         0.4237         0.7222       -68.5323       -24.8541      0.6449414
