#------------------------------------------------------------------------------
# Created by    : vladimir.rabinovich
# Created on    : 09/19/2023 17:19:48
#------------------------------------------------------------------------------
~Version Information Section
VERS.           2.0     :   CWLS log ASCII Standard - VERSION 2.0
WRAP.           NO      :   One line per depth step
~Well Information Section
#MNEM       .UNIT                                         VALUE :DESCRIPTION
#------------------------------------------------------------------------------
STRT        .FT                                            3926 :START DEPTH
STOP        .FT                                            8446 :STOP DEPTH
STEP        .FT                                             0.5 :STEP      
NULL        .                                           -999.25 :NULL      
COMP        .                             WALTER OIL & GAS CORP :COMPANY   
WELL        .                               OCS G06101 ST00BP00 :WELL      
FLD         .                                           WILDCAT :FIELD     
LOC         .                                                   :LOCATION  
CNTY        .                             GALVESTON LARGE BLOCK :LOCATION  
STAT        .                                             TEXAS :STATE     
CTRY        .                                     UNITED STATES :COUNTRY   
SRVC        .                                                   :SERVICE COMPANY
DATE        .                             9/13/2023 11:19:36 AM :LOG DATE  
API         .                                    42706402050000 :API NUMBER
UWI         .                                    42706402050000 :UNIQUE WELL ID
XCOORD      .                                  1036351.71170487 :SURFACE X 
YCOORD      .                                  10440832.2127806 :SURFACE Y 
LAT         .                                         28.757227 :LATITUDE  
LON         .                                        -94.885733 :LONGITUDE 
ELEV        .FT                                              88 :ELEVATION VALUE
ELEV_TYPE   .                                                KB :ELEVATION REFERENCE TYPE
~Curve Information Section
#MNEM       .UNIT                                      API CODE :CURVE DESCRIPTION
#------------------------------------------------------------------------------
DEPT        .FT                                                 :DEPTH     
ASFL        .OHMM                                               :          
CALI        .IN                                                 :          
CILD        .MMHO                                               :          
GR          .GAPI                                               :          
GR_1        .GAPI                                               :          
GR_NORM     .GAPI                                               :GammaRay Normalized
ILD         .OHMM                                               :          
ILM         .OHMM                                               :          
NPHI        .%                                                  :          
RFOC        .OHMM                                               :          
RHOB        .G/C3                                               :          
SP          .MV                                                 :          
SP_NORM     .MV                                                 :SP Normalized
VSH_GR      .V/V                                                :Volume of Shale from GR
VSH_SP      .V/V                                                :Volume of Shale from SP
~A        DEPTH           ASFL           CALI           CILD             GR           GR_1        GR_NORM            ILD            ILM           NPHI           RFOC           RHOB             SP        SP_NORM         VSH_GR         VSH_SP
# ...
      4266.0000         1.0504        14.3406       1082.557        59.4236         59.202       58.60027         0.8903         0.9039        48.7316         1.0825         2.2024       -61.4374      -2.956661      0.5446866       0.957762
      4266.5000         1.0445        14.3301       1114.389        60.0374         58.563       59.40588         0.8688         0.8894        50.3366         1.0864         2.2145       -61.4824      -3.005989      0.5618272      0.9570573
      4267.0000         1.0387        14.3197       1146.195        60.8692        59.2684       60.49762         0.8462         0.8636        51.4844         1.0986          2.224        -61.279      -2.806919      0.5850558      0.9599012
      4267.5000         1.0328        14.3094       1182.266        62.3469        61.3778        62.4371         0.8219         0.8383         52.441         1.0668         2.2277       -61.0297      -2.561954      0.6263213      0.9634007
      4268.0000          1.026        14.2993       1219.016         63.894        63.9507       64.46767         0.7985         0.8136        53.3105          1.037         2.2181       -61.7274      -3.263985      0.6695248      0.9533716
      4268.5000         1.0188        14.2902       1254.287        65.3494        66.3143       66.37788         0.7762         0.7904        54.0612         1.0184         2.2048       -61.7794      -3.320313      0.7101678       0.952567
      4269.0000         1.0132        14.2841       1287.766        66.1805          67.54       67.46869         0.7546         0.7694        54.5043          1.009         2.2025       -61.0347      -2.579941      0.7333764      0.9631437
      4269.5000         1.0085        14.2779       1320.748        67.0111        67.3452       68.55887         0.7399         0.7522        54.5004         1.0013         2.2091       -60.2888      -1.838375      0.7565717      0.9737375
      4270.0000         1.0069         14.277       1342.598        67.5347        66.8917       69.24608         0.7257          0.738        54.2477         0.9962         2.2125       -59.8962      -1.450104      0.7711931      0.9792842
      4270.5000         1.0069        14.2774       1364.449         68.019        67.5507       69.88173         0.7187         0.7281        53.9871         0.9913         2.2085       -59.8707      -1.428936      0.7847176      0.9795866
      4271.0000         1.0079        14.2778        1379.85        68.4637        68.6204        70.4654         0.7134          0.724        53.7001         0.9765         2.2038        -60.015      -1.577564      0.7971362      0.9774634
      4271.5000          1.009        14.2747       1389.863        67.7524        68.6892       69.53182         0.7112         0.7229        53.4232         0.9787         2.2001       -60.1859        -1.7528      0.7772728        0.97496
      4272.0000           1.01        14.2713       1389.932         66.801        67.0546       68.28311         0.7094         0.7247        53.1813         0.9833         2.1983       -60.2816      -1.852829      0.7507045       0.973531
      4272.5000         1.0112        14.2608       1389.809        66.0364        66.2473       67.27957         0.7091         0.7301        52.9875         0.9937         2.1983       -60.6007      -2.176258      0.7293526      0.9689106
      4273.0000         1.0125        14.2486       1389.125        65.9542        65.9128       67.17168         0.7092         0.7357        52.8843         1.0061         2.2018       -60.7842      -2.364086      0.7270569      0.9662274
      4273.5000         1.0139         14.232       1388.443        66.1116         66.537       67.37827         0.7083         0.7337        52.8655         1.0148         2.2071       -61.0291      -2.613316      0.7314526      0.9626669
      4274.0000         1.0153        14.2031        1387.76        66.3712        66.9053       67.71899         0.7067         0.7315        52.9277         1.0204         2.2138       -60.9572       -2.54575       0.738702      0.9636322
      4274.5000         1.0153        14.1743       1387.078        66.6307        67.1406       68.05959         0.7054         0.7285        52.9343         1.0073         2.2217       -60.4689      -2.061779      0.7459486       0.970546
      4275.0000         1.0128        14.1415       1386.395        66.8903        67.2571       68.40031         0.7049         0.7255        52.8361         0.9939         2.2303       -60.1131      -1.710308       0.753198       0.975567
      4275.5000         1.0104        14.1051       1385.928        67.1499        67.2094       68.74104         0.7052         0.7213        52.4509         0.9812         2.2375       -60.5255      -2.127041      0.7604477      0.9696137
      4276.0000         1.0115        14.0688       1388.068        67.4094        67.2306       69.08163         0.7086         0.7171         51.631           0.98         2.2382       -61.3554      -2.961273      0.7676944      0.9576961
      4276.5000         1.0141        14.0352       1390.207        67.6399        67.8663       69.38416         0.7117         0.7144        51.0428         0.9871         2.2263       -61.2477      -2.857903      0.7741311      0.9591728
      4277.0000         1.0165        14.0019       1392.348        67.4714        68.3787       69.16299         0.7138          0.712        51.2467         0.9985         2.2152       -60.1598      -1.774334      0.7694254      0.9746523
      4277.5000         1.0186        13.9664        1394.49         67.303        68.1381       68.94199         0.7154         0.7129        52.2109         1.0098         2.2125       -59.0565     -0.6753616      0.7647231       0.990352
      4278.0000         1.0206        13.9254       1398.578        67.0536        66.2855       68.61464         0.7155         0.7151        53.0367         1.0207          2.215       -58.7186     -0.3417969      0.7577583      0.9951172
      4278.5000         1.0218        13.8844       1404.055        66.6935        64.8218       68.14201         0.7155         0.7173        53.5982         1.0208         2.2188       -59.6869      -1.314426      0.7477022      0.9812225
      4279.0000         1.0209        13.8457       1409.531        66.3337        64.4426       67.66977          0.715          0.719        53.9954         1.0108         2.2209       -60.4291      -2.060955      0.7376547      0.9705578
      4279.5000         1.0199        13.8107        1415.01        65.9735         65.098       67.19702         0.7145         0.7207        54.1993         0.9971         2.2207       -60.4388      -2.074986      0.7275962      0.9703574
      4280.0000         1.0198        13.7758       1421.584        65.6138        65.7488       66.72491         0.7115         0.7191        54.2867         0.9984         2.2186       -59.8178      -1.458313      0.7175514       0.979167
      4280.5000           1.02        13.7619       1430.928        65.2537        66.1005       66.25228         0.7086         0.7164        54.2729          1.001         2.2179       -59.1019     -0.7467461      0.7074953      0.9893322
      4281.0000         1.0202        13.7505       1440.279        64.9336        65.5502       65.83215         0.7025         0.7128         54.113         1.0045         2.2248       -58.8875     -0.5366783      0.6985563      0.9923332
      4281.5000         1.0241        13.7491       1449.697        64.7832         64.783       65.63475         0.6962         0.7074        53.8372         0.9985         2.2301       -59.2516     -0.9051056      0.6943564      0.9870699
      4282.0000         1.0288        13.7495       1459.725        64.8129        64.9778       65.67372         0.6905         0.7021        53.4805         0.9917         2.2283       -59.5851      -1.242935      0.6951855      0.9822438
      4282.5000         1.0334        13.7486       1465.775        65.2664        65.9611       66.26895         0.6902         0.7021        53.1105          0.985         2.2213       -59.6671      -1.329269        0.70785      0.9810104
