#------------------------------------------------------------------------------
# Created by    : vladimir.rabinovich
# Created on    : 09/19/2023 17:22:44
#------------------------------------------------------------------------------
~Version Information Section
VERS.           2.0     :   CWLS log ASCII Standard - VERSION 2.0
WRAP.           NO      :   One line per depth step
~Well Information Section
#MNEM       .UNIT                                         VALUE :DESCRIPTION
#------------------------------------------------------------------------------
STRT        .FT                                            3420 :START DEPTH
STOP        .FT                                           11707 :STOP DEPTH
STEP        .FT                                             0.5 :STEP      
NULL        .                                           -999.25 :NULL      
COMP        .                        TRI-UNION DEVELOPMENT CORP :COMPANY   
WELL        .                               OCS G08154 ST00BP00 :WELL      
FLD         .                                           WILDCAT :FIELD     
LOC         .                                                   :LOCATION  
CNTY        .                           HIGH ISLAND LARGE BLOCK :LOCATION  
STAT        .                                             TEXAS :STATE     
CTRY        .                                     UNITED STATES :COUNTRY   
SRVC        .                                                   :SERVICE COMPANY
DATE        .                             9/13/2023 11:19:57 AM :LOG DATE  
API         .                                    42708403520000 :API NUMBER
UWI         .                                    42708403520000 :UNIQUE WELL ID
XCOORD      .                                  1180527.91159004 :SURFACE X 
YCOORD      .                                  10524923.1623167 :SURFACE Y 
LAT         .                                        28.9940426 :LATITUDE  
LON         .                                       -94.4389714 :LONGITUDE 
ELEV        .FT                                             100 :ELEVATION VALUE
ELEV_TYPE   .                                                KB :ELEVATION REFERENCE TYPE
~Curve Information Section
#MNEM       .UNIT                                      API CODE :CURVE DESCRIPTION
#------------------------------------------------------------------------------
DEPT        .FT                                                 :DEPTH     
DCAL        .IN                                                 :          
DPHI        .%                                                  :          
DRHO        .G/C3                                               :          
GR          .GAPI                                               :          
GR_NORM     .GAPI                                               :GammaRay Normalized
ILD         .OHMM                                               :          
ILM         .OHMM                                               :          
NPHI        .%                                                  :          
SFL         .OHMM                                               :          
SP          .MV                                                 :          
SP_NORM     .MV                                                 :SP Normalized
VSH_GR      .V/V                                                :Volume of Shale from GR
VSH_SP      .V/V                                                :Volume of Shale from SP
~A        DEPTH           DCAL           DPHI           DRHO             GR        GR_NORM            ILD            ILM           NPHI            SFL             SP        SP_NORM         VSH_GR         VSH_SP
# ...
     11685.0000         -6.469        -999.25        -999.25        -999.25        -999.25         1.8633         1.9404        -999.25         1.6285       -45.3732        -7.7364        -999.25      0.8261697
     11685.5000        -6.4712        -999.25        -999.25        -999.25        -999.25         1.9665         2.0165        -999.25         1.9692       -45.4744        -7.8337        -999.25      0.8232212
     11686.0000        -6.4735        -999.25        -999.25        -999.25        -999.25         2.0959         2.0704        -999.25         2.0553       -46.0363        -8.3916        -999.25      0.8063152
     11686.5000         -6.486        -999.25        -999.25        -999.25        -999.25         2.1089         2.1122        -999.25         2.0987       -47.4421        -9.7934        -999.25      0.7638364
     11687.0000        -6.4998        -999.25        -999.25        -999.25        -999.25         2.1151         2.1219        -999.25         2.1264       -49.6299       -11.9772        -999.25      0.6976606
     11687.5000        -6.5141        -999.25        -999.25        -999.25        -999.25          2.129          2.088        -999.25         2.0904       -51.7382       -14.0816        -999.25      0.6338909
     11688.0000         -6.532        -999.25        -999.25        -999.25        -999.25         2.1446         1.8953        -999.25         1.7716       -53.7457       -16.0851        -999.25      0.5731788
     11688.5000        -6.5499        -999.25        -999.25        -999.25        -999.25         2.1911         1.7844        -999.25         1.4906       -52.8768       -15.2122        -999.25      0.5996303
     11689.0000        -6.5685        -999.25        -999.25        -999.25        -999.25         2.2277         1.7621        -999.25         1.4128       -50.5697       -12.9012        -999.25      0.6696606
     11689.5000        -6.5931        -999.25        -999.25        -999.25        -999.25         2.0976         1.7822        -999.25           1.41       -48.6529       -10.9804        -999.25      0.7278666
     11690.0000        -6.6177        -999.25        -999.25        -999.25        -999.25         1.7307         1.8123        -999.25         1.4386        -48.275       -10.5985        -999.25      0.7394394
     11690.5000        -6.6339        -999.25        -999.25        -999.25        -999.25         1.5048         1.8377        -999.25         1.4489       -48.4925        -10.812        -999.25      0.7329697
     11691.0000        -6.6256        -999.25        -999.25        -999.25        -999.25         1.4642         1.5474        -999.25         1.3788       -47.0941        -9.4097        -999.25      0.7754636
     11691.5000        -6.6172        -999.25        -999.25        -999.25        -999.25         1.4677         1.3705        -999.25          1.327       -44.7173        -7.0289        -999.25      0.8476091
     11692.0000        -6.6115        -999.25        -999.25        -999.25        -999.25         1.4898         1.3267        -999.25         1.2919       -43.5042        -5.8118        -999.25      0.8844909
     11692.5000        -6.6138        -999.25        -999.25        -999.25        -999.25         1.5195         1.3515        -999.25         1.2166       -42.6004        -4.9041        -999.25       0.911997
     11693.0000         -6.616        -999.25        -999.25        -999.25        -999.25          1.555         1.4505        -999.25         1.2049       -41.8272        -4.1269        -999.25      0.9355485
     11693.5000        -6.6182        -999.25        -999.25        -999.25        -999.25         1.5959          1.548        -999.25         1.2435       -40.0136        -2.3093        -999.25      0.9906273
     11694.0000        -6.5996        -999.25        -999.25        -999.25        -999.25         1.6332         1.6348        -999.25         1.3603       -39.0341        -1.3259        -999.25              1
     11694.5000        -6.5757        -999.25        -999.25        -999.25        -999.25         1.6577         1.7163        -999.25         1.6525       -39.7016        -1.9894        -999.25              1
     11695.0000        -6.5518        -999.25        -999.25        -999.25        -999.25         1.6913         1.8081        -999.25         1.7982       -41.0727        -3.3565        -999.25       0.958894
     11695.5000        -6.5512        -999.25        -999.25        -999.25        -999.25         1.7442         1.7454        -999.25         1.7386       -42.6663        -4.9461        -999.25      0.9107242
     11696.0000        -6.5583        -999.25        -999.25        -999.25        -999.25         1.7889         1.5312        -999.25         1.4914       -43.6259        -5.9018        -999.25      0.8817636
     11696.5000        -6.5654        -999.25        -999.25        -999.25        -999.25         1.8068         1.5001        -999.25         1.5271       -43.6235        -5.8954        -999.25      0.8819576
     11697.0000        -6.5773        -999.25        -999.25        -999.25        -999.25         1.8232         1.5735        -999.25          1.603       -42.9472        -5.2151        -999.25      0.9025728
     11697.5000         -6.595        -999.25        -999.25        -999.25        -999.25         1.8352         1.6449        -999.25         1.6855       -41.7961        -4.0092        -999.25      0.9391152
     11698.0000        -6.6127        -999.25        -999.25        -999.25        -999.25         1.8516         1.6862        -999.25         1.6958       -41.9553        -3.1292        -999.25      0.9657818
     11698.5000        -6.6304        -999.25        -999.25        -999.25        -999.25         1.8944         1.7085        -999.25         1.5923       -43.1262        -3.2609        -999.25      0.9617909
     11699.0000         -6.626        -999.25        -999.25        -999.25        -999.25         1.9388          1.742        -999.25         1.2955       -44.4833        -3.5787        -999.25      0.9521606
     11699.5000        -6.5806        -999.25        -999.25        -999.25        -999.25         1.9871         1.8421        -999.25         1.2216       -44.5425        -2.5987        -999.25      0.9818576
     11700.0000         -6.535        -999.25        -999.25        -999.25        -999.25         1.9795         2.3398        -999.25         1.1955       -44.4614        -1.4784        -999.25              1
     11700.5000        -6.4894        -999.25        -999.25        -999.25        -999.25         1.9095         2.3402        -999.25          1.351        -45.319        -1.2967        -999.25              1
     11701.0000        -6.4833        -999.25        -999.25        -999.25        -999.25         1.7526         2.2906        -999.25         1.8486       -47.6411        -2.5796        -999.25      0.9824364
     11701.5000        -6.4952        -999.25        -999.25        -999.25        -999.25         1.6203         2.1315        -999.25         2.0454       -48.3441        -2.2434        -999.25      0.9926242
     11702.0000        -6.5071        -999.25        -999.25        -999.25        -999.25         1.5555         1.7118        -999.25         2.0576       -48.4378        -1.2979        -999.25              1
     11702.5000        -6.5187        -999.25        -999.25        -999.25        -999.25         1.5427          1.485        -999.25         2.0182       -49.2968        -1.1176        -999.25              1
     11703.0000        -6.5299        -999.25        -999.25        -999.25        -999.25         1.5252         1.4372        -999.25         1.8419       -52.7674         -3.549        -999.25      0.9530606
     11703.5000        -6.5411        -999.25        -999.25        -999.25        -999.25         1.5023         1.4799        -999.25         1.4647       -56.6507        -6.3931        -999.25      0.8668758
