#------------------------------------------------------------------------------
# Created by    : vladimir.rabinovich
# Created on    : 09/19/2023 17:22:52
#------------------------------------------------------------------------------
~Version Information Section
VERS.           2.0     :   CWLS log ASCII Standard - VERSION 2.0
WRAP.           NO      :   One line per depth step
~Well Information Section
#MNEM       .UNIT                                         VALUE :DESCRIPTION
#------------------------------------------------------------------------------
STRT        .FT                                             873 :START DEPTH
STOP        .FT                                           11612 :STOP DEPTH
STEP        .FT                                             0.5 :STEP      
NULL        .                                           -999.25 :NULL      
COMP        .                                   MARATHON OIL CO :COMPANY   
WELL        .                               OCS G04137 ST00BP04 :WELL      
FLD         .                       MATAGORDA ISLAND BLOCK 0527 :FIELD     
LOC         .                                                   :LOCATION  
CNTY        .                      MATAGORDA ISLAND LARGE BLOCK :LOCATION  
STAT        .                                             TEXAS :STATE     
CTRY        .                                     UNITED STATES :COUNTRY   
SRVC        .                                                   :SERVICE COMPANY
DATE        .                             9/13/2023 11:19:05 AM :LOG DATE  
API         .                                    42703400590000 :API NUMBER
UWI         .                                    42703400590000 :UNIQUE WELL ID
XCOORD      .                                  609906.580547661 :SURFACE X 
YCOORD      .                                  10277311.7025511 :SURFACE Y 
LAT         .                                         28.282909 :LATITUDE  
LON         .                                        -96.202007 :LONGITUDE 
ELEV        .FT                                              95 :ELEVATION VALUE
ELEV_TYPE   .                                                KB :ELEVATION REFERENCE TYPE
~Curve Information Section
#MNEM       .UNIT                                      API CODE :CURVE DESCRIPTION
#------------------------------------------------------------------------------
DEPT        .FT                                                 :DEPTH     
GR          .GAPI                                               :          
GR_NORM     .GAPI                                               :GammaRay Normalized
ILD         .OHMM                                               :          
SP          .MV                                                 :          
SP_NORM     .MV                                                 :SP Normalized
VSH_GR      .V/V                                                :Volume of Shale from GR
VSH_SP      .V/V                                                :Volume of Shale from SP
~A        DEPTH             GR        GR_NORM            ILD             SP        SP_NORM         VSH_GR         VSH_SP
# ...
      6668.5000        56.1548       83.48931         0.9652       -69.3738      -3.505539              1      0.9575332
      6669.0000        53.3665       77.15643         1.0098        -69.926      -4.057739      0.9394986      0.9481739
      6669.5000        51.2623       72.37834         1.0872       -70.4666      -4.598335       0.837837      0.9390113
      6670.0000        50.3292       70.26173         1.1588       -70.9978      -5.129539      0.7928027      0.9300078
      6670.5000        49.7769       69.01053          1.224       -71.5383      -5.670036      0.7661815      0.9208468
      6671.0000        48.9677       67.17546          1.293       -72.1029      -6.234634      0.7271374      0.9112774
      6671.5000        48.2527       65.55452         1.3556       -72.5553      -6.687035      0.6926494      0.9036096
      6672.0000        47.1292       63.00518         1.3781       -73.0293      -7.161034       0.638408      0.8955757
      6672.5000        45.6241        59.5886         1.3499       -73.5427      -7.674438       0.565715      0.8868739
      6673.0000        44.7168        57.5306         1.3143        -74.077       -8.20874      0.5219277       0.877818
      6673.5000         44.649       57.38049         1.2881        -74.204      -8.335739      0.5187337      0.8756654
      6674.0000        46.2885       61.11052         1.2633       -73.8688      -8.000534      0.5980961      0.8813469
      6674.5000        47.3177       63.45351         1.2444        -73.205      -7.336739       0.647947      0.8925977
      6675.0000        48.0826       65.19584         1.2298       -72.9418       -7.07354      0.6850178      0.8970587
      6675.5000        49.2962       67.95792         1.2105       -73.5662      -7.697937      0.7437854      0.8864756
      6676.0000         50.572       70.86136         1.1797        -74.281      -8.412735      0.8055608      0.8743604
      6676.5000        51.0244       71.89347         1.1493       -74.4702      -8.601936      0.8275207      0.8711536
      6677.0000        48.2386        65.5663          1.108        -74.327       -8.45874         0.6929      0.8735807
      6677.5000        46.1504       60.82458         1.0682       -74.0092      -8.140938      0.5920123      0.8789672
      6678.0000        44.4493       56.96255         1.0421       -74.0961      -8.227837      0.5098415      0.8774943
      6678.5000         44.564        57.2272         1.0178       -74.2186      -8.350334      0.5154724      0.8754181
      6679.0000        45.8151        60.0745         0.9827       -74.3602      -8.491936      0.5760533       0.873018
      6679.5000        46.7606        62.2273         0.9485       -74.6687      -8.800438      0.6218575      0.8677892
      6680.0000        47.2242       63.28487         0.9108       -75.0847      -9.216438      0.6443589      0.8607383
      6680.5000        47.0894       62.98251          0.873       -75.5009      -9.632637      0.6379257      0.8536841
      6681.0000        46.7267       62.16219         0.8385        -75.793      -9.924736      0.6204722      0.8487333
      6681.5000        45.9791       60.46715         0.8062       -76.0833      -10.21503      0.5844074       0.843813
      6682.0000        44.9437       58.11803         0.7781       -76.5676      -10.69933      0.5344261      0.8356045
      6682.5000        43.9427        55.8471         0.7544       -77.8669      -11.99863      0.4861084      0.8135825
      6683.0000        42.8678       53.40821         0.7422       -79.1378      -13.26954      0.4342172      0.7920417
      6683.5000        41.5933       50.51571         0.7457       -79.9705      -14.10223      0.3726746      0.7779282
      6684.0000        40.5467       48.14113         0.7735       -80.5122      -14.64394      0.3221517      0.7687469
      6684.5000        40.6016        48.2699         0.8094       -81.5391      -15.67084      0.3248914      0.7513418
      6685.0000        41.1384       49.49384         0.8666        -82.498      -16.62974      0.3509327      0.7350892
      6685.5000        41.0792       49.36329         0.9369       -83.0505      -17.18224      0.3481552      0.7257248
      6686.0000        40.0881       47.11485         1.0333       -82.8158      -16.94754       0.300316      0.7297027
      6686.5000        40.5923       48.26471         1.1682       -82.4691      -16.60084       0.324781       0.735579
      6687.0000        41.2333       49.72545         1.3195       -82.0944      -16.22614      0.3558607      0.7419299
      6687.5000        41.8826       51.20508         1.4563       -82.3384      -16.47014      0.3873421      0.7377943
      6688.0000        42.0301       51.54427         1.5938       -82.7828      -16.91454       0.394559      0.7302621
      6688.5000        42.1473       51.81464         1.6911       -83.2537      -17.38544      0.4003114      0.7222807
      6689.0000        42.3492       52.27746          1.767       -83.5959      -17.72764      0.4101587      0.7164807
      6689.5000        42.6629       52.99437         1.8055        -83.517      -17.64874       0.425412       0.717818
      6690.0000        42.7767       53.25698         1.7956       -83.3982      -17.52994      0.4309997      0.7198316
      6690.5000        42.7808       53.27029         1.7661       -83.2584      -17.39014      0.4312827       0.722201
      6691.0000         42.608       52.88155         1.7097       -83.3618      -17.49354      0.4230116      0.7204485
      6691.5000        42.8179       53.36258         1.6523        -83.519      -17.65073      0.4332465      0.7177842
      6692.0000        43.7405       55.46331         1.5961       -83.8857      -18.01743      0.4779427       0.711569
      6692.5000        44.6829       57.60905         1.5374        -84.225      -18.35674      0.5235968      0.7058181
      6693.0000        45.3412       59.10912          1.481       -84.4583      -18.59003      0.5555133      0.7018638
      6693.5000        45.9353       60.46326          1.458       -84.6956      -18.82734      0.5843248      0.6978417
      6694.0000        46.5474       61.85834         1.4382       -84.9468      -19.07854      0.6140072      0.6935841
      6694.5000         47.258       63.47727         1.4489       -85.2284      -19.36014      0.6484525      0.6888112
      6695.0000         47.968       65.09484         1.4853       -85.8484      -19.98013       0.682869      0.6783028
      6695.5000        48.6737       66.70264         1.5376       -86.6694      -20.80114      0.7170774      0.6643875
      6696.0000        49.4417       68.45205         1.6006       -86.8593      -20.99104      0.7542989      0.6611689
      6696.5000        50.6719       71.25182         1.5988       -86.6019      -20.73363      0.8138684      0.6655316
      6697.0000         51.796       73.81052         1.5346         -86.78      -20.91174      0.8683088       0.662513
      6697.5000         52.405       75.19854         1.4804       -86.5011      -20.63284      0.8978413      0.6672401
      6698.0000        52.2247       74.79277          1.431       -86.1801      -20.31184      0.8892079      0.6726807
      6698.5000        52.5834       75.61195         1.3833       -85.9015      -20.03323      0.9066373      0.6774028
      6699.0000        52.9998       76.56227          1.333       -85.9761      -20.10783      0.9268568      0.6761384
      6699.5000        53.4916       77.68392         1.2829       -86.1877      -20.31944      0.9507217      0.6725519
      6700.0000        52.9935       76.55592         1.2745       -86.6245      -20.75623      0.9267216      0.6651486
      6700.5000        51.5129       73.19501         1.2256       -86.7395      -20.87124      0.8552131      0.6631994
      6701.0000        50.0496       69.87344         1.1922       -86.6146      -20.74634      0.7845414      0.6653163
      6701.5000        48.5135       66.38641         1.1755       -86.0752      -20.20694      0.7103491      0.6744586
