#------------------------------------------------------------------------------
# Created by    : vladimir.rabinovich
# Created on    : 09/19/2023 17:20:25
#------------------------------------------------------------------------------
~Version Information Section
VERS.           2.0     :   CWLS log ASCII Standard - VERSION 2.0
WRAP.           NO      :   One line per depth step
~Well Information Section
#MNEM       .UNIT                                         VALUE :DESCRIPTION
#------------------------------------------------------------------------------
STRT        .FT                                             293 :START DEPTH
STOP        .FT                                            8505 :STOP DEPTH
STEP        .FT                                             0.5 :STEP      
NULL        .                                           -999.25 :NULL      
COMP        .                                        TEXACO USA :COMPANY   
WELL        .                                     ST TR 00058-L :WELL      
FLD         .                                           WILDCAT :FIELD     
LOC         .                                                   :LOCATION  
CNTY        .                           HIGH ISLAND LARGE BLOCK :LOCATION  
STAT        .                                             TEXAS :STATE     
CTRY        .                                     UNITED STATES :COUNTRY   
SRVC        .                                                   :SERVICE COMPANY
DATE        .                             9/13/2023 11:19:15 AM :LOG DATE  
API         .                                    42708000230000 :API NUMBER
UWI         .                                    42708000230000 :UNIQUE WELL ID
XCOORD      .                                  1179226.38702832 :SURFACE X 
YCOORD      .                                  10699123.4735792 :SURFACE Y 
LAT         .                                        29.4730929 :LATITUDE  
LON         .                                        -94.449778 :LONGITUDE 
ELEV        .FT                                              80 :ELEVATION VALUE
ELEV_TYPE   .                                                KB :ELEVATION REFERENCE TYPE
~Curve Information Section
#MNEM       .UNIT                                      API CODE :CURVE DESCRIPTION
#------------------------------------------------------------------------------
DEPT        .FT                                                 :DEPTH     
ASN         .OHMM                                               :          
CILD        .MMHO                                               :          
ILD         .OHMM                                               :          
LAT         .OHMM                                               :          
LN          .OHMM                                               :          
SP          .MV                                                 :          
SP_NORM     .MV                                                 :SP Normalized
VSH_SP      .V/V                                                :Volume of Shale from SP
~A        DEPTH            ASN           CILD            ILD            LAT             LN             SP        SP_NORM         VSH_SP
# ...
      3567.5000         0.8553        -999.25        -999.25         0.4498         0.5161      -101.9607      -51.39948     0.06793436
      3568.0000          0.902        -999.25        -999.25         0.4559         0.5173      -102.0358      -51.50205     0.06599908
      3568.5000         0.9292        -999.25        -999.25         0.4408         0.5185      -102.4585      -51.95223     0.05750505
      3569.0000         0.9531        -999.25        -999.25         0.4237         0.5196      -104.3002       -53.8214     0.02223767
      3569.5000         0.8323        -999.25        -999.25         0.4065         0.5208      -106.3394      -55.88808              0
      3570.0000         0.7908        -999.25        -999.25         0.3894          0.522      -107.8854      -57.46156              0
      3570.5000         0.7685        -999.25        -999.25         0.3665         0.5212      -107.5096      -57.11323              0
      3571.0000         0.7476        -999.25        -999.25         0.3424         0.5176      -107.1342      -56.76531              0
      3571.5000         0.7193        -999.25        -999.25         0.3183         0.5141      -106.7229      -56.38148              0
      3572.0000         0.6915        -999.25        -999.25         0.3025         0.5105      -106.2864      -55.97246              0
      3572.5000         0.6664        -999.25        -999.25         0.3014         0.5069      -105.8215      -55.53503              0
      3573.0000         0.6417        -999.25        -999.25         0.3002         0.5034      -105.2531      -54.99411    0.000111202
      3573.5000         0.6174        -999.25        -999.25         0.2991         0.4998      -104.9929      -54.76138    0.004502278
      3574.0000         0.5977        -999.25        -999.25         0.2979         0.4962      -106.2202      -56.01616              0
      3574.5000         0.5843        -999.25        -999.25         0.2968         0.4927      -107.5775      -57.40093              0
      3575.0000         0.5687        -999.25        -999.25         0.2957         0.4891      -108.9646      -58.81551              0
      3575.5000         0.5389        -999.25        -999.25         0.2982         0.4855      -110.3505      -60.22889              0
      3576.0000         0.5012        -999.25        -999.25         0.3014          0.484      -112.0852      -61.99106              0
      3576.5000         0.4672        -999.25        -999.25         0.3046         0.4859      -108.2672      -58.20053              0
      3577.0000         0.4337        -999.25        -999.25         0.3078         0.4878       -96.3717      -46.33251      0.1635376
      3577.5000         0.5359        -999.25        -999.25         0.3053         0.4897       -91.9866      -41.97489      0.2457568
      3578.0000         0.5778        -999.25        -999.25         0.2989         0.4916       -89.2069      -39.22266      0.2976856
      3578.5000         0.6042        -999.25        -999.25         0.2925         0.4935       -87.9043      -37.94753      0.3217447
      3579.0000         0.6382        -999.25        -999.25         0.2861         0.4955       -86.7329      -36.80362       0.343328
      3579.5000         0.6901        -999.25        -999.25         0.2797         0.4974       -85.2278      -35.32599      0.3712078
      3580.0000         0.7747        -999.25        -999.25         0.2744         0.4993       -83.7899      -33.91557      0.3978195
      3580.5000         0.8161        -999.25        -999.25         0.2785         0.5011       -82.2594      -32.41254      0.4261785
      3581.0000         0.8426        -999.25        -999.25         0.2826         0.5029       -80.9264      -31.10701      0.4508111
      3581.5000         0.8643        -999.25        -999.25         0.2867         0.5047       -84.1387      -34.34679      0.3896831
      3582.0000         0.8868        -999.25        -999.25         0.2908         0.5066       -82.1351      -32.37067      0.4269685
      3582.5000         0.8812        -999.25        -999.25         0.2949         0.5084       -78.1278      -28.39084      0.5020596
      3583.0000         0.8178        -999.25        -999.25          0.299         0.5102       -74.6761      -24.96662      0.5666676
      3583.5000         0.7935        -999.25        -999.25         0.3031          0.512       -71.9158       -22.2338      0.6182303
      3584.0000         0.7693        -999.25        -999.25         0.3072         0.5139       -69.1532      -19.49866      0.6698365
      3584.5000         0.7474        -999.25        -999.25         0.3144         0.5197       -66.3905      -16.76345      0.7214444
      3585.0000         0.7384        -999.25        -999.25         0.3224         0.5281        -63.499      -13.89942      0.7754827
      3585.5000         0.7463        -999.25        -999.25         0.3304         0.5365       -60.1563      -10.58419      0.8380341
      3586.0000         0.7591        -999.25        -999.25         0.3385         0.5449       -56.8136      -7.268967      0.9005855
      3586.5000         0.7813        -999.25        -999.25         0.3465         0.5533       -53.7776      -4.260445      0.9573501
      3587.0000         0.8035        -999.25        -999.25         0.3546         0.5617       -51.1705       -1.68082              1
      3587.5000         0.8271        -999.25        -999.25         0.3626         0.5701       -48.5635      0.8987045              1
      3588.0000         0.8504        -999.25        -999.25         0.3699         0.5785       -46.2276        3.20713              1
      3588.5000         0.8661        -999.25        -999.25         0.3646         0.5869       -45.5219       3.885353              1
      3589.0000         0.8816        -999.25        -999.25         0.3594         0.5953       -47.4055       1.974277              1
      3589.5000         0.8968        -999.25        -999.25         0.3541         0.6037       -50.3527      -1.000397              1
      3590.0000         0.9137        -999.25        -999.25         0.3489         0.6147       -53.2997      -3.974876      0.9627382
      3590.5000         0.9321        -999.25        -999.25         0.3437         0.6274       -56.2468      -6.949448      0.9066142
      3591.0000         0.9481        -999.25        -999.25         0.3384         0.6401        -59.194      -9.924126      0.8504882
      3591.5000         0.9678        -999.25        -999.25         0.3309         0.6528       -61.7821       -12.5397      0.8011377
      3592.0000          0.992        -999.25        -999.25         0.3191         0.6656       -63.9058      -14.69088      0.7605495
      3592.5000         0.9871        -999.25        -999.25         0.3073         0.6783       -66.0294      -16.84195      0.7199631
      3593.0000         0.9584        -999.25        -999.25         0.2955          0.691       -68.1531      -18.99313       0.679375
      3593.5000         0.9383        -999.25        -999.25         0.2837         0.7037       -70.8934       -21.7609      0.6271528
      3594.0000         0.9383        -999.25        -999.25         0.2719         0.7165       -70.5222      -21.41718      0.6336381
      3594.5000         0.9434        -999.25        -999.25         0.2601         0.7292       -69.8888      -20.81125      0.6450707
      3595.0000         0.9472        -999.25        -999.25         0.2552          0.737       -69.2554      -20.20533      0.6565032
      3595.5000         0.9136        -999.25        -999.25         0.2518         0.7413       -68.6219       -19.5993      0.6679376
      3596.0000         0.8788        -999.25        -999.25         0.2484         0.7457       -68.0883      -19.09318      0.6774871
      3596.5000         0.8494        -999.25        -999.25          0.245           0.75        -67.604      -18.63635      0.6861066
