#------------------------------------------------------------------------------
# Created by    : vladimir.rabinovich
# Created on    : 09/19/2023 17:22:30
#------------------------------------------------------------------------------
~Version Information Section
VERS.           2.0     :   CWLS log ASCII Standard - VERSION 2.0
WRAP.           NO      :   One line per depth step
~Well Information Section
#MNEM       .UNIT                                         VALUE :DESCRIPTION
#------------------------------------------------------------------------------
STRT        .FT                                             456 :START DEPTH
STOP        .FT                                           11667 :STOP DEPTH
STEP        .FT                                             0.5 :STEP      
NULL        .                                           -999.25 :NULL      
COMP        .                              PATRICK PETROLEUM CO :COMPANY   
WELL        .                                     ST TR 00693-L :WELL      
FLD         .                                           WILDCAT :FIELD     
LOC         .                                                   :LOCATION  
CNTY        .                      MATAGORDA ISLAND LARGE BLOCK :LOCATION  
STAT        .                                             TEXAS :STATE     
CTRY        .                                     UNITED STATES :COUNTRY   
SRVC        .                                                   :SERVICE COMPANY
DATE        .                             9/13/2023 11:12:01 AM :LOG DATE  
API         .                                    42703302660000 :API NUMBER
UWI         .                                    42703302660000 :UNIQUE WELL ID
XCOORD      .                                  384413.417453263 :SURFACE X 
YCOORD      .                                  10143960.4717662 :SURFACE Y 
LAT         .                                        27.8986234 :LATITUDE  
LON         .                                       -96.8882217 :LONGITUDE 
ELEV        .FT                                              92 :ELEVATION VALUE
ELEV_TYPE   .                                                KB :ELEVATION REFERENCE TYPE
~Curve Information Section
#MNEM       .UNIT                                      API CODE :CURVE DESCRIPTION
#------------------------------------------------------------------------------
DEPT        .FT                                                 :DEPTH     
CILD        .MMHO                                               :          
DPHI        .%                                                  :          
DT          .US/F                                               :          
GR          .GAPI                                               :          
GR_NORM     .GAPI                                               :GammaRay Normalized
ILD         .OHMM                                               :          
SN          .OHMM                                               :          
SP          .MV                                                 :          
SP_NORM     .MV                                                 :SP Normalized
VSH_GR      .V/V                                                :Volume of Shale from GR
VSH_SP      .V/V                                                :Volume of Shale from SP
~A        DEPTH           CILD           DPHI             DT             GR        GR_NORM            ILD             SN             SP        SP_NORM         VSH_GR         VSH_SP
# ...
      5676.0000       1786.545         31.248        -999.25        36.3636       36.12906          0.547         1.3755       -98.2636      -65.70321      0.0665758    0.004566017
      5676.5000         1730.4         31.872        -999.25        36.9394       36.82476         0.5713         1.3404         -98.85      -66.26419      0.0813778              0
      5677.0000         1669.2         32.208        -999.25        37.7071        37.7515         0.5953         1.3159          -99.8      -67.18877      0.1010958              0
      5677.5000         1600.4         32.472        -999.25        38.8788       39.16464         0.6203          1.296          -99.9      -67.26335      0.1311626              0
      5678.0000       1540.727         32.568        -999.25         40.618       41.26105         0.6466          1.231       -96.1556      -63.49354       0.175767     0.03856096
      5678.5000         1481.2         32.712        -999.25           42.4       43.40898         0.6707         1.1358       -89.4882      -56.80072      0.2214677      0.1415274
      5679.0000           1418         33.084        -999.25          44.48       45.91569         0.6993         1.0524       -81.5824       -48.8695      0.2748019      0.2635462
      5679.5000         1360.4          33.54        -999.25          46.65       48.53077          0.727         1.0163         -73.25      -40.51168      0.3304419      0.3921279
      5680.0000         1308.4         33.252        -999.25          48.82       51.14584         0.7676         1.0046       -66.6465      -33.88277      0.3860816      0.4941113
      5680.5000           1264         31.764        -999.25        50.9899       53.76079         0.7982         1.0094       -59.8379      -27.04875      0.4417189        0.59925
      5681.0000           1236         29.964        -999.25             53       56.18335         0.8138         1.0218         -53.06      -20.24544      0.4932627      0.7039164
      5681.5000         1206.8         28.932        -999.25        54.9091        58.4843         0.8151         1.0315          -47.4      -14.56002      0.5422192      0.7913843
      5682.0000       1184.729         28.392        -999.25        56.9146       60.90133          0.824         1.0477       -42.5727      -9.707302      0.5936453      0.8660415
      5682.5000         1131.6         28.104        -999.25        58.9091       63.30511         0.8813         1.0748         -38.88      -5.989185      0.6447895      0.9232433
      5683.0000         1061.2         27.876        -999.25          60.81       65.59618         0.9467         1.0977         -38.22      -5.303768      0.6935358      0.9337882
      5683.5000            984          27.36        -999.25           62.3       67.39256         1.0174         1.1273         -39.33      -6.388351      0.7317565      0.9171023
      5684.0000            900         26.868        -999.25          63.73       69.11667         1.1076         1.1665       -40.6545      -7.687431      0.7684398      0.8971164
      5684.5000          825.2          26.82        -999.25          65.16       70.84081          1.208         1.1994         -41.62      -8.627514      0.8051237      0.8826537
      5685.0000            780         26.952        -999.25          66.57       72.54086          1.301         1.2216         -41.76      -8.742096      0.8412949      0.8808908
      5685.5000          750.8         27.396        -999.25        67.3364       73.46604         1.3564         1.2374         -41.69      -8.646683      0.8609796      0.8823587
      5686.0000       726.9091          28.14        -999.25          67.47       73.62934         1.3968         1.2465       -41.1364      -8.067665      0.8644541      0.8912667
      5686.5000            714         29.088        -999.25          66.72       72.72881         1.4103         1.2481          -40.7       -7.60585      0.8452939      0.8983715
      5687.0000            720         29.604        -999.25          64.32       69.84173         1.3859         1.2511            -41      -7.880432      0.7838666      0.8941472
      5687.5000            760          30.18        -999.25        60.7987       65.60464         1.3083         1.2397         -40.65      -7.505016      0.6937157      0.8999228
      5688.0000       803.9977         29.268        -999.25        57.5556       61.70249         1.2218          1.225          -40.2      -7.029598      0.6106913      0.9072369
      5688.5000       853.4505          28.26        -999.25        55.2727        58.9564         1.1428         1.2129          -42.3      -9.104179      0.5522638      0.8753203
      5689.0000       911.8323         26.928        -999.25        53.4748       56.79422         1.0678         1.2134         -45.29      -12.06876      0.5062601      0.8297113
      5689.5000       942.8502         25.428        -999.25        52.9293       56.13991         1.0328         1.2194         -48.35      -15.10334      0.4923385      0.7830255
      5690.0000       937.2206         23.952        -999.25         53.416       56.72833         1.0442          1.241          -51.3      -18.02793      0.5048581      0.7380319
      5690.5000       918.8119         22.524        -999.25        54.1414       57.60415         1.0728         1.2817       -49.3909      -16.09341      0.5234925      0.7677937
      5691.0000        899.802         21.612        -999.25        53.6364       56.99859          1.105         1.3568         -46.95       -13.6271      0.5106084       0.805737
      5691.5000       888.7129          21.42        -999.25        51.9091       54.92142         1.1287         1.4462         -45.35      -12.00168      0.4664133      0.8307434
      5692.0000       881.5842         21.828        -999.25         49.932       52.54351         1.1445         1.5528         -45.06      -11.68626      0.4158193       0.835596
      5692.5000       876.0396          22.68        -999.25             49       51.42386          1.154         1.6489         -46.27      -12.87085       0.391997      0.8173716
      5693.0000       871.6832         23.508        -999.25          48.75       51.12532          1.154         1.7156         -52.14      -18.71543      0.3856451       0.727455
      5693.5000       878.0198         23.892        -999.25          48.36       50.65822         1.1272         1.7573         -57.51      -24.06001      0.3757069      0.6452307
      5694.0000       915.9316          24.06        -999.25        47.6364       49.78948         1.0843         1.7411       -62.6768      -29.20139      0.3572229      0.5661324
      5694.5000       968.7129         23.964        -999.25          46.52       48.44781         1.0354         1.7124       -67.8888      -34.38798      0.3286769      0.4863388
      5695.0000       1011.881         24.132        -999.25          45.34       47.02958         0.9887         1.6733         -71.64      -38.11376      0.2985018      0.4290191
      5695.5000       1051.485         24.408        -999.25           44.4        45.9003         0.9444         1.6396          -72.1      -38.54834      0.2744745      0.4223332
      5696.0000       1091.089          24.96        -999.25        45.0091       46.63609         0.9096         1.6245       -71.0364      -37.45933      0.2901295      0.4390873
      5696.5000       1136.634         25.536        -999.25          46.01       47.84359         0.8729         1.6305       -69.9996      -36.39711      0.3158211       0.455429
      5697.0000       1190.527          26.22        -999.25          46.75       48.73698         0.8296          1.629        -69.596      -35.96809      0.3348294      0.4620293
      5697.5000           1254         26.988        -999.25             47       49.04043         0.7913         1.6298         -71.04      -37.38668      0.3412857       0.440205
      5698.0000       1320.727         27.756        -999.25           46.6       48.56129         0.7588         1.6133          -73.5      -39.82126      0.3310913      0.4027499
