#------------------------------------------------------------------------------
# Created by    : vladimir.rabinovich
# Created on    : 09/19/2023 17:20:03
#------------------------------------------------------------------------------
~Version Information Section
VERS.           2.0     :   CWLS log ASCII Standard - VERSION 2.0
WRAP.           NO      :   One line per depth step
~Well Information Section
#MNEM       .UNIT                                         VALUE :DESCRIPTION
#------------------------------------------------------------------------------
STRT        .FT                                            3149 :START DEPTH
STOP        .FT                                           10186 :STOP DEPTH
STEP        .FT                                             0.5 :STEP      
NULL        .                                           -999.25 :NULL      
COMP        .                                  SAMEDAN OIL CORP :COMPANY   
WELL        .                                     ST TR 00817-L :WELL      
FLD         .                                           WILDCAT :FIELD     
LOC         .                                                   :LOCATION  
CNTY        .                        MUSTANG ISLAND LARGE BLOCK :LOCATION  
STAT        .                                             TEXAS :STATE     
CTRY        .                                     UNITED STATES :COUNTRY   
SRVC        .                                                   :SERVICE COMPANY
DATE        .                             9/13/2023 11:18:55 AM :LOG DATE  
API         .                                    42702300080000 :API NUMBER
UWI         .                                    42702300080000 :UNIQUE WELL ID
XCOORD      .                                  304914.569303086 :SURFACE X 
YCOORD      .                                  10013906.4088957 :SURFACE Y 
LAT         .                                        27.5345201 :LATITUDE  
LON         .                                       -97.1203623 :LONGITUDE 
ELEV        .FT                                              65 :ELEVATION VALUE
ELEV_TYPE   .                                                KB :ELEVATION REFERENCE TYPE
~Curve Information Section
#MNEM       .UNIT                                      API CODE :CURVE DESCRIPTION
#------------------------------------------------------------------------------
DEPT        .FT                                                 :DEPTH     
ASFL        .OHMM                                               :          
CILD        .MMHO                                               :          
DT          .US/F                                               :          
GR          .GAPI                                               :          
ILD         .OHMM                                               :          
SP          .MV                                                 :          
SP_NORM     .MV                                                 :SP Normalized
VSH_SP      .V/V                                                :Volume of Shale from SP
~A        DEPTH           ASFL           CILD             DT             GR            ILD             SP        SP_NORM         VSH_SP
# ...
      7839.5000         0.5225       3225.797       133.7419        -999.25         0.3265       -50.9391       1.692478              1
      7840.0000         0.5271       3204.031       134.8298        -999.25         0.3287       -50.8416       1.789978              1
      7840.5000          0.533       3182.266       135.7793        -999.25         0.3309       -50.8279       1.803677              1
      7841.0000         0.5398       3158.273       136.3774        -999.25          0.333        -50.866       1.765575              1
      7841.5000         0.5465       3120.809        135.614        -999.25         0.3364        -50.904       1.727577              1
      7842.0000         0.5564       3079.184       132.6345        -999.25         0.3401       -51.3828       1.248775              1
      7842.5000         0.5702       3011.098       129.2456        -999.25         0.3438       -51.9849      0.6466751              1
      7843.0000         0.5818       2939.684       124.5695        -999.25         0.3474       -52.5705     0.06107712              1
      7843.5000         0.5928       2861.617       121.9871        -999.25         0.3514       -53.1553     -0.5237236              1
      7844.0000         0.6035       2792.406        122.394        -999.25         0.3563        -53.741      -1.109425      0.9979736
      7844.5000         0.6137       2762.301       126.3699        -999.25         0.3611       -54.0828      -1.451225       0.991644
      7845.0000         0.6239       2783.922       132.5952        -999.25         0.3659       -54.0592      -1.427624       0.992081
      7845.5000         0.6155       2805.539       135.3723        -999.25         0.3708       -53.6188     -0.9872246              1
      7846.0000          0.603        2827.16        135.698        -999.25         0.3749       -53.1784     -0.5468216              1
      7846.5000         0.5901       2845.844       134.2451        -999.25         0.3762       -52.7594     -0.1278229              1
      7847.0000         0.5771       2857.891       132.4421        -999.25         0.3776       -52.4284      0.2031784              1
      7847.5000         0.5642       2869.922       131.0117        -999.25         0.3789       -52.2833       0.348278              1
      7848.0000         0.5546       2863.965       129.8821        -999.25         0.3793       -52.1383      0.4932747              1
      7848.5000         0.5457       2836.918       129.2759        -999.25         0.3795       -52.1693      0.4622765              1
      7849.0000         0.5451        2809.82       128.9868        -999.25         0.3797       -52.2759      0.3556747              1
      7849.5000         0.5521       2781.891       128.7832        -999.25         0.3808       -52.3842      0.2473755              1
      7850.0000         0.5592       2752.301       129.0703        -999.25         0.3818       -52.5342     0.09737778              1
      7850.5000         0.5631       2722.754       129.4214        -999.25         0.3829       -52.6844    -0.05282211              1
      7851.0000         0.5649       2732.809       129.9775        -999.25          0.384       -52.8348     -0.2032242              1
      7851.5000         0.5642       2745.746       130.5344        -999.25         0.3826       -52.9848     -0.3532219              1
      7852.0000         0.5633       2771.645       130.8496        -999.25          0.379       -53.1351     -0.5035248              1
      7852.5000         0.5614       2797.543       131.0576        -999.25         0.3753       -53.2852     -0.6536217              1
      7853.0000         0.5595       2823.418       131.1758        -999.25         0.3717       -53.3766     -0.7450218              1
      7853.5000         0.5576       2849.316       130.0566        -999.25          0.368       -53.4271     -0.7955246              1
      7854.0000         0.5556       2883.238       129.9751        -999.25         0.3641       -53.4776     -0.8460236              1
      7854.5000         0.5537        2918.75       130.4414        -999.25         0.3598        -53.528     -0.8964233              1
      7855.0000         0.5518       2954.309       131.0671        -999.25         0.3556        -53.566     -0.9344254              1
      7855.5000         0.5505       2982.973       131.6814        -999.25         0.3513        -53.563     -0.9314232              1
      7856.0000         0.5495       3011.145       132.2415        -999.25          0.347       -53.5602     -0.9286232              1
      7856.5000         0.5484       3038.977       132.5491        -999.25         0.3431       -53.5573      -0.925724              1
      7857.0000         0.5474       3053.805       132.7905        -999.25         0.3413       -53.5543     -0.9227219              1
      7857.5000         0.5463       3059.273       132.9934        -999.25         0.3395       -53.5515     -0.9199219              1
      7858.0000         0.5452        3064.68       133.0903        -999.25         0.3376       -53.5577     -0.9261246              1
      7858.5000         0.5445       3062.961       133.1875        -999.25         0.3358       -53.5671      -0.935524              1
      7859.0000         0.5446       3061.234       133.1575        -999.25          0.334       -53.5765     -0.9449234              1
      7859.5000         0.5446       3060.793       133.0557        -999.25         0.3321       -53.5859     -0.9543228              1
      7860.0000         0.5447       3065.633        132.856        -999.25         0.3303        -53.595     -0.9634247              1
      7860.5000         0.5447        3070.48       132.7766        -999.25         0.3289       -53.5921     -0.9605217              1
      7861.0000         0.5439       3075.332       132.9399        -999.25          0.328       -53.5892     -0.9576225              1
      7861.5000         0.5429       3080.848       133.4011        -999.25         0.3272       -53.5863     -0.9547234              1
      7862.0000         0.5419       3101.586        133.895        -999.25         0.3263       -53.5834     -0.9518242              1
      7862.5000         0.5409       3122.301       134.1785        -999.25         0.3255       -53.5842     -0.9526253              1
      7863.0000         0.5399        3149.52       134.4597        -999.25         0.3247       -53.5941     -0.9625244              1
      7863.5000         0.5391       3181.898       134.6553        -999.25         0.3238       -53.6039     -0.9723244              1
      7864.0000         0.5383       3201.195       134.8242        -999.25          0.323       -53.6138     -0.9822235              1
      7864.5000         0.5375       3199.922       134.9395        -999.25         0.3236       -53.6237     -0.9921227              1
      7865.0000         0.5367       3190.277       134.9897        -999.25         0.3243       -53.6412      -1.009624      0.9998218
      7865.5000         0.5359       3179.676       135.0398        -999.25          0.325       -53.6613      -1.029724      0.9994496
      7866.0000         0.5351       3156.121       135.0342        -999.25         0.3258       -53.6815      -1.049923      0.9990755
      7866.5000         0.5342       3132.594       134.9531        -999.25         0.3265       -53.7015      -1.069923      0.9987051
      7867.0000         0.5335       3091.703       134.7686        -999.25         0.3272       -53.7217      -1.090122      0.9983311
      7867.5000         0.5336       3048.758       134.4487        -999.25          0.328       -53.7418      -1.110222      0.9979588
      7868.0000         0.5338       3015.598       134.0774        -999.25         0.3297       -53.7619      -1.130325      0.9975865
      7868.5000          0.534       2996.227        133.499        -999.25         0.3321       -53.7836      -1.152023      0.9971848
