#------------------------------------------------------------------------------
# Created by    : vladimir.rabinovich
# Created on    : 09/19/2023 17:19:38
#------------------------------------------------------------------------------
~Version Information Section
VERS.           2.0     :   CWLS log ASCII Standard - VERSION 2.0
WRAP.           NO      :   One line per depth step
~Well Information Section
#MNEM       .UNIT                                         VALUE :DESCRIPTION
#------------------------------------------------------------------------------
STRT        .FT                                            9400 :START DEPTH
STOP        .FT                                           17100 :STOP DEPTH
STEP        .FT                                             0.5 :STEP      
NULL        .                                           -999.25 :NULL      
COMP        .                                   FOREST OIL CORP :COMPANY   
WELL        .                               OCS G18937 ST00BP00 :WELL      
FLD         .                            HIGH ISLAND BLOCK 0116 :FIELD     
LOC         .                                                   :LOCATION  
CNTY        .                           HIGH ISLAND LARGE BLOCK :LOCATION  
STAT        .                                             TEXAS :STATE     
CTRY        .                                     UNITED STATES :COUNTRY   
SRVC        .                                                   :SERVICE COMPANY
DATE        .                             9/13/2023 11:19:48 AM :LOG DATE  
API         .                                    42708405250000 :API NUMBER
UWI         .                                    42708405250000 :UNIQUE WELL ID
XCOORD      .                                  1337259.97993026 :SURFACE X 
YCOORD      .                                  10628189.4209318 :SURFACE Y 
LAT         .                                         29.282461 :LATITUDE  
LON         .                                        -93.951246 :LONGITUDE 
ELEV        .FT                                              93 :ELEVATION VALUE
ELEV_TYPE   .                                                KB :ELEVATION REFERENCE TYPE
~Curve Information Section
#MNEM       .UNIT                                      API CODE :CURVE DESCRIPTION
#------------------------------------------------------------------------------
DEPT        .FT                                                 :DEPTH     
AHT10       .OHMM                                               :          
AHT20       .OHMM                                               :          
AHT30       .OHMM                                               :          
AHT60       .OHMM                                               :          
AHT90       .OHMM                                               :          
CALI        .IN                                                 :          
COND        .MMHO                                               :          
DTCO        .US/F                                               :          
GR          .GAPI                                               :          
GR_NORM     .GAPI                                               :GammaRay Normalized
HDRA        .G/CC                                               :          
NPOR        .FRAC                                               :          
RHOZ        .G/CC                                               :          
VSH_GR      .V/V                                                :Volume of Shale from GR
~A        DEPTH          AHT10          AHT20          AHT30          AHT60          AHT90           CALI           COND           DTCO             GR        GR_NORM           HDRA           NPOR           RHOZ         VSH_GR
# ...
     13504.0000          1.064          0.629          0.513          0.445          0.415          9.212       2409.639         85.407         22.583       25.27729         -0.005          0.257          2.278              0
     13504.5000          0.947          0.584           0.49           0.42          0.393          9.236       2544.529         85.463         22.346       25.02946         -0.006          0.282          2.262              0
     13505.0000           0.88          0.558          0.484          0.417           0.39          9.283       2564.103         86.087         24.625       27.42343         -0.009          0.269          2.249              0
     13505.5000          0.936          0.585            0.5          0.426          0.397           9.33       2518.892         86.408         24.776         27.583          -0.01           0.24          2.263              0
     13506.0000          1.044          0.619          0.519          0.436          0.405          9.212       2469.136         86.348          23.56       26.30722         -0.008          0.254          2.285              0
     13506.5000          1.047          0.612          0.511          0.429          0.398           9.33       2512.563         86.637         21.513       24.15889         -0.006          0.264          2.292              0
     13507.0000          0.944          0.578          0.488          0.412          0.383          9.401       2610.966         89.136         19.296       21.83206         -0.007          0.258          2.265              0
     13507.5000          0.882          0.552           0.47          0.402          0.374          9.495       2673.797         91.378         20.124       22.70248         -0.008          0.256          2.245              0
     13508.0000            0.9          0.555          0.471          0.404          0.375          9.519       2666.667         92.342         18.468        20.9647         -0.007          0.268          2.247              0
     13508.5000          0.949          0.577          0.487          0.415          0.384          9.566       2604.167         92.374         18.676       21.18412         -0.007          0.264          2.254              0
     13509.0000          0.963          0.585          0.494          0.421          0.388          9.589        2577.32         91.647         15.979       18.35329         -0.008          0.283          2.255              0
     13509.5000           0.96          0.585          0.493          0.421          0.388          9.601        2577.32         89.198          17.61       20.06685         -0.011          0.272          2.246              0
     13510.0000          0.996          0.599            0.5          0.426          0.392          9.448       2551.021          88.04         18.199       20.68632         -0.012          0.247           2.25              0
     13510.5000          1.057          0.622           0.51          0.433          0.398          9.342       2512.563         85.886         20.896        23.5192          0.001          0.249           2.27              0
     13511.0000          1.107          0.637          0.513          0.433          0.398          9.377       2512.563         84.308         19.981       22.55946          0.014          0.236          2.297              0
     13511.5000          1.098          0.635          0.511          0.428          0.394          9.283       2538.071         83.296         21.665       24.32869          0.017          0.263          2.304              0
     13512.0000          1.053          0.621          0.507          0.421          0.389          9.283       2570.694          82.29         22.053        24.7371          0.009          0.271          2.295              0
     13512.5000          1.045          0.618          0.509           0.42          0.389          9.212       2570.694         81.768         23.589       26.35093         -0.002          0.253          2.284              0
     13513.0000          1.104          0.639          0.524          0.427          0.395          9.118       2531.646         82.336         23.382       26.13459         -0.005          0.264          2.285              0
     13513.5000          1.217          0.672          0.544          0.433          0.401          9.118       2493.766         83.145          24.33       27.13101         -0.011          0.282          2.285              0
     13514.0000          1.359          0.709          0.565          0.439          0.408          9.095        2450.98         83.423         23.915       26.69628          -0.01          0.266          2.278              0
     13514.5000          1.505          0.749          0.585          0.446          0.416          9.047       2403.846         83.964         23.386       26.14185         -0.008           0.29          2.272              0
     13515.0000          1.532          0.763          0.598          0.445          0.416          9.047       2403.846          82.31         21.843       24.52272         -0.006          0.305          2.267              0
     13515.5000          1.451          0.741          0.602          0.438          0.411          9.047        2433.09         78.802         21.668       24.33998         -0.006          0.272          2.263              0
     13516.0000          1.479          0.744           0.62          0.442          0.415          8.989       2409.639         74.574         21.577       24.24545         -0.007          0.287          2.266              0
     13516.5000          1.684          0.805          0.671          0.462          0.433              9       2309.469          69.75          24.27       27.07412         -0.007          0.253          2.306              0
     13517.0000          1.912          0.876          0.728          0.487          0.457          9.024       2188.184         67.846         25.927         28.815              0          0.177          2.396              0
     13517.5000          1.875          0.891          0.752          0.501           0.47          8.977        2127.66           67.4         25.306       28.16397          0.011          0.097          2.505              0
     13518.0000          1.507          0.818          0.705           0.49          0.461              9       2169.198         69.342         24.146       26.94698          0.018          0.089          2.577              0
     13518.5000          1.088          0.691          0.618          0.465          0.441          8.953       2267.574         72.332         23.291       26.05025          0.033          0.115          2.617              0
     13519.0000          0.838          0.586          0.544          0.443          0.422           8.93       2369.668         95.148         25.653       28.53138           0.03          0.173          2.582              0
     13519.5000          0.762          0.554          0.521           0.45           0.43              9       2325.581         95.136         27.642       30.62084          0.022          0.252            2.5              0
     13520.0000          0.813          0.596          0.569          0.525          0.499          9.189       2004.008         94.495         36.312       39.72536          0.001          0.282          2.416      0.1430928
     13520.5000          0.933          0.689          0.651          0.624          0.589          9.165       1697.793         95.496         49.487       53.56013         -0.002          0.313          2.413      0.4374495
     13521.0000          1.043          0.786          0.728          0.721          0.676          9.189        1479.29         98.284         64.324          69.14          0.001          0.312          2.461      0.7689362
     13521.5000          1.109          0.859           0.79          0.825          0.769          9.165        1300.39         99.338         69.526       74.60312          0.006          0.293          2.509      0.8851727
