#------------------------------------------------------------------------------
# Created by    : vladimir.rabinovich
# Created on    : 09/19/2023 17:20:24
#------------------------------------------------------------------------------
~Version Information Section
VERS.           2.0     :   CWLS log ASCII Standard - VERSION 2.0
WRAP.           NO      :   One line per depth step
~Well Information Section
#MNEM       .UNIT                                         VALUE :DESCRIPTION
#------------------------------------------------------------------------------
STRT        .FT                                            1590 :START DEPTH
STOP        .FT                                            8991 :STOP DEPTH
STEP        .FT                                             0.5 :STEP      
NULL        .                                           -999.25 :NULL      
COMP        .                                 C & K OFFSHORE CO :COMPANY   
WELL        .                                OCS 00507 ST00BP00 :WELL      
FLD         .                                           WILDCAT :FIELD     
LOC         .                                                   :LOCATION  
CNTY        .                           HIGH ISLAND LARGE BLOCK :LOCATION  
STAT        .                                             TEXAS :STATE     
CTRY        .                                     UNITED STATES :COUNTRY   
SRVC        .                                                   :SERVICE COMPANY
DATE        .                             9/13/2023 11:19:15 AM :LOG DATE  
API         .                                    42708300260000 :API NUMBER
UWI         .                                    42708300260000 :UNIQUE WELL ID
XCOORD      .                                  1287575.74118613 :SURFACE X 
YCOORD      .                                  10681645.7296129 :SURFACE Y 
LAT         .                                         29.428295 :LATITUDE  
LON         .                                        -94.108714 :LONGITUDE 
ELEV        .FT                                              73 :ELEVATION VALUE
ELEV_TYPE   .                                                KB :ELEVATION REFERENCE TYPE
~Curve Information Section
#MNEM       .UNIT                                      API CODE :CURVE DESCRIPTION
#------------------------------------------------------------------------------
DEPT        .FT                                                 :DEPTH     
ASN         .OHMM                                               :          
CALI        .IN                                                 :          
CILD        .MMHO                                               :          
DT          .US/F                                               :          
GR          .GAPI                                               :          
GR_NORM     .GAPI                                               :GammaRay Normalized
ILD         .OHMM                                               :          
SP          .MV                                                 :          
SP_NORM     .MV                                                 :SP Normalized
VSH_GR      .V/V                                                :Volume of Shale from GR
VSH_SP      .V/V                                                :Volume of Shale from SP
~A        DEPTH            ASN           CALI           CILD             DT             GR        GR_NORM            ILD             SP        SP_NORM         VSH_GR         VSH_SP
# ...
      7485.0000         0.8583         9.8225       1424.641       101.1554        63.4127       65.51588          0.676       -54.8127      -5.594208      0.6918272      0.9200827
      7485.5000         0.8163         9.7845       1590.307       101.5564         57.604         58.255         0.6114         -62.72       -13.4977      0.5373405      0.8071758
      7486.0000         0.7413         9.7464       1756.174       101.7449         53.582        53.2275         0.5456       -65.8949      -16.66877      0.4303724      0.7618747
      7486.5000         0.6327         9.7095       1967.881       101.7788         49.741       48.42625         0.4796       -74.6708      -25.44086      0.3282181      0.6365591
      7487.0000         0.6025         9.7098           2202       101.4745        46.6123       44.51538         0.4137       -80.9407      -31.70694       0.245008      0.5470437
      7487.5000         0.5723         9.7094           2542       100.9504        41.2798       37.84975         0.3554       -87.0908      -37.85323      0.1031862      0.4592396
      7488.0000         0.5455         9.7079           2882       100.4359        37.0767       32.59587         0.3096        -93.241      -43.99961              0      0.3714342
      7488.5000         0.5204         9.7064        3268.52       100.0211        36.1307       31.41337         0.2639      -101.1682      -51.92299              0       0.258243
      7489.0000          0.508         9.7051       3495.641        99.6556        37.3738       32.96725         0.2236        -107.79      -58.54098              0      0.1637003
      7489.5000         0.5044         9.7039       3722.762        99.2771        36.9454       32.43175         0.2005      -108.9769      -59.72406              0      0.1467991
      7490.0000         0.5033         9.7222       3950.277        98.8704        35.9276        31.1595         0.1774      -111.1522      -61.89555              0      0.1157779
      7490.5000         0.4871         9.7431           4723        98.5505         33.857       28.57125         0.1578      -115.5052      -66.24474              0     0.05364663
      7491.0000         0.4598          9.754       5330.469        98.6646        34.1143       28.89288         0.1421      -116.6409      -67.37662              0     0.03747689
      7491.5000         0.4324         9.7577       5393.117        99.0223        35.7308        30.9135         0.1498      -117.8314      -68.56329              0     0.02052438
      7492.0000          0.405         9.7579       5392.172        99.5245        38.0527       33.81588         0.1679      -118.5964      -69.32448     0.01735906    0.009650312
      7492.5000         0.3775         9.7471       5305.109       100.2987        40.7681       37.21012          0.186      -118.1735      -68.89777     0.08957712      0.0157462
      7493.0000         0.3517         9.7346       5101.063        100.832        45.6324        43.2905          0.204      -117.3073      -68.02774      0.2189468     0.02817514
      7493.5000         0.3262         9.7224       4793.992       100.8881        49.2449       47.80613         0.2221      -116.2178      -66.93443       0.315024     0.04379382
      7494.0000         0.3044         9.7249       4502.828       100.7133        48.1943       46.49288         0.2254       -114.387      -65.09982      0.2870825     0.07000264
      7494.5000         0.3067         9.7291       4223.906       100.4907         44.617       42.02125         0.2215      -112.7446       -63.4536      0.1919415     0.09352003
      7495.0000         0.3118         9.7378       4140.672        100.201        38.8477       34.80962         0.2176      -110.3884      -61.09358     0.03850263      0.1272345
      7495.5000         0.3186         9.7473       3992.906       100.0551        34.8335       29.79187         0.2137      -104.1035      -54.80487              0      0.2170733
      7496.0000         0.3254         9.7585       4080.813       100.1451        32.8343       27.29288         0.2073      -110.6206      -61.31815              0      0.1240264
      7496.5000         0.3263         9.7693       4169.313        100.431        32.8864         27.358         0.1983      -112.4838      -63.17754              0     0.09746377
      7497.0000         0.3225         9.7781       4340.547       100.7159        33.4312         28.039         0.1892      -113.5845      -64.27442              0     0.08179398
      7497.5000         0.3199         9.7948       4489.609       100.5498        32.2971       26.62138         0.1802      -114.5518      -65.23791              0      0.0680299
      7498.0000         0.3173         9.8312        4706.68       100.3141        30.2723       24.09038         0.1712      -115.3879      -66.07019              0     0.05614014
      7498.5000         0.3147         9.8976       4927.438       100.3855        31.1145       25.14313         0.1637      -116.1155      -66.79398              0     0.04580035
      7499.0000         0.3121        10.0697       5122.242        100.828        32.6611       27.07637         0.1663      -116.6802      -67.35485              0     0.03778785
      7499.5000         0.3095        10.4704        5169.82       102.1056        34.7312         29.664         0.1689      -117.2174      -67.88824              0     0.03016804
      7500.0000         0.3196        10.4505        5194.93       103.6652          37.36          32.95         0.1715       -117.681      -68.34802              0     0.02359968
      7500.5000         0.3381        10.0294       4682.219        104.467        38.3676        34.2095         0.1741      -118.0596      -68.72281     0.02573403     0.01824559
      7501.0000         0.3565         9.8447       4562.297       104.4329        38.8604        34.8255         0.1767      -118.3379      -68.99728     0.03884044     0.01432452
      7501.5000         0.3782         9.7773       4493.484       104.1342        40.0834       36.35425         0.1804      -118.0554      -68.71097     0.07136706     0.01841474
      7502.0000         0.4026         9.7855       4404.586       103.4541        40.9703       37.46288         0.1863       -117.686      -68.33775      0.0949548     0.02374638
      7502.5000         0.4164         9.8224       4364.961       102.5758        39.2057       35.25713         0.1922      -115.2755      -65.92343     0.04802395      0.0582367
      7503.0000         0.4231         9.8227       4348.625       102.6315        34.8729       29.84112         0.1981      -111.7811      -62.42522              0      0.1082111
      7503.5000         0.4103          9.823       4357.836       102.8226        32.3079       26.63487         0.2041      -108.5389      -59.17921              0      0.1545827
      7504.0000         0.3974         9.8232       4367.031       102.9105        33.1491       27.68638          0.208      -107.1611      -57.79759              0      0.1743201
      7504.5000          0.382         9.8233       4632.102       102.7791        33.7552         28.444         0.1983      -107.9025      -58.53517              0      0.1637833
      7505.0000         0.3662          9.822       4725.727       102.6029         34.252         29.065         0.1887      -110.4708      -61.09966              0      0.1271477
      7505.5000         0.3523         9.8158       4866.586       102.4075        34.8502       29.81275          0.179      -113.0366      -63.66164              0       0.090548
      7506.0000         0.3508         9.8096       5036.625       102.1447        35.4346       30.54325         0.1693      -115.1058      -65.72702              0     0.06104257
      7506.5000         0.3493         9.8034       5206.664       102.0258        35.2271       30.28387         0.1659      -117.6992      -68.31661              0      0.0240484
      7507.0000         0.3478         9.8006       4946.828       102.1357        34.6642       29.58025         0.1629      -119.3315      -69.94509              0   0.0007844107
