#------------------------------------------------------------------------------
# Created by    : vladimir.rabinovich
# Created on    : 09/19/2023 17:20:57
#------------------------------------------------------------------------------
~Version Information Section
VERS.           2.0     :   CWLS log ASCII Standard - VERSION 2.0
WRAP.           NO      :   One line per depth step
~Well Information Section
#MNEM       .UNIT                                         VALUE :DESCRIPTION
#------------------------------------------------------------------------------
STRT        .FT                                             601 :START DEPTH
STOP        .FT                                            9006 :STOP DEPTH
STEP        .FT                                             0.5 :STEP      
NULL        .                                           -999.25 :NULL      
COMP        .                                        SUN OIL CO :COMPANY   
WELL        .                               OCS G01715 ST00BP00 :WELL      
FLD         .                                           WILDCAT :FIELD     
LOC         .                                                   :LOCATION  
CNTY        .                                BRAZOS LARGE BLOCK :LOCATION  
STAT        .                                             TEXAS :STATE     
CTRY        .                                     UNITED STATES :COUNTRY   
SRVC        .                                                   :SERVICE COMPANY
DATE        .                             9/13/2023 11:18:52 AM :LOG DATE  
API         .                                    42704000710000 :API NUMBER
UWI         .                                    42704000710000 :UNIQUE WELL ID
XCOORD      .                                  842225.693118258 :SURFACE X 
YCOORD      .                                  10368215.6352389 :SURFACE Y 
LAT         .                                          28.54781 :LATITUDE  
LON         .                                        -95.486614 :LONGITUDE 
ELEV        .FT                                              79 :ELEVATION VALUE
ELEV_TYPE   .                                                KB :ELEVATION REFERENCE TYPE
~Curve Information Section
#MNEM       .UNIT                                      API CODE :CURVE DESCRIPTION
#------------------------------------------------------------------------------
DEPT        .FT                                                 :DEPTH     
ASN         .OHMM                                               :          
CALI        .IN                                                 :          
CILD        .MMHO                                               :          
DT          .US/F                                               :          
ILD         .OHMM                                               :          
SP          .MV                                                 :          
SP_NORM     .MV                                                 :SP Normalized
VSH_SP      .V/V                                                :Volume of Shale from SP
~A        DEPTH            ASN           CALI           CILD             DT            ILD             SP        SP_NORM         VSH_SP
# ...
      5616.0000          1.241        12.4955       1115.707       137.7068         0.8929       -43.3119      -1.528683      0.9892105
      5616.5000         1.2473        12.5065       1122.418       138.0486         0.9196       -43.2312      -1.444214      0.9909344
      5617.0000         1.2268        12.5249       1124.854       139.4475         0.9375        -43.245      -1.454239      0.9907298
      5617.5000          1.206        12.5308       1121.988       136.1245         0.9513       -43.2869      -1.492367      0.9899517
      5618.0000          1.201        12.5215       1113.549       133.2712         0.9607       -43.3708      -1.572498      0.9883164
      5618.5000         1.2551        12.3517       1105.115       133.0605         0.9643       -43.5105      -1.708427      0.9855423
      5619.0000          1.298        12.2925        1095.48       131.6995         0.9633        -43.724      -1.918152      0.9812622
      5619.5000         1.3096        12.4288       1083.699       134.4309         0.9637       -43.9297      -2.120083      0.9771411
      5620.0000         1.3071        12.5015        1071.92       136.6294         0.9648        -44.038      -2.224609       0.975008
      5620.5000         1.3014        12.5507       1060.139       137.2959         0.9643       -44.1147      -2.297543      0.9735196
      5621.0000         1.3035        12.5849       1048.359         137.48         0.9633       -44.1606      -2.339668      0.9726598
      5621.5000         1.3139        12.5966       1036.592       138.0024         0.9624       -44.0441      -2.219398      0.9751143
      5622.0000         1.3268        12.6049       1024.811       135.5657         0.9615       -43.9083      -2.079826      0.9779627
      5622.5000         1.3258        12.5897        1020.84       133.0842         0.9632        -43.738      -1.905754      0.9815152
      5623.0000         1.3122        12.5745       1018.045       129.8669         0.9672       -43.5844      -1.748386      0.9847268
      5623.5000         1.2848        12.5545        1015.25       131.6277         0.9728       -43.4729      -1.633114      0.9870793
      5624.0000         1.2507         12.532       1015.821       135.1343          0.973       -43.4423       -1.59874      0.9877808
      5624.5000         1.2318        12.4929       1017.672       138.1421          0.972       -43.4565      -1.609173      0.9875679
      5625.0000         1.2354        12.4604       1019.521       141.0276         0.9749        -43.548      -1.696899      0.9857776
      5625.5000         1.2508        12.5005       1021.373       138.6333         0.9777        -43.678      -1.823132      0.9832014
      5626.0000         1.2686        12.5103       1023.223        135.521         0.9738       -43.8293      -1.970657      0.9801907
      5626.5000         1.2866          12.52       1025.072       134.9001         0.9762       -44.0258      -2.163383      0.9762575
      5627.0000         1.3043        12.5118       1025.197       134.9758         0.9845       -44.1356      -2.269417      0.9740936
      5627.5000         1.3238         12.502       1023.823       135.9985         0.9993       -44.1179      -2.247944      0.9745318
      5628.0000         1.3408        12.4921       1022.447       137.7729         1.0115       -44.0256      -2.151871      0.9764924
      5628.5000         1.3532        12.4966       1021.072       136.8701         1.0195       -43.9171        -2.0396      0.9787837
      5629.0000         1.3629        12.4915       1016.268       134.4883         1.0244        -43.799      -1.917728      0.9812708
      5629.5000           1.37        12.4751       1006.068       131.7175         1.0278       -43.6727      -1.787659      0.9839253
      5630.0000         1.3686        12.4764       995.8691       129.7385         1.0308       -43.5367      -1.647888      0.9867778
      5630.5000         1.3481        12.4758       985.6699       131.1489         1.0337       -43.3949      -1.502316      0.9897487
      5631.0000         1.3217         12.467       975.4717       132.8599         1.0271       -43.2804      -1.384045      0.9921623
      5631.5000         1.3032         12.442       964.9287       134.9272         1.0173       -43.2354      -1.335274      0.9931577
      5632.0000         1.3041         12.417       953.0508       135.3489          1.006       -43.1949      -1.291004      0.9940611
      5632.5000         1.3126        12.3992       941.1729       133.0605         0.9941        -43.184      -1.276329      0.9943606
      5633.0000         1.3151        12.3845       932.1934       132.2776         0.9832       -43.1628      -1.251358      0.9948702
      5633.5000         1.3062         12.387       938.9043        133.022         0.9764       -43.0911      -1.175888      0.9964104
      5634.0000         1.3061        12.4118       945.6162       134.4297         0.9733       -43.0023      -1.083317      0.9982997
      5634.5000         1.3153        12.4305       952.4443       133.5977         0.9764       -42.8618      -0.939045              1
      5635.0000         1.3182        12.4396       959.3213       134.4548         0.9795       -42.7061     -0.7795753              1
      5635.5000         1.3103        12.4065       966.1982       135.4082         0.9831       -42.4781      -0.547802              1
      5636.0000         1.2876        12.3909       973.0684       135.0696         0.9776       -42.2789     -0.3448334              1
      5636.5000         1.2899         12.442       979.9453       134.1194         0.9574       -42.2096      -0.271759              1
      5637.0000         1.2834        12.4739       986.8223       134.6414         0.9391        -42.202     -0.2603874              1
      5637.5000         1.2531        12.4745       995.5625       135.4885         0.9313       -42.2657     -0.3203201              1
      5638.0000         1.2246        12.4241       1004.707       138.0024         0.9308       -42.3965     -0.4473457              1
      5638.5000         1.2505        12.3958       1013.864        139.697         0.9327       -42.5375     -0.5845757              1
      5639.0000         1.2951        12.3727       1023.009       138.5161         0.9435       -42.6879      -0.731205              1
      5639.5000         1.3261        12.3496       1032.154       138.2654         0.9545       -42.9312     -0.9707298              1
      5640.0000         1.3551        12.3319       1041.299       133.7253         0.9625       -43.3736      -1.409363      0.9916456
      5640.5000         1.3518        12.3327        1050.59       126.1373         0.9692       -44.1143       -2.14629      0.9766063
      5641.0000         1.3516        12.3335       1059.943       126.7073          0.975       -44.4653      -2.493519        0.96952
      5641.5000         1.3687        12.3689       1061.463        128.251          0.974       -44.1609      -2.185349      0.9758092
      5642.0000         1.3509        12.4265       1052.691       133.2314          0.973       -43.6871      -1.707775      0.9855556
      5642.5000         1.3225        12.4678       1043.916       136.0447         0.9733       -43.2059      -1.222805      0.9954529
      5643.0000         1.3096        12.3757       1034.508       135.0945         0.9746       -42.8574      -0.870533              1
      5643.5000         1.3078        12.3751       1024.871       133.3623         0.9759       -42.5361     -0.5454597              1
      5644.0000         1.3116        12.3811        1015.25       133.0393         0.9777       -42.2463     -0.2518921              1
      5644.5000         1.3203        12.3916       1005.614       134.9448         0.9816       -42.0665    -0.06832123              1
      5645.0000         1.3371        12.3834       995.9922       136.0596         0.9874       -41.9004      0.1015511              1
