#------------------------------------------------------------------------------
# Created by    : vladimir.rabinovich
# Created on    : 09/19/2023 17:22:53
#------------------------------------------------------------------------------
~Version Information Section
VERS.           2.0     :   CWLS log ASCII Standard - VERSION 2.0
WRAP.           NO      :   One line per depth step
~Well Information Section
#MNEM       .UNIT                                         VALUE :DESCRIPTION
#------------------------------------------------------------------------------
STRT        .FT                                             411 :START DEPTH
STOP        .FT                                           10036 :STOP DEPTH
STEP        .FT                                             0.5 :STEP      
NULL        .                                           -999.25 :NULL      
COMP        .                          HUMBLE OIL & REFINING CO :COMPANY   
WELL        .                                     ST TR 00278-L :WELL      
FLD         .                                           WILDCAT :FIELD     
LOC         .                                                   :LOCATION  
CNTY        .                             GALVESTON LARGE BLOCK :LOCATION  
STAT        .                                             TEXAS :STATE     
CTRY        .                                     UNITED STATES :COUNTRY   
SRVC        .                                                   :SERVICE COMPANY
DATE        .                             9/13/2023 11:19:42 AM :LOG DATE  
API         .                                    42706000220000 :API NUMBER
UWI         .                                    42706000220000 :UNIQUE WELL ID
XCOORD      .                                  941560.719964966 :SURFACE X 
YCOORD      .                                  10497824.1170516 :SURFACE Y 
LAT         .                                        28.9094621 :LATITUDE  
LON         .                                       -95.1847519 :LONGITUDE 
ELEV        .FT                                              10 :ELEVATION VALUE
ELEV_TYPE   .                                                KB :ELEVATION REFERENCE TYPE
~Curve Information Section
#MNEM       .UNIT                                      API CODE :CURVE DESCRIPTION
#------------------------------------------------------------------------------
DEPT        .FT                                                 :DEPTH     
LAT         .OHMM                                               :          
LN          .OHMM                                               :          
SN          .OHMM                                               :          
SP          .MV                                                 :          
SP_NORM     .MV                                                 :SP Normalized
VSH_SP      .V/V                                                :Volume of Shale from SP
~A        DEPTH            LAT             LN             SN             SP        SP_NORM         VSH_SP
# ...
      2311.0000         0.8973         0.5514         0.8442        65.2714      0.1618576              1
      2311.5000         0.8738          0.533         0.8766        64.1407         1.2882              1
      2312.0000         0.8502         0.5146          0.928        63.8867       1.537853              1
      2312.5000         0.8267         0.4962         0.9793        66.3097     -0.8895035              1
      2313.0000         0.8032          0.508         1.0306         68.229      -2.813148      0.9587921
      2313.5000         0.7797         0.5213          1.082        69.9425      -4.531006      0.9197499
      2314.0000         0.7599         0.5346         1.1333        70.6473      -5.240158      0.9036328
      2314.5000         0.7483         0.5505         1.1649        70.6188      -5.216011      0.9041815
      2315.0000         0.7367         0.5806           1.12        70.4053      -5.006859       0.908935
      2315.5000         0.7252         0.6108         1.0751        69.4807      -4.086617      0.9298496
      2316.0000         0.7136          0.641         1.0302        68.5564      -3.166664      0.9507576
      2316.5000         0.7021         0.6712         0.9853        67.4369      -2.051521      0.9761018
      2317.0000         0.6905         0.7014         0.9404        66.1917     -0.8106766              1
      2317.5000         0.6789         0.7229         0.8956        64.9471      0.4295731              1
      2318.0000          0.676         0.7438         0.8507        63.7026       1.669724              1
      2318.5000         0.6885         0.7442         0.8565        62.5956       2.772373              1
      2319.0000         0.7009         0.7263         0.8676         61.697       3.666618              1
      2319.5000         0.7134         0.6879         0.8787        60.7985       4.560768              1
      2320.0000         0.7258         0.6481         0.8898        60.1974       5.157513              1
      2320.5000         0.7434         0.6084         0.9009        60.0754       5.275162              1
      2321.0000         0.7878         0.5686         0.9427        62.2739       3.072308              1
      2321.5000         0.8322         0.5289         0.9971        64.4724      0.8694611              1
      2322.0000         0.8765         0.4891         1.0516        66.6709      -1.333397      0.9924228
      2322.5000          0.911         0.4494         1.1061        68.7578      -3.424644      0.9448944
      2323.0000         0.8771         0.4198         1.1606        70.2622      -4.933403      0.9106045
      2323.5000         0.8433         0.4231         1.1769        71.7672      -6.442749      0.8763012
      2324.0000         0.8095         0.4263         1.1475        73.2717      -7.951607      0.8420089
      2324.5000         0.7757         0.4296         1.1116        74.1875      -8.871758      0.8210964
      2325.0000         0.7418         0.4329         1.0586        74.3601      -9.048714      0.8170747
      2325.5000          0.708         0.4361         1.0056        74.0635      -8.756462      0.8237168
      2326.0000         0.6742         0.4394         0.9526        73.7668      -8.464119      0.8303609
      2326.5000         0.6404         0.4542         0.8996        73.6671      -8.368767      0.8325281
      2327.0000         0.6065          0.483         0.8466        73.9935      -8.699524      0.8250108
      2327.5000         0.5823         0.5118         0.8093        74.9961      -9.706474      0.8021256
      2328.0000         0.5888         0.5405         0.7767        76.2338      -10.94853       0.773897
      2328.5000         0.5954         0.5693         0.7442        76.1675      -10.88658       0.775305
      2329.0000         0.6019         0.5981         0.7116        75.7694      -10.49284      0.7842537
      2329.5000         0.6085         0.6163         0.7301        76.7422      -11.46999      0.7620458
      2330.0000          0.615         0.5984         0.7815        77.8448      -12.57694      0.7368877
      2330.5000         0.6216         0.5805         0.8329        78.9481      -13.68459       0.711714
      2331.0000         0.6281          0.563         0.8843        80.0514      -14.79224      0.6865399
      2331.5000         0.6346         0.5523         0.9315        79.7753      -14.52049      0.6927161
      2332.0000         0.6412         0.5415         0.9755        78.3782      -13.12775      0.7243694
      2332.5000         0.6556         0.5307         1.0196        75.7568       -10.5107      0.7838478
      2333.0000         0.6932         0.5199         1.0636        73.1366      -7.894852      0.8432989
      2333.5000         0.7309         0.5092         1.1077        71.9763      -6.738907      0.8695703
      2334.0000         0.7686         0.4984         1.0846        71.0378      -5.804764      0.8908008
      2334.5000         0.8063         0.4949         1.0025        70.0995      -4.870811       0.912027
      2335.0000          0.844         0.4991         0.9265         69.161      -3.936668      0.9332575
      2335.5000         0.8817         0.5033         0.8765        68.2227      -3.002716      0.9544837
      2336.0000         0.8996         0.5075         0.8266         67.658      -2.442368      0.9672189
      2336.5000         0.8892         0.5117         0.7766        67.2751       -2.06382      0.9758223
      2337.0000         0.8789         0.5159         0.7302        66.8925      -1.685577      0.9844187
      2337.5000         0.8685         0.5201         0.7526        66.5096      -1.307022      0.9930222
      2338.0000         0.8582         0.5066         0.7751        66.1505     -0.9522781              1
      2338.5000         0.8471         0.4754         0.7976        65.8146     -0.6207275              1
      2339.0000         0.8356         0.4443         0.8201        65.4785     -0.2889862              1
      2339.5000         0.8241         0.4392         0.8425        65.1426     0.04256439              1
      2340.0000         0.8127         0.4572          0.865        64.8065      0.3743057              1
      2340.5000         0.8012         0.4751         0.8875        64.4185      0.7579575              1
      2341.0000         0.7897          0.493         0.9099        63.9866       1.185505              1
      2341.5000         0.7881          0.511         0.9234        63.6223       1.545456              1
      2342.0000         0.7975         0.5375         0.9249         63.506       1.657398              1
      2342.5000          0.807         0.5819         0.9263        64.0145       1.144547              1
      2343.0000         0.8164         0.6263         0.9277        64.5397      0.6149902              1
      2343.5000         0.8258         0.6707         0.9292        67.1155      -1.965157      0.9780646
      2344.0000         0.8352         0.7125         0.9286        69.6913      -4.545311      0.9194248
      2344.5000         0.8447         0.7481         0.8813        73.1731      -8.031464       0.840194
      2345.0000         0.8541         0.7773         0.8341        77.5132      -12.37592      0.7414564
      2345.5000         0.8635         0.7357         0.7868        80.9209      -15.78796      0.6639099
      2346.0000         0.8661         0.6941         0.7396        83.1674      -18.03882      0.6127541
      2346.5000         0.8511         0.6525         0.6923        85.4126      -20.28837       0.561628
      2347.0000         0.8361         0.6108         0.7443        90.3522      -25.23233      0.4492652
      2347.5000          0.821         0.5692         0.8056        94.2107      -29.09518      0.3614733
      2348.0000          0.806         0.5474         0.8669        96.1636      -31.05243      0.3169903
      2348.5000          0.791         0.5266         0.9363        95.6873      -30.58048      0.3277163
