#------------------------------------------------------------------------------
# Created by    : vladimir.rabinovich
# Created on    : 09/19/2023 17:21:39
#------------------------------------------------------------------------------
~Version Information Section
VERS.           2.0     :   CWLS log ASCII Standard - VERSION 2.0
WRAP.           NO      :   One line per depth step
~Well Information Section
#MNEM       .UNIT                                         VALUE :DESCRIPTION
#------------------------------------------------------------------------------
STRT        .FT                                             930 :START DEPTH
STOP        .FT                                           10010 :STOP DEPTH
STEP        .FT                                             0.5 :STEP      
NULL        .                                           -999.25 :NULL      
COMP        .                 FAIRWAYS SPEC SALES & SERVICE INC :COMPANY   
WELL        .                               OCS G02357 ST00BP00 :WELL      
FLD         .                            HIGH ISLAND BLOCK 0154 :FIELD     
LOC         .                                                   :LOCATION  
CNTY        .                           HIGH ISLAND LARGE BLOCK :LOCATION  
STAT        .                                             TEXAS :STATE     
CTRY        .                                     UNITED STATES :COUNTRY   
SRVC        .                                                   :SERVICE COMPANY
DATE        .                             9/13/2023 11:20:04 AM :LOG DATE  
API         .                                    42708400540000 :API NUMBER
UWI         .                                    42708400540000 :UNIQUE WELL ID
XCOORD      .                                  1183911.52517142 :SURFACE X 
YCOORD      .                                  10615048.6542629 :SURFACE Y 
LAT         .                                         29.242029 :LATITUDE  
LON         .                                        -94.431816 :LONGITUDE 
ELEV        .FT                                              73 :ELEVATION VALUE
ELEV_TYPE   .                                                KB :ELEVATION REFERENCE TYPE
~Curve Information Section
#MNEM       .UNIT                                      API CODE :CURVE DESCRIPTION
#------------------------------------------------------------------------------
DEPT        .FT                                                 :DEPTH     
CALI        .IN                                                 :          
DRHO        .G/C3                                               :          
DT          .US/F                                               :          
GR          .GAPI                                               :          
GR_1        .GAPI                                               :          
GR_NORM     .GAPI                                               :GammaRay Normalized
ILD         .OHMM                                               :          
NPHI        .%                                                  :          
RHOB        .G/C3                                               :          
SFL         .OHMM                                               :          
SP          .MV                                                 :          
SP_NORM     .MV                                                 :SP Normalized
VSH_GR      .V/V                                                :Volume of Shale from GR
VSH_SP      .V/V                                                :Volume of Shale from SP
~A        DEPTH           CALI           DRHO             DT             GR           GR_1        GR_NORM            ILD           NPHI           RHOB            SFL             SP        SP_NORM         VSH_GR         VSH_SP
# ...
      9588.0000        -999.25        -999.25        -999.25        -999.25        -999.25       68.95175         0.7773        33.9281        -999.25          0.985       -53.2462      -5.477043      0.7649309      0.9269727
      9588.5000        -999.25        -999.25        -999.25        -999.25        -999.25       69.00826         0.8265        34.9451        -999.25          1.138       -51.9759      -4.197418      0.7661331      0.9440344
      9589.0000        -999.25        -999.25        -999.25        -999.25        -999.25       69.06477         0.8647         36.507        -999.25         0.8929       -49.7712      -1.983395      0.7673356      0.9735547
      9589.5000        -999.25        -999.25        -999.25        -999.25        -999.25       69.12127          0.925         37.564        -999.25         0.7078        -48.363     -0.5658722      0.7685376      0.9924551
      9590.0000        -999.25        -999.25        -999.25        -999.25        -999.25       69.17779         0.9184        37.9491        -999.25         0.6415       -49.2391      -1.432655      0.7697402      0.9808979
      9590.5000        -999.25        -999.25        -999.25        -999.25        -999.25       69.23431         0.8764          35.94        -999.25         0.7463       -54.7667      -6.950932      0.7709427      0.9073209
      9591.0000        -999.25        -999.25        -999.25        -999.25        -999.25        69.2908         0.8387        33.9325        -999.25         1.1914       -59.8479      -12.02281      0.7721447      0.8396959
      9591.5000        -999.25        -999.25        -999.25        -999.25        -999.25       69.34732          0.797        33.6808        -999.25         1.5501       -63.6882      -15.85379      0.7733473      0.7886162
      9592.0000        -999.25        -999.25        -999.25        -999.25        -999.25       69.40382         0.7572        35.8511        -999.25         1.4748       -63.8599      -16.01617      0.7745494      0.7864511
      9592.5000        -999.25        -999.25        -999.25        -999.25        -999.25       69.46034         0.7113        37.9978        -999.25         0.9819       -58.4745      -10.62144      0.7757519      0.8583808
      9593.0000        -999.25        -999.25        -999.25        -999.25        -999.25       69.51685         0.6659        39.6144        -999.25         0.5895       -53.4718      -5.609421      0.7769544      0.9252077
      9593.5000        -999.25        -999.25        -999.25        -999.25        -999.25       69.57336         0.6223        41.7877        -999.25         0.5539       -49.9797      -2.107994      0.7781565      0.9718934
      9594.0000        -999.25        -999.25        -999.25        -999.25        -999.25       69.62988         0.5796        43.2341        -999.25         0.5724       -48.1833     -0.3022766       0.779359      0.9959697
      9594.5000        -999.25        -999.25        -999.25        -999.25        -999.25       69.68638         0.5539        43.9602        -999.25         0.6031       -48.7363     -0.8459549      0.7805613      0.9887206
      9595.0000        -999.25        -999.25        -999.25        -999.25        -999.25       69.74289         0.5386        44.0862        -999.25         0.6351       -50.2126      -2.312931      0.7817636      0.9691609
      9595.5000        -999.25        -999.25        -999.25        -999.25        -999.25       69.79941         0.5299        43.8906        -999.25          0.639       -51.5786      -3.669609      0.7829661      0.9510719
      9596.0000        -999.25        -999.25        -999.25        -999.25        -999.25        69.8559         0.5296        43.4835        -999.25         0.6303       -52.3364      -4.418087      0.7841682      0.9410922
      9596.5000        -999.25        -999.25        -999.25        -999.25        -999.25       69.91242         0.5378        42.9927        -999.25         0.6262       -52.3824      -4.454765      0.7853707      0.9406031
      9597.0000        -999.25        -999.25        -999.25        -999.25        -999.25       69.96893         0.5512        42.5027        -999.25         0.6332       -51.5786      -3.641644      0.7865731      0.9514447
      9597.5000        -999.25        -999.25        -999.25        -999.25        -999.25       70.02544         0.5663         42.126        -999.25         0.6392       -50.4628      -2.516518      0.7877752      0.9664465
      9598.0000        -999.25        -999.25        -999.25        -999.25        -999.25       70.08195         0.5812        41.8295        -999.25         0.6169       -50.2629      -2.309685      0.7889777      0.9692042
      9598.5000        -999.25        -999.25        -999.25        -999.25        -999.25       70.13847          0.596        41.5686        -999.25         0.5908        -50.743      -2.789783      0.7901801      0.9628029
      9599.0000        -999.25        -999.25        -999.25        -999.25        -999.25       70.19498         0.6125        41.1777        -999.25         0.5842       -51.1775      -3.224285      0.7913825      0.9570096
      9599.5000        -999.25        -999.25        -999.25        -999.25        -999.25       70.25148         0.6295        40.7669        -999.25         0.6276       -51.2319      -3.278683      0.7925847      0.9562842
      9600.0000         9.4882        -0.0738        -999.25         67.583        -999.25       70.30799         0.6425        40.3791         2.2523         0.6882       -50.9993      -3.046082      0.7937871      0.9593856
      9600.5000         9.3206        -0.0662        -999.25        69.7587        -999.25       72.99403         0.6496        40.3576         2.1969         0.7497       -50.9609      -3.007683      0.8509369      0.9598976
      9601.0000         9.2173        -0.0094        -999.25        66.6411        -999.25       69.14515         0.6545        42.0305         2.3264         0.7506       -51.2635      -3.310284      0.7690457      0.9558629
      9601.5000         9.1366         0.0049        -999.25        66.2183        -999.25       68.62318         0.6578        43.0875         2.3591         0.7325       -51.7534      -3.800182      0.7579401      0.9493309
      9602.0000         9.0717        -0.0059        -999.25        66.7078        -999.25        69.2275         0.6565        43.6841         2.3459         0.7091       -51.6917      -3.738483      0.7707979      0.9501535
      9602.5000         8.9999        -0.0176        -999.25        68.1022        -999.25       70.94899         0.6513        42.9158         2.3326         0.6837       -51.1163      -3.163082      0.8074253      0.9578256
      9603.0000         8.9317        -0.0242        -999.25        70.5992        -999.25       74.03169         0.6431         41.804         2.3169         0.6622       -50.0116      -2.058384      0.8730147      0.9725549
      9603.5000         8.8098        -0.0114        -999.25        74.9307        -999.25       79.37923         0.6373        40.9734         2.3017         0.6457       -48.7119     -0.7586823       0.986792      0.9898843
      9604.0000         8.6221         0.0546        -999.25        77.6694        -999.25       82.76034         0.6345        40.3169         2.3139         0.6325       -47.3796       0.573616              1              1
      9604.5000         8.3358         0.0525        -999.25        71.0046        -999.25       74.53219         0.6323        40.0257         2.2929         0.6274         -48.42     -0.4667816      0.8836636      0.9937763
      9605.0000         9.0004         -0.022        -999.25        67.3802        -999.25       70.05762         0.6298         40.559          2.291         0.6437       -50.4628      -2.509583      0.7884601      0.9665389
      9605.5000          9.062        -0.0304        -999.25        67.9252        -999.25       70.73046         0.6262        41.4501         2.3145         0.6798       -52.6135      -4.660282      0.8027757      0.9378629
