#------------------------------------------------------------------------------
# Created by    : vladimir.rabinovich
# Created on    : 09/19/2023 17:21:33
#------------------------------------------------------------------------------
~Version Information Section
VERS.           2.0     :   CWLS log ASCII Standard - VERSION 2.0
WRAP.           NO      :   One line per depth step
~Well Information Section
#MNEM       .UNIT                                         VALUE :DESCRIPTION
#------------------------------------------------------------------------------
STRT        .FT                                            3683 :START DEPTH
STOP        .FT                                            9328 :STOP DEPTH
STEP        .FT                                             0.5 :STEP      
NULL        .                                           -999.25 :NULL      
COMP        .                                SHELL OFFSHORE INC :COMPANY   
WELL        .                               OCS G11316 ST00BP00 :WELL      
FLD         .                                           WILDCAT :FIELD     
LOC         .                                                   :LOCATION  
CNTY        .                             GALVESTON LARGE BLOCK :LOCATION  
STAT        .                                             TEXAS :STATE     
CTRY        .                                     UNITED STATES :COUNTRY   
SRVC        .                                                   :SERVICE COMPANY
DATE        .                             9/13/2023 11:19:34 AM :LOG DATE  
API         .                                    42706402670000 :API NUMBER
UWI         .                                    42706402670000 :UNIQUE WELL ID
XCOORD      .                                  1097534.45360284 :SURFACE X 
YCOORD      .                                  10461685.9172371 :SURFACE Y 
LAT         .                                         28.817107 :LATITUDE  
LON         .                                        -94.695737 :LONGITUDE 
ELEV        .FT                                              91 :ELEVATION VALUE
ELEV_TYPE   .                                                KB :ELEVATION REFERENCE TYPE
~Curve Information Section
#MNEM       .UNIT                                      API CODE :CURVE DESCRIPTION
#------------------------------------------------------------------------------
DEPT        .FT                                                 :DEPTH     
CALI        .IN                                                 :          
CALI_1      .IN                                                 :          
CILD        .MMHO                                               :          
DRHO        .G/C3                                               :          
DT          .US/F                                               :          
GR          .GAPI                                               :          
GR_1        .GAPI                                               :          
GR_NORM     .GAPI                                               :GammaRay Normalized
ILD         .OHMM                                               :          
ILM         .OHMM                                               :          
NPHI        .%                                                  :          
RHOB        .G/C3                                               :          
SFL         .OHMM                                               :          
SP          .MV                                                 :          
SP_NORM     .MV                                                 :SP Normalized
VSH_GR      .V/V                                                :Volume of Shale from GR
VSH_SP      .V/V                                                :Volume of Shale from SP
~A        DEPTH           CALI         CALI_1           CILD           DRHO             DT             GR           GR_1        GR_NORM            ILD            ILM           NPHI           RHOB            SFL             SP        SP_NORM         VSH_GR         VSH_SP
# ...
      6098.0000        14.3743        14.3757       1864.389         0.0239       123.7579        70.9012        70.4459       83.87699         0.5328         0.4761        50.3378         2.3079         0.6725       -26.2446      0.2761753              1              1
      6098.5000        14.3774        14.3772       1908.826         0.0259       123.1833         69.369        69.5094       82.41417         0.5246          0.458        49.7372         2.3102          0.659       -26.0974      0.5146144              1              1
      6099.0000        14.3798        14.3762       1905.432         0.0227       122.5953        67.5205        68.1625       80.31007         0.5281         0.4664        48.1835         2.3127         0.6427       -25.6893       1.175669              1              1
      6099.5000        14.3763        14.3784       1844.557         0.0192       122.0208        66.5245        67.0482       78.56944         0.5539         0.4938        45.6772         2.3157         0.6385         -25.42       1.611891      0.9695626              1
      6100.0000        14.3708        14.3831       1722.908         0.0209       121.4475        68.6053        67.3748        79.0802         0.5777         0.5187        44.1858         2.3182         0.6552       -25.9222      0.7984117      0.9804298              1
      6100.5000        14.3585        14.3882           1767         0.0234       121.0845        70.4946        69.6687       82.66487         0.5519         0.5025        42.7137         2.3114         0.6283       -26.2194       0.316995              1              1
      6101.0000        14.3412        14.3864       1960.498         0.0227        123.673        71.2664         70.641       84.18454         0.5134         0.4474        41.4762         2.2988         0.6032       -26.4138    0.002100921              1              1
      6101.5000        14.3112        14.3494       2121.711         0.0189       125.6783        70.1438        69.5168       82.42844         0.4988         0.4059        41.2281         2.2852          0.585       -26.4059       0.014898              1              1
      6102.0000        14.2693        14.2776        2186.82         0.0095       127.9839         67.859        67.7031       79.59499         0.5155         0.4279        42.6366         2.2772         0.5963       -26.4051     0.01619254      0.9913827              1
      6102.5000        14.1824        14.2004       1781.174         0.0014       128.6555        65.7683        64.2759       74.24043         0.5771         0.5136        44.2763         2.2726         0.6467       -26.4415    -0.04276919       0.877456      0.9992872
      6103.0000        14.0729        14.1444       1677.535        -0.0024       126.3181        63.7913         62.748       71.85355         0.6029          0.582        46.2426         2.2696         0.6817       -26.4856     -0.1142036      0.8266712      0.9980966
      6103.5000        14.0752        14.1102       1776.449        -0.0045       123.6902         62.856        62.8993       72.09041          0.585         0.5411        47.7702         2.2656         0.6866       -26.5426      -0.206536      0.8317108      0.9965577
      6104.0000        14.1468        14.1637       1925.951         -0.004       121.7637        63.8735        63.8172       73.52508         0.5466         0.4704        47.9988         2.2559         0.6656       -26.6732     -0.4180863      0.8622357      0.9930319
      6104.5000        14.2042        14.2209       2033.527         0.0004       121.1652        64.5231        64.0231       73.84726         0.5053          0.416         46.701         2.2484          0.655       -26.8643     -0.7276354      0.8690906      0.9878727
      6105.0000        14.2563        14.2641       2074.148         0.0069       121.7354        63.8012        63.3907       72.85957         0.4904         0.4069        44.4589         2.2463         0.6522        -27.173      -1.227679       0.848076      0.9795387
      6105.5000        14.2949        14.3005       1992.387         0.0109       122.2865         63.323          63.05       72.32769          0.503         0.4278        43.6991          2.255         0.6468       -27.4665      -1.703099      0.8367594       0.971615
      6106.0000        14.3169        14.3208       1851.643         0.0106       122.7885        63.8488        63.4796       72.99938         0.5179         0.4653        44.1072         2.2675         0.6286       -27.2447       -1.34382      0.8510507       0.977603
      6106.5000        14.3204        14.3209       1768.969         0.0106        123.291        64.6526        64.4919       74.58156         0.5355         0.4993        44.5931         2.2687         0.6048       -26.9179      -0.814459       0.884714      0.9864257
      6107.0000        14.3212        14.3273       1796.527         0.0116       123.6426        65.6324        65.3994       75.99998         0.5376         0.5233        46.2974         2.2804         0.5768       -26.6738     -0.4190565      0.9148933      0.9930157
      6107.5000        14.3271        14.3547       1903.609         0.0133       123.9886        66.9014        66.6563       77.96434         0.5298         0.4921        48.6509         2.2948         0.5689       -26.3998     0.02477851      0.9566881              1
      6108.0000        14.3321        14.3499       2011.973         0.0145       124.3204        67.7188        67.4681       79.23324         0.5138         0.4333         49.338         2.3039         0.5644       -26.9052     -0.7938855      0.9836859      0.9867686
      6108.5000        14.3209        14.3044       2091.348          0.015       124.6621         67.746        67.0957       78.65181         0.5003         0.4213        48.2191         2.3099         0.5739       -27.3333      -1.487338      0.9713151       0.975211
      6109.0000        14.2744        14.2538       2128.578         0.0131       125.0457        67.2573        66.9476       78.42086         0.4914         0.4185        45.5881         2.3155         0.5689        -27.692      -2.068372      0.9664013      0.9655271
      6109.5000        14.2237        14.2053       2095.828         0.0108       125.2848        68.6412         68.802       81.31882         0.4851         0.4331        43.2123         2.3104         0.5586       -27.2444      -1.343335              1      0.9776111
      6110.0000        14.1763        14.1616       1968.668         0.0089       125.0841        69.7397        70.2477       83.57818         0.5092         0.4644        45.1993         2.2964         0.5829        -26.891     -0.7708866              1      0.9871519
      6110.5000        14.1507        14.1266        1830.58         0.0026       124.2229        70.3746         70.644       84.19784         0.5471         0.4878        46.8643         2.2726          0.623       -27.2969      -1.428376              1      0.9761937
      6111.0000        14.1251        14.0916        1732.65        -0.0026       123.8035        70.1697        70.2903       83.64563         0.5641         0.5074        51.0015         2.2484         0.6265       -27.8338      -2.298064              1      0.9616989
      6111.5000        14.0963         14.062       1927.625        -0.0045       124.7396        69.4233        67.9303       79.95857         0.5304         0.5171        52.6545          2.235         0.6185        -28.187      -2.870192      0.9991186      0.9521635
      6112.0000        14.0652        14.0343       2115.707        -0.0011        126.024        67.1102         65.892       76.77419          0.484         0.4125        52.1411         2.2367         0.6067       -28.0034      -2.572791      0.9313657      0.9571202
      6112.5000        14.0397        14.0087       2147.254         0.0063       126.9812         66.113        65.7845       76.60667         0.4943         0.4156         48.366         2.2526         0.5753       -27.5885      -1.900718      0.9278015      0.9683214
