#------------------------------------------------------------------------------
# Created by    : vladimir.rabinovich
# Created on    : 09/19/2023 17:19:36
#------------------------------------------------------------------------------
~Version Information Section
VERS.           2.0     :   CWLS log ASCII Standard - VERSION 2.0
WRAP.           NO      :   One line per depth step
~Well Information Section
#MNEM       .UNIT                                         VALUE :DESCRIPTION
#------------------------------------------------------------------------------
STRT        .FT                                            4496 :START DEPTH
STOP        .FT                                            7801 :STOP DEPTH
STEP        .FT                                             0.5 :STEP      
NULL        .                                           -999.25 :NULL      
COMP        .                             HELIS WM G CO LLC THE :COMPANY   
WELL        .                               OCS G12508 ST00BP00 :WELL      
FLD         .                              GALVESTON BLOCK 0395 :FIELD     
LOC         .                                                   :LOCATION  
CNTY        .                             GALVESTON LARGE BLOCK :LOCATION  
STAT        .                                             TEXAS :STATE     
CTRY        .                                     UNITED STATES :COUNTRY   
SRVC        .                                                   :SERVICE COMPANY
DATE        .                             9/13/2023 11:19:03 AM :LOG DATE  
API         .                                    42706404300000 :API NUMBER
UWI         .                                    42706404300000 :UNIQUE WELL ID
XCOORD      .                                  908236.382466376 :SURFACE X 
YCOORD      .                                  10386259.9403327 :SURFACE Y 
LAT         .                                         28.601028 :LATITUDE  
LON         .                                        -95.282181 :LONGITUDE 
ELEV        .FT                                             103 :ELEVATION VALUE
ELEV_TYPE   .                                                KB :ELEVATION REFERENCE TYPE
~Curve Information Section
#MNEM       .UNIT                                      API CODE :CURVE DESCRIPTION
#------------------------------------------------------------------------------
DEPT        .FT                                                 :DEPTH     
AHT10       .OHMM                                               :          
AHT20       .OHMM                                               :          
AHT30       .OHMM                                               :          
AHT60       .OHMM                                               :          
AHT90       .OHMM                                               :          
CPCHM       .MMHO                                               :          
DCAL        .IN                                                 :          
DPHZ        .FRAC                                               :          
GR          .GAPI                                               :          
GR_NORM     .GAPI                                               :GammaRay Normalized
GRAM        .GAPI                                               :          
HDRA        .G/CC                                               :          
NPOR        .FRAC                                               :          
RACHM       .OHMM                                               :          
ROPS        .F/HR                                               :          
RPCHM       .OHMM                                               :          
RWA         .OHMM                                               :          
SP          .MV                                                 :          
SP_NORM     .MV                                                 :SP Normalized
TENS        .LB/F                                               :          
VSH_GR      .V/V                                                :Volume of Shale from GR
VSH_SP      .V/V                                                :Volume of Shale from SP
~A        DEPTH          AHT10          AHT20          AHT30          AHT60          AHT90          CPCHM           DCAL           DPHZ             GR        GR_NORM           GRAM           HDRA           NPOR          RACHM           ROPS          RPCHM            RWA             SP        SP_NORM           TENS         VSH_GR         VSH_SP
# ...
      7352.0000         0.8985         0.9413         0.9692         0.9966         0.9831       1192.848        -0.0624         0.1514          82.72       95.08339         73.689         0.1067         0.3511          0.955        159.687          0.902         0.0274        -17.375      -2.353055           3336              1      0.9663849
      7352.5000         0.8593         0.8991         0.9256          0.944         0.9361        1174.01         0.1059         0.1558         79.982       91.15582         74.109         0.1088         0.3934          0.956        159.687          0.833         0.0277        -20.125      -6.221292           3371              1      0.9111244
      7353.0000         0.8859         0.9153         0.9387         0.9542         0.9488       1121.151        -0.0864         0.1551        75.9805       85.41726         74.024         0.1133         0.4179          0.936        159.687           0.84         0.0278       -19.8125      -5.802029           3345              1      0.9171139
      7353.5000         0.9242         0.9731         0.9981         1.0129         1.0045       1129.678         0.0578         0.1454        71.8631        79.5126         73.555         0.1191         0.3834          0.927        207.667          0.796         0.0257          -19.5      -5.382767           3286      0.9896297      0.9231033
      7354.0000         0.9431         0.9911         1.0293         1.0431         1.0354       1160.565        -0.2066         0.1464        67.6509       73.47205         73.526         0.1223          0.385          0.915        207.667          0.781         0.0268         -16.75      -1.551003           3310      0.8611073      0.9778428
      7354.5000         0.9085         0.9658         0.9869         0.9992         0.9883       1191.451        -0.0383         0.1591        67.4403         73.167           71.9         0.1192         0.4187          0.908        207.667          0.792         0.0306            -16     -0.5192402           3314       0.854617      0.9925823
      7355.0000         0.8831         0.9425         0.9658         0.9761         0.9611       1221.115        -0.2788         0.1721        67.2234       72.85291         72.112         0.1143         0.3724          0.904        207.667          0.812         0.0353            -16     -0.5374769           3320      0.8479343      0.9923217
      7355.5000         0.8804         0.9346         0.9591          0.972         0.9583       1262.464         0.0338         0.1798        66.8022       72.24601         71.006         0.1064         0.3639          0.902        167.308          0.794         0.0386        -17.625      -2.830715           3316      0.8350215      0.9595612
      7356.0000          0.839         0.8891         0.9116         0.9273         0.9145       1266.219         0.0338         0.1779        70.3577        77.3389         73.562         0.1008         0.4099          0.902        167.308          0.786          0.036       -18.8125      -4.511452           3378      0.9433808      0.9355507
      7356.5000         0.8005         0.8431         0.8626         0.8744         0.8653       1266.219         0.0097         0.1789        78.0631       88.37987         72.046         0.0952         0.4106          0.912        167.308          0.809         0.0345        -18.125      -3.567189           3344              1      0.9490402
      7357.0000         0.8146         0.8499         0.8653          0.875         0.8665       1266.219         0.0097         0.1682        79.9586       91.09349         72.956         0.0991         0.4081           0.91        167.308          0.851         0.0303            -18      -3.410425           3366              1      0.9512796
      7357.5000         0.8338         0.8763         0.8978         0.9096         0.9022       1266.219          0.154         0.1607        74.7182       83.57922         72.929         0.1012         0.4098          0.911        154.601          0.849         0.0286         -17.75      -3.078663           3409              1      0.9560191
      7358.0000         0.8361         0.8824         0.9098         0.9225         0.9139        1248.13        -0.0143         0.1641         66.027       71.11892         75.395          0.098         0.3566          0.909        154.601          0.792         0.0303       -17.3125        -2.4844           3386      0.8110408      0.9645086
      7358.5000          0.842         0.8908         0.9148         0.9271         0.9234       1211.951        -0.0864         0.1672        70.2392       77.15306         73.291         0.0963         0.3776          0.905        154.601          0.779         0.0318       -16.4375      -1.277637           3371      0.9394268       0.981748
      7359.0000         0.8622         0.9064         0.9304         0.9457         0.9408       1187.714        -0.1946         0.1703        78.0317       88.31886         74.836         0.0982         0.3774          0.901        154.601          0.793         0.0338        -18.625      -4.358374           3356              1      0.9377375
      7359.5000         0.8633         0.9266         0.9503          0.965         0.9586       1267.004         -0.423          0.167        81.4255          93.18         72.786         0.1037         0.3904          0.898        160.095          0.825          0.033        -18.125      -3.676611           3407              1       0.947477
      7360.0000         0.8442         0.8888         0.9157         0.9361         0.9283       1241.381         0.0578         0.1669        74.4753       83.21507         75.815         0.1013         0.4159          0.911        160.095          0.805         0.0319        -18.375      -4.044848           3401              1      0.9422165
      7360.5000         0.8356         0.8696         0.8985         0.9178         0.9142       1215.759         0.0819         0.1614        68.3677       74.45785         75.124         0.0959         0.4447          0.924        160.095          0.804         0.0292        -17.625      -3.013085           3358      0.8820819      0.9569559
      7361.0000         0.8576          0.899         0.9253          0.945         0.9374       1226.031        -0.0864         0.1488        63.5307       67.52178         77.607         0.0932         0.3618          0.926        160.095          0.851         0.0251        -17.125      -2.331322           3374       0.734506      0.9666954
      7361.5000         0.8937         0.9451         0.9753          0.997         0.9944        1251.48        -0.1586          0.152        67.3217       72.95223         76.787         0.0876         0.3172           0.92        220.468          0.843         0.0279        -20.125       -6.54956           3344      0.8500475      0.9064348
      7362.0000         0.8658          0.925         0.9552         0.9782         0.9754       1246.388        -0.1105         0.1544         66.058       71.13776         76.774         0.0861         0.3522          0.902        220.468          0.787         0.0283        -19.625      -5.867796           3394      0.8114418      0.9161744
      7362.5000         0.8443          0.897         0.9204         0.9401         0.9386       1233.619         0.0097         0.1624        72.6603       80.59764         74.504         0.0811         0.3785          0.893        220.468          0.763         0.0304        -19.125      -5.186033           3369              1      0.9259138
      7363.0000         0.8365         0.8838          0.906          0.925         0.9228       1220.851         0.0097         0.1647        74.2374       82.85489         71.731         0.0778         0.3964          0.889        220.468          0.789         0.0308       -16.9375       -2.14177           3374              1      0.9694033
      7363.5000         0.8122         0.8557         0.8755         0.8933         0.8882       1213.307         0.1059         0.1692        79.5026       90.39832         70.529         0.0744         0.3996          0.893        208.534          0.821         0.0314       -17.3125      -2.685008           3377              1      0.9616427
