#------------------------------------------------------------------------------
# Created by    : vladimir.rabinovich
# Created on    : 09/19/2023 17:20:18
#------------------------------------------------------------------------------
~Version Information Section
VERS.           2.0     :   CWLS log ASCII Standard - VERSION 2.0
WRAP.           NO      :   One line per depth step
~Well Information Section
#MNEM       .UNIT                                         VALUE :DESCRIPTION
#------------------------------------------------------------------------------
STRT        .FT                                             780 :START DEPTH
STOP        .FT                                            9803 :STOP DEPTH
STEP        .FT                                             0.5 :STEP      
NULL        .                                           -999.25 :NULL      
COMP        .                                  SAMEDAN OIL CORP :COMPANY   
WELL        .                               OCS G04076 ST00BP00 :WELL      
FLD         .                            HIGH ISLAND BLOCK 0105 :FIELD     
LOC         .                                                   :LOCATION  
CNTY        .                           HIGH ISLAND LARGE BLOCK :LOCATION  
STAT        .                                             TEXAS :STATE     
CTRY        .                                     UNITED STATES :COUNTRY   
SRVC        .                                                   :SERVICE COMPANY
DATE        .                             9/13/2023 11:19:59 AM :LOG DATE  
API         .                                    42708401630000 :API NUMBER
UWI         .                                    42708401630000 :UNIQUE WELL ID
XCOORD      .                                  1167393.84075462 :SURFACE X 
YCOORD      .                                  10652000.2522841 :SURFACE Y 
LAT         .                                        29.3430877 :LATITUDE  
LON         .                                       -94.4850788 :LONGITUDE 
ELEV        .FT                                              87 :ELEVATION VALUE
ELEV_TYPE   .                                                KB :ELEVATION REFERENCE TYPE
~Curve Information Section
#MNEM       .UNIT                                      API CODE :CURVE DESCRIPTION
#------------------------------------------------------------------------------
DEPT        .FT                                                 :DEPTH     
ASFL        .OHMM                                               :          
CILD        .MMHO                                               :          
DT          .US/F                                               :          
GR          .GAPI                                               :          
GR_1        .GAPI                                               :          
GR_NORM     .GAPI                                               :GammaRay Normalized
ILD         .OHMM                                               :          
SP          .MV                                                 :          
SP_NORM     .MV                                                 :SP Normalized
VSH_GR      .V/V                                                :Volume of Shale from GR
VSH_SP      .V/V                                                :Volume of Shale from SP
~A        DEPTH           ASFL           CILD             DT             GR           GR_1        GR_NORM            ILD             SP        SP_NORM         VSH_GR         VSH_SP
# ...
      7395.0000         0.6388       2074.785        -999.25        -999.25        70.9458       85.42831         0.4812       -70.9985       3.440903              1              1
      7395.5000         0.6049       2178.719        -999.25        -999.25        71.6127       86.37393         0.4477       -74.1705       0.265686              1              1
      7396.0000         0.5769       2248.984        -999.25        -999.25        72.2797       87.31971         0.4143       -77.4099      -2.976929              1      0.9732847
      7396.5000         0.5534       2293.418        -999.25        -999.25        72.4803       87.60208         0.4279        -78.149      -3.719254              1      0.9632533
      7397.0000         0.5538       2325.223        -999.25        -999.25        71.0828       85.61139          0.448       -78.8894       -4.46286              1      0.9532046
      7397.5000         0.5548       2357.078        -999.25        -999.25        69.6853        83.6207         0.4682       -79.5209       -5.09758              1      0.9446273
      7398.0000         0.5559       2371.785        -999.25        -999.25        67.3577       80.30706         0.4884       -80.1407      -5.720596              1      0.9362081
      7398.5000         0.5644       2343.621        -999.25        -999.25        64.7975       76.66259         0.5133         -80.76      -6.343117      0.9289913      0.9277957
      7399.0000         0.5926       2286.371        -999.25        -999.25        62.5091       73.40472         0.5554       -81.3799      -6.966232      0.8596748      0.9193752
      7399.5000          0.621       2229.023        -999.25        -999.25        60.0419       69.89253         0.5975       -81.0996      -6.689148      0.7849475      0.9231196
      7400.0000         0.6545        2171.77        -999.25        -999.25        56.9874       65.54498         0.6397       -80.6597      -6.252464      0.6924463      0.9290208
      7400.5000         0.6952       1969.873        -999.25        -999.25        55.2931       63.13213         0.6818       -77.1125      -2.708488      0.6411092      0.9769123
      7401.0000         0.8128       1594.457        -999.25        -999.25        55.5898        63.5512         0.7239       -73.3629       1.037903      0.6500255              1
      7401.5000          0.833       1249.871        -999.25        -999.25        56.8516       65.34298         0.7558       -73.6737      0.7238846      0.6881485              1
      7402.0000         0.8532       1233.234        -999.25        -999.25        58.0839       67.09281         0.7698       -75.0333     -0.6389313       0.725379              1
      7402.5000         0.8734       1217.135        -999.25        -999.25        59.8045       69.53718         0.7837       -75.8398      -1.448647      0.7773868      0.9939372
      7403.0000         0.8844       1201.035        -999.25        -999.25        61.2486       71.58823         0.7976        -75.417      -1.029068      0.8210263      0.9996072
      7403.5000         0.8886       1244.879        -999.25        -999.25         63.728        75.1119         0.8115       -74.9935     -0.6087799      0.8959979              1
      7404.0000         0.8693       1354.195        -999.25        -999.25        65.1866       77.18361         0.7718        -75.431        -1.0495      0.9400768      0.9993311
      7404.5000         0.8311       1533.781        -999.25        -999.25        66.4349        78.9562         0.7219       -77.3059      -2.927612      0.9777915      0.9739512
      7405.0000         0.7357       1824.443        -999.25        -999.25        67.4714       80.42751         0.6682       -79.0632      -4.688133              1      0.9501604
      7405.5000         0.6399       1973.787        -999.25        -999.25        68.8654       82.40735          0.604       -80.5513      -6.179451              1      0.9300074
      7406.0000         0.5893       2129.785        -999.25        -999.25        70.4929       84.71928           0.54        -82.037      -7.668365              1       0.909887
      7406.5000         0.5627       2260.145        -999.25        -999.25        72.2013       87.14629         0.4758       -83.6915       -9.32608              1      0.8874854
      7407.0000         0.5423       2381.887        -999.25        -999.25        74.2769       90.09561         0.4117       -85.3877      -11.02551              1      0.8645202
      7407.5000         0.5325       2486.898        -999.25        -999.25        76.0244       92.57823         0.3476       -87.0839      -12.72491              1      0.8415552
      7408.0000         0.5448       2555.895        -999.25        -999.25        79.2797       97.20548         0.3524       -84.7954      -10.43964              1      0.8724374
      7408.5000         0.5808       2584.617        -999.25        -999.25         81.928       100.9694         0.3856       -79.8195      -5.466949              1      0.9396358
      7409.0000         0.6237       2613.344        -999.25        -999.25        84.2506         104.27         0.4325       -72.6041       1.745232              1              1
      7409.5000         0.6455       2624.352        -999.25        -999.25        78.4524       96.01994         0.4795       -74.6405     -0.2943878              1              1
      7410.0000          0.661       2519.293        -999.25        -999.25        75.3954       91.66882         0.5264       -94.6932       -20.3503              1      0.7385095
      7410.5000         0.6728       2393.047        -999.25        -999.25         73.009       88.27156         0.5733       -94.2234      -19.88371              1      0.7448147
      7411.0000         0.6836       2101.012        -999.25        -999.25        69.8615       83.79175         0.5923       -92.1307      -17.79423              1       0.773051
      7411.5000         0.6934       1948.146        -999.25        -999.25        64.7412       76.50587         0.6092       -90.0381      -15.70485      0.9256569      0.8012858
      7412.0000         0.7011       1887.469        -999.25        -999.25        60.3956       70.32192         0.6262        -87.943      -13.61297      0.7940835      0.8295545
      7412.5000         0.6937       1788.232        -999.25        -999.25        61.7332       72.22153          0.596       -85.5321      -11.20528      0.8345006      0.8620909
      7413.0000         0.6629       1695.162        -999.25        -999.25        63.7549       75.09415         0.5623       -81.5022      -7.178596      0.8956203      0.9165055
      7413.5000         0.6042       1622.545        -999.25        -999.25        65.9185       78.16865         0.5206       -83.3146      -8.994217      0.9610351        0.89197
      7414.0000          0.546       1524.189        -999.25        -999.25        68.0797       76.08282         0.4659       -85.9873      -11.67013      0.9166558      0.8558091
      7414.5000         0.4973       1607.768        -999.25        -999.25        68.9131       77.53924         0.4113       -90.0306      -15.71665      0.9476433      0.8011263
      7415.0000         0.4493       1853.217        -999.25        -999.25        69.0366       77.75193         0.3565      -100.9272      -26.61646      0.9521687      0.6538316
      7415.5000         0.4021        1979.66        -999.25        -999.25        67.7456       75.48664         0.3163      -113.2825      -38.97498      0.9039711      0.4868245
      7416.0000         0.3761       2503.828        -999.25        -999.25        66.3492       73.03673         0.2858      -118.7601       -44.4558      0.8518453      0.4127594
      7416.5000         0.3693       3207.684        -999.25        -999.25        64.4597       69.72295         0.2552      -122.4094      -48.10831      0.7813393      0.3634011
      7417.0000         0.3886       3910.754        -999.25        -999.25        62.5703       66.40933         0.2305      -124.6122      -50.31433      0.7108368      0.3335901
