#------------------------------------------------------------------------------
# Created by    : vladimir.rabinovich
# Created on    : 09/19/2023 17:20:02
#------------------------------------------------------------------------------
~Version Information Section
VERS.           2.0     :   CWLS log ASCII Standard - VERSION 2.0
WRAP.           NO      :   One line per depth step
~Well Information Section
#MNEM       .UNIT                                         VALUE :DESCRIPTION
#------------------------------------------------------------------------------
STRT        .FT                                             994 :START DEPTH
STOP        .FT                                           14137 :STOP DEPTH
STEP        .FT                                             0.5 :STEP      
NULL        .                                           -999.25 :NULL      
COMP        .                                   MARATHON OIL CO :COMPANY   
WELL        .                                     ST TR 00841-L :WELL      
FLD         .                                           WILDCAT :FIELD     
LOC         .                                                   :LOCATION  
CNTY        .                        MUSTANG ISLAND LARGE BLOCK :LOCATION  
STAT        .                                             TEXAS :STATE     
CTRY        .                                     UNITED STATES :COUNTRY   
SRVC        .                                                   :SERVICE COMPANY
DATE        .                             9/13/2023 11:18:55 AM :LOG DATE  
API         .                                    42702301400000 :API NUMBER
UWI         .                                    42702301400000 :UNIQUE WELL ID
XCOORD      .                                  272565.632686387 :SURFACE X 
YCOORD      .                                  9953986.84876921 :SURFACE Y 
LAT         .                                         27.367086 :LATITUDE  
LON         .                                       -97.2136853 :LONGITUDE 
ELEV        .FT                                              88 :ELEVATION VALUE
ELEV_TYPE   .                                                KB :ELEVATION REFERENCE TYPE
~Curve Information Section
#MNEM       .UNIT                                      API CODE :CURVE DESCRIPTION
#------------------------------------------------------------------------------
DEPT        .FT                                                 :DEPTH     
ASFL        .OHMM                                               :          
CILD        .MMHO                                               :          
GR          .GAPI                                               :          
GR_NORM     .GAPI                                               :GammaRay Normalized
ILD         .OHMM                                               :          
SP          .MV                                                 :          
SP_NORM     .MV                                                 :SP Normalized
VSH_GR      .V/V                                                :Volume of Shale from GR
VSH_SP      .V/V                                                :Volume of Shale from SP
~A        DEPTH           ASFL           CILD             GR        GR_NORM            ILD             SP        SP_NORM         VSH_GR         VSH_SP
# ...
      7990.0000         2.5178        560.458        33.0065       38.72404         1.9558       -100.364      -23.97582       0.121788      0.4778222
      7990.5000         2.7513       584.9043        33.4758       39.59885         1.9511      -101.3475      -24.96581      0.1404012      0.4553226
      7991.0000          3.144       609.3506        33.9451       40.47367         1.9131      -102.1814      -25.80617      0.1590142      0.4362235
      7991.5000         3.2722       633.0977         34.415       41.34959         1.8489      -103.3457      -26.97695      0.1776509      0.4096147
      7992.0000         3.2072       656.7695        34.8843        42.2244         1.7847      -104.2108      -27.84853      0.1962637      0.3898062
      7992.5000         3.0783       680.4658        35.3536       43.09921         1.7298      -103.6168        -27.261      0.2148769      0.4031591
      7993.0000         2.9397       704.1377        36.0978        44.4844         1.6893      -102.9879      -26.63858       0.244349       0.417305
      7993.5000         2.8376       693.3262        37.0302       46.21902         1.6489       -101.724      -25.38115      0.2812557       0.445883
      7994.0000         2.7166       674.2988        37.9626       47.95362         1.6104      -100.5386      -24.20222      0.3181622      0.4726767
      7994.5000         2.5223       655.2207          38.89       49.67895         1.6322       -99.4603       -23.1304      0.3548713      0.4970363
      7995.0000         2.3254       635.6943         39.699       51.18445         1.6541       -97.8997      -21.57628      0.3869032      0.5323573
      7995.5000         2.1086        616.167        39.8953       51.55241         1.6777       -94.4518      -18.13486      0.3947322      0.6105714
      7996.0000         1.9997       596.6406         39.783       51.34742         1.7178       -93.0482      -16.73773      0.3903707      0.6423243
      7996.5000         1.9553       577.1133        39.2621       50.38381          1.758       -88.1669      -11.86291      0.3698682      0.7531157
      7997.0000          1.986       557.6611        38.6906       49.32626         1.7981       -84.8337      -8.536186      0.3473673       0.828723
      7997.5000          2.022       538.4844        38.1197       48.26983         1.8382       -84.5619      -8.270859        0.32489      0.8347532
      7998.0000         2.0761       519.2822        37.5482       47.21227         1.8929       -86.8729      -10.58833      0.3023887      0.7820833
      7998.5000         2.1302       501.2163        36.9772       46.15565          1.951       -88.3389      -12.06081      0.2799074      0.7486181
      7999.0000         2.1843       488.6685        36.4057       45.09808         2.0091        -89.902      -13.63039       0.257406      0.7129458
      7999.5000         2.2517       483.9614        35.8049       43.98615         2.0614       -91.7219      -15.45676      0.2337479      0.6714372
      8000.0000         2.3309       491.2778        35.0695       42.62429         2.1078       -93.5419      -17.28324      0.2047721      0.6299263
      8000.5000           2.41       498.6069        34.4686       41.51216         2.1543       -94.4518      -18.19961      0.1811097      0.6090998
      8001.0000         2.0923       505.9355        35.7999       43.98737         2.1908       -94.6145      -18.36879      0.2337739      0.6052548
      8001.5000         1.9493         525.25         37.378       46.92079         2.0602       -93.9744      -17.73517       0.296187      0.6196553
      8002.0000         1.8743       546.2256        38.9935       49.92365         1.9333       -93.0183      -16.78555      0.3600777      0.6412376
      8002.5000         1.7993       567.2002         40.498       52.72041         1.8194       -90.8369      -14.61062      0.4195833      0.6906677
      8003.0000         1.7243       588.1504        41.6947       54.94575         1.7133       -86.4417      -10.22189      0.4669309      0.7904115
      8003.5000          1.652          609.5        42.8016       57.00434         1.6312       -82.5189      -6.305565      0.5107307       0.879419
      8004.0000         1.4787        650.751        43.6717       58.62328         1.5698       -81.3359      -5.129044      0.5451761      0.9061581
      8004.5000           1.53       692.0029        44.8945       60.89704         1.5671       -80.2739      -4.073524      0.5935541      0.9301472
      8005.0000         1.5791       732.1553        46.4053       63.70553         1.5644       -79.2418       -3.04789      0.6533091      0.9534571
      8005.5000         1.6183       767.6631        49.7509        69.9205         1.5594       -78.3082      -2.120766      0.7855426      0.9745281
      8006.0000          1.656        764.916        50.7762       71.82761          1.547       -77.4618      -1.280846      0.8261193      0.9936171
      8006.5000           1.74       734.6025        50.8379       71.94564         1.5347       -77.9055      -1.731026      0.8286306      0.9833858
      8007.0000         1.8408       716.8984        49.7036        69.8432         1.5223        -78.884      -2.716003      0.7838979      0.9609999
      8007.5000         1.8063       699.9678        48.6041       67.80535         1.5098       -79.8077      -3.646172      0.7405394      0.9398597
      8008.0000         1.7718        707.834        47.5047       65.76771         1.4917       -80.5643      -4.409248      0.6971853      0.9225171
      8008.5000         1.7282       751.2695        46.4065       63.73227         1.4736       -80.4883      -4.339722      0.6538782      0.9240972
      8009.0000         1.6419        738.373        45.3931       61.85427         1.4523       -80.2443      -4.102203      0.6139206      0.9294954
      8009.5000         1.5152       728.3096        44.4383       60.08508         1.4301       -80.0454      -3.909782      0.5762782      0.9338686
      8010.0000         1.4275       763.0684        43.4835       58.31591          1.408       -80.0146      -3.885452      0.5386364      0.9344215
      8010.5000         1.4572       786.0908        43.1307       57.66437         1.3869       -79.9839      -3.861229      0.5247738       0.934972
      8011.0000         1.4879       809.1387        43.9696       59.22539         1.3703       -80.1866      -4.070404       0.557987      0.9302181
      8011.5000          1.522       802.7461        44.7948       60.76097         1.4026       -80.5557      -4.445984      0.5906589      0.9216822
      8012.0000         1.5561       789.2373          45.61       62.27801         1.4355        -80.924      -4.820763      0.6229364      0.9131645
      8012.5000         1.5954       775.7529         46.424        63.7928         1.4686       -81.2701      -5.173332      0.6551659      0.9051515
      8013.0000          1.484       762.2441         47.238       65.30757         1.5222       -81.5715      -5.481209      0.6873952      0.8981543
      8013.5000         1.3827       791.6348        47.9528       66.63818          1.613       -81.8732      -5.789383      0.7157061      0.8911504
      8014.0000         1.3465       764.3174        48.3398        67.3602         1.6988       -82.2253      -6.147964      0.7310681      0.8830008
      8014.5000         1.3453       734.8018        47.8157       66.39066         1.7745       -82.6921      -6.621231      0.7104395      0.8722448
      8015.0000         1.9179       705.2373        47.2916        65.4211         1.8503       -83.6781      -7.613708      0.6898106      0.8496885
      8015.5000         1.9656       675.6719        45.9416       62.91818         1.8861       -84.0583      -8.000381       0.636557      0.8409004
      8016.0000         2.0026         643.71         44.189       59.66776         1.9178       -83.3204      -7.268959      0.5673992      0.8575237
