#------------------------------------------------------------------------------
# Created by    : vladimir.rabinovich
# Created on    : 09/19/2023 17:20:25
#------------------------------------------------------------------------------
~Version Information Section
VERS.           2.0     :   CWLS log ASCII Standard - VERSION 2.0
WRAP.           NO      :   One line per depth step
~Well Information Section
#MNEM       .UNIT                                         VALUE :DESCRIPTION
#------------------------------------------------------------------------------
STRT        .FT                                             293 :START DEPTH
STOP        .FT                                            8505 :STOP DEPTH
STEP        .FT                                             0.5 :STEP      
NULL        .                                           -999.25 :NULL      
COMP        .                                        TEXACO USA :COMPANY   
WELL        .                                     ST TR 00058-L :WELL      
FLD         .                                           WILDCAT :FIELD     
LOC         .                                                   :LOCATION  
CNTY        .                           HIGH ISLAND LARGE BLOCK :LOCATION  
STAT        .                                             TEXAS :STATE     
CTRY        .                                     UNITED STATES :COUNTRY   
SRVC        .                                                   :SERVICE COMPANY
DATE        .                             9/13/2023 11:19:15 AM :LOG DATE  
API         .                                    42708000230000 :API NUMBER
UWI         .                                    42708000230000 :UNIQUE WELL ID
XCOORD      .                                  1179226.38702832 :SURFACE X 
YCOORD      .                                  10699123.4735792 :SURFACE Y 
LAT         .                                        29.4730929 :LATITUDE  
LON         .                                        -94.449778 :LONGITUDE 
ELEV        .FT                                              80 :ELEVATION VALUE
ELEV_TYPE   .                                                KB :ELEVATION REFERENCE TYPE
~Curve Information Section
#MNEM       .UNIT                                      API CODE :CURVE DESCRIPTION
#------------------------------------------------------------------------------
DEPT        .FT                                                 :DEPTH     
ASN         .OHMM                                               :          
CILD        .MMHO                                               :          
ILD         .OHMM                                               :          
LAT         .OHMM                                               :          
LN          .OHMM                                               :          
SP          .MV                                                 :          
SP_NORM     .MV                                                 :SP Normalized
VSH_SP      .V/V                                                :Volume of Shale from SP
~A        DEPTH            ASN           CILD            ILD            LAT             LN             SP        SP_NORM         VSH_SP
# ...
      5190.0000         0.5522        -999.25        -999.25         0.1758         0.3987      -107.2921      -66.32825     0.05399637
      5190.5000         0.5803        -999.25        -999.25         0.1624         0.3949      -107.4164      -66.45255     0.05216845
      5191.0000         0.6227        -999.25        -999.25         0.1491          0.391      -107.5406      -66.57675     0.05034189
      5191.5000         0.6833        -999.25        -999.25         0.1358         0.3871      -107.6648      -66.70094     0.04851554
      5192.0000         0.7438        -999.25        -999.25         0.1224         0.3832      -107.4126      -66.44875     0.05222433
      5192.5000         0.8275        -999.25        -999.25         0.1091         0.3788      -106.9718      -66.00795     0.05870662
      5193.0000         0.8785        -999.25        -999.25         0.0958         0.3739       -106.531      -65.56714     0.06518914
      5193.5000         0.8979        -999.25        -999.25         0.0824          0.369      -105.3037      -64.33984     0.08323759
      5194.0000         0.8819        -999.25        -999.25         0.0691         0.3641      -104.2765      -63.31264     0.09834351
      5194.5000          0.878        -999.25        -999.25         0.0688         0.3592      -105.4722      -64.50835     0.08075961
      5195.0000         0.8752        -999.25        -999.25          0.071         0.3544      -106.6678      -65.70395     0.06317722
      5195.5000         0.8561        -999.25        -999.25         0.0731         0.3495      -107.8392      -66.87535     0.04595072
      5196.0000         0.8358        -999.25        -999.25         0.0752         0.3446      -108.7878      -67.82394     0.03200082
      5196.5000         0.7738        -999.25        -999.25         0.0774         0.3451      -109.3153      -68.35144     0.02424352
      5197.0000         0.7087        -999.25        -999.25         0.0795         0.3457      -108.8105      -67.84665     0.03166692
      5197.5000         0.6497        -999.25        -999.25         0.0816         0.3463      -108.3053      -67.34145     0.03909639
      5198.0000         0.6011        -999.25        -999.25         0.0837         0.3469      -108.4843      -67.52045     0.03646402
      5198.5000         0.5624        -999.25        -999.25         0.0841         0.3475      -109.3148      -68.35094     0.02425093
      5199.0000         0.5202        -999.25        -999.25          0.078         0.3482      -110.1454      -69.18155     0.01203604
      5199.5000         0.4766        -999.25        -999.25         0.0719         0.3488      -110.9766      -70.01274              0
      5200.0000         0.4452        -999.25        -999.25         0.0657         0.3502       -110.838      -69.87415    0.001850801
      5200.5000         0.4271        -999.25        -999.25         0.0596          0.355      -110.5939      -69.63005    0.005440432
      5201.0000         0.4372        -999.25        -999.25         0.0535         0.3598      -109.8163      -68.85245     0.01687577
      5201.5000         0.4582        -999.25        -999.25         0.0473         0.3645      -108.7823      -67.81845      0.0320816
      5202.0000         0.4578        -999.25        -999.25         0.0412         0.3693      -107.7473      -66.78345     0.04730225
      5202.5000         0.4372        -999.25        -999.25         0.0442          0.374      -104.9159      -63.95205     0.08894051
      5203.0000         0.4166        -999.25        -999.25         0.0503         0.3788      -101.7242      -60.76034      0.1358773
      5203.5000         0.4186        -999.25        -999.25         0.0563         0.3762       -98.5327      -57.56884      0.1828111
      5204.0000         0.4219        -999.25        -999.25         0.0624         0.3706       -90.7444      -49.78054      0.2973449
      5204.5000         0.4253        -999.25        -999.25         0.0685          0.365       -81.3026      -40.33874       0.436195
      5205.0000         0.4286        -999.25        -999.25          0.094         0.3595       -61.7277      -20.76384      0.7240611
      5205.5000         0.4376        -999.25        -999.25         0.1405         0.3539       -57.2417      -16.27784      0.7900317
      5206.0000         0.4524        -999.25        -999.25          0.187         0.3483       -69.5559      -28.59204      0.6089405
      5206.5000         0.4679        -999.25        -999.25         0.2303         0.3427        -78.479      -37.51514      0.4777185
      5207.0000         0.4951        -999.25        -999.25         0.2084         0.3478       -84.3967      -43.43284      0.3906935
      5207.5000         0.5223        -999.25        -999.25         0.1865         0.3584       -86.1122      -45.14834      0.3654656
      5208.0000         0.5495        -999.25        -999.25         0.1733         0.3691       -77.4462      -36.48234      0.4929067
      5208.5000         0.5749        -999.25        -999.25         0.1727         0.3797       -65.5752      -24.61135      0.6674802
      5209.0000         0.6003        -999.25        -999.25         0.1721         0.3903       -52.7913      -11.82745      0.8554788
      5209.5000         0.6141        -999.25        -999.25         0.1715          0.401       -45.0206      -4.056744      0.9697537
      5210.0000         0.6241        -999.25        -999.25         0.1761         0.4116       -39.7191       1.244755              1
      5210.5000         0.6367        -999.25        -999.25         0.1901         0.4222       -37.2456       3.718254              1
      5211.0000         0.6706        -999.25        -999.25         0.2041         0.4329       -34.7722       6.191654              1
      5211.5000          0.682        -999.25        -999.25         0.2182         0.4342       -34.5231       6.440754              1
      5212.0000         0.6825        -999.25        -999.25         0.2204         0.4354       -34.3965       6.567356              1
      5212.5000         0.6822        -999.25        -999.25         0.2114         0.4365       -36.4056       4.558254              1
      5213.0000         0.6814        -999.25        -999.25         0.2024         0.4377        -38.571       2.392857              1
      5213.5000         0.6899        -999.25        -999.25         0.1933         0.4388       -40.7364      0.2274551              1
      5214.0000         0.7035        -999.25        -999.25         0.1843           0.44       -42.9018      -1.937943              1
      5214.5000         0.7171        -999.25        -999.25         0.1753         0.4411        -45.065      -4.101143      0.9691008
      5215.0000         0.7308        -999.25        -999.25         0.1663         0.4446       -53.9615      -12.99764      0.8382699
      5215.5000         0.7444        -999.25        -999.25         0.1572         0.4666       -60.6572      -19.69334      0.7398038
      5216.0000         0.7647        -999.25        -999.25         0.1497         0.4886       -61.8817      -20.91784      0.7217965
      5216.5000         0.7834        -999.25        -999.25         0.1422         0.5106       -63.1052      -22.14135      0.7038037
      5217.0000         0.7915        -999.25        -999.25         0.1346         0.5326       -64.3297      -23.36584      0.6857964
      5217.5000         0.8006        -999.25        -999.25         0.1271         0.5547       -64.4515      -23.48764      0.6840053
      5218.0000         0.8169        -999.25        -999.25         0.1196          0.574       -61.9781      -21.01424      0.7203788
      5218.5000         0.8331        -999.25        -999.25          0.112         0.5852       -59.1655      -18.20164      0.7617405
      5219.0000         0.8235        -999.25        -999.25         0.1045         0.5965       -56.3508      -15.38694      0.8031332
