#------------------------------------------------------------------------------
# Created by    : vladimir.rabinovich
# Created on    : 09/19/2023 17:19:58
#------------------------------------------------------------------------------
~Version Information Section
VERS.           2.0     :   CWLS log ASCII Standard - VERSION 2.0
WRAP.           NO      :   One line per depth step
~Well Information Section
#MNEM       .UNIT                                         VALUE :DESCRIPTION
#------------------------------------------------------------------------------
STRT        .FT                                             782 :START DEPTH
STOP        .FT                                            8251 :STOP DEPTH
STEP        .FT                                             0.5 :STEP      
NULL        .                                           -999.25 :NULL      
COMP        .                                     TALOS ERT LLC :COMPANY   
WELL        .                               OCS G06037 ST00BP00 :WELL      
FLD         .                       MATAGORDA ISLAND BLOCK 0619 :FIELD     
LOC         .                                                   :LOCATION  
CNTY        .                      MATAGORDA ISLAND LARGE BLOCK :LOCATION  
STAT        .                                             TEXAS :STATE     
CTRY        .                                     UNITED STATES :COUNTRY   
SRVC        .                                                   :SERVICE COMPANY
DATE        .                             9/13/2023 11:18:52 AM :LOG DATE  
API         .                                    42703402240000 :API NUMBER
UWI         .                                    42703402240000 :UNIQUE WELL ID
XCOORD      .                                  606760.800591327 :SURFACE X 
YCOORD      .                                  10227689.0556145 :SURFACE Y 
LAT         .                                        28.1463556 :LATITUDE  
LON         .                                       -96.2076889 :LONGITUDE 
ELEV        .FT                                              77 :ELEVATION VALUE
ELEV_TYPE   .                                                KB :ELEVATION REFERENCE TYPE
~Curve Information Section
#MNEM       .UNIT                                      API CODE :CURVE DESCRIPTION
#------------------------------------------------------------------------------
DEPT        .FT                                                 :DEPTH     
ASFL        .OHMM                                               :          
CALI        .IN                                                 :          
CILD        .MMHO                                               :          
DRHO        .G/C3                                               :          
DT          .US/F                                               :          
GR          .GAPI                                               :          
GR_NORM     .GAPI                                               :GammaRay Normalized
ILD         .OHMM                                               :          
ILM         .OHMM                                               :          
NPHI        .%                                                  :          
RHOB        .G/C3                                               :          
SFL         .OHMM                                               :          
SP          .MV                                                 :          
SP_NORM     .MV                                                 :SP Normalized
VSH_GR      .V/V                                                :Volume of Shale from GR
VSH_SP      .V/V                                                :Volume of Shale from SP
~A        DEPTH           ASFL           CALI           CILD           DRHO             DT             GR        GR_NORM            ILD            ILM           NPHI           RHOB            SFL             SP        SP_NORM         VSH_GR         VSH_SP
# ...
      1790.0000         0.5237        22.6562       2162.145         0.0699       141.1392        30.3576       36.07771         0.4622         0.4892        51.5457         1.8284         0.5008       -69.3121      -8.948235     0.06548318      0.2279739
      1790.5000         0.5247         22.652           2153         0.0779       140.1301         29.955       35.58849         0.4611         0.4978        51.9411         1.8831         0.4918       -69.3152      -8.956779     0.05507416      0.2270245
      1791.0000         0.5342        22.6447       2144.027         0.0889       137.4622        29.5697       35.12053          0.462         0.5097        52.7066          1.918         0.5147       -69.3945      -9.041527     0.04511756      0.2176081
      1791.5000         0.5437        22.6321        2135.52         0.0983       134.8623        29.2686        34.7561          0.462          0.524        53.1412         1.9021         0.5388        -69.526      -9.178474     0.03736374      0.2023917
      1792.0000         0.5499        22.6203       2127.016         0.0972       133.8113        29.7512        35.3553         0.4614         0.5258        53.1431         1.8807         0.5653       -69.7007      -9.358624     0.05011278      0.1823752
      1792.5000         0.5534        22.7883        2120.59         0.0809         133.47        31.8035       37.88458         0.4625         0.5258        52.6143         1.8712         0.5832       -69.9185      -9.581875      0.1039273      0.1575695
      1793.0000         0.5568        22.6381       2138.344         0.0679       133.7146        33.0402       39.41103         0.4618         0.5214        51.3889         1.9128         0.5739       -70.1392      -9.808018      0.1364048      0.1324425
      1793.5000         0.5558        22.2321       2156.098         0.0719       133.9949         33.275       39.70554         0.4617         0.5118        50.7171         1.9429         0.5573       -70.3436      -10.01786      0.1426711      0.1091262
      1794.0000         0.5514        21.7867       2173.855         0.0779       133.9687        32.9901       39.36104         0.4586          0.497        51.6233         1.9459          0.555       -70.5309      -10.21062      0.1353412     0.08770922
      1794.5000         0.5469        22.3721       2278.746         0.0785       133.1714        32.5764       38.85816         0.4467         0.4848        53.9846         1.9212         0.5523       -70.6665      -10.35166      0.1246417     0.07203759
      1795.0000         0.5385        22.6229       2371.188         0.0775       133.1802        32.1498       38.33942         0.4307         0.4736        55.2418         1.8735         0.5462        -70.719      -10.40961      0.1136047     0.06559838
      1795.5000           0.53        22.6094       2405.656         0.0725       134.8818        31.9472       38.09612         0.4174         0.4678        53.5083         1.7915         0.5371       -70.8691      -10.56516       0.108428     0.04831526
      1796.0000         0.5249        22.6125       2397.707         0.0566       137.7073        31.7723       37.88685         0.4101         0.4621        51.8035         1.7021         0.5253       -70.7877       -10.4892      0.1039756     0.05675507
      1796.5000         0.5213        22.6189       2353.332         0.0381       140.9094        32.4461       38.72115          0.413         0.4647        53.7542         1.6721         0.5094       -70.7694      -10.47636      0.1217267     0.05818219
      1797.0000         0.5226        22.6281       2217.805         0.0353       141.9231        32.0344       38.22075         0.4217         0.4784        55.1957         1.7429         0.4926       -70.7877       -10.5001      0.1110797     0.05554411
      1797.5000         0.5366        22.6368       2136.902          0.043       140.4937        30.5525       36.40441         0.4501         0.5139        53.4704         1.8964          0.479       -70.7844      -10.50225     0.07243428     0.05530506
      1798.0000         0.5611          22.65       2050.453         0.0515        136.627        29.6944       35.35511         0.4864         0.5579        45.5588          1.977         0.5236       -70.7069       -10.4302     0.05010865     0.06331083
      1798.5000         0.5917        22.6484       1974.627         0.0621       131.3926        30.2336       36.02391         0.5085         0.6046        37.6473         2.0414         0.5965        -70.548      -10.27674     0.06433852     0.08036169
      1799.0000         0.6237        22.3291        1896.35          0.073       130.0845        31.9324       38.11854         0.5283         0.6219        37.2742         2.0567          0.633        -70.382       -10.1162      0.1089051     0.09819964
      1799.5000         0.6412        21.3082       1844.508         0.0907       130.3562        32.8563       39.26036         0.5393         0.6161         38.813         2.0399         0.7115       -70.1885      -9.928146      0.1331991      0.1190948
      1800.0000           0.63        21.4733        1807.92         0.1211       131.1033        32.2517       38.52276          0.547         0.5994        42.3758          1.996         0.7563       -70.0098      -9.754898      0.1175055      0.1383447
      1800.5000         0.6159        22.6019       1753.564          0.126       132.5981         31.455       37.54895         0.5546         0.5792        45.9214         1.8835         0.6853       -70.0795       -9.83004     0.09678617      0.1299956
      1801.0000          0.601         22.625       1797.768         0.1103       134.6689        31.0045       37.00082         0.5543          0.561        49.2062         1.7737         0.5972       -70.1014      -9.857395     0.08512376      0.1269561
      1801.5000         0.5859        22.6227       1873.543         0.0894       136.3774        31.0892       37.11077         0.5401         0.5463         50.427         1.7072         0.5526       -70.0696      -9.831043     0.08746321      0.1298841
      1802.0000         0.5708        22.6214        1949.32         0.0746       136.8555        31.7087        37.8783         0.5182         0.5339        50.7402         1.7195         0.5361       -69.9673      -9.734188      0.1037937      0.1406458
      1802.5000         0.5557        22.6309       2062.859         0.0783       136.4189        31.9563       38.18856         0.4917         0.5239         49.155         1.7637         0.5372       -69.8979      -9.670238      0.1103948      0.1477513
      1803.0000         0.5416        22.6505       2201.336         0.0998       135.4661        31.9864       38.23137         0.4716         0.5112        49.9366         1.8216         0.5441       -69.9595      -9.737286      0.1113057      0.1403016
      1803.5000         0.5282        22.6631       2257.176         0.1178       134.1633        32.3196       38.64687         0.4556         0.4965         52.315         1.8161         0.5558       -69.9153      -9.698532      0.1201462      0.1446075
      1804.0000         0.5168        22.6696       2286.758         0.1189       133.2336         33.913        40.6119          0.447         0.4825        54.7952         1.7704         0.5495       -69.8473      -9.635979      0.1619553      0.1515579
      1804.5000         0.5084        22.6788       2293.594          0.101       134.6157        37.6814       45.25128         0.4414         0.4717        56.8706         1.7046         0.5196       -69.8857      -9.679825      0.2606656      0.1466861
      1805.0000         0.5035        22.6711        2281.52         0.0824       137.0581        39.0878       46.98639         0.4382         0.4671        56.9232         1.7079         0.4786       -69.9438      -9.743378      0.2975827      0.1396247
      1805.5000         0.4989         22.661        2266.32         0.0856       137.0386        37.9273       45.56525         0.4396           0.47         57.421         1.7428         0.4423       -70.0237      -9.828724      0.2673458      0.1301418
