#------------------------------------------------------------------------------
# Created by    : vladimir.rabinovich
# Created on    : 09/19/2023 17:22:10
#------------------------------------------------------------------------------
~Version Information Section
VERS.           2.0     :   CWLS log ASCII Standard - VERSION 2.0
WRAP.           NO      :   One line per depth step
~Well Information Section
#MNEM       .UNIT                                         VALUE :DESCRIPTION
#------------------------------------------------------------------------------
STRT        .FT                                            1000 :START DEPTH
STOP        .FT                                            7796 :STOP DEPTH
STEP        .FT                                             0.5 :STEP      
NULL        .                                           -999.25 :NULL      
COMP        .                                SHELL OFFSHORE INC :COMPANY   
WELL        .                               OCS G06060 ST00BP00 :WELL      
FLD         .                                           WILDCAT :FIELD     
LOC         .                                                   :LOCATION  
CNTY        .                                BRAZOS LARGE BLOCK :LOCATION  
STAT        .                                             TEXAS :STATE     
CTRY        .                                     UNITED STATES :COUNTRY   
SRVC        .                                                   :SERVICE COMPANY
DATE        .                             9/13/2023 11:19:08 AM :LOG DATE  
API         .                                    42704401260000 :API NUMBER
UWI         .                                    42704401260000 :UNIQUE WELL ID
XCOORD      .                                   881020.58603234 :SURFACE X 
YCOORD      .                                   10392321.681828 :SURFACE Y 
LAT         .                                         28.616238 :LATITUDE  
LON         .                                        -95.367327 :LONGITUDE 
ELEV        .FT                                              90 :ELEVATION VALUE
ELEV_TYPE   .                                                KB :ELEVATION REFERENCE TYPE
~Curve Information Section
#MNEM       .UNIT                                      API CODE :CURVE DESCRIPTION
#------------------------------------------------------------------------------
DEPT        .FT                                                 :DEPTH     
CALI        .IN                                                 :          
CILD        .MMHO                                               :          
DPHI        .%                                                  :          
DT          .US/F                                               :          
GR          .GAPI                                               :          
GR_NORM     .GAPI                                               :GammaRay Normalized
ILD         .OHMM                                               :          
ILM         .OHMM                                               :          
SFL         .OHMM                                               :          
SP          .MV                                                 :          
SP_NORM     .MV                                                 :SP Normalized
VSH_GR      .V/V                                                :Volume of Shale from GR
VSH_SP      .V/V                                                :Volume of Shale from SP
~A        DEPTH           CALI           CILD           DPHI             DT             GR        GR_NORM            ILD            ILM            SFL             SP        SP_NORM         VSH_GR         VSH_SP
# ...
      5085.0000        12.6035       1571.125        21.5673       108.2822        58.1647       82.23678          0.657         0.7324         0.8663       -88.1527      0.8646393              1              1
      5085.5000        12.3662         1727.1         22.164       108.6702        60.5767       87.29242         0.5992         0.6754         0.8504       -92.1377      -3.120361              1      0.9607341
      5086.0000          12.11       1873.025         23.253       110.1799         60.924       88.00973         0.5407         0.6205         0.8663       -95.1575       -6.14016              1      0.9048119
      5086.5000        11.9288       2010.477        24.7782       112.8961        58.5817       83.07568         0.4928         0.5758         0.8533       -97.0215      -8.004158              1      0.8702934
      5087.0000        11.7952       2150.785        25.8126        113.942        55.2646       76.09337         0.4594         0.5468         0.8168       -98.3544      -9.337059      0.9168802        0.84561
      5087.5000        11.7128        2264.98        25.7896        115.616        53.4312       72.22859         0.4373         0.5225         0.7881       -99.0645      -10.04716      0.8346509        0.83246
      5088.0000         11.669       2366.371        25.3817       118.4966        52.6845       70.64722         0.4249         0.5034         0.7696       -98.9727       -9.95536      0.8010046        0.83416
      5088.5000        11.5911       2443.125        25.2533       119.3297        54.5076       74.46548         0.4167         0.4896         0.7576       -97.7848      -8.767456      0.8822443      0.8561582
      5089.0000         11.487       2510.375        25.4435        118.776        56.9453       79.57513         0.4099         0.4845         0.7445       -96.3363      -7.318962      0.9909601      0.8829822
      5089.5000        11.3305       2562.594        25.8639       117.4049        59.2667        84.4404         0.4042         0.4793         0.7499       -96.2119      -7.194557              1       0.885286
      5090.0000        11.2234        2591.91        26.3061       115.5702        60.2825       86.56236          0.399          0.473          0.823       -96.6537       -7.63636              1      0.8771045
      5090.5000        11.2408       2562.742        26.6635       114.4304        59.4147       84.72654          0.397         0.4713         0.8799       -97.0757      -8.058357              1      0.8692897
      5091.0000        11.2806       2493.871        26.5062       115.1313        58.2943       82.35991         0.3996         0.4747         0.8021       -96.1335      -7.116158              1      0.8867378
      5091.5000        11.3079       2383.809        25.5683       116.6826        58.2686       82.29348         0.4237         0.4897         0.7137       -92.9706      -3.953255              1      0.9453101
      5092.0000         11.314       2292.176        24.7522       116.8866        60.4678       86.90201         0.4424         0.5002         0.6584       -89.3453     -0.3279572              1              1
      5092.5000         11.283       2253.824        25.3151       117.4457         62.374       90.89485         0.4479          0.506         0.6278       -88.5115      0.5058441              1              1
      5093.0000        11.2475       2269.242        26.4445       119.7242         61.165       88.34209         0.4439         0.5047         0.6201       -96.7133      -7.695961              1      0.8760007
      5093.5000        11.2389       2345.875        28.7822       121.3833        58.0729       81.83255         0.4351         0.4942         0.6299      -105.5857      -16.56836              1       0.711697
      5094.0000        11.2506       2514.758        30.9668        122.499        52.7793       70.69725         0.4172         0.4756         0.6632      -112.1942      -23.17686      0.8020691      0.5893174
      5094.5000        11.2898       2833.805        32.6242       122.1721        47.7303        60.0759         0.3615         0.4493         0.7268      -118.1936      -29.17626       0.576083      0.4782174
      5095.0000        11.3898        3254.73        33.2925       119.3619        43.9705        52.1634         0.3192         0.4089         0.8533       -123.371      -34.35366      0.4077319      0.3823396
      5095.5000        11.5202       3741.473        33.4438       116.4048        41.6001       47.17033         0.2838          0.342         0.9471      -125.2882      -36.27086      0.3014963      0.3468359
      5096.0000        11.6617       4054.805         33.101       114.7577        40.0051       43.80648         0.2512          0.305         0.9377      -126.6367      -37.61936       0.229925      0.3218637
      5096.5000        11.7778       4222.305        31.6826       114.9843        38.9056       41.48379         0.2377         0.2748         0.7638      -126.5963      -37.57896      0.1805061      0.3226119
      5097.0000        11.8447       4159.445        30.4411       115.4677        41.1451       46.17697         0.2357         0.2642         0.5563       -122.017      -32.99966       0.280361      0.4074138
      5097.5000        11.8907       4054.508        27.7767       115.6643        45.6951       55.72498         0.2411         0.2689         0.4503      -116.0874      -27.07006      0.4835101      0.5172211
      5098.0000        11.8719       3959.523        26.6298       115.7106        50.9202       66.69149           0.25         0.2974         0.4342      -109.5669      -20.54956      0.7168402      0.6379711
      5098.5000        11.7323       3866.902        27.0067       115.8627         53.951       73.04735         0.2591         0.3316         0.5024      -104.9546      -15.93726      0.8520712      0.7233841
      5099.0000         11.589       3720.387        28.4465       116.9932        53.5254       72.14062         0.2632         0.3628         0.6597      -104.5986      -15.58126      0.8327791      0.7299767
      5099.5000        11.4465       3400.359         29.501       118.6461        51.8644       68.63812         0.2796         0.3731         0.7577      -107.5525      -18.53516      0.7582579      0.6752749
      5100.0000        11.6623       3126.836        28.4185       119.3693          49.11       62.83817         0.3116         0.3783         0.8156      -111.3173      -22.29996      0.6348546      0.6055564
      5100.5000        11.8297       2734.285         26.583       119.2933        48.3217       61.16937         0.3575         0.3805         0.7363      -110.4586      -21.44126      0.5993484      0.6214581
      5101.0000        11.9672       2505.891        25.0188       118.4366        49.6726       63.99545         0.3907         0.3939          0.633      -101.9237      -12.90636      0.6594775      0.7795119
      5101.5000        12.0609       2456.602        23.4079       117.3999        55.6169       76.47315         0.4046         0.4166         0.6097       -94.1521      -5.134758      0.9249607      0.9234304
      5102.0000        12.1214       2460.629        23.8772       116.8815        60.3333       86.37079         0.4032         0.4525         0.6716       -87.1638       1.853539              1              1
      5102.5000          12.04       2467.641        26.2019       117.3234        63.9977       94.05794         0.4008         0.4846         0.7279        -85.761        3.25634              1              1
      5103.0000        11.8874       2429.773        28.1976       118.5238        65.1058       96.37384         0.4086         0.4918         0.7196       -86.2594       2.757942              1              1
      5103.5000        11.7864        2378.59        29.0834       123.5209        59.9076         85.439         0.4177         0.4952         0.5899       -92.0018      -2.984459              1      0.9632508
