#------------------------------------------------------------------------------
# Created by    : vladimir.rabinovich
# Created on    : 09/19/2023 17:21:52
#------------------------------------------------------------------------------
~Version Information Section
VERS.           2.0     :   CWLS log ASCII Standard - VERSION 2.0
WRAP.           NO      :   One line per depth step
~Well Information Section
#MNEM       .UNIT                                         VALUE :DESCRIPTION
#------------------------------------------------------------------------------
STRT        .FT                                            2690 :START DEPTH
STOP        .FT                                            8272 :STOP DEPTH
STEP        .FT                                             0.5 :STEP      
NULL        .                                           -999.25 :NULL      
COMP        .                        PG&E RESOURCES OFFSHORE CO :COMPANY   
WELL        .                               OCS G09053 ST00BP00 :WELL      
FLD         .                              GALVESTON BLOCK 0427 :FIELD     
LOC         .                                                   :LOCATION  
CNTY        .                             GALVESTON LARGE BLOCK :LOCATION  
STAT        .                                             TEXAS :STATE     
CTRY        .                                     UNITED STATES :COUNTRY   
SRVC        .                                                   :SERVICE COMPANY
DATE        .                             9/13/2023 11:11:09 AM :LOG DATE  
API         .                                    42706402380000 :API NUMBER
UWI         .                                    42706402380000 :UNIQUE WELL ID
XCOORD      .                                  948581.259723803 :SURFACE X 
YCOORD      .                                  10360666.4777899 :SURFACE Y 
LAT         .                                         28.532718 :LATITUDE  
LON         .                                        -95.155068 :LONGITUDE 
ELEV        .FT                                             119 :ELEVATION VALUE
ELEV_TYPE   .                                                KB :ELEVATION REFERENCE TYPE
~Curve Information Section
#MNEM       .UNIT                                      API CODE :CURVE DESCRIPTION
#------------------------------------------------------------------------------
DEPT        .FT                                                 :DEPTH     
CALI        .IN                                                 :          
DRHO        .G/C3                                               :          
DT          .US/F                                               :          
GR          .GAPI                                               :          
GR_1        .GAPI                                               :          
GR_NORM     .GAPI                                               :GammaRay Normalized
ILD         .OHMM                                               :          
ILM         .OHMM                                               :          
NPHI        .%                                                  :          
RFOC        .OHMM                                               :          
RHOB        .G/C3                                               :          
SP          .MV                                                 :          
SP_NORM     .MV                                                 :SP Normalized
VSH_GR      .V/V                                                :Volume of Shale from GR
VSH_SP      .V/V                                                :Volume of Shale from SP
~A        DEPTH           CALI           DRHO             DT             GR           GR_1        GR_NORM            ILD            ILM           NPHI           RFOC           RHOB             SP        SP_NORM         VSH_GR         VSH_SP
# ...
      6056.0000        13.1587         0.0609       112.4459        75.9209        82.6731       67.88348         0.8788         0.8796        40.5653         1.1382         2.3265       -53.7602       -5.30196      0.7422016      0.8896933
      6056.5000        13.1639         0.0635       112.2483        77.8016        78.9701       63.69175          0.869         0.8714        41.0963         1.1705         2.3272        -51.763      -3.300873      0.6530159      0.9410033
      6057.0000        13.1657         0.0628       112.4229        78.2152        79.0612       63.79394         0.8593          0.867        40.7313         1.1774         2.3289       -50.3828      -1.916786      0.6551902      0.9764926
      6057.5000        13.1661         0.0598       113.9503        80.0737        79.5297       64.32324         0.8523          0.863          38.95         1.1152         2.3335       -51.1814      -2.711498       0.666452      0.9561154
      6058.0000        13.1589         0.0523       116.2283         83.283        79.0654       63.79686         0.8464         0.8619        37.6398         1.0648         2.3376       -51.9758       -3.50201      0.6552524      0.9358459
      6058.5000        13.1552         0.0458       118.3862        84.1754         75.234       59.45982         0.8431         0.8629        36.6075          1.041         2.3396       -52.3828      -3.905125       0.562975      0.9255096
      6059.0000        13.1422         0.0475       119.8834        81.3125        72.2742       56.10921         0.8443         0.8703        36.0601         1.0594         2.3404       -52.4275      -3.945938      0.4916853      0.9244632
      6059.5000        13.0822         0.0492       118.8313        78.4594        71.1837       54.87414         0.8455         0.8791        35.8726         1.0882         2.3399       -51.9626       -3.47715      0.4654072      0.9364833
      6060.0000        13.0097          0.045       116.5858        75.4868        71.1672       54.85455         0.8396         0.8912        35.9117         1.1375          2.334       -51.7762      -3.286861      0.4649903      0.9413625
      6060.5000        12.9501         0.0424       113.9053        74.2175        71.7351       55.49636         0.8311         0.9035        36.0984         1.1657         2.3132        -52.202      -3.708775      0.4786459      0.9305443
      6061.0000        12.8901          0.055       111.6649        73.5261        73.3977       57.37706         0.8226         0.9326        35.9722         1.1768         2.2947       -53.3066      -4.809486      0.5186608      0.9023209
      6061.5000        12.8392         0.0789        110.047        71.9192        74.4375       58.55293         0.8145         0.9385        35.6705          1.194         2.2917       -56.0744      -7.573402      0.5436792      0.8314512
      6062.0000        12.7978         0.0846       109.6655        70.6925        71.9282       55.71215         0.8064         0.9409        35.4576         1.2463         2.2921       -57.0562      -8.551311      0.4832372      0.8063766
      6062.5000        12.7152         0.0798       110.4772        73.0287        64.2115       46.97799         0.8013         0.9455         32.579         1.2611          2.293        -57.034      -8.525227      0.2974041      0.8070455
      6063.0000        12.6381         0.0723       114.7605        76.3719        58.7688       40.81739         0.7995         0.9469        31.5223         1.1645         2.2922       -57.5193      -9.006638      0.1663274      0.7947016
      6063.5000        12.5904         0.0647       118.4662        79.3202        55.5682       37.19424         0.7977         0.9443        31.7721         1.0871         2.2844       -58.7166      -10.20005     0.08923924      0.7641013
      6064.0000        12.6281         0.0547       119.6243        79.8055        54.2692       35.72321         0.7958         0.9356        32.6699         0.9968           2.26       -61.5905      -13.07006     0.05794071      0.6905112
      6064.5000        12.6786          0.031       118.1262        76.1184        53.4471        34.7919         0.7939         0.9209        32.8182         0.9815         2.2285       -64.6533      -16.12897     0.03812563      0.6120776
      6065.0000        12.7349         0.0222       112.7101        66.2762        52.6702       33.91174         0.7918          0.899        32.6235         1.0364         2.2124       -67.0066      -18.47839     0.01939879      0.5518363
      6065.5000        12.7754         0.0312        107.774        62.3404        52.8444       34.10798         0.7897         0.8715        33.8547         1.1964          2.205       -69.7476       -21.2155     0.02357394       0.481654
      6066.0000        12.8002         0.0468       106.7213        62.5844        57.9326       39.86555         0.7876          0.848        36.2979         1.1686         2.2196       -72.3452      -23.80921      0.1460756      0.4151484
      6066.5000        12.8268         0.0555       109.5594        61.3552        67.9525        51.2045         0.7848         0.8255        36.9283         1.0319         2.2562       -72.5122      -23.97232      0.3873298       0.410966
      6067.0000        12.8623         0.0621       112.9352        58.9459        74.9064       59.07355         0.7813         0.8055        37.5789         0.9853         2.2738       -70.6498      -22.10604      0.5547564      0.4588194
      6067.5000        12.8974         0.0817       113.6965        60.6041        78.7695       63.44464         0.7778         0.7863        38.4504         0.9819         2.2796       -66.7871      -18.23945      0.6477584      0.5579628
      6068.0000        12.9361         0.0973       113.2158        64.5692        78.6204       63.27499         0.7743         0.7753         39.234         0.9873         2.2804       -62.9683      -14.41676      0.6441486      0.6559804
      6068.5000        12.9789         0.0983       114.1154        69.9829         77.561       62.07511         0.7681         0.7675        39.8524         1.0001         2.2844       -55.9891      -7.433678      0.6186194      0.8350339
      6069.0000        13.0977         0.0988       118.0261        75.6404        78.7329       63.40048         0.7591         0.7656        40.8237         1.0111         2.2896       -53.0018       -4.44249      0.6468188      0.9117311
      6069.5000        13.2473          0.101       122.2245        80.6493        81.7159       66.77554         0.7501         0.7682        42.0612         1.0559         2.2901       -51.4515      -2.888302      0.7186284       0.951582
      6070.0000         13.316         0.0982        123.114        81.6954        82.9836       68.20931         0.7442         0.7709         42.343         1.0933         2.2893       -51.8197      -3.252613      0.7491343      0.9422407
      6070.5000        13.3544         0.0853       120.9568        79.9353        82.1428       67.25684         0.7426         0.7728        41.6614         1.0967         2.2917       -51.7471      -3.176128       0.728869      0.9442018
      6071.0000        13.4292         0.0828       119.5665        80.1179        83.1952       68.44697          0.741         0.7747        40.9909         1.0411         2.2961       -51.1034      -2.528542      0.7541908      0.9608066
      6071.5000        13.4827         0.0842        119.724        81.6283        84.8041        70.2669          0.744         0.7765        40.4466         1.0354         2.3015       -49.9158      -1.337051      0.7929127      0.9913577
      6072.0000        13.5167         0.0857       121.1693        82.7375        85.5645       71.12655          0.746         0.7755        39.3392          1.052         2.3058       -48.9245     -0.3418655      0.8112032              1
      6072.5000        13.5248         0.0812        122.739        82.7847        81.8259       66.89453         0.7476         0.7732        38.4797         1.0482         2.3077       -48.0624      0.5241203      0.7211602              1
