#------------------------------------------------------------------------------
# Created by    : vladimir.rabinovich
# Created on    : 09/19/2023 17:22:47
#------------------------------------------------------------------------------
~Version Information Section
VERS.           2.0     :   CWLS log ASCII Standard - VERSION 2.0
WRAP.           NO      :   One line per depth step
~Well Information Section
#MNEM       .UNIT                                         VALUE :DESCRIPTION
#------------------------------------------------------------------------------
STRT        .FT                                            4658 :START DEPTH
STOP        .FT                                           10852 :STOP DEPTH
STEP        .FT                                             0.5 :STEP      
NULL        .                                           -999.25 :NULL      
COMP        .                             WALTER OIL & GAS CORP :COMPANY   
WELL        .                               OCS G04721 ST00BP00 :WELL      
FLD         .                              GALVESTON BLOCK 0350 :FIELD     
LOC         .                                                   :LOCATION  
CNTY        .                             GALVESTON LARGE BLOCK :LOCATION  
STAT        .                                             TEXAS :STATE     
CTRY        .                                     UNITED STATES :COUNTRY   
SRVC        .                                                   :SERVICE COMPANY
DATE        .                             9/13/2023 11:19:36 AM :LOG DATE  
API         .                                    42706401870000 :API NUMBER
UWI         .                                    42706401870000 :UNIQUE WELL ID
XCOORD      .                                  1032064.33467067 :SURFACE X 
YCOORD      .                                   10428906.138822 :SURFACE Y 
LAT         .                                        28.7242451 :LATITUDE  
LON         .                                       -94.8985179 :LONGITUDE 
ELEV        .FT                                              92 :ELEVATION VALUE
ELEV_TYPE   .                                                KB :ELEVATION REFERENCE TYPE
~Curve Information Section
#MNEM       .UNIT                                      API CODE :CURVE DESCRIPTION
#------------------------------------------------------------------------------
DEPT        .FT                                                 :DEPTH     
DT          .US/F                                               :          
GR          .GAPI                                               :          
GR_1        .GAPI                                               :          
GR_NORM     .GAPI                                               :GammaRay Normalized
ILD         .OHMM                                               :          
ILM         .OHMM                                               :          
NPHI        .%                                                  :          
RFOC        .OHMM                                               :          
RHOB        .G/C3                                               :          
SP          .MV                                                 :          
SP_NORM     .MV                                                 :SP Normalized
VSH_GR      .V/V                                                :Volume of Shale from GR
VSH_SP      .V/V                                                :Volume of Shale from SP
~A        DEPTH             DT             GR           GR_1        GR_NORM            ILD            ILM           NPHI           RFOC           RHOB             SP        SP_NORM         VSH_GR         VSH_SP
# ...
      5931.0000        -999.25        61.5695        -999.25       61.81075         0.5936         0.7058        37.1066          0.916         2.2417       -78.3152      -33.02241      0.6129947       0.491963
      5931.5000        -999.25        61.5631        -999.25       61.80288         0.6138         0.7174        36.7402         0.9312         2.2465        -77.493      -32.06192      0.6128273      0.5067397
      5932.0000        -999.25        61.3896        -999.25       61.59748         0.6342         0.7321        35.9362         0.9462         2.2628       -77.2542      -31.78208      0.6084571      0.5110449
      5932.5000        -999.25        60.5186        -999.25       60.56763         0.6552         0.7501        33.2518         0.9689         2.2872       -77.1509      -31.66031      0.5865454      0.5129183
      5933.0000        -999.25        59.5809        -999.25       59.45894         0.6704         0.7687        31.8945         0.9953         2.2953       -77.0365      -31.52559      0.5629562      0.5149909
      5933.5000        -999.25        58.5677        -999.25       58.26099          0.682         0.7804        32.0191         0.9986         2.2995       -76.9224      -31.39123      0.5374679       0.517058
      5934.0000        -999.25        58.5237        -999.25       58.20869         0.6938         0.7921         34.209         0.9991         2.2974       -76.5232      -30.92425       0.536355      0.5242424
      5934.5000        -999.25        59.0007        -999.25       58.77221          0.702         0.8036        36.6377         0.9987         2.2941       -75.9943      -30.30594       0.548345      0.5337547
      5935.0000        -999.25        59.9545        -999.25       59.89932         0.7104         0.8139          37.47         0.9995         2.2878       -75.4078      -29.62045      0.5723259      0.5443008
      5935.5000        -999.25        61.0422        -999.25       61.18471         0.7188         0.8244        37.7524          1.002         2.2819       -74.9994      -29.14273      0.5996747      0.5516503
      5936.0000        -999.25         61.436        -999.25        61.6499          0.731         0.8365        37.0018         1.0252         2.2797       -74.8704      -28.99098      0.6095723      0.5539849
      5936.5000        -999.25        61.8727        -999.25       62.16578         0.7434         0.8499        33.1151         1.0612         2.2848       -74.7358       -28.8327      0.6205484        0.55642
      5937.0000        -999.25        62.3954        -999.25       62.78333          0.756         0.8635        32.4195           1.05         2.2918       -74.5044      -28.56149      0.6336879      0.5605925
      5937.5000        -999.25        63.3813        -999.25       63.94839         0.7672         0.8737        31.9944         1.0308         2.2955       -74.2728      -28.29003      0.6584765      0.5647688
      5938.0000        -999.25         63.515        -999.25       64.10612         0.7778          0.882        31.5005         1.0502         2.2919       -74.0464      -28.02466      0.6618323      0.5688515
      5938.5000        -999.25         62.524        -999.25       62.93442         0.7886         0.8903        31.4084         1.0717         2.2898       -73.8364      -27.77841      0.6369025      0.5726399
      5939.0000        -999.25        61.6147        -999.25       61.85929         0.7929         0.8988          31.91         1.0945         2.2917       -73.6263      -27.53204      0.6140274      0.5764302
      5939.5000        -999.25        60.5731        -999.25       60.62778         0.7973         0.9095        33.1047         1.1205         2.2959       -73.1334      -26.95574      0.5878252      0.5852963
      5940.0000        -999.25        59.2673        -999.25       59.08398         0.8023         0.9212        34.5375         1.1177         2.3018       -72.3323      -26.01987      0.5549783      0.5996943
      5940.5000        -999.25        61.5677        -999.25       61.80283         0.8103         0.9332        35.5565         1.0854         2.3083       -71.2275      -24.72969      0.6128262      0.6195431
      5941.0000        -999.25        64.1187        -999.25       64.81789         0.8185         0.9473         35.537         1.0439         2.3107       -70.7389      -24.15841      0.6769763      0.6283322
      5941.5000        -999.25        65.3149        -999.25       66.23153          0.832         0.9616        35.0492         1.0255          2.314       -70.4963      -23.87412      0.7070538      0.6327057
      5942.0000        -999.25         65.809        -999.25       66.81526         0.8456         0.9725        34.8782         1.0267         2.3187       -70.5026      -23.88023      0.7194737      0.6326119
      5942.5000        -999.25        65.9569        -999.25       66.98979         0.8561         0.9819        34.5004         1.0466         2.3264       -70.5089      -23.88633      0.7231871       0.632518
      5943.0000        -999.25        66.1899        -999.25        67.2649         0.8654         0.9848        34.2523         1.0831         2.3369       -70.5153      -23.89254      0.7290404      0.6324224
      5943.5000        -999.25        66.4757        -999.25       67.60241         0.8749         0.9876        34.7307         1.0731         2.3411       -70.1871       -23.5084      0.7362215      0.6383323
      5944.0000        -999.25         67.339        -999.25       68.62255         0.8826         0.9909        35.0021         1.0498         2.3438       -69.4139      -22.60508      0.7579266      0.6522295
      5944.5000        -999.25        68.3621        -999.25       69.83158         0.8893         0.9943        34.8651         1.0217         2.3444       -68.3784      -21.39575      0.7836506      0.6708346
      5945.0000        -999.25        69.5732        -999.25       71.26285          0.896         0.9943        35.3907         1.0086         2.3449       -67.3356       -20.1779      0.8141031      0.6895707
      5945.5000        -999.25        69.3936        -999.25       71.05025         0.9033         0.9909        36.0974         1.0176         2.3443       -66.1083       -18.7448      0.8095797      0.7116185
      5946.0000        -999.25        69.2423        -999.25        70.8711         0.9112         0.9876        36.9023         1.0382         2.3488       -65.0864      -17.55134      0.8057681      0.7299794
      5946.5000        -999.25        69.4819        -999.25       71.15401         0.9192         0.9834        38.3083         1.0376         2.3497       -64.0002      -16.28285      0.8117875      0.7494946
      5947.0000        -999.25        69.7378        -999.25       71.45619         0.9294         0.9793        38.8984         1.0012         2.3409       -62.8608       -14.9523      0.8182169      0.7699645
      5947.5000        -999.25        71.5391        -999.25       73.58508          0.941         0.9739        39.6282         0.9504         2.3296       -61.8477       -13.7691      0.8635122      0.7881676
      5948.0000        -999.25        71.7246        -999.25       73.80405         0.9516         0.9721        39.9582         0.9324         2.3277       -60.9749      -12.74959      0.8681712      0.8038525
      5948.5000        -999.25        70.8784        -999.25        72.8035          0.961         0.9724        38.0757         0.9643         2.3336       -60.2338      -11.88372      0.8468831      0.8171735
      5949.0000        -999.25        70.1392        -999.25       71.92943          0.969         0.9726        37.4574         0.9813         2.3415       -59.6966      -11.25574      0.8282857      0.8268347
      5949.5000        -999.25         69.562        -999.25       71.24686         0.9757         0.9737        37.1304         0.9863         2.3502        -59.561      -11.09629      0.8137631      0.8292878
