#------------------------------------------------------------------------------
# Created by    : vladimir.rabinovich
# Created on    : 09/19/2023 17:22:45
#------------------------------------------------------------------------------
~Version Information Section
VERS.           2.0     :   CWLS log ASCII Standard - VERSION 2.0
WRAP.           NO      :   One line per depth step
~Well Information Section
#MNEM       .UNIT                                         VALUE :DESCRIPTION
#------------------------------------------------------------------------------
STRT        .FT                                             270 :START DEPTH
STOP        .FT                                            9392 :STOP DEPTH
STEP        .FT                                             0.5 :STEP      
NULL        .                                           -999.25 :NULL      
COMP        .                                     TALOS ERT LLC :COMPANY   
WELL        .                               OCS G12363 ST00BP00 :WELL      
FLD         .                                 BRAZOS BLOCK 0453 :FIELD     
LOC         .                                                   :LOCATION  
CNTY        .                                BRAZOS LARGE BLOCK :LOCATION  
STAT        .                                             TEXAS :STATE     
CTRY        .                                     UNITED STATES :COUNTRY   
SRVC        .                                                   :SERVICE COMPANY
DATE        .                             9/13/2023 11:19:08 AM :LOG DATE  
API         .                                    42704401340000 :API NUMBER
UWI         .                                    42704401340000 :UNIQUE WELL ID
XCOORD      .                                  788791.944469438 :SURFACE X 
YCOORD      .                                  10354739.7167093 :SURFACE Y 
LAT         .                                         28.507622 :LATITUDE  
LON         .                                        -95.652007 :LONGITUDE 
ELEV        .FT                                             100 :ELEVATION VALUE
ELEV_TYPE   .                                                KB :ELEVATION REFERENCE TYPE
~Curve Information Section
#MNEM       .UNIT                                      API CODE :CURVE DESCRIPTION
#------------------------------------------------------------------------------
DEPT        .FT                                                 :DEPTH     
DPHI        .%                                                  :          
DT          .US/F                                               :          
GR          .GAPI                                               :          
GR_NORM     .GAPI                                               :GammaRay Normalized
ILD         .OHMM                                               :          
ILM         .OHMM                                               :          
LL          .OHMM                                               :          
NPHI        .%                                                  :          
SP          .MV                                                 :          
SP_NORM     .MV                                                 :SP Normalized
VSH_GR      .V/V                                                :Volume of Shale from GR
VSH_SP      .V/V                                                :Volume of Shale from SP
~A        DEPTH           DPHI             DT             GR        GR_NORM            ILD            ILM             LL           NPHI             SP        SP_NORM         VSH_GR         VSH_SP
# ...
      4554.5000        33.4969       126.7788        41.5002       42.23557         0.2931         0.2937         0.4315        39.9894       -65.4376       -32.7661      0.1965016      0.1471667
      4555.0000        33.3755       126.4222        41.2329       41.89724         0.2945         0.2963         0.4353        41.0234       -65.4564       -32.7895       0.189303       0.146597
      4555.5000        33.3309       126.1851        41.4309       42.14402         0.2968         0.2997         0.4414        41.5037       -65.6266       -32.9643      0.1945535      0.1414394
      4556.0000        33.3679       125.9929        43.3068       44.50071         0.2999         0.3054         0.4497        41.7575       -65.8696       -33.2119      0.2446959      0.1340757
      4556.5000        33.7576        125.783        44.5927        46.1155         0.3068         0.3096         0.4512        41.8761       -66.0406       -33.3875      0.2790532      0.1288939
      4557.0000        33.7076       125.4993        42.7833       43.83801          0.313         0.3119         0.4482        41.4396        -66.158       -33.5095      0.2305959      0.1253364
      4557.5000        33.5636       125.2158         41.792       42.58926         0.3115         0.3126         0.4443        40.2477       -66.2911       -33.6472      0.2040267       0.121303
      4558.0000        33.4137       124.9777        42.4118       43.36643         0.3046         0.3146         0.4402        37.3999       -66.3383        -33.699      0.2205624      0.1198727
      4558.5000         33.367       124.8125        42.7073       43.73581         0.2941         0.3156          0.436        34.9064       -66.1566       -33.5219      0.2284215      0.1253788
      4559.0000         33.364       124.7211        41.0668        41.6707         0.2912         0.3104         0.4317        34.5823       -65.9207       -33.2906       0.184483      0.1325273
      4559.5000         33.438       124.6844        37.9132        37.7029         0.3016         0.3027         0.4283         35.853       -65.5975        -32.972      0.1000617      0.1423212
      4560.0000        33.2324       124.7349        35.4329       34.58175         0.3039         0.2949         0.4252        40.1284       -65.3352       -32.7143     0.03365431      0.1502697
      4560.5000        32.8659       124.7949        36.7631       36.25225         0.3026         0.2896         0.4232        40.9557       -65.1783        -32.562     0.06919674      0.1550243
      4561.0000        32.4377       124.9565        38.5594       38.50886         0.2993         0.2853         0.4217         40.563       -65.0594       -32.4477      0.1172097      0.1586273
      4561.5000        32.1206       125.1183        39.9485       40.25342         0.2964         0.2825         0.4222        40.3777        -64.995       -32.3879       0.154328      0.1605788
      4562.0000        31.8492       125.3317        39.2239       39.34003         0.2935         0.2806         0.4236        40.1302       -65.1519       -32.5494      0.1348943      0.1558243
      4562.5000        31.7492       125.5452        37.6392       37.34509         0.2919         0.2801         0.4261        39.6065        -65.496       -32.8981     0.09244862      0.1453969
      4563.0000        31.7549       125.7426        37.6145       37.31182         0.2906           0.28         0.4311        39.9266       -65.8038       -33.2105     0.09174095      0.1360697
      4563.5000        31.8917       125.9326        37.7373       37.46404         0.2899          0.281         0.4298        42.5446       -65.8383       -33.2496     0.09497955      0.1350242
      4564.0000         32.062       126.1112        38.3761        38.2651         0.2903          0.282         0.4258        43.9853        -65.702       -33.1179      0.1120235      0.1391546
      4564.5000         32.084       126.2594        39.0266       39.08089         0.2909         0.2834         0.4124        42.0496       -65.5438       -32.9643      0.1293806      0.1439485
      4565.0000        31.7403       126.4075        38.5723        38.5074         0.2925         0.2853         0.4197         38.138       -65.3816       -32.8067      0.1171788      0.1488636
      4565.5000        31.2578       126.5127        37.8445          37.59         0.2942         0.2872         0.4254        36.4128       -65.2966       -32.7263     0.09765966      0.1514394
      4566.0000         30.804       126.5593        37.2876        36.8875         0.2961         0.2882          0.429        36.6573       -65.2489       -32.6832      0.0827127      0.1528849
      4566.5000        30.3886        126.553        37.0416       36.57595         0.2981         0.2887         0.4366        37.7658       -65.3894       -32.8283     0.07608406      0.1486273
      4567.0000        30.4781       126.3977         37.863       37.60664         0.2993         0.2894         0.4442        37.9638       -65.5616       -33.0051     0.09801354      0.1434091
      4567.5000        30.7901       125.7256        39.3802       39.51228         0.2993         0.2907         0.4484        38.2651       -65.7777       -33.2258      0.1385591      0.1368606
      4568.0000        31.0341       124.7136        39.8027       40.04136         0.2991          0.292         0.4408        38.2578       -65.8423        -33.295      0.1498161       0.134903
      4568.5000        31.1961       123.8824        39.6647       39.86561         0.2988         0.2912         0.4295        38.0662       -65.7206       -33.1779      0.1460769      0.1385909
      4569.0000         31.274       124.1566        38.8181       38.79882         0.2976         0.2902         0.4304         37.905       -65.6512       -33.1131      0.1233792      0.1406939
      4569.5000        31.3381        125.465         36.936       36.42991         0.2962         0.2886         0.4358          37.85         -65.74       -33.2065     0.07297686       0.138003
      4570.0000        31.4247       127.2061        36.0854       35.35808         0.2934         0.2868         0.4416        37.4942       -65.8771       -33.3482     0.05017187      0.1338485
      4570.5000        31.5374       128.2358        38.1413       37.94113         0.2908         0.2855         0.4474        36.8791       -65.9398       -33.4155      0.1051305      0.1319485
      4571.0000        31.6272       128.2859        40.2931       40.64477         0.2884         0.2856         0.4492         38.317       -65.9742       -33.4545      0.1626547      0.1309061
      4571.5000        31.6622       127.5676        40.9355       41.45037         0.2865         0.2857         0.4492        39.5634          -65.5       -32.9849       0.179795      0.1452758
      4572.0000        31.7346       126.7745         39.284       39.37143         0.2859         0.2872          0.439        40.8326         -64.97       -32.4595      0.1355623      0.1613364
      4572.5000         31.826       125.9655        38.4304       38.29583         0.2863         0.2895         0.4278         41.956       -64.5712       -32.0653      0.1126773      0.1734212
      4573.0000        32.3127        125.381        38.5627       38.45999         0.2886         0.2935         0.4259        40.6455       -64.7172       -32.2159        0.11617       0.168997
      4573.5000        32.7524       125.8282        39.1485        39.1944          0.297         0.3006         0.4273        39.0699        -65.088       -32.5913      0.1317958      0.1577606
      4574.0000        33.1239        126.528        40.1306       40.42717         0.3075         0.3223         0.4295         38.934       -65.4734       -32.9813       0.158025      0.1460818
      4574.5000          33.26       127.0631        41.0821       41.62146         0.3209         0.3582         0.4313        39.5774       -65.7906       -33.3031      0.1834353      0.1364697
