#------------------------------------------------------------------------------
# Created by    : vladimir.rabinovich
# Created on    : 09/19/2023 17:19:50
#------------------------------------------------------------------------------
~Version Information Section
VERS.           2.0     :   CWLS log ASCII Standard - VERSION 2.0
WRAP.           NO      :   One line per depth step
~Well Information Section
#MNEM       .UNIT                                         VALUE :DESCRIPTION
#------------------------------------------------------------------------------
STRT        .FT                                             880 :START DEPTH
STOP        .FT                                            8374 :STOP DEPTH
STEP        .FT                                             0.5 :STEP      
NULL        .                                           -999.25 :NULL      
COMP        .                                        EXXON CORP :COMPANY   
WELL        .                               OCS G04552 ST00BP00 :WELL      
FLD         .                                 BRAZOS BLOCK 0451 :FIELD     
LOC         .                                                   :LOCATION  
CNTY        .                                BRAZOS LARGE BLOCK :LOCATION  
STAT        .                                             TEXAS :STATE     
CTRY        .                                     UNITED STATES :COUNTRY   
SRVC        .                                                   :SERVICE COMPANY
DATE        .                             9/13/2023 11:19:08 AM :LOG DATE  
API         .                                    42704401130000 :API NUMBER
UWI         .                                    42704401130000 :UNIQUE WELL ID
XCOORD      .                                  760277.642000753 :SURFACE X 
YCOORD      .                                  10343629.6463693 :SURFACE Y 
LAT         .                                         28.475327 :LATITUDE  
LON         .                                        -95.739931 :LONGITUDE 
ELEV        .FT                                              95 :ELEVATION VALUE
ELEV_TYPE   .                                                KB :ELEVATION REFERENCE TYPE
~Curve Information Section
#MNEM       .UNIT                                      API CODE :CURVE DESCRIPTION
#------------------------------------------------------------------------------
DEPT        .FT                                                 :DEPTH     
ASFL        .OHMM                                               :          
CALI        .IN                                                 :          
CILD        .MMHO                                               :          
DT          .US/F                                               :          
GR          .GAPI                                               :          
GR_NORM     .GAPI                                               :GammaRay Normalized
ILD         .OHMM                                               :          
ILM         .OHMM                                               :          
RHOB        .G/C3                                               :          
SP          .MV                                                 :          
SP_NORM     .MV                                                 :SP Normalized
VSH_GR      .V/V                                                :Volume of Shale from GR
VSH_SP      .V/V                                                :Volume of Shale from SP
~A        DEPTH           ASFL           CALI           CILD             DT             GR        GR_NORM            ILD            ILM           RHOB             SP        SP_NORM         VSH_GR         VSH_SP
# ...
      3464.0000         0.9325        -999.25       1328.592       131.4233        56.8538       85.22769         0.7479         0.7185        -999.25       -38.1249         -2.352              1        0.95296
      3464.5000         0.9374        -999.25       1301.229        134.875        56.7069       85.02489         0.7983         0.7263        -999.25       -38.1474        -2.3738              1       0.952524
      3465.0000         0.9484        -999.25       1266.848       137.3445        56.4883       84.72215         0.8555         0.7458        -999.25       -38.2088        -2.4346              1       0.951308
      3465.5000         0.9609        -999.25       1200.777        138.877        56.2695       84.41916         0.9197         0.7765        -999.25       -38.2702        -2.4953              1       0.950094
      3466.0000         0.9832        -999.25       1123.416       137.8311        56.0508       84.11629         0.9803         0.8142        -999.25       -38.3075        -2.5319              1       0.949362
      3466.5000         1.0092        -999.25        1062.15       133.3025        55.6826        83.6052          1.027         0.8489        -999.25       -38.3234        -2.5472              1       0.949056
      3467.0000         1.0327        -999.25        1008.58       129.6521        54.7902       82.36334         1.0655         0.8833        -999.25       -38.3368        -2.5599              1       0.948802
      3467.5000         1.0538        -999.25       930.8916       125.9241        53.6272       80.74432         1.0955         0.9198        -999.25       -38.3358        -2.5583              1       0.948834
      3468.0000          1.075        -999.25       891.9463       122.1185        51.6774       78.02869         1.1156         0.9591        -999.25       -38.3348        -2.5566      0.9580572       0.948868
      3468.5000         1.0927        -999.25       867.7012       117.8601        48.7543       73.95649         1.1225         0.9824        -999.25       -38.3422        -2.5633      0.8714147       0.948734
      3469.0000            1.1        -999.25       859.8418       116.2438        47.5989       72.34807         1.1049         0.9829        -999.25       -38.3638        -2.5843       0.837193       0.948314
      3469.5000         1.1006        -999.25        944.749       118.4844        46.7367       71.14844         1.0674         0.9691        -999.25       -38.5443        -2.7641      0.8116689       0.944718
      3470.0000         1.0202        -999.25       1023.318       120.0988        46.1196       70.29029         0.9643         0.9377        -999.25       -38.8353        -3.0544      0.7934104       0.938912
      3470.5000         0.9592        -999.25       1087.199       121.1021        45.3259       69.18601         0.8597         0.8789        -999.25       -39.6048        -3.8233      0.7699152       0.923534
      3471.0000           0.94        -999.25       1161.242       122.2017           43.8       67.06119         0.7734         0.7995        -999.25       -41.1647        -5.3825      0.7247061        0.89235
      3471.5000         0.9193        -999.25           1238       131.9463        40.6337       62.65003          0.687         0.7024        -999.25       -42.7447        -6.9618      0.6308517       0.860764
      3472.0000         0.8964        -999.25       1301.379       139.5325        37.8895       58.82715         0.6093         0.5997        -999.25       -45.2457        -9.4622      0.5495139       0.810756
      3472.5000         0.8772        -999.25       1658.814       145.7173         35.905        56.0633         0.5426         0.5157        -999.25       -50.4041       -14.6199      0.4907085       0.707602
      3473.0000         0.8598        -999.25       2188.578       148.9075        34.7811       54.49879         0.4792          0.472        -999.25       -64.8231       -29.0382      0.4574211       0.419236
      3473.5000         0.8445        -999.25       2526.395       152.1575        33.7518       53.06612          0.431         0.4363        -999.25       -67.4717       -31.6862      0.4269387       0.366276
      3474.0000         0.8332        -999.25        2710.32       155.0823        32.7973       51.73771          0.396         0.4138        -999.25        -69.465       -33.6788      0.3986747       0.326424
      3474.5000         0.8249        -999.25       2760.219       157.6145        32.0432       50.68863          0.358         0.4031        -999.25       -71.1495       -35.3626      0.3763537       0.292748
      3475.0000         0.8196        -999.25       2835.844       159.6272        32.4552       51.26481         0.3291         0.3983        -999.25        -72.681       -36.8935       0.388613        0.26213
      3475.5000         0.8172        -999.25       3095.395       160.5969        32.9617       51.97284         0.3166         0.3959        -999.25        -73.275       -37.4868      0.4036775       0.250264
      3476.0000         0.8162        -999.25       3209.137        160.272        33.4588       52.66764         0.3186         0.4027        -999.25       -69.8353       -34.0464      0.4184605       0.319072
      3476.5000         0.8167        -999.25        3156.41       159.2258        34.0327       53.46948         0.3282         0.4207        -999.25       -67.6694       -31.8799      0.4355208       0.362402
      3477.0000         0.8173        -999.25       2968.738       157.4719         34.824       54.57433         0.3525         0.4405        -999.25       -65.6409       -29.8507      0.4590283       0.402986
      3477.5000         0.8179        -999.25       2786.348       153.3911        36.3271       56.67128           0.38         0.4612        -999.25       -58.8408         -23.05      0.5036442          0.539
      3478.0000         0.8194        -999.25       2501.043       148.5947        44.8206       68.51128         0.4092         0.4829        -999.25       -54.8115         -19.02      0.7555592         0.6196
      3478.5000         0.8209        -999.25       2315.082       145.3772        54.6736       82.24626         0.4422         0.5068        -999.25       -50.9786       -15.1864              1       0.696272
      3479.0000         0.8254        -999.25       2213.324       143.4663        63.7514       94.90066         0.4755         0.5331        -999.25       -45.7271        -9.9343              1       0.801314
      3479.5000         0.8299        -999.25        2120.27       142.4336        64.3086       95.67921         0.5093         0.5635        -999.25       -39.8284        -4.0349              1       0.919302
      3480.0000         0.8403        -999.25       1987.629       141.6316        64.7937       96.35728         0.5422         0.5839        -999.25       -38.9411        -3.1469              1       0.937062
      3480.5000         0.8506        -999.25       1726.318       140.8279        65.2728       97.02699         0.5706         0.5991        -999.25        -38.313        -2.5182              1       0.949636
      3481.0000         0.8644        -999.25       1663.291       139.8928        65.7125       97.64193         0.6005         0.6114        -999.25       -37.9113        -2.1158              1       0.957684
      3481.5000         0.8799        -999.25       1613.896        138.509        66.1771       98.29143         0.6311         0.6237        -999.25       -37.7691        -1.9729              1       0.960542
      3482.0000         0.8957        -999.25       1561.584       137.2063        66.7256       99.05787         0.6494         0.6353        -999.25       -37.7455        -1.9487              1       0.961026
      3482.5000         0.9116        -999.25       1485.178       137.0083        67.5039       100.1446         0.6684         0.6526        -999.25        -37.678        -1.8805              1        0.96239
