#------------------------------------------------------------------------------
# Created by    : vladimir.rabinovich
# Created on    : 09/19/2023 17:20:01
#------------------------------------------------------------------------------
~Version Information Section
VERS.           2.0     :   CWLS log ASCII Standard - VERSION 2.0
WRAP.           NO      :   One line per depth step
~Well Information Section
#MNEM       .UNIT                                         VALUE :DESCRIPTION
#------------------------------------------------------------------------------
STRT        .FT                                            3496 :START DEPTH
STOP        .FT                                           13495 :STOP DEPTH
STEP        .FT                                             0.5 :STEP      
NULL        .                                           -999.25 :NULL      
COMP        .                      TEXAS EASTERN EXPLORATION CO :COMPANY   
WELL        .                                ST TR 00798-L NE/4 :WELL      
FLD         .                                           WILDCAT :FIELD     
LOC         .                                                   :LOCATION  
CNTY        .                        MUSTANG ISLAND LARGE BLOCK :LOCATION  
STAT        .                                             TEXAS :STATE     
CTRY        .                                     UNITED STATES :COUNTRY   
SRVC        .                                                   :SERVICE COMPANY
DATE        .                             9/13/2023 11:18:55 AM :LOG DATE  
API         .                                    42702302040000 :API NUMBER
UWI         .                                    42702302040000 :UNIQUE WELL ID
XCOORD      .                                  329124.923046376 :SURFACE X 
YCOORD      .                                  10022065.1107101 :SURFACE Y 
LAT         .                                        27.5591082 :LATITUDE  
LON         .                                       -97.0466418 :LONGITUDE 
ELEV        .FT                                              82 :ELEVATION VALUE
ELEV_TYPE   .                                                KB :ELEVATION REFERENCE TYPE
~Curve Information Section
#MNEM       .UNIT                                      API CODE :CURVE DESCRIPTION
#------------------------------------------------------------------------------
DEPT        .FT                                                 :DEPTH     
ASFL        .OHMM                                               :          
CILD        .MMHO                                               :          
GR          .GAPI                                               :          
GR_NORM     .GAPI                                               :GammaRay Normalized
ILD         .OHMM                                               :          
SFL         .OHMM                                               :          
SP          .MV                                                 :          
SP_NORM     .MV                                                 :SP Normalized
VSH_GR      .V/V                                                :Volume of Shale from GR
VSH_SP      .V/V                                                :Volume of Shale from SP
~A        DEPTH           ASFL           CILD             GR        GR_NORM            ILD            SFL             SP        SP_NORM         VSH_GR         VSH_SP
      3496.0000        -999.25        -999.25        31.0885       58.11101        -999.25        -999.25        -999.25        -999.25      0.5342768        -999.25
      3496.5000        -999.25        -999.25        31.5392       58.80603        -999.25        -999.25        -999.25        -999.25      0.5490644        -999.25
      3497.0000        -999.25        -999.25        32.0514       59.59586        -999.25        -999.25        -999.25        -999.25      0.5658693        -999.25
      3497.5000        -999.25        -999.25        32.5833       60.41609        -999.25        -999.25        -999.25        -999.25      0.5833211        -999.25
      3498.0000        -999.25        -999.25        33.2272       61.40903        -999.25        -999.25        -999.25        -999.25      0.6044475        -999.25
      3498.5000        -999.25        -999.25        33.0797       61.18159        -999.25        -999.25        -999.25        -999.25      0.5996082        -999.25
      3499.0000        -999.25        -999.25        32.2746       59.94007        -999.25        -999.25        -999.25        -999.25      0.5731929        -999.25
      3499.5000        -999.25        -999.25        32.1019       59.67375        -999.25        -999.25        -999.25        -999.25      0.5675266        -999.25
      3500.0000        -999.25        -999.25        34.4124       63.23669        -999.25        -999.25        -999.25        -999.25      0.6433339        -999.25
      3500.5000        -999.25        -999.25        37.0853        67.3585        -999.25        -999.25        -999.25        -999.25      0.7310318        -999.25
      3501.0000         0.7056        -2.0591        40.0195       71.88327        10.0114         1.3895       -69.0846      -18.79221      0.8273036      0.6578422
      3501.5000         0.8995        -1.4487        41.7966        74.5532        10.0112         1.5634       -70.4465      -20.15411      0.8841106      0.6316518
      3502.0000         1.1788        46.7461        42.8915       76.10097        10.0089         1.7694       -72.1178       -21.8254      0.9170418      0.5995115
      3502.5000         1.4893       252.8311        44.2871       78.11245        10.0042          2.184       -74.3699      -24.07751      0.9598393      0.5562018
      3503.0000         1.5767       1168.045        45.7605        80.2439         9.9854         1.9835       -75.6571       -25.3647              1      0.5314481
      3503.5000         1.6635       1458.252        47.0919       82.15636         9.5307         1.6755       -76.3225      -26.03011              1      0.5186518
      3504.0000         1.7555       1573.338        47.3428       82.40263         0.7603         1.3012       -76.9636       -26.6712              1       0.506323
      3504.5000         1.8475       1494.008        46.2864       80.63295         0.7613         1.1162       -76.4502      -26.15781              1       0.516196
      3505.0000         1.9395       1435.111         45.181       78.78772         0.7618         1.0264       -75.0546      -24.76221      0.9742068      0.5430345
      3505.5000         1.9439       1364.992        43.7064       76.37314         0.7501         0.9409       -72.8647       -22.5723      0.9228327       0.585148
      3506.0000         1.5219       1276.998        42.8206       74.86653         0.7384          0.853       -69.4387       -19.1463      0.8907773      0.6510327
      3506.5000         1.1879        1199.23        42.1717       73.72523         0.7267         0.7884       -64.1516      -13.85921      0.8664944      0.7527075
      3507.0000         1.0497       1284.918        41.5253       72.58781         0.7082         0.7558        -61.973       -11.6806      0.8422937      0.7946038
      3507.5000         0.7503       1342.373        40.8966       71.47767         0.6892         0.7513       -59.0711      -8.778702      0.8186738      0.8504096
      3508.0000         0.7378       1403.926        40.2785       70.38387         0.6758         0.7491       -56.8987      -6.606304      0.7954016      0.8921865
      3508.5000         0.7256       1452.766        40.7167       70.91899         0.6636         0.7688       -55.3257      -5.033302      0.8067871      0.9224365
      3509.0000         0.7626       1506.918        43.1642       74.55257         0.6551         0.7895       -54.6809      -4.388504      0.8840973      0.9348364
      3509.5000         0.7968       1547.664        45.7499       78.39928         0.6504         0.8102       -54.0581      -3.765705      0.9659421      0.9468133
      3510.0000         0.8126       1570.805         48.312       82.20958         0.6557         0.8191        -53.548      -3.255604              1       0.956623
      3510.5000         0.8229       1536.268        49.2817       83.56431         0.6647         0.8271       -53.0049      -2.712505              1      0.9670672
      3511.0000         0.8307       1501.729        50.0424       84.59672         0.6733          0.835       -52.8916      -2.599205              1       0.969246
      3511.5000         0.8351       1475.074        49.9101       84.25206         0.6801         0.8362       -53.1188      -2.826405              1      0.9648768
      3512.0000         0.8341       1450.568        49.3247       83.20869         0.6868         0.8319        -53.346      -3.053604              1      0.9605076
      3512.5000         0.8308       1431.865        48.7579         82.194         0.6936         0.8276       -53.5313      -3.238903              1      0.9569442
      3513.0000         0.8229       1417.166        48.3667       81.45012         0.6995         0.8233       -53.7149      -3.422504              1      0.9534134
      3513.5000         0.8137       1403.256        47.9755       80.70621         0.7017         0.8143       -53.8571      -3.564705              1      0.9506788
      3514.0000         0.8069       1391.996        47.4013       79.68013         0.7038         0.8027       -53.6658      -3.373402      0.9931943      0.9543577
      3514.5000         0.8023       1381.902        46.7932       78.60177          0.706         0.7912       -53.4745      -3.182102      0.9702504      0.9580365
      3515.0000         0.7972       1375.002        45.5862       76.59984         0.7082         0.7796       -53.2833      -2.990902      0.9276561      0.9617134
      3515.5000         0.7919       1383.498        44.4185       74.65852         0.7095          0.768       -53.0045      -2.712105      0.8863516      0.9670749
      3516.0000         0.7852       1393.658        43.2725       72.75066         0.7083          0.756       -52.6685      -2.376102      0.8457588      0.9735365
      3516.5000         0.7771       1419.916        43.9208       73.60976         0.7071         0.7435       -52.0824      -1.790005      0.8640374      0.9848076
      3517.0000         0.7723       1446.174        44.6254       74.55566         0.7059          0.731       -52.0927      -1.800304      0.8841631      0.9846095
      3517.5000         0.7688       1472.393        45.3304       75.50218         0.7043         0.7185       -52.8552      -2.562805      0.9043018       0.969946
      3518.0000          0.766       1497.359        46.0281       76.43746            0.7         0.7154       -53.6108      -3.318405      0.9242013      0.9554153
      3518.5000          0.766       1522.326        46.7194       77.36286         0.6957         0.7205       -54.3566      -4.064205      0.9438907       0.941073
      3519.0000         0.7687       1543.703         46.546       76.95482         0.6917         0.7256       -55.1023      -4.809902      0.9352089      0.9267327
      3519.5000         0.7799       1558.266        44.3157       73.37489         0.6888         0.7456       -55.7851      -5.492702      0.8590403      0.9136019
      3520.0000         0.7959       1555.924        43.2252       71.55264         0.6858         0.7772       -56.4564      -6.164005      0.8202688      0.9006922
