#------------------------------------------------------------------------------
# Created by    : vladimir.rabinovich
# Created on    : 09/19/2023 17:21:15
#------------------------------------------------------------------------------
~Version Information Section
VERS.           2.0     :   CWLS log ASCII Standard - VERSION 2.0
WRAP.           NO      :   One line per depth step
~Well Information Section
#MNEM       .UNIT                                         VALUE :DESCRIPTION
#------------------------------------------------------------------------------
STRT        .FT                                            2893 :START DEPTH
STOP        .FT                                           11505 :STOP DEPTH
STEP        .FT                                             0.5 :STEP      
NULL        .                                           -999.25 :NULL      
COMP        .                               SEAGULL ENERGY CORP :COMPANY   
WELL        .                               OCS G06105 ST00BP00 :WELL      
FLD         .                              GALVESTON BLOCK 0343 :FIELD     
LOC         .                                                   :LOCATION  
CNTY        .                             GALVESTON LARGE BLOCK :LOCATION  
STAT        .                                             TEXAS :STATE     
CTRY        .                                     UNITED STATES :COUNTRY   
SRVC        .                                                   :SERVICE COMPANY
DATE        .                             9/13/2023 11:19:54 AM :LOG DATE  
API         .                                    42706403720000 :API NUMBER
UWI         .                                    42706403720000 :UNIQUE WELL ID
XCOORD      .                                  915246.934514234 :SURFACE X 
YCOORD      .                                  10428990.3748243 :SURFACE Y 
LAT         .                                         28.718869 :LATITUDE  
LON         .                                        -95.262866 :LONGITUDE 
ELEV        .FT                                              96 :ELEVATION VALUE
ELEV_TYPE   .                                                KB :ELEVATION REFERENCE TYPE
~Curve Information Section
#MNEM       .UNIT                                      API CODE :CURVE DESCRIPTION
#------------------------------------------------------------------------------
DEPT        .FT                                                 :DEPTH     
CAL         .IN                                                 :          
CNCSS       .%                                                  :          
CORR        .G/CM3                                              :          
DT24        .US/FT                                              :          
GR_NORM     .GAPI                                               :GammaRay Normalized
GRR         .GAPI                                               :          
ILD         .OHMM                                               :          
ILM         .OHMM                                               :          
PORDSS      .%                                                  :          
RFOC        .OHMM                                               :          
SP          .MV                                                 :          
SP_NORM     .MV                                                 :SP Normalized
VSH_GR      .V/V                                                :Volume of Shale from GR
VSH_SP      .V/V                                                :Volume of Shale from SP
~A        DEPTH            CAL          CNCSS           CORR           DT24        GR_NORM            GRR            ILD            ILM         PORDSS           RFOC             SP        SP_NORM         VSH_GR         VSH_SP
# ...
      3541.0000        17.7276        30.6084         -0.028            120       64.72519        48.2325         0.5527         0.6393        20.5295         1.1155            -24       -32.0259       0.675004      0.4934243
      3541.5000        18.2049        35.1622         -0.016       115.8112       65.87528        48.8205         0.5527         0.6393        24.1354         1.0091          -23.1       -31.1185      0.6994741      0.5064185
      3542.0000        18.4435        37.9269         -0.004       108.8356       65.86792        48.8194         0.5578         0.6393        24.0214         1.0755          -21.3        -29.311      0.6993175        0.53227
      3542.5000        18.3613        39.0139         -0.004       104.8455       66.63449        49.2122         0.5578         0.6393        20.4273         1.1255          -18.9       -26.9035      0.7156275      0.5666943
      3543.0000         18.279        38.7755         -0.016       109.0554       68.96309           50.4         0.5629         0.6393        17.5507         1.1051          -16.8        -24.796      0.7651721      0.5968314
      3543.5000        18.1971        39.0199         -0.032       118.6092       72.10158             52         0.5733         0.6393        18.3992         1.0465       -14.4118       -22.4004      0.8319485      0.6310857
      3544.0000        18.1158        40.8368          -0.04       125.7294         76.026             54         0.5785         0.6393        21.0451         1.0183       -13.2353       -21.2164      0.9154468        0.64803
      3544.5000         17.995        41.6889          -0.04       126.5261       76.80672           54.4         0.5785         0.6278        22.9711         1.0091       -12.0588       -20.0324      0.9320578      0.6649743
      3545.0000        17.8744        42.0582         -0.044       126.1366       78.37337           55.2         0.5785         0.6165         23.697         1.0091       -12.0588       -20.0249       0.965391      0.6651114
      3545.5000        17.7936        42.4192         -0.044       127.5297       81.11892           56.6         0.5733         0.6055        24.6642              1       -12.0588       -20.0175              1      0.6652486
      3546.0000        17.8316         42.662          -0.04       130.1178       86.22223           59.2         0.5578            0.6        25.7501         0.9624       -11.1765       -19.1277              1        0.67799
      3546.5000        17.9486        42.9043         -0.036       132.5441       89.79376        61.0204         0.5477         0.5892         26.596         0.9262            -10       -17.9437              1      0.6949357
      3547.0000        18.0653        43.1461         -0.024       135.1688       93.39732        62.8571         0.5281         0.5733         26.722            0.9        -8.8235       -16.7597              1        0.71188
      3547.5000        18.2212        43.2691         -0.024       139.3967        92.9913        62.6531         0.5139         0.5629        26.3679         0.8919        -8.5294       -16.4582              1      0.7162186
      3548.0000        18.2589        43.8646         -0.032       147.7661       85.41547           58.8            0.5         0.5527        25.8939         0.8919            -10       -17.9213              1      0.6953471
      3548.5000        18.2569         45.049         -0.056       156.5663       77.55099           54.8         0.4773         0.5428        28.4198         0.8919       -13.5294       -21.4432      0.9478935      0.6450643
      3549.0000        18.7435        46.2312         -0.084       159.1762       74.00913             53         0.4642         0.5428         31.401         0.8759          -16.8       -24.7063      0.8725348      0.5984786
      3549.5000        19.4756        46.4685         -0.088       158.7861       75.57576           53.8         0.4514         0.5428        33.4082         0.8601          -19.5       -27.3989      0.9058672      0.5600443
      3550.0000        19.4748        45.9992         -0.048       149.5962       80.28611           56.2         0.4349         0.5428        32.5869         0.8759          -21.9       -29.7914              1      0.5258971
      3550.5000        19.1474        44.0012        -0.0361       136.6035       82.23414        57.1941         0.4349         0.5526        31.2949         0.9622       -24.3034       -32.1873              1         0.4917
      3551.0000         18.902             42        -0.0363       124.8083       77.49391        54.7842          0.447         0.5574        30.1178         1.0548       -27.0048       -34.8812       0.946679      0.4532457
      3551.5000        18.9421        40.0459        -0.0324       123.6165       74.32555        53.1743         0.4724         0.5831          29.28         1.1435       -29.1023       -36.9713      0.8792669      0.4234186
      3552.0000        19.1447        38.2178        -0.0326       122.8256       70.76422        51.3644         0.4992         0.6156           29.4         1.1534       -29.7011       -37.5626      0.8034941      0.4150014
      3552.5000        19.3063        37.4903        -0.0288       118.2723       67.59782        49.7555          0.527         0.6556          28.44         1.1427            -30        -37.854      0.7361237      0.4108686
      3553.0000        19.3864        36.2773         -0.025          108.6       67.57374        49.7459         0.5564         0.6919          26.04         1.1422       -29.4033       -37.2498      0.7356114        0.41953
      3553.5000        19.3042        35.0915        -0.0212          105.4       68.33247        50.1347         0.5874         0.7304          23.04         1.1839       -28.2118       -36.0509      0.7517546      0.4366886
      3554.0000        19.2221        34.8594        -0.0253          106.2       68.30782        50.1248         0.6034         0.7302          19.92         1.2051       -27.6181       -35.4497      0.7512301      0.4453086
      3554.5000        19.3021        34.8642        -0.0374       111.7797       67.11213        49.5189         0.6086         0.7167          21.12         1.1831       -27.0255       -34.8496        0.72579      0.4539114
      3555.0000        19.3819        35.1065        -0.0415       119.3024       67.08843        49.5095         0.6083         0.6844          23.64         1.1509       -26.7313       -34.5479      0.7252858      0.4582514
      3555.5000        19.3805        36.0648        -0.0417       124.2605       68.62286        50.2931         0.5917         0.6538          26.04         1.0996       -26.1408         -33.95      0.7579333      0.4668243
      3556.0000        19.3794        37.0387        -0.0418       124.4639       69.77709        50.8832         0.5754         0.6245          26.64           1.06       -25.2549       -33.0566      0.7824913      0.4796171
      3556.5000        19.3783         37.769        -0.0381       125.0619        70.1454        51.0733         0.5546         0.6075          26.28         1.0217        -24.667       -32.4612      0.7903277      0.4881529
      3557.0000        19.3771         38.377        -0.0382       124.4747       69.72778        50.8634         0.5394         0.6017          26.04         1.0213       -24.0802       -31.8669       0.781442      0.4966729
      3557.5000        19.4162        38.3806        -0.0384         122.51       70.48905        51.2535         0.5246         0.6015          25.92         1.0208       -24.3817        -32.161      0.7976394      0.4925043
      3558.0000        19.5356        38.3842        -0.0385       120.7449       71.64327        51.8436         0.5149         0.6012          25.92         1.0204       -24.3872        -32.159      0.8221973      0.4925629
      3558.5000        19.8153        39.3511        -0.0387       119.7672       72.01159        52.0337         0.5194         0.6009          26.04         1.0387       -24.3927        -32.157      0.8300338      0.4926215
