#------------------------------------------------------------------------------
# Created by    : vladimir.rabinovich
# Created on    : 09/19/2023 17:22:39
#------------------------------------------------------------------------------
~Version Information Section
VERS.           2.0     :   CWLS log ASCII Standard - VERSION 2.0
WRAP.           NO      :   One line per depth step
~Well Information Section
#MNEM       .UNIT                                         VALUE :DESCRIPTION
#------------------------------------------------------------------------------
STRT        .FT                                            3493 :START DEPTH
STOP        .FT                                            8566 :STOP DEPTH
STEP        .FT                                             0.5 :STEP      
NULL        .                                           -999.25 :NULL      
COMP        .                          SEAGULL ENERGY E & P INC :COMPANY   
WELL        .                               OCS G09038 ST00BP00 :WELL      
FLD         .                                           WILDCAT :FIELD     
LOC         .                                                   :LOCATION  
CNTY        .                             GALVESTON LARGE BLOCK :LOCATION  
STAT        .                                             TEXAS :STATE     
CTRY        .                                     UNITED STATES :COUNTRY   
SRVC        .                                                   :SERVICE COMPANY
DATE        .                             9/13/2023 11:19:36 AM :LOG DATE  
API         .                                    42706402070000 :API NUMBER
UWI         .                                    42706402070000 :UNIQUE WELL ID
XCOORD      .                                  986976.405819811 :SURFACE X 
YCOORD      .                                  10491452.3738699 :SURFACE Y 
LAT         .                                         28.894171 :LATITUDE  
LON         .                                        -95.042508 :LONGITUDE 
ELEV        .FT                                              93 :ELEVATION VALUE
ELEV_TYPE   .                                                KB :ELEVATION REFERENCE TYPE
~Curve Information Section
#MNEM       .UNIT                                      API CODE :CURVE DESCRIPTION
#------------------------------------------------------------------------------
DEPT        .FT                                                 :DEPTH     
DCAL        .IN                                                 :          
DPHI        .%                                                  :          
DRHO        .G/C3                                               :          
GR          .GAPI                                               :          
GR_NORM     .GAPI                                               :GammaRay Normalized
ILD         .OHMM                                               :          
ILM         .OHMM                                               :          
NPHI        .%                                                  :          
SGRD        .OHMM                                               :          
SP          .MV                                                 :          
SP_NORM     .MV                                                 :SP Normalized
VSH_GR      .V/V                                                :Volume of Shale from GR
VSH_SP      .V/V                                                :Volume of Shale from SP
~A        DEPTH           DCAL           DPHI           DRHO             GR        GR_NORM            ILD            ILM           NPHI           SGRD             SP        SP_NORM         VSH_GR         VSH_SP
# ...
      4158.0000         4.0974        37.0001         0.0512        42.1625       48.27732         0.6507         0.7365        40.8947           1.34         -98.08      -40.48574      0.3250494      0.3957352
      4158.5000         3.1727         29.465         0.0378        40.6924       46.26124         0.7094         0.8271        38.9564         1.6559       -98.0151       -40.4227       0.282154      0.3966762
      4159.0000          2.968        26.6554         0.0278        40.2819       45.69479         0.7336          0.894        38.1206         1.8482       -98.1821      -40.59155      0.2701019      0.3941559
      4159.5000         3.0547        24.8747         0.0228        40.8601       46.48098         0.7326         0.9037        39.3359         1.8962       -98.4993      -40.91061      0.2868293      0.3893939
      4160.0000         3.1356        25.0219         0.0234        42.0486       48.10211          0.692           0.81        41.3296         1.7645       -97.5879      -40.00106      0.3213215      0.4029692
      4160.5000         3.1723         27.301         0.0255        44.0038       50.77216         0.6439         0.7367        43.4054         1.4242       -95.2429      -37.65792      0.3781311      0.4379415
      4161.0000          3.128        29.0092         0.0256        46.8425       54.65092         0.5956         0.6744        44.7369         1.2342        -94.068      -36.48488      0.4606579      0.4554496
      4161.5000         3.0413        30.0008          0.023        50.7107       59.93813           0.55         0.6298        45.1663         1.1009       -93.3013      -35.72004      0.5731518      0.4668652
      4162.0000         2.9936        30.8564         0.0203        52.7568       62.73256         0.5063         0.6008        44.7781          1.022       -93.7809      -36.20149      0.6326077      0.4596792
      4162.5000         3.0352        31.2352         0.0156        53.3288       63.51024         0.4733         0.5769         44.116          1.048       -94.3142      -36.73665      0.6491541      0.4516918
      4163.0000         3.0993        31.3294         0.0104        53.5921       63.86561          0.444         0.5573        43.4581         1.0764       -93.7908      -36.21511      0.6567151       0.459476
      4163.5000         3.2236        30.8138         0.0098        53.5078       63.74545         0.4249         0.5388        42.8016         1.0837       -92.6307      -35.05686      0.6541586      0.4767632
      4164.0000         2.9753        29.6481         0.0111        52.2117       61.96742         0.4284         0.5235        42.2053          1.056       -91.8337      -34.26172      0.6163281      0.4886311
      4164.5000            2.6        28.6483         0.0157         53.047       63.10533         0.4353         0.5244        41.7835         1.0287       -96.4321      -38.86197       0.640539      0.4199705
      4165.0000         2.3078        29.1482         0.0211        52.1437       61.86469         0.4406         0.5354         42.097         1.0123      -101.4858      -43.91753      0.6141422      0.3445144
      4165.5000          2.136        31.0342         0.0157        50.1774       59.16976         0.4414         0.5455        42.6791         1.0303      -107.0295      -49.46309      0.5568033      0.2617449
      4166.0000         2.0228        33.0495         0.0107        49.3109       57.97946          0.435         0.5563        42.0454         1.0991      -112.2218      -54.65725      0.5314778      0.1842202
      4166.5000          1.947        34.0732         0.0071        48.5576       56.94403         0.4252         0.5674        39.7141         1.2105      -116.4712       -58.9085      0.5094474      0.1207686
      4167.0000         1.8801        34.0878         0.0042          46.22       53.74113         0.4143         0.5779        38.3787         1.3612      -119.4905      -61.92966      0.4413006     0.07567676
      4167.5000         1.8374        32.9852          0.003        44.9693        52.0252         0.4085         0.5838        37.1495         1.4865      -121.3715      -63.81251      0.4047914     0.04757446
      4168.0000         1.8622        32.2242          0.002        44.2265       51.00414         0.4032         0.5842        36.5297         1.5472       -122.748      -65.19087      0.3830669     0.02700191
      4168.5000          1.996         32.303          0.002        43.1599       49.54007         0.3966         0.5722        36.5704         1.5328       -123.474      -65.91872      0.3519165     0.01613845
      4169.0000          2.252        32.6119         0.0022        42.0493       48.01582         0.3893         0.5585        37.4036         1.4826      -123.6868      -66.13338      0.3194856     0.01293467
      4169.5000           2.54        32.9695         0.0033        40.9442        46.4991         0.3813         0.5443         38.443         1.4223      -123.5693      -66.01774      0.2872149     0.01466062
      4170.0000         2.7593         33.176         0.0046        39.9332       45.11111         0.3717         0.5302        39.4592         1.3651      -123.4453      -65.89559      0.2576831     0.01648371
      4170.5000         2.9352         32.825         0.0067        38.8796       43.66484         0.3614         0.5165        40.1921         1.3384      -123.3423      -65.79445      0.2269114      0.0179933
      4171.0000         3.1109        32.3885         0.0095        38.7855       43.53126         0.3497         0.5021        40.3757         1.3258      -123.3811      -65.83511      0.2240693     0.01738637
      4171.5000         3.2572        31.9738         0.0126        39.8101       44.92815         0.3385         0.4891        40.0137         1.3143      -123.5139      -65.96976      0.2537905     0.01537665
      4172.0000         3.3637        31.5109         0.0156        41.0921        46.6772         0.3283         0.4769        39.5381         1.2977       -123.741      -66.19872      0.2910043     0.01195947
      4172.5000         3.4674        31.1848         0.0179        42.6104       48.74954         0.3205         0.4639         39.847         1.2819      -123.9821      -66.44168      0.3350967     0.00833312
      4173.0000         3.5806        30.8853         0.0206        43.5518       50.03261         0.3132         0.4516        40.7422         1.2723      -124.2443      -66.70573       0.362396    0.004392026
      4173.5000          3.689        31.2554         0.0228        41.9868       47.88671         0.3066         0.4408        41.8578         1.2631       -124.446      -66.90929      0.3167385    0.001353933
      4174.0000         3.7985        31.7762         0.0236        41.0587       46.61213         0.3008         0.4308        42.8405         1.2567      -124.6061      -67.07125      0.2896199              0
      4174.5000         3.8984        31.8076         0.0257        40.5186       45.86837         0.2969         0.4215        43.8552         1.2526      -124.6166       -67.0836      0.2737951              0
      4175.0000         4.0021         31.708         0.0297        39.2375       44.11086         0.2949         0.4124        44.9484         1.2515       -124.557      -67.02586      0.2364013              0
      4175.5000         4.1447        31.6308         0.0348        39.2186       44.08016          0.295         0.4073        46.2053         1.2643      -124.4437      -66.91442      0.2357481    0.001277297
      4176.0000         4.3497        31.5681         0.0407        38.7224       43.39646         0.2964         0.4084        47.4636         1.2775      -124.2896      -66.76217      0.2212012    0.003549718
      4176.5000         4.4341        32.1468         0.0479        36.8316       40.80482         0.3033         0.4144        48.4933         1.2977      -124.0774      -66.55183        0.16606    0.006689043
