#------------------------------------------------------------------------------
# Created by    : vladimir.rabinovich
# Created on    : 09/19/2023 17:22:42
#------------------------------------------------------------------------------
~Version Information Section
VERS.           2.0     :   CWLS log ASCII Standard - VERSION 2.0
WRAP.           NO      :   One line per depth step
~Well Information Section
#MNEM       .UNIT                                         VALUE :DESCRIPTION
#------------------------------------------------------------------------------
STRT        .FT                                              96 :START DEPTH
STOP        .FT                                            7107 :STOP DEPTH
STEP        .FT                                             0.5 :STEP      
NULL        .                                           -999.25 :NULL      
COMP        .                                  XTO OFFSHORE INC :COMPANY   
WELL        .                               OCS G23162 ST00BP00 :WELL      
FLD         .                                 BRAZOS BLOCK 0398 :FIELD     
LOC         .                                                   :LOCATION  
CNTY        .                                BRAZOS LARGE BLOCK :LOCATION  
STAT        .                                             TEXAS :STATE     
CTRY        .                                     UNITED STATES :COUNTRY   
SRVC        .                                                   :SERVICE COMPANY
DATE        .                             9/13/2023 11:18:28 AM :LOG DATE  
API         .                                    42704403370000 :API NUMBER
UWI         .                                    42704403370000 :UNIQUE WELL ID
XCOORD      .                                  864551.184430364 :SURFACE X 
YCOORD      .                                  10381025.1526549 :SURFACE Y 
LAT         .                                        28.5842785 :LATITUDE  
LON         .                                       -95.4179199 :LONGITUDE 
ELEV        .FT                                             100 :ELEVATION VALUE
ELEV_TYPE   .                                                KB :ELEVATION REFERENCE TYPE
~Curve Information Section
#MNEM       .UNIT                                      API CODE :CURVE DESCRIPTION
#------------------------------------------------------------------------------
DEPT        .FT                                                 :DEPTH     
DCAL        .IN                                                 :          
DPHI        .FRAC                                               :          
DT          .US/F                                               :          
GR          .GAPI                                               :          
GR_NORM     .GAPI                                               :GammaRay Normalized
HT01        .OHMM                                               :          
HT02        .OHMM                                               :          
HT03        .OHMM                                               :          
HT06        .OHMM                                               :          
HT09        .OHMM                                               :          
HT12        .OHMM                                               :          
NPHI        .FRAC                                               :          
RWA         .OHMM                                               :          
SP          .MV                                                 :          
TENS        .LB                                                 :          
VSH_GR      .V/V                                                :Volume of Shale from GR
~A        DEPTH           DCAL           DPHI             DT             GR        GR_NORM           HT01           HT02           HT03           HT06           HT09           HT12           NPHI            RWA             SP           TENS         VSH_GR
# ...
      5216.0000          0.894         0.1508       104.2594        65.1802        58.5631         0.8309         0.7814         0.7803         0.7294         0.7116         0.7032         0.2912          0.041        -999.25       2964.825      0.5438958
      5216.5000         0.9837         0.2314        78.3375        64.6511       57.97405         0.8014         0.7578          0.759         0.7111         0.6943         0.6865         0.3286         0.0679        -999.25       2945.736      0.5313627
      5217.0000         0.8554         0.2711        82.6844        65.4448       58.85477         0.7213         0.6881         0.6912         0.6496         0.6351          0.628          0.395         0.0671        -999.25       3005.549      0.5501015
      5217.5000         0.6952         0.2734       105.8953        67.3449       60.96482         0.6344         0.6108         0.6149         0.5797         0.5675         0.5611         0.4076         0.0594        -999.25        3136.31      0.5949962
      5218.0000          0.663         0.2733       117.9125        66.8157       60.37564         0.5688         0.5517         0.5564         0.5259         0.5155         0.5098         0.3954         0.0592        -999.25       3256.253      0.5824603
      5218.5000         0.6161         0.2857       118.6406        63.6409       56.84692         0.5307         0.5179         0.5229         0.4953          0.486         0.4808         0.3968         0.0636        -999.25       3283.295      0.5073812
      5219.0000         0.5736         0.2914       118.9766        67.1525       60.74752         0.5149         0.5051         0.5107         0.4845         0.4758         0.4708         0.3863         0.0607        -999.25        3199.94      0.5903728
      5219.5000         0.5352         0.2728       118.3453        78.6492       73.52047         0.5135         0.5063          0.513         0.4872         0.4786         0.4738          0.393         0.0474        -999.25       3075.225      0.8621377
      5220.0000         0.7242         0.2493       116.5672        86.8268       82.60551         0.5221         0.5178         0.5263         0.4999         0.4913         0.4866         0.4016         0.0421        -999.25        2988.05              1
      5220.5000         0.9983         0.2412       115.2828        87.1395       82.95178          0.537         0.5361         0.5473         0.5196         0.5108         0.5061         0.4039         0.0431        -999.25       2961.326              1
      5221.0000         1.0093         0.2448       116.2281         81.824       77.04449         0.5576          0.561         0.5759         0.5462         0.5371         0.5326         0.4202         0.0481        -999.25       2976.916      0.9371169
      5221.5000         0.9606         0.2382       118.8562        77.7352       72.50022         0.5884         0.5974         0.6178          0.585         0.5756         0.5711          0.399         0.0447        -999.25       2996.004      0.8404303
      5222.0000         0.7563         0.2014       116.6203        75.4263       69.93361         0.6341         0.6511         0.6796         0.6425         0.6327         0.6283         0.3599         0.0274        -999.25       3006.822      0.7858215
      5222.5000         0.6337         0.1696       111.3672        73.2375       67.50044         0.6944         0.7229         0.7629         0.7203         0.7105         0.7062         0.3501         0.0261        -999.25       3003.322      0.7340519
      5223.0000         0.6608         0.1885       101.7109        72.9249       67.15193         0.7548         0.7983         0.8533         0.8054         0.7962         0.7922         0.3526         0.0494        -999.25       2996.641      0.7266368
      5223.5000         0.7924         0.2225        88.5406        70.5197       64.47831         0.7946         0.8537         0.9247         0.8742         0.8666         0.8632         0.3928         0.0625        -999.25       2997.277      0.6697513
      5224.0000         1.2327         0.2316        99.3859        71.6982       65.78658         0.8094         0.8814         0.9664         0.9171          0.912         0.9094         0.4258         0.0612        -999.25       3002.686      0.6975869
      5224.5000         1.8122         0.2466       123.2828        78.7454       73.61564         0.8077         0.8887         0.9834         0.9389         0.9369         0.9341         0.4454         0.0849        -999.25       3005.549      0.8641625
      5225.0000         1.9018         0.2834       127.6703        80.4531       75.51192         0.8004         0.8875         0.9872           0.95          0.951          0.946         0.4706         0.1184        -999.25       2996.322      0.9045089
      5225.5000         1.9018         0.3275       118.5406        81.7038       76.90041          0.789         0.8788         0.9787         0.9501         0.9512         0.9467          0.508          0.162        -999.25       2981.688      0.9340512
      5226.0000         1.8357         0.3615       111.0453        88.6547       84.62246         0.7683          0.856         0.9513         0.9313         0.9329         0.9291          0.533         0.1849        -999.25       2974.052              1
      5226.5000         1.6467         0.3735       114.3625        93.8259       90.36706         0.7376         0.8183         0.9053         0.8918         0.8952         0.8922         0.5253         0.1785        -999.25       2978.188              1
      5227.0000           1.48         0.3727       120.4328        90.2421        86.3839         0.7056         0.7772         0.8544         0.8462          0.851         0.8488          0.523         0.1731        -999.25        2988.05              1
      5227.5000         1.1481          0.351       120.8062        82.6658       77.96461         0.6804         0.7431         0.8102         0.8061         0.8118         0.8102         0.5345         0.1305        -999.25       2995.686      0.9566939
      5228.0000         0.9481         0.3134       126.4547        83.5317       78.92555          0.665         0.7196          0.777         0.7758          0.782         0.7809         0.5137         0.0959        -999.25       2995.368      0.9771394
      5228.5000         0.9235         0.2875       131.0203        91.3726       87.63649         0.6559         0.7024         0.7504          0.751         0.7573         0.7567         0.5041          0.085        -999.25       2989.641              1
      5229.0000         0.9264         0.2801       128.7484        93.6575        90.1741           0.65          0.688         0.7268         0.7284         0.7345         0.7343         0.4946         0.0815        -999.25       2989.323              1
      5229.5000         1.0459         0.2759       129.8297        91.3004       87.55392         0.6462         0.6753         0.7054         0.7072         0.7129         0.7129         0.4929         0.0743        -999.25       3002.368              1
      5230.0000         1.5478         0.2603       129.2266        89.8333       85.92264         0.6474         0.6677         0.6896         0.6909          0.696         0.6962         0.4788         0.0603        -999.25       3019.866              1
      5230.5000         1.9195         0.2425       124.8344        84.7824       80.30936          0.655         0.6661         0.6805         0.6809         0.6852         0.6856          0.468         0.0536        -999.25       3027.184              1
      5231.0000         1.7517         0.2337       121.1531        81.0303       76.13918         0.6654         0.6668         0.6741         0.6733         0.6768         0.6774         0.4244         0.0504        -999.25       3025.593       0.917855
      5231.5000         1.1497         0.2397       116.9047         86.442       82.15102         0.6687           0.66         0.6609         0.6584         0.6611         0.6617          0.401         0.0567        -999.25       3027.184              1
