#------------------------------------------------------------------------------
# Created by    : vladimir.rabinovich
# Created on    : 09/19/2023 17:22:17
#------------------------------------------------------------------------------
~Version Information Section
VERS.           2.0     :   CWLS log ASCII Standard - VERSION 2.0
WRAP.           NO      :   One line per depth step
~Well Information Section
#MNEM       .UNIT                                         VALUE :DESCRIPTION
#------------------------------------------------------------------------------
STRT        .FT                                             996 :START DEPTH
STOP        .FT                                            8436 :STOP DEPTH
STEP        .FT                                             0.5 :STEP      
NULL        .                                           -999.25 :NULL      
COMP        .                                    TDC ENERGY LLC :COMPANY   
WELL        .                               OCS G03738 ST00BP00 :WELL      
FLD         .                              GALVESTON BLOCK 0255 :FIELD     
LOC         .                                                   :LOCATION  
CNTY        .                             GALVESTON LARGE BLOCK :LOCATION  
STAT        .                                             TEXAS :STATE     
CTRY        .                                     UNITED STATES :COUNTRY   
SRVC        .                                                   :SERVICE COMPANY
DATE        .                             9/13/2023 11:18:53 AM :LOG DATE  
API         .                                    42706400460000 :API NUMBER
UWI         .                                    42706400460000 :UNIQUE WELL ID
XCOORD      .                                   1080542.6436948 :SURFACE X 
YCOORD      .                                  10548065.2081286 :SURFACE Y 
LAT         .                                        29.0539695 :LATITUDE  
LON         .                                       -94.7527854 :LONGITUDE 
ELEV        .FT                                              94 :ELEVATION VALUE
ELEV_TYPE   .                                                KB :ELEVATION REFERENCE TYPE
~Curve Information Section
#MNEM       .UNIT                                      API CODE :CURVE DESCRIPTION
#------------------------------------------------------------------------------
DEPT        .FT                                                 :DEPTH     
CALI        .IN                                                 :          
CILD        .MMHO                                               :          
DT          .US/F                                               :          
GR          .GAPI                                               :          
GR_NORM     .GAPI                                               :GammaRay Normalized
ILD         .OHMM                                               :          
ILM         .OHMM                                               :          
RHOB        .G/C3                                               :          
SFL         .OHMM                                               :          
SP          .MV                                                 :          
SP_NORM     .MV                                                 :SP Normalized
VSH_GR      .V/V                                                :Volume of Shale from GR
VSH_SP      .V/V                                                :Volume of Shale from SP
~A        DEPTH           CALI           CILD             DT             GR        GR_NORM            ILD            ILM           RHOB            SFL             SP        SP_NORM         VSH_GR         VSH_SP
       996.0000        -999.25        -999.25        -999.25          37.89       48.90861        -999.25        -999.25        -999.25        -999.25        -999.25        -999.25      0.3384811        -999.25
       996.5000        -999.25        -999.25        -999.25        37.4919       48.32197        -999.25        -999.25        -999.25        -999.25        -999.25        -999.25      0.3259994        -999.25
       997.0000        -999.25        -999.25        -999.25         37.134       47.79456        -999.25        -999.25        -999.25        -999.25        -999.25        -999.25      0.3147778        -999.25
       997.5000        -999.25        -999.25        -999.25        36.7289        47.1976        -999.25        -999.25        -999.25        -999.25        -999.25        -999.25      0.3020766        -999.25
       998.0000        -999.25        -999.25        -999.25        36.3002       46.56587        -999.25        -999.25        -999.25        -999.25        -999.25        -999.25      0.2886355        -999.25
       998.5000        -999.25        -999.25        -999.25        35.8885       45.95918        -999.25        -999.25        -999.25        -999.25        -999.25        -999.25      0.2757272        -999.25
       999.0000        -999.25        -999.25        -999.25        35.3787       45.20793        -999.25        -999.25        -999.25        -999.25        -999.25        -999.25      0.2597432        -999.25
       999.5000        -999.25        -999.25        -999.25        34.7928       44.34454        -999.25        -999.25        -999.25        -999.25        -999.25        -999.25      0.2413732        -999.25
      1000.0000        -999.25       -29.7417        79.8784        34.3935       43.75613         1.0126        -999.25        -999.25         0.6116       -44.4446       10.92263      0.2288538              1
      1000.5000        -999.25       -26.4507        79.8936        34.0836       43.29945         1.0155        -999.25        -999.25         0.5951       -44.7849       10.58233      0.2191373              1
      1001.0000        -999.25       -23.2593        79.9087         33.834       42.93164         1.0176        -999.25        -999.25         0.4832       -47.0044       8.362835      0.2113114              1
      1001.5000        -999.25       -19.8662        79.9238        33.6055       42.59492         1.0196        -999.25        -999.25         0.2766       -50.5728       4.794434      0.2041473              1
      1002.0000        22.3099       -15.8518         79.939        33.4398       42.35074         1.0239        -999.25         1.7795         0.3058       -52.3196       3.047634       0.198952              1
      1002.5000        22.3907       -15.4814        79.9541        33.4435        42.3562         1.0249        -999.25         1.7688         0.7414       -53.4779       1.889332      0.1990681              1
      1003.0000        22.5934        -9.9336        79.9692        33.5912       42.57385         1.0259        -999.25         1.7689         1.7643       -54.1177       1.249535       0.203699              1
      1003.5000        22.6923        15.6875        83.5889        34.4402       43.82494          1.029        -999.25          1.769         2.6864       -54.7695      0.5977325       0.230318              1
      1004.0000        22.7475       199.4375       115.5313        35.8765       45.94149         1.0362        -999.25         1.7688         2.6423       -55.8613     -0.4940681      0.2753509      0.9835311
      1004.5000        22.7815       398.2812       190.9001        37.8286       48.81813         1.0452        -999.25         1.7685         1.9364       -56.9756      -1.608368       0.336556      0.9463877
      1005.0000        22.7642         545.25       188.9731        39.6501       51.50231         1.0546        -999.25         1.7677         1.3476       -57.6031      -2.235867      0.3936662      0.9254711
      1005.5000        22.6961       728.5625       188.6914        40.5815       52.87484         1.0806        -999.25         1.7691         1.2468       -57.9854      -2.618168      0.4228689      0.9127277
      1006.0000        22.6191       791.5479       190.6123        40.9094       53.35804         1.1255        -999.25         1.7716         1.2549       -58.2914      -2.924168      0.4331497      0.9025277
      1006.5000        22.5961        831.375       194.0208        40.8817       53.31721         1.0928        -999.25         1.7747         1.2052       -58.4443      -3.077068      0.4322811      0.8974311
      1007.0000        22.6368       950.6094       190.7588        40.8431       53.26033         1.0182        -999.25         1.7767         1.1889       -58.5651      -3.197868      0.4310709      0.8934044
      1007.5000         22.726       949.8047       184.3496        40.7825       53.17103         1.0808        -999.25         1.7782         1.2164       -58.7089      -3.341667      0.4291709      0.8886111
      1008.0000          20.34       906.2422       166.9023        40.7609        53.1392         1.1482        -999.25         1.7717         1.2771       -59.2986      -3.931366      0.4284936      0.8689545
      1008.5000        19.6879       869.7813       159.6094        40.7509       53.12446         1.1917        -999.25          1.766         1.3374       -59.4342      -4.066967        0.42818      0.8644344
      1009.0000         17.839       835.8359       159.2871        40.7145       53.07083         1.2006        -999.25         1.7616         1.3686       -59.5009      -4.133667       0.427039      0.8622111
      1009.5000        16.4255        824.748       158.4326        40.6563       52.98507         1.2123        -999.25         1.7597          1.355       -59.6886      -4.321365      0.4252142      0.8559545
      1010.0000        15.5662       810.2871       153.5303        40.5314       52.80101         1.2395        -999.25         1.7629         1.3342       -60.3627      -4.995468       0.421298      0.8334844
      1010.5000        15.0786       789.8359       148.8481           40.4       52.60738         1.2728        -999.25         1.7698         1.3375       -61.3744      -6.007168      0.4171783      0.7997611
      1011.0000        14.6214       762.2617       144.1172        40.3066       52.46975         1.3028        -999.25         1.7758         1.4674       -62.2943      -6.927067      0.4142499      0.7690977
      1011.5000        13.8879       728.0859       142.2881        40.0918       52.15321         1.3438        -999.25         1.7811         1.5539       -63.6611      -8.293865      0.4075151      0.7235378
      1012.0000        13.1083       698.6934       141.4119        39.1006       50.69257         1.3993        -999.25         1.7853          1.607       -65.4648      -10.09756      0.3764376      0.6634145
      1012.5000        12.9199       686.2793        142.094        35.6836       45.65724         1.4399        -999.25         1.7882          1.661       -66.6157      -11.24847      0.2693029      0.6250511
      1013.0000        12.8321       673.8672       145.1191        32.9189       41.58314         1.4614        -999.25         1.7892          1.661       -68.4744      -13.10717      0.1826199      0.5630943
      1013.5000        12.7744       673.5508       150.6133        30.6828         38.288         1.4587        -999.25         1.7876         1.5074       -70.1538      -14.78657      0.1125106      0.5071144
      1014.0000        12.7197       683.5859       156.6953        30.2717       37.68219         1.4481        -999.25         1.7853         1.3277       -70.7301      -15.36287     0.09962115      0.4879044
      1014.5000         12.665       695.9609       161.8584        30.2055       37.58464         1.4364        -999.25         1.7836           1.24       -70.2235      -14.85627     0.09754562       0.504791
