#------------------------------------------------------------------------------
# Created by    : vladimir.rabinovich
# Created on    : 09/19/2023 17:20:45
#------------------------------------------------------------------------------
~Version Information Section
VERS.           2.0     :   CWLS log ASCII Standard - VERSION 2.0
WRAP.           NO      :   One line per depth step
~Well Information Section
#MNEM       .UNIT                                         VALUE :DESCRIPTION
#------------------------------------------------------------------------------
STRT        .FT                                            2010 :START DEPTH
STOP        .FT                                            7000 :STOP DEPTH
STEP        .FT                                             0.5 :STEP      
NULL        .                                           -999.25 :NULL      
COMP        .                                    TEXAS GULF INC :COMPANY   
WELL        .                                ST OF TEX TR 693-L :WELL      
FLD         .                                           WILDCAT :FIELD     
LOC         .                                                   :LOCATION  
CNTY        .                      MATAGORDA ISLAND LARGE BLOCK :LOCATION  
STAT        .                                             TEXAS :STATE     
CTRY        .                                     UNITED STATES :COUNTRY   
SRVC        .                                                   :SERVICE COMPANY
DATE        .                             9/13/2023 11:12:01 AM :LOG DATE  
API         .                                    42703300330000 :API NUMBER
UWI         .                                    42703300330000 :UNIQUE WELL ID
XCOORD      .                                  377893.250269135 :SURFACE X 
YCOORD      .                                  10151490.3803449 :SURFACE Y 
LAT         .                                        27.9187241 :LATITUDE  
LON         .                                       -96.9091122 :LONGITUDE 
ELEV        .FT                                              70 :ELEVATION VALUE
ELEV_TYPE   .                                                KB :ELEVATION REFERENCE TYPE
~Curve Information Section
#MNEM       .UNIT                                      API CODE :CURVE DESCRIPTION
#------------------------------------------------------------------------------
DEPT        .FT                                                 :DEPTH     
ASN         .OHMM                                               :          
CILD        .MMHO                                               :          
ILD         .OHMM                                               :          
SP          .MV                                                 :          
SP_NORM     .MV                                                 :SP Normalized
VSH_SP      .V/V                                                :Volume of Shale from SP
~A        DEPTH            ASN           CILD            ILD             SP        SP_NORM         VSH_SP
# ...
      2656.0000         1.1625       1482.541         0.6619       -68.5612       -17.7719      0.6907471
      2656.5000         1.1512       1530.807         0.6395       -74.0889        -23.302      0.5823137
      2657.0000         1.1236       1598.305         0.6171       -76.3053       -25.5207      0.5388098
      2657.5000         1.0959       1665.828         0.5947       -77.9489       -27.1667      0.5065353
      2658.0000         1.0739       1733.326         0.5732       -78.4883       -27.7084      0.4959137
      2658.5000          1.055        1787.33         0.5588       -78.1014       -27.3239       0.503453
      2659.0000         1.0362       1839.662         0.5555       -77.2803       -26.5051      0.5195078
      2659.5000         1.0173       1891.994         0.5697       -74.8507       -24.0779         0.5671
      2660.0000         0.9985       1942.057         0.5839       -72.4199       -21.6494      0.6147177
      2660.5000         0.9797       1971.963         0.5982       -69.9904       -19.2223      0.6623079
      2661.0000         0.9662       1924.221         0.6124       -66.9381       -16.1723      0.7221118
      2661.5000         0.9549       1872.588         0.6266       -63.1416       -12.3782      0.7965059
      2662.0000         0.9436       1820.953         0.6409        -59.345        -8.5839      0.8709039
      2662.5000         0.9433        1769.32         0.6551        -56.949        -6.1902      0.9178392
      2663.0000         0.9562       1717.662         0.6693       -55.6218        -4.8654      0.9438157
      2663.5000         0.9432       1666.027         0.6855       -54.2952        -3.5411      0.9697824
      2664.0000         0.9506       1620.006         0.7061       -53.9624        -3.2107      0.9762608
      2664.5000         0.9662       1575.432         0.7267       -53.6309        -2.8815      0.9827157
      2665.0000         0.9818       1530.857         0.7473       -53.2994        -2.5524      0.9891686
      2665.5000         1.0087       1486.281         0.7679       -52.9998        -2.2551       0.994998
      2666.0000         1.0357       1441.707         0.7885       -52.8109        -2.0686      0.9986549
      2666.5000         1.0627       1397.107          0.809       -52.6219        -1.8819              1
      2667.0000         1.0897       1361.301         0.8296        -52.433        -1.6954              1
      2667.5000         1.1102       1331.654         0.8502       -52.1332        -1.3979              1
      2668.0000          1.127        1302.01         0.8669       -51.7404        -1.0075              1
      2668.5000         1.1438       1272.363         0.8759        -52.213        -1.4824              1
      2669.0000         1.1605       1242.717          0.885       -52.8417        -2.1135      0.9977745
      2669.5000         1.1772       1213.072          0.894       -53.4709         -2.745      0.9853922
      2670.0000         1.1913       1178.762          0.903       -54.0997        -3.3762      0.9730157
      2670.5000         1.2047       1143.715         0.9121       -54.6369        -3.9157      0.9651691
      2671.0000         1.1961        1108.67         0.9211       -55.1051        -4.3863      0.9566127
      2671.5000         1.1823       1073.611         0.9301       -55.5731        -4.8566      0.9480618
      2672.0000         1.1684       1038.752         0.9278       -56.0414        -5.3273      0.9395036
      2672.5000         1.1546       1050.389         0.9248       -56.3168         -5.605      0.9344546
      2673.0000         1.1403       1110.129         0.9218       -55.7103        -5.0009      0.9454382
      2673.5000         1.1253       1166.428         0.9189       -55.1036        -4.3965      0.9564273
      2674.0000         1.1103       1222.701         0.9159       -54.6694        -3.9647      0.9642782
      2674.5000          1.096       1236.166         0.9129       -54.2405        -3.5381      0.9720346
      2675.0000         1.0865       1241.455         0.9055       -54.1219        -3.4219      0.9741473
      2675.5000          1.077       1245.373         0.8873       -54.4551        -3.7574      0.9680473
      2676.0000         1.0676       1246.398          0.869       -54.7883         -4.093      0.9619455
      2676.5000         1.0587       1247.424         0.8508       -54.3824        -3.6894      0.9692836
      2677.0000         1.0512       1248.447         0.8326       -53.9593        -3.2687      0.9769327
      2677.5000         1.0344       1249.473         0.8143       -53.4364        -2.7481      0.9863982
      2678.0000         1.0174       1250.496         0.7961       -52.8952        -2.2092      0.9961964
      2678.5000         1.0005       1268.098         0.7779       -53.1388        -2.4552      0.9917237
      2679.0000         0.9838       1310.951         0.7596       -53.7573         -3.076      0.9804364
      2679.5000         0.9675       1353.779         0.7414       -54.3392        -3.6603      0.9698128
      2680.0000         0.9512        1398.58         0.7232       -54.9212        -4.2446      0.9591891
      2680.5000         0.9355       1444.053          0.705       -55.5028        -4.8286      0.9485709
      2681.0000         0.9213       1489.549         0.6867       -56.0847        -5.4128      0.9379491
      2681.5000         0.9072       1535.021         0.6685       -56.6613        -5.9918      0.9274218
      2682.0000          0.893       1573.873         0.6503       -57.0694        -6.4022        0.91996
      2682.5000          0.885       1596.434         0.6341       -57.4775        -6.8127      0.9124964
      2683.0000         0.8775       1618.982         0.6258       -57.8311        -7.1686      0.9060255
      2683.5000         0.8699       1641.533         0.6174       -58.0291         -7.369      0.9023818
      2684.0000         0.8623       1664.094         0.6091       -58.2269        -7.5691      0.8987436
      2684.5000         0.8543       1684.193         0.6007       -58.4377        -7.7823      0.8948673
      2685.0000         0.8462       1701.012         0.5923       -58.7622        -8.1091      0.8889254
      2685.5000         0.8414       1706.287         0.5725        -59.418        -8.7673      0.8769582
      2686.0000          0.863       1669.295         0.5446       -61.4689       -10.8205      0.8396273
      2686.5000          0.866       1632.291         0.5167       -65.2133       -14.5673      0.7715036
      2687.0000         0.8495         1778.5         0.4888       -68.8569       -18.2132      0.7052146
      2687.5000         0.8329        1986.17         0.4611       -71.8694       -21.2281      0.6503982
      2688.0000         0.8542       2084.609         0.4354       -74.8818       -24.2428      0.5955855
      2688.5000         0.8817       2318.582         0.4096       -77.8942       -27.2576      0.5407709
      2689.0000         0.8771       2552.555         0.3839       -92.6381       -42.0038      0.2726582
      2689.5000         0.8643       2786.531         0.3581       -95.1124       -44.4805      0.2276273
      2690.0000         0.8721       3020.402         0.3324       -97.3544       -46.7248      0.1868218
      2690.5000         0.9012       3226.641         0.3066       -99.3104       -48.6832      0.1512145
      2691.0000         0.9303       3373.957         0.2809      -100.7725       -50.1476      0.1245891
      2691.5000         0.9615       3428.859         0.2611      -101.8381       -51.2156      0.1051709
      2692.0000         0.9692       3412.934         0.2519      -102.4573       -51.8371     0.09387089
      2692.5000         0.9489       3384.844         0.2428      -102.7247       -52.1069     0.08896547
      2693.0000         0.9286       3364.902         0.2337      -102.4304       -51.8149     0.09427456
      2693.5000         0.9058       3451.082         0.2245      -104.1459       -53.5327     0.06304183
