#------------------------------------------------------------------------------
# Created by    : vladimir.rabinovich
# Created on    : 09/19/2023 17:20:04
#------------------------------------------------------------------------------
~Version Information Section
VERS.           2.0     :   CWLS log ASCII Standard - VERSION 2.0
WRAP.           NO      :   One line per depth step
~Well Information Section
#MNEM       .UNIT                                         VALUE :DESCRIPTION
#------------------------------------------------------------------------------
STRT        .FT                                             900 :START DEPTH
STOP        .FT                                            8286 :STOP DEPTH
STEP        .FT                                             0.5 :STEP      
NULL        .                                           -999.25 :NULL      
COMP        .                                       ALLIED CORP :COMPANY   
WELL        .                               OCS G04069 ST00BP00 :WELL      
FLD         .                                           WILDCAT :FIELD     
LOC         .                                                   :LOCATION  
CNTY        .                             GALVESTON LARGE BLOCK :LOCATION  
STAT        .                                             TEXAS :STATE     
CTRY        .                                     UNITED STATES :COUNTRY   
SRVC        .                                                   :SERVICE COMPANY
DATE        .                             9/13/2023 11:18:53 AM :LOG DATE  
API         .                                    42706400840000 :API NUMBER
UWI         .                                    42706400840000 :UNIQUE WELL ID
XCOORD      .                                  987200.391396966 :SURFACE X 
YCOORD      .                                   10401886.486665 :SURFACE Y 
LAT         .                                         28.647914 :LATITUDE  
LON         .                                        -95.037018 :LONGITUDE 
ELEV        .FT                                              83 :ELEVATION VALUE
ELEV_TYPE   .                                                KB :ELEVATION REFERENCE TYPE
~Curve Information Section
#MNEM       .UNIT                                      API CODE :CURVE DESCRIPTION
#------------------------------------------------------------------------------
DEPT        .FT                                                 :DEPTH     
ASFL        .OHMM                                               :          
CILD        .MMHO                                               :          
DPHI        .%                                                  :          
DT          .US/F                                               :          
GR          .GAPI                                               :          
GR_NORM     .GAPI                                               :GammaRay Normalized
ILD         .OHMM                                               :          
SP          .MV                                                 :          
SP_NORM     .MV                                                 :SP Normalized
VSH_GR      .V/V                                                :Volume of Shale from GR
VSH_SP      .V/V                                                :Volume of Shale from SP
~A        DEPTH           ASFL           CILD           DPHI             DT             GR        GR_NORM            ILD             SP        SP_NORM         VSH_GR         VSH_SP
# ...
      1395.0000         0.8414       1115.824        -999.25       160.1196        28.4954       34.63799         0.8609       -70.2213      -1.441269     0.03485091      0.9778267
      1395.5000         0.8434       1119.078        -999.25       160.8933        28.2321       34.37708         0.8609       -69.9427      -1.168121     0.02929955      0.9820289
      1396.0000         0.8445        1122.33        -999.25       160.6416        27.9688       34.11617         0.8595       -69.6796     -0.9104767     0.02374819      0.9859927
      1396.5000         0.8453       1125.584        -999.25       160.4094        27.7054       33.85515          0.856       -69.4164     -0.6527252     0.01819465       0.989958
      1397.0000         0.8461       1128.838        -999.25       160.4253        27.5339        33.6852         0.8525       -69.1531     -0.3948822     0.01457864      0.9939249
      1397.5000          0.847       1132.092        -999.25       161.0076        27.4212       33.57351          0.849       -69.0778     -0.3250275     0.01220241      0.9949996
      1398.0000         0.8405       1135.346        -999.25       162.8296        27.3086       33.46194         0.8454       -69.2225     -0.4751892    0.009828446      0.9926894
      1398.5000         0.8337       1140.697        -999.25       164.7029        27.1959       33.35026         0.8419       -69.3673     -0.6254425    0.007452295      0.9903778
      1399.0000          0.827       1147.877        -999.25       164.4678        27.0832       33.23858         0.8384       -69.5121     -0.7756882    0.005076145      0.9880663
      1399.5000          0.823       1155.057        -999.25        163.248        26.9706         33.127         0.8348       -69.6567     -0.9257431    0.002702185      0.9857578
      1400.0000         0.8286       1162.238        -999.25       164.4678         26.834       32.99163         0.8313       -69.8015      -1.075996              0      0.9834462
      1400.5000          0.836       1169.416        -999.25       167.9695        26.6258       32.78532         0.8278       -69.9463       -1.22625              0      0.9811346
      1401.0000         0.8438         1166.4        -999.25       172.2473        26.4175       32.57891         0.8248       -70.0909      -1.376297              0      0.9788262
      1401.5000           0.85       1159.516        -999.25       176.4519        26.2093        32.3726         0.8226       -70.2357      -1.526558              0      0.9765145
      1402.0000         0.8487       1152.629        -999.25       178.8518         26.001       32.16618         0.8205       -70.4048      -1.701111              0      0.9738291
      1402.5000         0.8475       1145.744        -999.25       179.8936        25.7928       31.95986         0.8183       -70.6377      -1.939468              0       0.970162
      1403.0000         0.8462       1138.857        -999.25       180.6599        25.5845       31.75344         0.8162       -70.8705      -2.177711              0      0.9664968
      1403.5000         0.8445       1138.799        -999.25       181.4333         25.544       31.71332          0.814       -71.1033       -2.41597              0      0.9628313
      1404.0000         0.8421       1143.299        -999.25       182.2148        25.5874       31.75632         0.8118       -71.3361      -2.654221              0      0.9591658
      1404.5000         0.8397       1147.799        -999.25       182.7659        25.6309       31.79943         0.8097        -71.569       -2.89257              0      0.9554989
      1405.0000         0.8374       1152.297        -999.25       183.4697        25.6743       31.84243         0.8075       -71.8018      -3.130829              0      0.9518334
      1405.5000          0.835       1157.225        -999.25       183.8987        25.7177       31.88544         0.8053       -72.0347      -3.369179              0      0.9481665
      1406.0000         0.8328       1162.234        -999.25       182.8911        26.2339       32.39697         0.8032       -72.2136      -3.553535              0      0.9453302
      1406.5000         0.8331       1167.244        -999.25       181.5405        26.8128       32.97063          0.801       -72.3663      -3.711685              0      0.9428971
      1407.0000         0.8334        1172.25        -999.25       181.2114        27.3917       33.54429         0.7988       -72.1608      -3.511635     0.01158061      0.9459748
      1407.5000         0.8337        1177.26        -999.25       181.2947        27.9706       34.11795         0.7978        -71.808      -3.164291      0.0237861      0.9513186
      1408.0000          0.834        1182.27        -999.25       183.0278        28.4009       34.54435         0.7978       -71.4552      -2.816948      0.0328585      0.9566624
      1408.5000         0.8343       1187.275        -999.25       185.5298        28.2694       34.41404         0.7977       -71.1025      -2.469696     0.03008603      0.9620047
      1409.0000         0.8339       1192.285        -999.25       188.3262         28.138       34.28383         0.7977       -70.7498      -2.122452     0.02731559      0.9673469
      1409.5000         0.8333       1189.928        -999.25       191.6252        27.8783       34.02649         0.7977       -70.6079      -1.986008     0.02184012      0.9694461
      1410.0000         0.8327       1181.309        -999.25       193.3364        27.5927       33.74346         0.7977       -70.6241      -2.007652     0.01581833      0.9691131
      1410.5000         0.8321       1172.688        -999.25        191.606        27.3072       33.46055         0.7977       -70.6405       -2.02951    0.009798902      0.9687768
      1411.0000         0.8292       1164.693        -999.25       187.9009        27.0216       33.17754         0.7976       -70.7839       -2.17836    0.003777362      0.9664868
      1411.5000         0.8255       1157.688        -999.25       185.8083        26.7361       32.89462         0.7976       -70.9612      -2.361115              0      0.9636751
      1412.0000         0.8217       1150.684        -999.25       185.1321        26.6561       32.81535         0.7976       -71.1385      -2.543861              0      0.9608636
      1412.5000         0.8317       1143.678        -999.25       183.9661        27.0211       33.17704            0.8       -71.3159      -2.726723    0.003766811      0.9580504
      1413.0000         0.8418        1136.67        -999.25       181.9927        27.3861       33.53874         0.8042       -71.1563      -2.572578     0.01146252      0.9604219
      1413.5000         0.8519       1129.664        -999.25        180.417        27.7512       33.90053         0.8084        -70.947      -2.368729     0.01916017       0.963558
      1414.0000         0.8584        1122.66        -999.25        180.627        28.1161       34.26213         0.8125       -70.7375       -2.16468     0.02685376      0.9666972
      1414.5000         0.8515       1117.785        -999.25       181.4666        28.4872       34.62987         0.8167       -70.8191      -2.251732     0.03467803       0.965358
      1415.0000         0.8436       1118.088        -999.25       182.8779        28.9347       35.07331         0.8208       -70.9604      -2.398491     0.04411308      0.9631001
      1415.5000         0.8358       1118.389        -999.25       184.0017        29.3823       35.51686          0.825       -71.1019      -2.545433     0.05355023      0.9608395
      1416.0000         0.8364       1118.691        -999.25       184.1199        28.7857       34.92567         0.8292       -71.2433      -2.692291     0.04097163      0.9585801
      1416.5000         0.8391       1116.678        -999.25       184.0383        28.0027       34.14975         0.8336       -71.1927      -2.647148     0.02446276      0.9592746
      1417.0000         0.8417       1112.693        -999.25       183.5845        27.2196       33.37374         0.8379       -71.0607      -2.520599    0.007951939      0.9612216
