#------------------------------------------------------------------------------
# Created by    : vladimir.rabinovich
# Created on    : 09/19/2023 17:20:37
#------------------------------------------------------------------------------
~Version Information Section
VERS.           2.0     :   CWLS log ASCII Standard - VERSION 2.0
WRAP.           NO      :   One line per depth step
~Well Information Section
#MNEM       .UNIT                                         VALUE :DESCRIPTION
#------------------------------------------------------------------------------
STRT        .FT                                             254 :START DEPTH
STOP        .FT                                            9030 :STOP DEPTH
STEP        .FT                                             0.5 :STEP      
NULL        .                                           -999.25 :NULL      
COMP        .                                    MOBIL OIL CORP :COMPANY   
WELL        .                                OCS 00724 ST00BP00 :WELL      
FLD         .                                           WILDCAT :FIELD     
LOC         .                                                   :LOCATION  
CNTY        .                             GALVESTON LARGE BLOCK :LOCATION  
STAT        .                                             TEXAS :STATE     
CTRY        .                                     UNITED STATES :COUNTRY   
SRVC        .                                                   :SERVICE COMPANY
DATE        .                             9/13/2023 11:19:25 AM :LOG DATE  
API         .                                    42706000340000 :API NUMBER
UWI         .                                    42706000340000 :UNIQUE WELL ID
XCOORD      .                                  1011870.95166473 :SURFACE X 
YCOORD      .                                   10400634.765487 :SURFACE Y 
LAT         .                                         28.645607 :LATITUDE  
LON         .                                        -94.960058 :LONGITUDE 
ELEV        .FT                                              34 :ELEVATION VALUE
ELEV_TYPE   .                                                KB :ELEVATION REFERENCE TYPE
~Curve Information Section
#MNEM       .UNIT                                      API CODE :CURVE DESCRIPTION
#------------------------------------------------------------------------------
DEPT        .FT                                                 :DEPTH     
ASN         .OHMM                                               :          
CALI        .IN                                                 :          
CILD        .MMHO                                               :          
DT          .US/F                                               :          
ILD         .OHMM                                               :          
SP          .MV                                                 :          
SP_NORM     .MV                                                 :SP Normalized
VSH_SP      .V/V                                                :Volume of Shale from SP
~A        DEPTH            ASN           CALI           CILD             DT            ILD             SP        SP_NORM         VSH_SP
       254.0000         0.4166        -999.25       1046.281        -999.25         0.5581       -24.9915       2.233032              1
       254.5000         0.4493        -999.25        1243.42        -999.25         0.7074       -24.9468       2.678777              1
       255.0000         0.4948        -999.25       1440.559        -999.25         0.8733       -24.9844       3.486939              1
       255.5000         0.5695        -999.25       1335.432        -999.25         0.9942       -25.0237       2.849359              1
       256.0000         0.6744        -999.25       1138.814        -999.25         1.1513       -25.0631       1.455338              1
       256.5000           0.81        -999.25       942.1992        -999.25         1.3101       -25.0731       2.374277              1
       257.0000         0.8841        -999.25        745.582        -999.25         1.4604        -25.078     -0.9584423              1
       257.5000         0.9283        -999.25       643.9072        -999.25         1.6118       -25.0797     -0.2425327              1
       258.0000         0.9537        -999.25       609.9258        -999.25         1.7399       -25.0542     -0.2367937              1
       258.5000         0.9764        -999.25       576.0928        -999.25         1.8468       -25.0287       1.131207              1
       259.0000         1.0124        -999.25       524.9619        -999.25         1.9538       -25.0604      -1.060508              1
       259.5000         1.0416        -999.25       513.2891        -999.25         2.0607       -25.0977         3.7136              1
       260.0000         1.0821        -999.25       502.7759        -999.25         2.1456       -25.0766       3.439132              1
       260.5000         1.1171        -999.25       486.9438        -999.25          2.224       -25.0555      0.6796178              1
       261.0000         1.1553        -999.25       462.0103        -999.25         2.2981       -25.4674      0.9998062              1
       261.5000          1.228        -999.25       441.7163        -999.25         2.3603       -26.4193      -1.030388              1
       262.0000         1.3203        -999.25       423.7085        -999.25           2.39        -27.443     -0.7196012              1
       262.5000         1.3648        -999.25       405.9849        -999.25         2.2926       -29.3376      -1.236565              1
       263.0000         1.4039        -999.25        401.686        -999.25          2.214       -31.7342       1.713086              1
       263.5000         1.4256        -999.25       415.8711        -999.25         2.1354       -34.1827      0.9952734              1
       264.0000         1.4611        -999.25       437.8989        -999.25         2.0633       -37.7131        2.67535              1
       264.5000         1.4552        -999.25        459.459        -999.25         1.9938       -38.7632       1.365809              1
       265.0000         1.4492        -999.25       479.9253        -999.25         1.9196       -39.9865       3.722779              1
       265.5000         1.4433        -999.25       500.3921        -999.25         1.8173       -41.1672      0.7075798              1
       266.0000         1.4374        -999.25       519.5469        -999.25         1.7242       -42.8375      -1.146515              1
       266.5000         1.4279        -999.25       538.4727        -999.25         1.6687       -44.9161     -0.6641357              1
       267.0000         1.4178        -999.25       557.3105        -999.25         1.6132       -46.1995       1.333805              1
       267.5000         1.4076        -999.25       575.7969        -999.25         1.5442       -47.2415      0.1820891              1
       268.0000         1.3978        -999.25       594.2842        -999.25         1.4971       -48.1363       2.287982              1
       268.5000         1.3884        -999.25       608.7646        -999.25         1.4717        -48.884      -1.146779              1
       269.0000          1.379        -999.25       623.1035        -999.25         1.4462       -49.5689        1.95637              1
       269.5000         1.3667        -999.25       632.9072        -999.25         1.4268        -50.142       2.121012              1
       270.0000         1.3633        -999.25       641.1064        -999.25         1.4108       -50.6108       1.461719              1
       270.5000         1.3713        -999.25       646.4082        -999.25         1.3993         -50.67       1.163922              1
       271.0000          1.381        -999.25       649.1201        -999.25         1.4172        -50.619       3.317011              1
       271.5000         1.3737        -999.25       650.9854        -999.25         1.4352       -50.5701       1.457126              1
       272.0000         1.3637        -999.25       646.1768        -999.25         1.4531       -50.5295     -0.1114598              1
       272.5000         1.3593        -999.25       634.5576        -999.25          1.471       -50.4889      0.3092336              1
       273.0000         1.3758        -999.25       622.9385        -999.25         1.5013       -50.9566     -0.1859623              1
       273.5000         1.3875        -999.25        611.417        -999.25         1.5137       -51.5168       1.240505              1
       274.0000         1.3962        -999.25       603.6006        -999.25         1.4861       -52.0779       3.590507              1
       274.5000         1.4049        -999.25       607.9111        -999.25         1.4585       -52.6509      0.4884249              1
       275.0000         1.4116        -999.25       617.9951        -999.25         1.4309       -53.2239       1.990465              1
       275.5000         1.4021        -999.25       628.0791        -999.25         1.4033       -53.8499       2.792189              1
       276.0000         1.3955        -999.25       638.1631        -999.25          1.376       -54.5336       2.696759              1
       276.5000         1.3896        -999.25       651.0117        -999.25         1.3506       -55.1943       2.640815              1
       277.0000         1.3864        -999.25       663.8789        -999.25         1.3252       -55.6511     -0.5015074              1
       277.5000         1.3844        -999.25        677.582        -999.25         1.2997       -56.1078       2.730583              1
       278.0000         1.3824        -999.25       691.9219        -999.25         1.2673       -56.5303     -0.6924159              1
       278.5000          1.378        -999.25       706.1787        -999.25         1.2323        -56.916       1.617373              1
       279.0000         1.3731        -999.25       719.9297        -999.25         1.2323       -57.3015       2.253787              1
       279.5000         1.3732        -999.25       733.6797        -999.25         1.2509       -57.6871       2.773024              1
       280.0000          1.374        -999.25       744.8252        -999.25         1.2695       -58.0727       3.723073              1
       280.5000         1.3781        -999.25       733.6416        -999.25         1.2881       -58.6782       3.374517              1
       281.0000         1.3887        -999.25       718.7568        -999.25         1.3068       -58.7277       2.718045              1
       281.5000         1.3994        -999.25       703.8721        -999.25         1.3395        -58.672     -0.3827776              1
       282.0000         1.4103        -999.25       690.0879        -999.25          1.389       -58.6163       2.705999              1
       282.5000         1.4216        -999.25       681.0459        -999.25         1.3752       -58.5223       1.529359              1
       283.0000         1.4328        -999.25       673.1357        -999.25         1.3614       -58.5392       2.745874              1
