#------------------------------------------------------------------------------
# Created by    : vladimir.rabinovich
# Created on    : 09/19/2023 17:19:38
#------------------------------------------------------------------------------
~Version Information Section
VERS.           2.0     :   CWLS log ASCII Standard - VERSION 2.0
WRAP.           NO      :   One line per depth step
~Well Information Section
#MNEM       .UNIT                                         VALUE :DESCRIPTION
#------------------------------------------------------------------------------
STRT        .FT                                            9400 :START DEPTH
STOP        .FT                                           17100 :STOP DEPTH
STEP        .FT                                             0.5 :STEP      
NULL        .                                           -999.25 :NULL      
COMP        .                                   FOREST OIL CORP :COMPANY   
WELL        .                               OCS G18937 ST00BP00 :WELL      
FLD         .                            HIGH ISLAND BLOCK 0116 :FIELD     
LOC         .                                                   :LOCATION  
CNTY        .                           HIGH ISLAND LARGE BLOCK :LOCATION  
STAT        .                                             TEXAS :STATE     
CTRY        .                                     UNITED STATES :COUNTRY   
SRVC        .                                                   :SERVICE COMPANY
DATE        .                             9/13/2023 11:19:48 AM :LOG DATE  
API         .                                    42708405250000 :API NUMBER
UWI         .                                    42708405250000 :UNIQUE WELL ID
XCOORD      .                                  1337259.97993026 :SURFACE X 
YCOORD      .                                  10628189.4209318 :SURFACE Y 
LAT         .                                         29.282461 :LATITUDE  
LON         .                                        -93.951246 :LONGITUDE 
ELEV        .FT                                              93 :ELEVATION VALUE
ELEV_TYPE   .                                                KB :ELEVATION REFERENCE TYPE
~Curve Information Section
#MNEM       .UNIT                                      API CODE :CURVE DESCRIPTION
#------------------------------------------------------------------------------
DEPT        .FT                                                 :DEPTH     
AHT10       .OHMM                                               :          
AHT20       .OHMM                                               :          
AHT30       .OHMM                                               :          
AHT60       .OHMM                                               :          
AHT90       .OHMM                                               :          
CALI        .IN                                                 :          
COND        .MMHO                                               :          
DTCO        .US/F                                               :          
GR          .GAPI                                               :          
GR_NORM     .GAPI                                               :GammaRay Normalized
HDRA        .G/CC                                               :          
NPOR        .FRAC                                               :          
RHOZ        .G/CC                                               :          
VSH_GR      .V/V                                                :Volume of Shale from GR
~A        DEPTH          AHT10          AHT20          AHT30          AHT60          AHT90           CALI           COND           DTCO             GR        GR_NORM           HDRA           NPOR           RHOZ         VSH_GR
# ...
      9904.0000          2.318          3.891          2.958          2.448          1.819          9.731       549.7526         94.393         47.454       61.47764         -0.005           0.21           2.47      0.6059072
      9904.5000          2.519          5.164          3.539          3.119          2.185          9.731       457.6659         94.831         50.328       64.49534         -0.007          0.241          2.437      0.6701136
      9905.0000          2.635          6.415          4.072          3.703          2.497          9.731       400.4806         97.997         49.473       63.59758         -0.005          0.259          2.411      0.6510124
      9905.5000          2.703          7.426          4.546          4.033          2.658          9.719       376.2227         97.992         46.847       60.84029         -0.005          0.245          2.397      0.5923465
      9906.0000           2.72          7.664          4.529          3.893          2.572          9.719       388.8025         97.115          45.49       59.41544         -0.003          0.255           2.41      0.5620306
      9906.5000          2.672          6.771          4.001          3.324          2.278          9.637       438.9815         96.611         48.001       62.05199         -0.002          0.249          2.435      0.6181274
      9907.0000          2.582          5.276          3.347          2.735          1.934           9.66        517.063         96.282         53.119       67.42589         -0.001          0.255          2.448      0.7324657
      9907.5000           2.72          4.817          3.076          2.348          1.714          9.637       583.4306         97.335         53.409       67.73039         -0.003          0.283          2.447      0.7389445
      9908.0000          3.157          5.668          2.905          2.079          1.563          9.589       639.7953         97.786         52.204       66.46513         -0.005          0.262           2.44      0.7120241
      9908.5000          3.253          5.659          2.793          1.896          1.434          9.542         697.35         98.596         51.986       66.23624         -0.003          0.225           2.45       0.707154
      9909.0000          2.691          4.122          2.614           1.69           1.31          9.424       763.3588        101.336         55.903       70.34909         -0.002          0.242          2.458      0.7946615
      9909.5000          1.993          2.583          2.049          1.372           1.11          9.377       900.9009        103.617          59.82       74.46194         -0.001           0.29          2.454      0.8821689
      9910.0000          1.578          1.844          1.653          1.131          0.946          9.436       1057.083        106.065         57.999       72.54989         -0.002          0.311          2.446       0.841487
      9910.5000          1.357          1.496          1.355          0.959          0.822          9.424       1216.545        107.895          59.52       74.14694         -0.003          0.295          2.438      0.8754669
      9911.0000          1.228          1.265          1.124          0.852          0.744          9.436       1344.086        106.853         62.081       76.83598         -0.006          0.301          2.441      0.9326805
      9911.5000          1.227          1.214          1.077          0.841          0.737          9.483       1356.852        105.288          64.04       78.89294         -0.008          0.328          2.439      0.9764454
      9912.0000          1.409          1.407          1.197          0.932          0.808          9.495       1237.624        101.199         65.079       79.98389         -0.006          0.298          2.431      0.9996573
      9912.5000          1.816          1.872          1.477          1.131          0.955          9.542        1047.12        100.259         64.341       79.20898         -0.005          0.288          2.429      0.9831699
      9913.0000          2.309          2.415          1.795          1.389           1.14          9.566        877.193         97.957         64.492       79.36753         -0.005          0.259          2.434      0.9865432
      9913.5000          2.743            2.9          2.072          1.648          1.318          9.448       758.7253         97.997         62.534       77.31163         -0.004          0.207          2.456      0.9428006
      9914.0000          3.125          3.435          2.339          1.893          1.481          9.495       675.2195         98.021         62.066       76.82024              0          0.229          2.482      0.9323454
      9914.5000          3.266          3.786          2.474          2.008          1.563          9.554       639.7953         99.595         61.778       76.51784              0          0.271          2.486      0.9259114
      9915.0000          2.958          3.464          2.287          1.865          1.483          9.601       674.3088         99.823         63.284       78.09914         -0.004          0.277          2.468      0.9595561
      9915.5000          2.548          2.754          1.935          1.588           1.31          9.613       763.3588         99.204         59.217       73.82878         -0.009          0.273          2.447      0.8686975
      9916.0000          2.681          2.538          1.789          1.429          1.205          9.566       829.8755         99.165         61.629       76.36139          -0.01          0.276          2.438      0.9225827
      9916.5000           3.28          2.864          1.852          1.395          1.183          9.578       845.3085        100.083         55.754       70.19264         -0.009          0.282          2.438      0.7913328
      9917.0000          3.405          2.928          1.842          1.298          1.112          9.519       899.2806         99.537         55.603       70.03409         -0.007          0.248          2.437      0.7879593
      9917.5000          2.689          2.276          1.535          1.064          0.934          9.472       1070.664        103.772         53.932       68.27953         -0.006          0.261          2.439      0.7506284
      9918.0000          1.893          1.501          1.132          0.831           0.75          9.495       1333.333         107.25         59.903       74.54909         -0.006           0.29          2.441      0.8840231
      9918.5000          1.484          1.136           0.92          0.703          0.643           9.46        1555.21        109.704         64.287       79.15229         -0.005          0.321          2.435      0.9819636
      9919.0000          1.279          0.974          0.812          0.627          0.578          9.413       1730.104        111.723         67.621       82.65298         -0.001          0.331           2.43              1
      9919.5000          1.177          0.882          0.743          0.582          0.539           9.46       1855.288        112.791         67.675       82.70969          0.005          0.378           2.43              1
      9920.0000          1.094          0.825          0.698          0.556          0.516          9.318       1937.985        115.075         70.841         86.034          0.004          0.353          2.443              1
      9920.5000          0.943          0.735          0.638          0.518          0.483          9.165       2070.393        114.283         72.478       87.75284         -0.002          0.318          2.449              1
      9921.0000          0.827           0.65          0.587          0.486          0.455          9.236       2197.802        112.122         70.671       85.85548         -0.008          0.355          2.452              1
      9921.5000          0.875          0.668          0.598          0.499          0.465          9.377       2150.538        111.808         65.847       80.79029         -0.007          0.417          2.454              1
