#------------------------------------------------------------------------------
# Created by    : vladimir.rabinovich
# Created on    : 09/19/2023 17:20:37
#------------------------------------------------------------------------------
~Version Information Section
VERS.           2.0     :   CWLS log ASCII Standard - VERSION 2.0
WRAP.           NO      :   One line per depth step
~Well Information Section
#MNEM       .UNIT                                         VALUE :DESCRIPTION
#------------------------------------------------------------------------------
STRT        .FT                                             495 :START DEPTH
STOP        .FT                                            7007 :STOP DEPTH
STEP        .FT                                             0.5 :STEP      
NULL        .                                           -999.25 :NULL      
COMP        .                                      SHELL OIL CO :COMPANY   
WELL        .                                OCS 00718 ST00BP00 :WELL      
FLD         .                                           WILDCAT :FIELD     
LOC         .                                                   :LOCATION  
CNTY        .                             GALVESTON LARGE BLOCK :LOCATION  
STAT        .                                             TEXAS :STATE     
CTRY        .                                     UNITED STATES :COUNTRY   
SRVC        .                                                   :SERVICE COMPANY
DATE        .                             9/13/2023 11:19:25 AM :LOG DATE  
API         .                                    42706000330000 :API NUMBER
UWI         .                                    42706000330000 :UNIQUE WELL ID
XCOORD      .                                  1012682.17104467 :SURFACE X 
YCOORD      .                                  10442833.5651685 :SURFACE Y 
LAT         .                                         28.761679 :LATITUDE  
LON         .                                        -94.959691 :LONGITUDE 
ELEV        .FT                                              75 :ELEVATION VALUE
ELEV_TYPE   .                                                KB :ELEVATION REFERENCE TYPE
~Curve Information Section
#MNEM       .UNIT                                      API CODE :CURVE DESCRIPTION
#------------------------------------------------------------------------------
DEPT        .FT                                                 :DEPTH     
ASN         .OHMM                                               :          
CILD        .MMHO                                               :          
DT          .US/F                                               :          
ILD         .OHMM                                               :          
LAT         .OHMM                                               :          
LN          .OHMM                                               :          
SP          .MV                                                 :          
SP_NORM     .MV                                                 :SP Normalized
VSH_SP      .V/V                                                :Volume of Shale from SP
~A        DEPTH            ASN           CILD             DT            ILD            LAT             LN             SP        SP_NORM         VSH_SP
# ...
      4814.5000         1.2213       1100.096        74.6025         0.9193        -999.25        -999.25       -44.6893      -2.742515      0.9578075
      4815.0000         1.2285       1089.416        75.3888         0.9266        -999.25        -999.25        -42.904     -0.6863664      0.9894405
      4815.5000         1.2321       1083.084        76.8308         0.8951        -999.25        -999.25       -41.5521      0.8671326              1
      4816.0000         1.2369       1077.119        77.0948         0.8578        -999.25        -999.25       -41.4678      0.9505233              1
      4816.5000         1.2575       1078.152        77.2435           0.84        -999.25        -999.25        -42.121      0.1785851              1
      4817.0000         1.2812       1079.188        78.2051         0.8317        -999.25        -999.25       -43.0187     -0.8769144       0.986509
      4817.5000         1.2391       1113.832        79.5594         0.8176        -999.25        -999.25       -43.6688       -1.64526      0.9746883
      4818.0000         1.2039       1270.607        78.4526         0.8008        -999.25        -999.25       -43.3167      -1.251286      0.9807494
      4818.5000         1.1804       1544.789        73.6863         0.7889        -999.25        -999.25       -42.6331     -0.4728527      0.9927254
      4819.0000         1.1649       1569.982        70.9548         0.7723        -999.25        -999.25       -44.8419      -3.048918      0.9530936
      4819.5000         1.1505       1586.213        68.1138         0.7419        -999.25        -999.25       -45.0002       -3.24689      0.9500479
      4820.0000         1.1177       1598.238        67.2889         0.6106        -999.25        -999.25        -52.689      -12.17846      0.8126391
      4820.5000         1.1113       1610.254        67.2997         0.6119        -999.25        -999.25       -52.5787      -12.06492      0.8143858
      4821.0000         1.1019       1620.801        69.1606         0.6373        -999.25        -999.25       -49.7999      -8.856547      0.8637455
      4821.5000         1.1076       1623.447        71.9542         0.6533        -999.25        -999.25       -49.1111       -8.07208      0.8758141
      4822.0000         1.1112        1588.27        76.1486         0.6808        -999.25        -999.25       -47.2352      -5.910862      0.9090636
      4822.5000         1.0757       1546.465        78.3396         0.7031        -999.25        -999.25       -45.1629      -3.521863      0.9458175
      4823.0000         1.0501       1510.004        79.8246         0.7179        -999.25        -999.25       -45.1991      -3.578232      0.9449503
      4823.5000         1.0717       1473.543        80.6149         0.7179        -999.25        -999.25       -45.7207      -4.197541      0.9354224
      4824.0000           1.09       1430.131        81.6453         0.7164        -999.25        -999.25        -45.992      -4.526569      0.9303605
      4824.5000         1.0994       1385.377        83.8838          0.713        -999.25        -999.25       -46.1346      -4.706331      0.9275949
      4825.0000         1.1072       1357.209        85.2094         0.7079        -999.25        -999.25       -46.3275       -4.94443      0.9239318
      4825.5000         1.1143       1331.836        85.9929         0.7139        -999.25        -999.25       -45.6774      -4.204845      0.9353101
      4826.0000         1.1052       1306.486        86.3604         0.7209        -999.25        -999.25        -44.954      -3.380255      0.9479961
      4826.5000         1.0924       1263.363        86.0562         0.7312        -999.25        -999.25       -44.5861      -2.967961      0.9543391
      4827.0000         1.0959       1227.674         84.656         0.7454        -999.25        -999.25       -43.9147      -2.203676      0.9660973
      4827.5000         1.1009       1212.652        82.6085         0.7594        -999.25        -999.25       -43.1155      -1.291174      0.9801358
      4828.0000         1.1083       1197.619        81.0642         0.7664        -999.25        -999.25       -42.8762      -1.028026      0.9841842
      4828.5000         1.1152       1187.934        79.9246         0.7636        -999.25        -999.25       -43.1178      -1.322603      0.9796523
      4829.0000         1.1247       1182.385        79.3263         0.7671        -999.25        -999.25       -43.7192      -2.034466      0.9687005
      4829.5000          1.138       1176.834        79.2727         0.7669        -999.25        -999.25       -43.9443      -2.309909      0.9644629
      4830.0000         1.1247        1172.26        79.4292         0.7667        -999.25        -999.25       -43.8163      -2.175839      0.9665256
      4830.5000         1.1108       1168.289        79.3217          0.758        -999.25        -999.25       -44.1822      -2.614577      0.9597757
      4831.0000           1.11       1164.318        79.7103         0.7481        -999.25        -999.25        -44.491      -2.987091      0.9540448
      4831.5000         1.0977       1160.348        80.5029         0.7418        -999.25        -999.25       -44.6959      -3.239107      0.9501676
      4832.0000         1.0989       1159.617        81.2208         0.7403        -999.25        -999.25       -43.4144      -1.767247      0.9728116
      4832.5000         1.0973        1160.32        81.6981         0.7466        -999.25        -999.25       -42.7354     -0.9941543      0.9847053
      4833.0000         1.1127       1163.555        81.1298         0.7587        -999.25        -999.25       -43.4348      -1.819669      0.9720051
      4833.5000         1.1345       1168.988        78.8766         0.7735        -999.25        -999.25       -45.0582      -3.716814      0.9428182
      4834.0000          1.162        1174.42        76.7478         0.7762        -999.25        -999.25       -45.8829      -4.687648      0.9278823
      4834.5000          1.183       1179.846        74.5613         0.7785        -999.25        -999.25       -46.5775      -5.507602      0.9152676
      4835.0000         1.1757       1187.303        73.5093         0.7703        -999.25        -999.25        -47.731      -6.859767      0.8944651
      4835.5000         1.1621       1197.496        73.0591         0.7538        -999.25        -999.25       -49.3454      -8.746474      0.8654389
      4836.0000         1.1405       1207.689        73.3539         0.7413        -999.25        -999.25       -49.5653      -9.015882      0.8612941
      4836.5000         1.1358       1217.871        75.0791         0.7354        -999.25        -999.25       -47.9891      -7.202249      0.8891962
      4837.0000         1.1134        1230.01         78.161         0.7263        -999.25        -999.25       -46.4518      -5.433723      0.9164042
      4837.5000         1.1087       1242.373        80.6504         0.7144        -999.25        -999.25       -45.8542      -4.755028      0.9268457
      4838.0000         1.0831       1254.725        82.5193         0.7005        -999.25        -999.25       -45.9317      -4.859292      0.9252416
      4838.5000         1.0567       1268.416        83.9601         0.6874        -999.25        -999.25        -45.391      -4.246587      0.9346679
      4839.0000          1.048           1288        84.1755         0.6795        -999.25        -999.25       -43.9249      -2.560638      0.9606056
      4839.5000         1.0433       1307.559        84.0234         0.6738        -999.25        -999.25       -42.4572     -0.8728309      0.9865718
      4840.0000         1.0123       1355.912        83.8834         0.6701        -999.25        -999.25       -42.1219     -0.4983446      0.9923332
      4840.5000         1.0072       1384.863        83.4904         0.6667        -999.25        -999.25       -42.4791     -0.9269913      0.9857386
