#------------------------------------------------------------------------------
# Created by    : vladimir.rabinovich
# Created on    : 09/19/2023 17:22:54
#------------------------------------------------------------------------------
~Version Information Section
VERS.           2.0     :   CWLS log ASCII Standard - VERSION 2.0
WRAP.           NO      :   One line per depth step
~Well Information Section
#MNEM       .UNIT                                         VALUE :DESCRIPTION
#------------------------------------------------------------------------------
STRT        .FT                                             606 :START DEPTH
STOP        .FT                                           12703 :STOP DEPTH
STEP        .FT                                             0.5 :STEP      
NULL        .                                           -999.25 :NULL      
COMP        .                                       PURE OIL CO :COMPANY   
WELL        .                                OCS 00099 ST00BP00 :WELL      
FLD         .                                           WILDCAT :FIELD     
LOC         .                                                   :LOCATION  
CNTY        .                             GALVESTON LARGE BLOCK :LOCATION  
STAT        .                                             TEXAS :STATE     
CTRY        .                                     UNITED STATES :COUNTRY   
SRVC        .                                                   :SERVICE COMPANY
DATE        .                             9/13/2023 11:19:42 AM :LOG DATE  
API         .                                    42706000130000 :API NUMBER
UWI         .                                    42706000130000 :UNIQUE WELL ID
XCOORD      .                                  1105531.03723184 :SURFACE X 
YCOORD      .                                  10576678.2721464 :SURFACE Y 
LAT         .                                         29.133654 :LATITUDE  
LON         .                                        -94.675857 :LONGITUDE 
ELEV        .FT                                              66 :ELEVATION VALUE
ELEV_TYPE   .                                                KB :ELEVATION REFERENCE TYPE
~Curve Information Section
#MNEM       .UNIT                                      API CODE :CURVE DESCRIPTION
#------------------------------------------------------------------------------
DEPT        .FT                                                 :DEPTH     
LAT         .OHMM                                               :          
LN          .OHMM                                               :          
SN          .OHMM                                               :          
SP          .MV                                                 :          
SP_NORM     .MV                                                 :SP Normalized
VSH_SP      .V/V                                                :Volume of Shale from SP
~A        DEPTH            LAT             LN             SN             SP        SP_NORM         VSH_SP
# ...
     10258.0000         1.4283         0.9623         1.0308       -57.1255      -3.827255      0.9275063
     10258.5000          1.667         0.9075         1.0279       -57.0933      -3.796154      0.9283037
     10259.0000         1.9056         0.8525          1.025        -57.061      -3.764954      0.9291037
     10259.5000         2.1425         0.7976         1.0221       -57.0288      -3.733856      0.9299011
     10260.0000         2.3789         0.7465          1.021       -56.9965      -3.702652      0.9307013
     10260.5000         2.6152         0.7008         1.0295       -56.9642      -3.671452      0.9315013
     10261.0000         2.8662         0.7488         1.0381       -56.9319      -3.640255      0.9323012
     10261.5000          3.134         0.8196         1.0466       -56.8997      -3.609154      0.9330986
     10262.0000         2.7983         0.8903          1.128       -56.8792      -3.589752      0.9335961
     10262.5000          2.449         0.9611         1.2347       -56.9021       -3.61375      0.9329808
     10263.0000         2.1079         1.0318         1.3506        -56.925      -3.637753      0.9323653
     10263.5000         1.7667         1.1025         1.5636        -56.948      -3.661854      0.9317473
     10264.0000         1.3454         1.1733         1.7767       -56.9709      -3.685852       0.931132
     10264.5000         0.8507         1.2276         1.9681       -56.9938      -3.709854      0.9305165
     10265.0000         0.8859         1.2415         2.1445       -57.4285      -4.145653      0.9193422
     10265.5000          0.921         1.2555         2.3206        -57.981      -4.699249      0.9051474
     10266.0000         0.9562         1.2515         2.4709       -58.5347      -5.254047      0.8909219
     10266.5000         0.9914         1.2389         2.6099       -59.0872      -5.807652      0.8767269
     10267.0000         1.0265         1.2262         2.6932       -59.6408       -6.36235      0.8625038
     10267.5000         1.0617         1.2136          2.591       -60.1934       -6.91605      0.8483064
     10268.0000         1.0969          1.201         2.4886       -60.3149      -7.038651      0.8451628
     10268.5000         1.1321         1.1883         2.3864       -60.0873      -6.812149      0.8509706
     10269.0000         1.1673         1.1757         2.2842       -59.8602      -6.586147      0.8567654
     10269.5000         1.1627          1.163         2.0889       -59.5608      -6.287846      0.8644142
     10270.0000          1.137         1.1504         1.8814       -59.1125      -5.840649      0.8758808
     10270.5000         1.1112         1.1523         1.7045       -58.6644      -5.393646      0.8873424
     10271.0000         1.0855         1.1718         1.5837       -58.2161      -4.946445      0.8988091
     10271.5000         1.0611         1.1912          1.463       -57.7679      -4.499348      0.9102731
     10272.0000         1.0524         1.1617         1.3558       -57.3197      -4.052246      0.9217373
     10272.5000         1.0437         1.1225         1.2685       -56.8715      -3.605145      0.9332014
     10273.0000         1.0349         1.0833         1.1811       -56.4233      -3.158047      0.9446655
     10273.5000         1.0262          1.044         1.0986       -55.9745      -2.710346       0.956145
     10274.0000         1.0174         1.0048         1.0318       -55.7292      -2.466145      0.9624066
     10274.5000         1.0061         0.9725         0.9649       -56.1312      -2.869244      0.9520707
     10275.0000          0.972         0.9485         0.8981       -56.5332      -3.272346      0.9417347
     10275.5000         0.9379         0.9246         0.8816       -56.9357      -3.675945       0.931386
     10276.0000         0.9038         0.9006         0.8736       -57.3378      -4.079144      0.9210476
     10276.5000         0.8698         0.8767         0.8655       -58.0972      -4.839642      0.9015477
     10277.0000         0.8357         0.8527         0.8574       -59.0759      -5.819447      0.8764244
     10277.5000         0.8015         0.8288         0.8494       -60.0547      -6.799343      0.8512989
     10278.0000         0.7675         0.8048         0.8413       -61.0356      -7.781342      0.8261194
     10278.5000         0.7569          0.802         0.8332       -62.0144      -8.761246      0.8009937
     10279.0000          0.764         0.8031         0.8239       -62.9932      -9.741142      0.7758681
     10279.5000          0.771         0.8041         0.8138       -63.9742      -10.72324       0.750686
     10280.0000         0.7781         0.8052         0.8037       -64.9529      -11.70304      0.7255629
     10280.5000         0.8025         0.8062         0.7936       -65.9316      -12.68285      0.7004399
     10281.0000         0.8399         0.8072         0.7835       -66.0244      -12.77674      0.6980323
     10281.5000         0.8773         0.8083         0.7734       -65.9052      -12.65864      0.7010606
     10282.0000         0.9147         0.8019         0.7633       -65.7861      -12.54065       0.704086
     10282.5000         0.9522          0.794         0.7426       -65.6669      -12.42254      0.7071143
     10283.0000         0.9896          0.786          0.707        -65.548      -12.30474      0.7101349
     10283.5000         1.0271          0.778         0.6714       -65.4287      -12.18654      0.7131656
     10284.0000         1.0645           0.77         0.6359       -65.3528      -12.11174      0.7150836
     10284.5000         1.1019         0.7621         0.6004       -65.3105      -12.07054        0.71614
     10285.0000         1.1393         0.7541         0.5648       -65.2684      -12.02954      0.7171913
     10285.5000         1.1755         0.7461         0.5292       -65.2262      -11.98844      0.7182452
     10286.0000         1.1668         0.7372         0.4937       -65.1841      -11.94744      0.7192965
     10286.5000         1.1103         0.7276         0.4698       -65.1418      -11.90624      0.7203528
     10287.0000         1.0537         0.7181         0.4526       -65.0996      -11.86514      0.7214067
     10287.5000         0.9972         0.7085         0.4353       -65.0575      -11.82414      0.7224579
     10288.0000         0.9388         0.7022         0.4181       -65.0153      -11.78304      0.7235119
     10288.5000          0.877         0.6967         0.4381       -64.9731      -11.74194      0.7245657
     10289.0000          0.815         0.6912         0.4658       -64.9309      -11.70084      0.7256195
     10289.5000         0.7531         0.6857         0.4934       -64.8888      -11.65984      0.7266708
     10290.0000         0.6913         0.6802         0.5212       -64.8466      -11.61874      0.7277246
     10290.5000         0.6297         0.6747         0.5489       -64.8043      -11.57753      0.7287812
     10291.0000         0.5815         0.6708         0.5765       -64.7622      -11.53654      0.7298324
     10291.5000         0.5333         0.6753          0.602         -64.72      -11.49544      0.7308862
     10292.0000         0.4851         0.6799         0.6269       -64.6779      -11.45444      0.7319375
     10292.5000         0.4422         0.6844         0.6519       -64.6356      -11.41323       0.732994
     10293.0000         0.4643         0.6889         0.6768       -64.5935      -11.37223      0.7340453
     10293.5000         0.4864         0.6935         0.7017       -64.5513      -11.33113      0.7350991
     10294.0000         0.5361          0.698         0.7266       -64.5092      -11.29013      0.7361504
     10294.5000         0.6174         0.7233         0.7348       -64.4669      -11.24894      0.7372067
     10295.0000         0.6988         0.7561         0.7418       -64.4248      -11.20793      0.7382582
     10295.5000         0.7801         0.7889         0.7488       -64.3826      -11.16683       0.739312
