#------------------------------------------------------------------------------
# Created by    : vladimir.rabinovich
# Created on    : 09/19/2023 17:21:20
#------------------------------------------------------------------------------
~Version Information Section
VERS.           2.0     :   CWLS log ASCII Standard - VERSION 2.0
WRAP.           NO      :   One line per depth step
~Well Information Section
#MNEM       .UNIT                                         VALUE :DESCRIPTION
#------------------------------------------------------------------------------
STRT        .FT                                            6712 :START DEPTH
STOP        .FT                                           10254 :STOP DEPTH
STEP        .FT                                             0.5 :STEP      
NULL        .                                           -999.25 :NULL      
COMP        .                                SHELL OFFSHORE INC :COMPANY   
WELL        .                               OCS G17145 ST00BP00 :WELL      
FLD         .                                           WILDCAT :FIELD     
LOC         .                                                   :LOCATION  
CNTY        .                           HIGH ISLAND LARGE BLOCK :LOCATION  
STAT        .                                             TEXAS :STATE     
CTRY        .                                     UNITED STATES :COUNTRY   
SRVC        .                                                   :SERVICE COMPANY
DATE        .                             9/13/2023 11:19:48 AM :LOG DATE  
API         .                                    42708404610000 :API NUMBER
UWI         .                                    42708404610000 :UNIQUE WELL ID
XCOORD      .                                  1236256.25309123 :SURFACE X 
YCOORD      .                                  10648843.7308139 :SURFACE Y 
LAT         .                                         29.336637 :LATITUDE  
LON         .                                        -94.268822 :LONGITUDE 
ELEV        .FT                                             110 :ELEVATION VALUE
ELEV_TYPE   .                                                KB :ELEVATION REFERENCE TYPE
~Curve Information Section
#MNEM       .UNIT                                      API CODE :CURVE DESCRIPTION
#------------------------------------------------------------------------------
DEPT        .FT                                                 :DEPTH     
CALI        .IN                                                 :          
CPCHM       .MMHO                                               :          
CPCM        .MMHO                                               :          
DFL         .OHMM                                               :          
DPHI        .%                                                  :          
DRHO        .G/C3                                               :          
DT          .US/F                                               :          
GR          .GAPI                                               :          
GR_NORM     .GAPI                                               :GammaRay Normalized
GRAM        .GAPI                                               :          
HDCN        .MMHO                                               :          
HDRS        .OHMM                                               :          
HMRS        .OHMM                                               :          
NPHI        .%                                                  :          
PE          .G/C3                                               :          
RACHM       .OHMM                                               :          
RACM        .OHMM                                               :          
RHOB        .G/C3                                               :          
ROPS        .F/HR                                               :          
RPCHM       .OHMM                                               :          
RPCM        .OHMM                                               :          
RPTHM       .MINS                                               :          
RPTM        .MINS                                               :          
SP01        .MV                                                 :          
TENS        .LBS                                                :          
VSH_GR      .V/V                                                :Volume of Shale from GR
~A        DEPTH           CALI          CPCHM           CPCM            DFL           DPHI           DRHO             DT             GR        GR_NORM           GRAM           HDCN           HDRS           HMRS           NPHI             PE          RACHM           RACM           RHOB           ROPS          RPCHM           RPCM          RPTHM           RPTM           SP01           TENS         VSH_GR
# ...
      8652.0000        -999.25        2138.18        -999.25        -999.25        -999.25        -999.25        -999.25        -999.25       87.14286         47.726        -999.25        -999.25        -999.25        -999.25        -999.25          0.462        -999.25        -999.25         20.251          0.468        -999.25       299.3447        -999.25        -999.25        -999.25              1
      8652.5000        -999.25       2038.248        -999.25        -999.25        -999.25        -999.25        -999.25        -999.25       87.25447         47.925        -999.25        -999.25        -999.25        -999.25        -999.25            0.5        -999.25        -999.25         16.276          0.491        -999.25       299.3755        -999.25        -999.25        -999.25              1
      8653.0000        -999.25       2171.242        -999.25        -999.25        -999.25        -999.25        -999.25        -999.25       87.36607         48.549        -999.25        -999.25        -999.25        -999.25        -999.25          0.499        -999.25        -999.25         16.276          0.461        -999.25       299.2095        -999.25        -999.25        -999.25              1
      8653.5000        -999.25        2381.98        -999.25        -999.25        -999.25        -999.25        -999.25        -999.25       87.47768         49.447        -999.25        -999.25        -999.25        -999.25        -999.25          0.469        -999.25        -999.25         19.456           0.42        -999.25       299.3032        -999.25        -999.25        -999.25              1
      8654.0000         8.5462       2482.883        -999.25         0.0247        26.8695        -0.7539        99.0812        21.5482       87.58929         49.789          2.674       373.9727         9.8754         52.672         13.517          0.451        -999.25         2.2066         19.456          0.403        -999.25       299.4458        -999.25        -999.25        4086.93              1
      8654.5000         8.5869       2422.613        -999.25         0.0247        27.0371        -0.6583       113.0906        22.9994       87.70089         49.461         2.4514        407.938        19.8352        53.6057         12.668           0.45        -999.25         2.2039         17.691          0.413        -999.25       299.5239        -999.25        -999.25       4084.453              1
      8655.0000         8.6113        2353.41        -999.25         0.0247        23.6639        -0.4965       119.7234        29.1159        87.8125         49.424        19.6331        50.9342        40.5113        55.5546        11.7577          0.458        -999.25         2.2595         17.691          0.425        -999.25       299.5327        -999.25        -999.25        4080.66              1
      8655.5000         8.7822       2345.609        -999.25         0.0023        22.9949        -0.3616        140.814        34.6707        87.9241        50.8409       123.0243         8.1285        18.8095        54.5728         10.669          0.468        -999.25         2.2706         13.077          0.426        -999.25       299.5376        -999.25        -999.25       4076.957              1
      8656.0000         8.9693       2383.152        -999.25         0.0051        22.9714        -0.2512       181.9812        37.9474       88.03572         52.244       486.3818          2.056         5.1537        50.6955        10.4498          0.477        -999.25          2.271         13.077           0.42        -999.25       299.3687        -999.25        -999.25       4074.207              1
      8656.5000         9.3191       2525.141        -999.25         0.0285         22.317        -0.1591       142.8577        41.6766       88.14732         53.196       1229.598         0.8133         1.9753        45.9512        10.6996          0.469        -999.25         2.2818         29.781          0.396        -999.25       299.2959        -999.25        -999.25       4072.512              1
      8657.0000         9.7015       2673.508        -999.25         0.1221        21.6124        -0.0938       103.2312        42.3787       88.25893         53.246       2043.857         0.4893         1.0903        43.6389        10.8521          0.438        -999.25         2.2934         29.781          0.374        -999.25       299.4463        -999.25        -999.25        4071.34              1
      8657.5000         9.7991       2603.977        -999.25          0.001        23.8087        -0.0691       109.4327        39.8042       88.37054        50.7599       2988.344         0.3346          0.676        45.0437        10.8549          0.435        -999.25         2.2572         11.268          0.384        -999.25       299.6025        -999.25        -999.25       4073.758              1
      8658.0000         9.7665       2325.012        -999.25          1.044        26.6501        -0.0853       122.4406        37.3701       88.48214         49.048       1689.994         0.5917         0.7363        48.1646        11.5446          0.444        -999.25         2.2103         11.268          0.431        -999.25       299.6104        -999.25        -999.25       4074.465              1
      8658.5000         9.7828       2200.141        -999.25         0.7875        28.2788        -0.1114       133.6624        35.3104       88.59375        48.8539       1168.594         0.8557         1.0252        49.2303        12.1482          0.438        -999.25         2.1834          9.418          0.455        -999.25       299.6177        -999.25        -999.25       4075.625              1
      8659.0000         9.8316       2329.898        -999.25         0.7536        27.8569         -0.111       148.8076        32.5486       88.70536         52.205       1282.582         0.7797         0.9338        49.4224        11.6126          0.426        -999.25         2.1904          9.418          0.429        -999.25       299.4912        -999.25        -999.25       4077.129              1
      8659.5000         9.8072       2475.438        -999.25         0.8478        28.1351        -0.1228       154.8889        32.1118       88.81697         56.441       706.2783         1.4159          0.636        49.9796        11.9306          0.437        -999.25         2.1858         12.895          0.404        -999.25       299.3931        -999.25        -999.25       4077.563              1
      8660.0000         9.8235       2542.297        -999.25         0.9251        28.9815        -0.1767       166.4766        32.6578       88.92857         59.085        382.126         2.6169         0.5333        50.6192        12.5701          0.468        -999.25         2.1718         12.895          0.393        -999.25       299.4004        -999.25       485.5635        4083.02              1
      8660.5000         9.9862       2432.172        -999.25          0.909        27.9312        -0.2261       141.8608        33.4068       89.04018        61.2729         204.27         4.8955         0.4827        49.4173        12.6748          0.485        -999.25         2.1891           40.9          0.411        -999.25       299.2881        -999.25        485.729       4088.102              1
      8661.0000         10.214       2263.516        -999.25         1.0221        26.1464        -0.2557       120.4437        33.5004       87.40691         63.641        279.082         3.5832         0.4683         48.885        12.6338          0.501        -999.25         2.2186           40.9          0.442        -999.25       299.4575        -999.25       486.5405       4094.398              1
      8661.5000        10.4255       2083.723        -999.25         1.0555        23.6275        -0.2977       116.1094        32.5174       89.56672        65.8569       681.1963          1.468         0.4756        48.9645        13.5271           0.51        -999.25         2.2601         27.933           0.48        -999.25       299.6128        -999.25       487.6987       4100.734              1
