#------------------------------------------------------------------------------
# Created by    : vladimir.rabinovich
# Created on    : 09/19/2023 17:20:28
#------------------------------------------------------------------------------
~Version Information Section
VERS.           2.0     :   CWLS log ASCII Standard - VERSION 2.0
WRAP.           NO      :   One line per depth step
~Well Information Section
#MNEM       .UNIT                                         VALUE :DESCRIPTION
#------------------------------------------------------------------------------
STRT        .FT                                            2653 :START DEPTH
STOP        .FT                                           10423 :STOP DEPTH
STEP        .FT                                             0.5 :STEP      
NULL        .                                           -999.25 :NULL      
COMP        .                                       MONSANTO CO :COMPANY   
WELL        .                                     ST TR 00150-L :WELL      
FLD         .                                           WILDCAT :FIELD     
LOC         .                                                   :LOCATION  
CNTY        .                             GALVESTON LARGE BLOCK :LOCATION  
STAT        .                                             TEXAS :STATE     
CTRY        .                                     UNITED STATES :COUNTRY   
SRVC        .                                                   :SERVICE COMPANY
DATE        .                             9/13/2023 11:19:24 AM :LOG DATE  
API         .                                    42706300340000 :API NUMBER
UWI         .                                    42706300340000 :UNIQUE WELL ID
XCOORD      .                                  1113316.22146511 :SURFACE X 
YCOORD      .                                  10612518.3672968 :SURFACE Y 
LAT         .                                         29.232517 :LATITUDE  
LON         .                                       -94.6530532 :LONGITUDE 
ELEV        .FT                                              81 :ELEVATION VALUE
ELEV_TYPE   .                                                KB :ELEVATION REFERENCE TYPE
~Curve Information Section
#MNEM       .UNIT                                      API CODE :CURVE DESCRIPTION
#------------------------------------------------------------------------------
DEPT        .FT                                                 :DEPTH     
ASN         .OHMM                                               :          
CILD        .MMHO                                               :          
ILD         .OHMM                                               :          
SP          .MV                                                 :          
SP_NORM     .MV                                                 :SP Normalized
VSH_SP      .V/V                                                :Volume of Shale from SP
~A        DEPTH            ASN           CILD            ILD             SP        SP_NORM         VSH_SP
# ...
      7289.0000         1.4394           1861         0.2921        -88.186      -40.16805      0.1485206
      7289.5000         0.9049         2214.5         0.2715       -90.7444      -42.72806     0.09286822
      7290.0000          0.726       2581.543         0.2661       -96.0553      -48.04057              0
      7290.5000         0.6673       3411.012         0.2595       -95.5879      -47.57477              0
      7291.0000         0.6442         3875.5         0.2511        -94.936      -46.92447    0.001641896
      7291.5000           0.63        4120.25         0.2469       -93.9963      -45.98638     0.02203527
      7292.0000          0.619       4319.969         0.2476       -93.0554      -45.04708     0.04245476
      7292.5000         0.6081       4372.055         0.2484       -91.9386      -43.93188     0.06669816
      7293.0000         0.5981       4419.656         0.2491         -91.78      -43.77489     0.07011107
      7293.5000          0.607       4403.992         0.2498       -92.4036       -44.4001     0.05651963
      7294.0000         0.6222       4367.523         0.2506       -92.9091       -44.9072     0.04549557
      7294.5000          0.633       4373.781         0.2513       -93.4152      -45.41491     0.03445857
      7295.0000         0.6438           4398         0.2539       -93.0228      -45.02411     0.04295424
      7295.5000         0.6578       4403.031         0.2584         -92.62      -44.62292     0.05167571
      7296.0000         0.6747       4341.648          0.263       -91.8944      -43.89892     0.06741482
      7296.5000         0.6956       4172.719         0.2675       -91.1158      -43.12192     0.08430605
      7297.0000         0.7201        4125.75          0.272       -90.9968      -43.00453     0.08685809
      7297.5000         0.7446       4041.625         0.2765       -91.3243      -43.33363     0.07970362
      7298.0000         0.7955         3957.5         0.2822       -91.6517      -43.66264     0.07255131
      7298.5000         0.8473       3861.719         0.2881       -92.3864      -44.39894     0.05654484
      7299.0000          0.911       3755.082          0.294       -93.4515      -45.46564     0.03335555
      7299.5000         0.8948       3697.523         0.2998       -93.3199      -45.33565     0.03618157
      7300.0000         0.8591       3676.109         0.3045        -91.498      -43.51535     0.07575317
      7300.5000         0.8234       3697.352         0.3081        -91.162      -43.18096     0.08302265
      7301.0000         0.8067       3722.457         0.3116       -90.8258      -42.84636     0.09029654
      7301.5000         0.7953       3709.055         0.3152       -89.7026      -41.72476      0.1146791
      7302.0000         0.7839       3463.051         0.3195       -88.3853      -40.40907      0.1432811
      7302.5000          0.769       3411.211         0.3248       -85.5269      -37.55228      0.2053853
      7303.0000          0.744       2742.098           0.33       -81.6895      -33.71648      0.2887723
      7303.5000         0.7189       2663.543         0.3523       -74.8508      -26.87938      0.4374047
      7304.0000         0.7068       2611.754          0.383       -70.9274      -22.95758      0.5226612
      7304.5000         0.7185       2556.805         0.4168       -68.4059      -20.43769      0.5774415
      7305.0000         0.7302        2477.07         0.4404        -66.074      -18.10739      0.6281002
      7305.5000         0.7419       2429.664         0.4208       -63.9178       -15.9528      0.6749391
      7306.0000         0.7996       2393.273         0.4011       -62.5403       -14.5769        0.70485
      7306.5000         0.8636       2364.938         0.3815       -62.2156      -14.25381      0.7118738
      7307.0000         0.9549       2340.766         0.3635       -64.9817      -17.02151      0.6517063
      7307.5000         1.0697       2332.598         0.3489       -69.0259      -21.06732       0.563754
      7308.0000         1.2264        2345.52         0.3343       -71.8744      -23.91742      0.5017952
      7308.5000         1.2262       2375.262         0.3197       -75.1559      -27.20052      0.4304234
      7309.0000         1.1804       2905.605         0.3598       -81.3943      -33.44053       0.294771
      7309.5000         1.1335       3221.879         0.4008       -87.9474      -39.99524      0.1522775
      7310.0000         1.1078       3374.547         0.4417       -91.5438      -43.59324     0.07406002
      7310.5000         1.0821       3283.281         0.4783       -88.1713      -40.22235      0.1473403
      7311.0000         1.1679       3171.121          0.514       -86.0435      -38.09615       0.193562
      7311.5000         1.2904        3028.41         0.5403       -83.9181      -35.97235      0.2397315
      7312.0000          1.367       2774.129         0.5592       -81.7903      -33.84615      0.2859532
      7312.5000         1.4067       2184.551         0.5781       -79.6625      -31.71996      0.3321748
      7313.0000          1.471       1740.938         0.5971       -75.2642      -27.32326      0.4277552
      7313.5000         1.5305        1686.73         0.6182        -69.813      -21.87367      0.5462245
      7314.0000         1.5057       1638.832         0.6416        -65.946      -18.00827       0.630255
      7314.5000          1.481       1591.967         0.6649       -62.8588      -14.92268      0.6973332
      7315.0000         1.4402       1544.363         0.6882       -60.1038      -12.16928      0.7571895
      7315.5000         1.3591       1493.113         0.7101       -57.3118      -9.378883      0.8178504
      7316.0000         1.1347       1443.045          0.732       -54.5026      -6.571293      0.8788849
      7316.5000         0.9754       1394.012         0.7539       -50.8939      -2.964195      0.9573001
      7317.0000         0.9659       1342.121         0.7765       -50.0673      -2.139198      0.9752348
      7317.5000         0.9915       1302.354         0.8032       -50.1717      -2.245201      0.9729304
      7318.0000         1.0171       1267.365         0.8298       -50.2903      -2.365406      0.9703172
      7318.5000         1.0488       1225.625         0.8564         -50.52      -2.596714      0.9652888
      7319.0000         1.0806       1181.027         0.8862       -50.7493      -2.827614      0.9602693
      7319.5000         1.1123       1136.775         0.9175        -50.979      -3.058922      0.9552408
      7320.0000         1.1431       1094.789         0.9488        -51.146      -3.227524      0.9515756
      7320.5000         1.1736       1053.689         0.9477       -51.2112      -3.294331      0.9501233
      7321.0000          1.207       1053.529         0.9214       -50.9277      -3.012432      0.9562515
      7321.5000         1.1835       1062.189          0.895       -50.6442      -2.730537      0.9623796
      7322.0000         1.1056       1070.863         0.8687        -50.361       -2.44894      0.9685013
      7322.5000         0.9993       1082.271         0.8439       -50.0775      -2.167046      0.9746295
      7323.0000         1.1174       1102.428         0.8225       -49.8401      -1.931252      0.9797554
      7323.5000         1.0954       1122.582         0.8011       -49.6242      -1.716953       0.984414
      7324.0000          1.069       1142.713         0.7798       -49.4084      -1.502762      0.9890704
      7324.5000         1.0135       1187.434         0.7584       -50.0925      -2.188461      0.9741639
      7325.0000          1.001       1255.586          0.737        -50.619      -2.716568      0.9626833
      7325.5000         0.9886       1316.348         0.7227       -51.0175      -3.116673      0.9539854
      7326.0000         0.9658        1362.67         0.7093       -51.6355      -3.736279      0.9405157
      7326.5000         0.9416       1403.867         0.6958       -51.2548      -3.357178       0.948757
