#------------------------------------------------------------------------------
# Created by    : vladimir.rabinovich
# Created on    : 09/19/2023 17:22:17
#------------------------------------------------------------------------------
~Version Information Section
VERS.           2.0     :   CWLS log ASCII Standard - VERSION 2.0
WRAP.           NO      :   One line per depth step
~Well Information Section
#MNEM       .UNIT                                         VALUE :DESCRIPTION
#------------------------------------------------------------------------------
STRT        .FT                                            2222 :START DEPTH
STOP        .FT                                            8603 :STOP DEPTH
STEP        .FT                                             0.5 :STEP      
NULL        .                                           -999.25 :NULL      
COMP        .                                    HRUBETZ OIL CO :COMPANY   
WELL        .                                     ST TR 00028-L :WELL      
FLD         .                                           WILDCAT :FIELD     
LOC         .                                                   :LOCATION  
CNTY        .                           HIGH ISLAND LARGE BLOCK :LOCATION  
STAT        .                                             TEXAS :STATE     
CTRY        .                                     UNITED STATES :COUNTRY   
SRVC        .                                                   :SERVICE COMPANY
DATE        .                             9/13/2023 11:19:15 AM :LOG DATE  
API         .                                    42708303040000 :API NUMBER
UWI         .                                    42708303040000 :UNIQUE WELL ID
XCOORD      .                                  1211101.11829014 :SURFACE X 
YCOORD      .                                  10709910.5532953 :SURFACE Y 
LAT         .                                         29.503814 :LATITUDE  
LON         .                                       -94.3499952 :LONGITUDE 
ELEV        .FT                                              60 :ELEVATION VALUE
ELEV_TYPE   .                                                KB :ELEVATION REFERENCE TYPE
~Curve Information Section
#MNEM       .UNIT                                      API CODE :CURVE DESCRIPTION
#------------------------------------------------------------------------------
DEPT        .FT                                                 :DEPTH     
CALI        .IN                                                 :          
GR          .GAPI                                               :          
GR_NORM     .GAPI                                               :GammaRay Normalized
ILD         .OHMM                                               :          
ILM         .OHMM                                               :          
RHOB        .G/C3                                               :          
SFL         .OHMM                                               :          
SP          .MV                                                 :          
SP_NORM     .MV                                                 :SP Normalized
VSH_GR      .V/V                                                :Volume of Shale from GR
VSH_SP      .V/V                                                :Volume of Shale from SP
~A        DEPTH           CALI             GR        GR_NORM            ILD            ILM           RHOB            SFL             SP        SP_NORM         VSH_GR         VSH_SP
# ...
      6902.0000        12.9375        32.2712       30.81259         0.5654          0.584          2.228         1.3835      -155.8782       -80.4065              0      0.0546845
      6902.5000        13.4538        32.8993       31.64102         0.6055          0.616          2.285         1.4604      -155.9624       -80.4907              0     0.05368214
      6903.0000         14.211        34.6238       33.92744         0.6728         0.6496         2.3979         2.0109      -156.0718      -80.60009     0.01973278     0.05237988
      6903.5000        14.8813        36.3483       36.21387         0.7654         0.6926         2.5228         2.4453      -156.1812       -80.7095     0.06838015     0.05107743
      6904.0000        15.4743         37.903       38.27448          0.793         0.6603          2.436         2.4442      -156.1946      -80.72289       0.112223     0.05091794
      6904.5000        15.8607        39.3807       40.23271         0.7787         0.6074         2.3116         2.1773      -156.1616       -80.6899      0.1538874     0.05131068
      6905.0000        16.1915        39.4189       40.27671          0.743         0.5827         2.1784         1.8409      -156.1289       -80.6572      0.1548235     0.05169996
      6905.5000        16.4216        39.3174       40.13494         0.7062          0.561         2.0452         1.5477      -155.4631       -79.9914      0.1518072     0.05962617
      6906.0000        16.6312        39.4332       40.28213         0.6629         0.5401         1.9269         1.3368      -154.3914       -78.9197      0.1549389     0.07238451
      6906.5000        16.5856        39.9089        40.9079          0.609         0.5185         1.8238         1.2313      -153.3628      -77.89109      0.1682532     0.08462988
      6907.0000        16.3498        41.2237       42.64951         0.5565         0.4978         1.7961         1.2696      -152.6255       -77.1538      0.2053087     0.09340713
      6907.5000        15.8798        43.4342        45.5822         0.4971         0.4779         1.7907          1.309      -152.2585       -76.7868      0.2677065     0.09777623
      6908.0000        15.3849        45.3737       48.15453         0.4294          0.454         1.7899         1.3014      -151.6462      -76.17449      0.3224367      0.1050656
      6908.5000        15.0566         46.689       49.89679         0.3974          0.429         1.7866         1.2847      -149.4993       -74.0276      0.3595061      0.1306239
      6909.0000        14.7452        47.5384       51.01951         0.3721         0.4131         1.7786         1.2682      -147.3523      -71.88059      0.3833938      0.1561834
      6909.5000        14.5381        48.1625       51.84263         0.3521         0.4046         1.7851         1.2397      -145.2051      -69.73339      0.4009071      0.1817454
      6910.0000        14.5322         48.891       52.80458         0.3399         0.3982         1.9161         1.2116      -141.5266      -66.05489      0.4213741       0.225537
      6910.5000        14.5444        50.9476       55.53262         0.3282         0.3994         2.0476         1.1879      -133.7812       -58.3095      0.4794174       0.317744
      6911.0000        14.6357        53.2559       58.59537         0.3396         0.4164         2.0883         1.1969      -123.4197        -47.948      0.5445824      0.4410953
      6911.5000        14.7269        55.5641       61.65798         0.3759         0.4645         2.1278          1.206      -113.9669       -38.4952      0.6097443      0.5536286
      6912.0000        14.9013        55.7881       61.94906         0.4251         0.5093          2.161         1.2094      -106.6685       -31.1968      0.6159375      0.6405143
      6912.5000        15.1221          55.96       62.17085         0.4872         0.5393          2.149         1.2025      -100.9528      -25.48109      0.6206563      0.7085584
      6913.0000        15.3466        56.1427         62.407         0.5622         0.5684         2.1239         1.1951       -93.7056      -18.23389      0.6256809      0.7948346
      6913.5000        15.5901        55.9489       62.14249         0.6307         0.6003         2.1059         1.1855       -87.7554       -12.2837       0.620053      0.8656703
      6914.0000        15.8336        55.7546       61.87732         0.6871         0.6156         2.0879         1.1726       -82.5161      -7.044395       0.614411      0.9280429
      6914.5000        16.0771        55.5605        61.6124         0.6863          0.618         2.0742         1.1453       -79.9917      -4.519997      0.6087744      0.9580953
      6915.0000        16.0527        55.3831       61.36969         0.6761         0.6196         2.0634         1.1141       -77.4893      -2.017601      0.6036104      0.9878857
      6915.5000        16.0716        55.2319       61.16183         0.6373         0.6059         2.0516         1.1216       -78.9841      -3.512398      0.5991878      0.9700905
      6916.0000        16.1302        55.0809       60.95423         0.6008         0.5926         2.0011         1.1284       -81.4791      -6.007401      0.5947708      0.9403881
      6916.5000        16.3143        54.9298       60.74649         0.5584          0.549         1.9423         1.1295       -83.9742      -8.502495      0.5903509      0.9106846
      6917.0000        16.4987        55.4664       61.45327         0.5161         0.5046         1.8917          1.096       -85.9125       -10.4408      0.6053886      0.8876096
      6917.5000        15.2863        60.0927       67.59846         0.4843         0.4662         1.9303         1.0699       -87.7352       -12.2635      0.7361374      0.8659108
      6918.0000        12.4221        64.5919       73.57465         0.4644         0.4587         2.0089          1.138       -89.5563      -14.08459      0.8632905       0.844231
      6918.5000        12.6438          67.12       76.92967         0.4474         0.4575         2.0747         1.2186       -96.3436      -20.87189      0.9346739      0.7634298
      6919.0000        12.8656        69.0546       79.49548         0.4385         0.4605         2.1296         1.2453      -103.2463       -27.7746      0.9892656      0.6812548
      6919.5000        13.0872        70.9867       82.05798         0.4298         0.4635         2.1555         1.1695       -91.8956       -16.4239              1      0.8163822
      6920.0000        13.2931        72.9211        84.6235         0.4231         0.4666         2.1613         1.0716       -81.4059      -5.934196              1      0.9412596
      6920.5000        13.4203        72.9846       84.70113          0.417         0.4696         2.1546         1.0103        -77.819      -2.347298              1      0.9839607
      6921.0000        13.4505        68.4904       78.71802          0.411         0.4663         2.1373         0.9606       -76.5444      -1.072701      0.9727238      0.9991345
      6921.5000        13.5733        64.9828       74.04687          0.398         0.4536         2.1181         0.9599       -77.4489      -1.977196      0.8733376      0.9883667
      6922.0000        13.8385        62.1884        70.3241         0.3837         0.4413         2.0982         0.9707       -79.9366      -4.464897      0.7941299      0.9587512
      6922.5000        14.0933        59.8533        67.2121           0.37         0.4293         2.0771         0.9816       -84.2014      -8.729698       0.727917      0.9079798
      6923.0000        14.3449        58.3682       65.23045         0.3515         0.4162          2.056         1.0088        -92.709       -17.2373      0.6857544      0.8066989
      6923.5000        14.5967        56.8807       63.24559         0.3336         0.4013         2.0294         1.0391      -101.2092       -25.7375      0.6435232       0.705506
      6924.0000        14.8165         55.536       61.45063         0.3184         0.3869         2.0028         1.0914      -109.7168      -34.24509      0.6053326       0.604225
