#------------------------------------------------------------------------------
# Created by    : vladimir.rabinovich
# Created on    : 09/19/2023 17:22:30
#------------------------------------------------------------------------------
~Version Information Section
VERS.           2.0     :   CWLS log ASCII Standard - VERSION 2.0
WRAP.           NO      :   One line per depth step
~Well Information Section
#MNEM       .UNIT                                         VALUE :DESCRIPTION
#------------------------------------------------------------------------------
STRT        .FT                                            1687 :START DEPTH
STOP        .FT                                            6155 :STOP DEPTH
STEP        .FT                                             0.5 :STEP      
NULL        .                                           -999.25 :NULL      
COMP        .                       AMERICAN COASTAL ENERGY INC :COMPANY   
WELL        .                                ST TR 00596-L NE/4 :WELL      
FLD         .                        SHERMAN OFFSHORE SOUTHWEST :FIELD     
LOC         .                                                   :LOCATION  
CNTY        .                      MATAGORDA ISLAND LARGE BLOCK :LOCATION  
STAT        .                                             TEXAS :STATE     
CTRY        .                                     UNITED STATES :COUNTRY   
SRVC        .                                                   :SERVICE COMPANY
DATE        .                             9/13/2023 11:12:01 AM :LOG DATE  
API         .                                    42703302820000 :API NUMBER
UWI         .                                    42703302820000 :UNIQUE WELL ID
XCOORD      .                                  484247.709270029 :SURFACE X 
YCOORD      .                                   10242127.767654 :SURFACE Y 
LAT         .                                        28.1765839 :LATITUDE  
LON         .                                       -96.5886238 :LONGITUDE 
ELEV        .FT                                              79 :ELEVATION VALUE
ELEV_TYPE   .                                                KB :ELEVATION REFERENCE TYPE
~Curve Information Section
#MNEM       .UNIT                                      API CODE :CURVE DESCRIPTION
#------------------------------------------------------------------------------
DEPT        .FT                                                 :DEPTH     
CILD        .MMHO                                               :          
DT          .US/F                                               :          
ILD         .OHMM                                               :          
SN          .OHMM                                               :          
SP          .MV                                                 :          
SP_NORM     .MV                                                 :SP Normalized
VSH_SP      .V/V                                                :Volume of Shale from SP
~A        DEPTH           CILD             DT            ILD             SN             SP        SP_NORM         VSH_SP
# ...
      5807.5000       2784.115       111.8642         0.3558         0.5255       -91.8458         -73.34     0.02273978
      5808.0000       2931.482       111.8641         0.3383         0.5112       -91.5471       -73.0391     0.02686163
      5808.5000       3070.037       112.0631         0.3216         0.5019       -91.3475       -72.8374     0.02962463
      5809.0000       3173.558       112.0629         0.3115         0.4951       -90.1556       -71.6433     0.04598215
      5809.5000       3213.369       111.7646         0.3072         0.4928       -87.8719       -69.3574     0.07729591
      5810.0000       3213.361       111.4658         0.3058         0.4996       -85.6869       -67.1703      0.1072561
      5810.5000        3205.39       110.0721         0.3072         0.5112       -84.6939       -66.1751       0.120889
      5811.0000        3181.49       108.4787           0.31         0.5303       -84.1967       -65.6757      0.1277302
      5811.5000       3165.555       107.6822         0.3172         0.5502        -84.493       -65.9699         0.1237
      5812.0000       3077.947       107.2839         0.3246         0.5578       -84.4926       -65.9673      0.1237356
      5812.5000       2958.484        107.682         0.3414         0.5604       -82.6059       -64.0784       0.149611
      5813.0000       2767.349       108.0731         0.3591         0.5708       -79.3297       -60.8001      0.1945192
      5813.5000       2504.543        108.279         0.4102         0.5948       -72.1828        -53.651       0.292452
      5814.0000       2246.374       107.4826         0.4496         0.6372        -60.272       -41.7381      0.4556425
      5814.5000       1986.897        106.487         0.5277         0.6858       -50.0485       -31.5124      0.5957205
      5815.0000       1747.993       104.3969         0.6031         0.7482       -45.0853        -26.547      0.6637397
      5815.5000       1580.745       102.3059         0.7147         0.8164       -41.6108       -23.0704      0.7113644
      5816.0000       1309.982       100.8131         0.8164         0.8547       -39.9224       -21.3798      0.7345233
      5816.5000       1182.563       101.1116         0.9031         0.8867       -41.0139       -22.4691      0.7196013
      5817.0000       1102.925       101.9079         0.9586         0.9156       -41.3112       -22.7643      0.7155575
      5817.5000       1063.105       103.3009         1.0036         0.9455       -39.5232       -20.9741      0.7400808
      5818.0000       1047.175       104.2962         1.0317         0.9899       -37.4382       -18.8869      0.7686726
      5818.5000       1023.282       103.6989         1.0702         1.0364       -35.8494        -17.296      0.7904658
      5819.0000       967.5361       102.3052         1.1103         1.1001       -35.8494       -17.2938      0.7904959
      5819.5000       895.8631       101.1105         1.1465         1.1257       -36.0924       -17.5346      0.7871973
      5820.0000       832.1716        100.115         1.1678         1.1785       -36.6416       -18.0817      0.7797027
      5820.5000       871.9686        100.314         1.1839         1.2567       -37.4347       -18.8726      0.7688685
      5821.0000       1015.306       101.3098         0.9515          1.046       -38.8233       -20.2591      0.7498754
      5821.5000        1294.02       103.0149         0.7647         0.9327       -43.0899       -24.5235      0.6914589
      5822.0000       1684.218       103.3135         0.6146          0.809       -54.2038       -35.6352      0.5392438
      5822.5000       1994.781       103.0148         0.4975         0.7552       -69.4866       -50.9159      0.3299192
      5823.0000       2576.899       104.4942          0.383         0.7518       -83.4791       -64.9062      0.1382713
      5823.5000       2895.425       106.8831         0.3431         0.7587       -91.3182       -72.7431      0.0309164
      5824.0000        3157.41       110.0682         0.3188         0.7587       -93.0046       -74.4274    0.007843854
      5824.5000       3093.682       113.4525         0.3087         0.7622       -91.1179       -72.5385     0.03371921
      5825.0000       2862.742       113.8506         0.3368          0.745       -83.4753       -64.8937      0.1384425
      5825.5000       2528.283        113.054         0.3865         0.7148       -73.3515       -54.7678      0.2771534
      5826.0000       2177.917       111.8594         0.4477         0.6765       -61.9387       -43.3528      0.4335233
      5826.5000       2002.723       110.2667         0.4998         0.6403       -47.1496       -28.5616      0.6361425
      5827.0000       1970.847        107.878         0.5233         0.6522       -51.2177       -32.6275      0.5804452
      5827.5000       2122.141       108.4748         0.4581         0.6923        -62.332       -43.7396      0.4282247
      5828.0000       2361.027       110.1832         0.4179         0.6986       -78.7059       -60.1114      0.2039534
      5828.5000       2838.803       111.2784         0.3642         0.6735       -85.9497        -67.353      0.1047535
      5829.0000       3388.244       113.2697         0.3073         0.6522       -88.6283       -70.0294     0.06809036
      5829.5000       3903.123       114.3649         0.2617         0.6316       -90.1159       -71.5149     0.04774109
      5830.0000       4171.204       114.4463          0.226         0.6201       -90.8096       -72.2064     0.03826852
      5830.5000       4366.296       114.6453         0.2179         0.6116       -90.8086       -72.2032     0.03831231
      5831.0000       4366.295       114.4461         0.2209         0.6116       -90.7084       -72.1009     0.03971371
      5831.5000       4073.013       114.2469         0.2323         0.6089       -90.3105       -71.7008     0.04519455
      5832.0000       3850.042       113.6496         0.2535         0.6173       -89.0194       -70.4075     0.06291094
      5832.5000        3404.11       112.0568         0.3018         0.6463       -82.2701       -63.6561      0.1553959
      5833.0000       2703.371       111.2604         0.3884         0.6892       -74.9255       -56.3093       0.256037
      5833.5000       2090.226       106.4826         0.4396         0.7801       -65.0006       -46.3823      0.3920233
      5834.0000       1591.544       101.1076         0.6411         0.8356       -51.7017       -33.0812      0.5742301
      5834.5000       1174.493        96.3298          1.004         1.0706       -41.5785       -22.9558      0.7129343
      5835.0000       927.6446         90.159         1.1627         1.1734       -38.7986       -20.1738      0.7510439
      5835.5000       876.1985        89.3726         1.1208         1.2285       -39.4928       -20.8658      0.7415644
      5836.0000       975.7653        88.9743         1.0273         1.2745       -41.3775       -22.7483      0.7157767
      5836.5000       1162.952        91.3532         0.8789         1.2174       -47.5294       -28.8981      0.6315329
      5837.0000       1361.621        94.2371         0.7216         1.1364       -54.1775        -35.544      0.5404932
      5837.5000       1568.647        99.3112         0.6434         1.0657       -70.4521       -51.8164      0.3175836
      5838.0000       1660.214       103.5956         0.6145         1.1158        -76.504       -57.8662      0.2347096
      5838.5000       1620.378        102.301         0.6062         1.2174       -71.7397       -53.0997      0.3000041
      5839.0000       1421.819       100.9075         0.6259         1.3222       -64.1968       -45.5546      0.4033616
      5839.5000       1230.202        98.9167          0.715         1.4099       -56.9516       -38.3073      0.5026397
      5840.0000       1190.386        91.5512         0.8281         1.3222       -53.9737       -35.3272       0.543463
      5840.5000       1126.682        87.7689         0.9459         1.3222       -50.0034       -31.3548      0.5978795
