#------------------------------------------------------------------------------
# Created by    : vladimir.rabinovich
# Created on    : 09/19/2023 17:22:41
#------------------------------------------------------------------------------
~Version Information Section
VERS.           2.0     :   CWLS log ASCII Standard - VERSION 2.0
WRAP.           NO      :   One line per depth step
~Well Information Section
#MNEM       .UNIT                                         VALUE :DESCRIPTION
#------------------------------------------------------------------------------
STRT        .FT                                            4470 :START DEPTH
STOP        .FT                                            9513 :STOP DEPTH
STEP        .FT                                             0.5 :STEP      
NULL        .                                           -999.25 :NULL      
COMP        .                 FAIRWAYS SPEC SALES & SERVICE INC :COMPANY   
WELL        .                               OCS G11315 ST00BP00 :WELL      
FLD         .                              GALVESTON BLOCK 0319 :FIELD     
LOC         .                                                   :LOCATION  
CNTY        .                             GALVESTON LARGE BLOCK :LOCATION  
STAT        .                                             TEXAS :STATE     
CTRY        .                                     UNITED STATES :COUNTRY   
SRVC        .                                                   :SERVICE COMPANY
DATE        .                             9/13/2023 11:19:34 AM :LOG DATE  
API         .                                    42706402650000 :API NUMBER
UWI         .                                    42706402650000 :UNIQUE WELL ID
XCOORD      .                                  1065572.18570413 :SURFACE X 
YCOORD      .                                  10465680.9820926 :SURFACE Y 
LAT         .                                         28.826802 :LATITUDE  
LON         .                                        -94.795723 :LONGITUDE 
ELEV        .FT                                              86 :ELEVATION VALUE
ELEV_TYPE   .                                                KB :ELEVATION REFERENCE TYPE
~Curve Information Section
#MNEM       .UNIT                                      API CODE :CURVE DESCRIPTION
#------------------------------------------------------------------------------
DEPT        .FT                                                 :DEPTH     
DCAL        .IN                                                 :          
DPHI        .%                                                  :          
DRHO        .G/C3                                               :          
GR          .GAPI                                               :          
GR_NORM     .GAPI                                               :GammaRay Normalized
ILD         .OHMM                                               :          
ILM         .OHMM                                               :          
NPHI        .%                                                  :          
SFL         .OHMM                                               :          
SP          .MV                                                 :          
SP_NORM     .MV                                                 :SP Normalized
VSH_GR      .V/V                                                :Volume of Shale from GR
VSH_SP      .V/V                                                :Volume of Shale from SP
~A        DEPTH           DCAL           DPHI           DRHO             GR        GR_NORM            ILD            ILM           NPHI            SFL             SP        SP_NORM         VSH_GR         VSH_SP
# ...
      6199.0000         2.4148        21.3404        -0.0092        72.1531       60.05667         0.6525         0.7855        31.6668         0.9595       -63.1169      -25.39418      0.5756738      0.6093203
      6199.5000         2.4707        22.2747        -0.0126        69.8002       57.89003         0.6603         0.7768        32.1962         1.0268       -63.9109      -26.18879      0.5295751      0.5970955
      6200.0000         2.5361         22.526        -0.0147        68.4431       56.64112         0.6685         0.7681        32.5594         1.0125        -64.458      -26.73652      0.5030025       0.588669
      6200.5000         2.6055        22.0983        -0.0168        67.5546       55.82407         0.6769         0.7632         32.729         0.9462       -64.6118      -26.89094      0.4856186      0.5862933
      6201.0000         2.6749        21.7329        -0.0183        66.7963       55.12701         0.6855         0.7613        32.5515          0.897       -64.9635      -27.24326      0.4707875       0.580873
      6201.5000         2.7164        21.6697        -0.0197         66.178       54.55898         0.6944         0.7696        31.8314          0.911       -65.3777      -27.65808      0.4587018      0.5744911
      6202.0000         2.7315        21.6707        -0.0221        65.6676       54.09039         0.7041         0.7893        30.8566         1.0063        -66.337        -28.618      0.4487318      0.5597231
      6202.5000         2.7466         21.849        -0.0243        66.0251       54.42166         0.7167         0.8148        30.1317         1.1123       -67.4421      -29.72372      0.4557799       0.542712
      6203.0000         2.7605        22.0275        -0.0237        67.6959       55.96326           0.73          0.847        29.4273         1.2003       -68.6033      -30.88554      0.4885801      0.5248379
      6203.5000         2.7736        22.1116        -0.0228        70.2111       58.28306         0.7448         0.8722         28.819         1.2472       -69.7731      -32.05596      0.5379375      0.5068313
      6204.0000         2.7867        21.9412        -0.0187        72.7577        60.6318         0.7553          0.892        28.3066         1.2821       -70.0828      -32.36628      0.5879107      0.5020573
      6204.5000         2.7691        21.4923        -0.0142        72.3363       60.24524         0.7622         0.8901        27.8839         1.2944       -70.3087       -32.5928      0.5796859      0.4985723
      6205.0000         2.7491        20.9153        -0.0086        70.2242       58.30051         0.7634          0.883        27.6098         1.3034       -70.3921      -32.67682      0.5383088      0.4972797
      6205.5000         2.9067        20.3264        -0.0053         68.099       56.34373         0.7629         0.8683        27.4365         1.3047       -70.4753      -32.76065       0.496675        0.49599
      6206.0000         2.9556        19.8973        -0.0039        66.6327       54.99417         0.7421         0.8482        27.6499         1.3027       -70.7549      -33.04086      0.4679612      0.4916791
      6206.5000          2.968        20.4033         -0.004        66.0557       54.46421         0.7349         0.8259        28.5795         1.2888       -71.0775      -33.36408      0.4566853      0.4867064
      6207.0000         2.8462         20.966        -0.0042        65.5249       53.97682         0.7269         0.8049        29.1426         1.2743        -71.397      -33.68421      0.4463153      0.4817814
      6207.5000         2.7402         21.553        -0.0045        65.0139       53.50768         0.7207         0.7866        29.5891         1.2577       -71.6853      -33.97313      0.4363336      0.4773365
      6208.0000         2.6976        21.7057        -0.0049        64.9426       53.44376          0.716         0.7723        30.1436         1.2395       -71.9735      -34.26195      0.4349735      0.4728931
      6208.5000         2.7034        21.5117        -0.0055        65.4988       53.95815         0.7131         0.7595        30.7043         1.2132       -71.7427      -34.03176       0.445918      0.4764344
      6209.0000          2.773        20.9724        -0.0069        66.5273        54.9078         0.7121         0.7493        31.6592         1.1747       -71.2247      -33.51439      0.4661235      0.4843941
      6209.5000         2.7824         20.791        -0.0082        68.2456       56.49318         0.7111         0.7423        32.5809         1.1056       -68.8868      -31.17711      0.4998549      0.5203522
      6210.0000         2.7801        20.7345        -0.0098        70.6692       58.72857         0.7151         0.7426        33.4644         0.9517       -66.6256      -28.91653      0.5474163      0.5551303
      6210.5000         2.7777        21.2666        -0.0121        72.9565       60.83833         0.7194         0.7553        33.9324         0.8678       -64.4133      -26.70485      0.5923049      0.5891562
      6211.0000         2.6826        21.8409        -0.0145        72.6058       60.51692         0.7265         0.7683        33.3407         0.8886       -63.0963      -25.38847      0.5854663      0.6094082
      6211.5000         2.5715        21.8124        -0.0147        70.1875       58.29002          0.735         0.7824         32.584         0.9474       -62.5214      -24.81419      0.5380855      0.6182432
      6212.0000         2.6229        21.1294        -0.0131        67.1672        55.5083         0.7439         0.7966        31.9638          0.997       -62.1707      -24.46411         0.4789      0.6236291
      6212.5000         2.6873        20.0928        -0.0112        65.1364       53.63851         0.7532         0.8097        31.8054         0.9902       -61.5186      -23.81263      0.4391172      0.6336519
      6213.0000         2.7502        19.3472        -0.0081        66.3429       54.75222          0.763         0.8221        32.0015         0.9742       -60.8575      -23.15215      0.4628131      0.6438131
      6213.5000          2.794        18.8265         -0.005        69.1302       57.32278         0.7743         0.8368        32.2715         0.9757         -59.83      -22.12527      0.5175061      0.6596112
      6214.0000          2.808        18.3625        -0.0033        69.5817       57.74068         0.7857          0.853        32.2144         0.9895       -58.9496      -21.24549      0.5263975      0.6731463
      6214.5000          2.822        17.8323        -0.0017        67.2223       55.56804         0.7972         0.8652        31.6307         1.0148       -58.3946      -20.69111      0.4801711      0.6816752
      6215.0000         2.8362        17.2208        -0.0004         64.092       52.68496         0.8086         0.8762        30.2649         1.0313       -57.8651      -20.16224      0.4188288      0.6898118
      6215.5000         2.8506        16.4816         0.0007        61.1581       49.98286         0.8192         0.8916        28.5549         1.0591       -57.3768      -19.67455      0.3613375      0.6973146
      6216.0000         2.8649        15.1983         0.0004        60.8087       49.66266         0.8267          0.909        26.4848         1.1098       -56.9052      -19.20358      0.3545247      0.7045604
      6216.5000         2.8998        13.5993        -0.0008        63.3618       52.01739         0.8235         0.9275        24.1323         1.1951       -56.4405      -18.73949      0.4046254      0.7117001
      6217.0000         2.9399        13.0333         -0.003        64.3878       52.96474          0.811         0.9342        23.1222         1.2757       -57.0146      -19.31421      0.4247818      0.7028583
      6217.5000         2.9568        14.6399        -0.0063        62.2783       51.02242         0.7964          0.934        24.2544         1.2932       -57.8317      -20.13194      0.3834557      0.6902779
