#------------------------------------------------------------------------------
# Created by    : vladimir.rabinovich
# Created on    : 09/19/2023 17:22:28
#------------------------------------------------------------------------------
~Version Information Section
VERS.           2.0     :   CWLS log ASCII Standard - VERSION 2.0
WRAP.           NO      :   One line per depth step
~Well Information Section
#MNEM       .UNIT                                         VALUE :DESCRIPTION
#------------------------------------------------------------------------------
STRT        .FT                                            2000 :START DEPTH
STOP        .FT                                            7372 :STOP DEPTH
STEP        .FT                                             0.5 :STEP      
NULL        .                                           -999.25 :NULL      
COMP        .                       CORPUS CHRISTI OIL & GAS CO :COMPANY   
WELL        .                                ST TR 00596-L SE/4 :WELL      
FLD         .                                           WILDCAT :FIELD     
LOC         .                                                   :LOCATION  
CNTY        .                      MATAGORDA ISLAND LARGE BLOCK :LOCATION  
STAT        .                                             TEXAS :STATE     
CTRY        .                                     UNITED STATES :COUNTRY   
SRVC        .                                                   :SERVICE COMPANY
DATE        .                             9/13/2023 11:19:13 AM :LOG DATE  
API         .                                    42703300520000 :API NUMBER
UWI         .                                    42703300520000 :UNIQUE WELL ID
XCOORD      .                                  480173.649028781 :SURFACE X 
YCOORD      .                                  10231220.1013933 :SURFACE Y 
LAT         .                                        28.1462983 :LATITUDE  
LON         .                                       -96.6002451 :LONGITUDE 
ELEV        .FT                                              82 :ELEVATION VALUE
ELEV_TYPE   .                                                GL :ELEVATION REFERENCE TYPE
~Curve Information Section
#MNEM       .UNIT                                      API CODE :CURVE DESCRIPTION
#------------------------------------------------------------------------------
DEPT        .FT                                                 :DEPTH     
CILD        .MMHO                                               :          
ILD         .OHMM                                               :          
SN          .OHMM                                               :          
SP          .MV                                                 :          
SP_NORM     .MV                                                 :SP Normalized
VSH_SP      .V/V                                                :Volume of Shale from SP
~A        DEPTH           CILD            ILD             SN             SP        SP_NORM         VSH_SP
# ...
      5534.0000       2605.055         0.3839         1.0895       -96.4018      -49.50216     0.01106305
      5534.5000       1960.013         0.5102         1.1396       -95.8634      -48.95868     0.02314038
      5535.0000       1923.726         0.4513         1.1896       -95.3251       -48.4153      0.0352155
      5535.5000       1931.718         0.4313         1.2397       -94.7867      -47.87181     0.04729301
      5536.0000       1951.693         0.3914         1.2971       -94.2484      -47.32843     0.05936813
      5536.5000       1971.668         0.3515         1.2571         -93.71      -46.78496     0.07144538
      5537.0000       1999.635         0.3315         1.2047       -93.1717      -46.24158     0.08352051
      5537.5000       2153.472         0.2916         1.1524       -92.6333       -45.6981     0.09559784
      5538.0000       2159.967         0.2916         1.0933       -92.2656      -45.32532      0.1038818
      5538.5000       2209.406         0.2916         1.1253       -92.4658      -45.52043     0.09954596
      5539.0000       2249.361         0.2917         1.1543       -92.8663      -45.91586     0.09075877
      5539.5000       2262.466         0.2917         1.1572       -93.2669      -46.31137     0.08196954
      5540.0000       1844.724         0.2717          1.585        -93.467       -46.5064     0.07763562
      5540.5000       1689.837         0.2518         2.0084       -91.8636      -44.89791      0.1133797
      5541.0000        1534.95         0.6515         1.9901       -90.0597      -43.08893      0.1535793
      5541.5000       1380.064         0.7246           2.09       -87.7473      -40.77145      0.2050789
      5542.0000       1225.177         0.8162         2.2298       -85.4349      -38.45397      0.2565785
      5542.5000        1070.29         0.9343         2.5505       -83.1225      -36.13649      0.3080781
      5543.0000       915.4037         1.0924         2.8711       -80.8101        -33.819      0.3595777
      5543.5000       788.7771         1.2678         3.1918       -78.4977      -31.50153       0.411077
      5544.0000       732.3764         1.3654         3.5886       -75.6292      -28.62795      0.4749344
      5544.5000       675.9756         1.4793         3.8484       -74.8276      -27.82127      0.4928608
      5545.0000       619.5749          1.614         4.0151         -71.62      -24.60859      0.5642536
      5545.5000       563.1741         1.7756         4.1818       -68.4123      -21.39581      0.6356488
      5546.0000       517.0242         1.9341          4.348       -65.2074      -18.18582      0.7069817
      5546.5000       513.0233         2.0902         4.1881       -65.8084      -18.78175       0.693739
      5547.0000       521.0103         1.9193         3.9851       -66.4096      -19.37786      0.6804919
      5547.5000       570.4173         1.7531         3.7822       -67.0105      -19.97368      0.6672515
      5548.0000       619.8243         1.6134         3.5792       -67.7989        -20.757      0.6498445
      5548.5000       669.2313         1.4943         3.3762       -67.8116      -20.76462      0.6496751
      5549.0000       718.6383         1.3915         3.1732        -68.613      -21.56094      0.6319791
      5549.5000       768.0453          1.302         2.9702       -69.8151      -22.75796      0.6053786
      5550.0000       817.4523         1.2233         2.7672       -71.8189      -24.75668      0.5609627
      5550.5000       866.8593         1.1536         2.5642       -74.2805       -27.2132      0.5063733
      5551.0000       916.2663         1.0914         2.3612       -76.7422      -29.66982      0.4517817
      5551.5000       965.6733         1.0355         2.1582       -79.2039      -32.12644      0.3971902
      5552.0000        1015.08         0.9851         1.9706       -82.2384      -35.15586      0.3298697
      5552.5000       1188.288         0.8415         2.0306       -83.8416      -36.75397      0.2943561
      5553.0000       1172.299          0.853         2.0506       -85.2442       -38.1515      0.2633001
      5553.5000       1145.286         0.8731         2.0706       -86.2459      -39.14812       0.241153
      5554.0000       1118.272         0.8942         2.0906       -86.8469      -39.74403      0.2279104
      5554.5000       1091.258         0.9164         2.1306       -84.9972      -37.88926      0.2691277
      5555.0000       1064.245         0.9396         2.2905       -83.1475      -36.03447       0.310345
      5555.5000       1037.231         0.9641         2.2905       -81.2978      -34.17969      0.3515624
      5556.0000       1010.217         0.9899         2.2705       -79.4482      -32.32501      0.3927776
      5556.5000       983.2033         1.0171         2.1107       -77.5985      -30.47023      0.4339948
      5557.0000       956.1896         1.0458         2.0908       -75.7488      -28.61545      0.4752122
      5557.5000       940.4866         1.0633         2.0508       -73.8991      -26.76067      0.5164295
      5558.0000       936.4857         1.0678         1.9909       -72.0495      -24.90599      0.5576447
      5558.5000       948.4687         1.0543         1.9926        -70.612      -23.46341       0.589702
      5559.0000       1107.909         0.9026         1.9167       -72.5585      -25.40483      0.5465593
      5559.5000       1267.349         0.7123         1.7534        -74.505      -27.34624      0.5034168
      5560.0000       1426.789         0.6923         1.5901       -76.4516      -29.28777      0.4602719
      5560.5000       1586.229         0.6524         1.4268       -78.3981      -31.22919      0.4171292
      5561.0000       1745.669         0.5325         1.2636       -80.3446       -33.1706      0.3739867
      5561.5000       2005.377         0.4984         1.1003       -82.2911      -35.11203      0.3308439
      5562.0000       2019.509         0.4726         0.9776       -84.4378      -37.25364      0.2832524
      5562.5000       2085.292         0.3727         0.9736       -84.6201      -37.43087      0.2793141
      5563.0000       2190.625         0.3328         0.9657       -85.4396      -38.24528       0.261216
      5563.5000       2295.958         0.3129         0.9577       -85.8402       -38.6408      0.2524266
      5564.0000       2444.913         0.2981         0.9457       -86.2407      -39.03622      0.2436395
      5564.5000       2448.909         0.2833         0.9377       -86.4409      -39.23134      0.2393035
      5565.0000       2471.744          0.253         0.9337       -87.8434      -40.62876      0.2082497
      5565.5000       2480.867          0.233         0.9337       -88.5552      -41.33548      0.1925449
      5566.0000       2660.677         0.2331         0.9417       -88.6445       -41.4197      0.1906733
      5566.5000        1938.89         0.2331         0.9537       -89.8424      -42.61252      0.1641663
      5567.0000       1886.429         0.2331         0.9613       -91.0402      -43.80524      0.1376614
      5567.5000       1833.967         0.2931         0.9817        -92.238      -44.99796      0.1111565
      5568.0000       1781.506         0.3131         0.9857       -92.6515      -45.40637      0.1020806
      5568.5000       1729.045         0.3531         1.0333       -91.6666       -44.4164        0.12408
      5569.0000       1676.584          0.453          1.081       -90.6816      -43.42632      0.1460818
      5569.5000       1624.123         0.5729         1.1287       -89.6966      -42.43624      0.1680836
      5570.0000       1571.661         0.5929         1.1763       -88.7117      -41.44625      0.1900832
      5570.5000         1519.2         0.6329          1.224       -87.7267      -40.45617       0.212085
      5571.0000       1466.739         0.6529         1.2716       -86.7418      -39.46619      0.2340847
      5571.5000       1414.278         0.6729         1.3193       -85.7568      -38.47611      0.2560865
