#------------------------------------------------------------------------------
# Created by    : vladimir.rabinovich
# Created on    : 09/19/2023 17:20:35
#------------------------------------------------------------------------------
~Version Information Section
VERS.           2.0     :   CWLS log ASCII Standard - VERSION 2.0
WRAP.           NO      :   One line per depth step
~Well Information Section
#MNEM       .UNIT                                         VALUE :DESCRIPTION
#------------------------------------------------------------------------------
STRT        .FT                                             504 :START DEPTH
STOP        .FT                                            9361 :STOP DEPTH
STEP        .FT                                             0.5 :STEP      
NULL        .                                           -999.25 :NULL      
COMP        .                                      SHELL OIL CO :COMPANY   
WELL        .                                OCS 00704 ST00BP00 :WELL      
FLD         .                                           WILDCAT :FIELD     
LOC         .                                                   :LOCATION  
CNTY        .                             GALVESTON LARGE BLOCK :LOCATION  
STAT        .                                             TEXAS :STATE     
CTRY        .                                     UNITED STATES :COUNTRY   
SRVC        .                                                   :SERVICE COMPANY
DATE        .                             9/13/2023 11:19:25 AM :LOG DATE  
API         .                                    42706000430000 :API NUMBER
UWI         .                                    42706000430000 :UNIQUE WELL ID
XCOORD      .                                  1136254.96267488 :SURFACE X 
YCOORD      .                                  10526383.5552877 :SURFACE Y 
LAT         .                                         28.996505 :LATITUDE  
LON         .                                        -94.577519 :LONGITUDE 
ELEV        .FT                                              42 :ELEVATION VALUE
ELEV_TYPE   .                                                KB :ELEVATION REFERENCE TYPE
~Curve Information Section
#MNEM       .UNIT                                      API CODE :CURVE DESCRIPTION
#------------------------------------------------------------------------------
DEPT        .FT                                                 :DEPTH     
ASN         .OHMM                                               :          
DT          .US/F                                               :          
LN          .OHMM                                               :          
SP          .MV                                                 :          
SP_NORM     .MV                                                 :SP Normalized
VSH_SP      .V/V                                                :Volume of Shale from SP
~A        DEPTH            ASN             DT             LN             SP        SP_NORM         VSH_SP
# ...
      3430.0000         0.9573       153.9169        -999.25         -57.64      -1.156136              1
      3430.5000         0.9553       155.9333        -999.25       -57.4908       -1.00909              1
      3431.0000         0.9544        159.095        -999.25        -57.368      -0.888443              1
      3431.5000         0.9534       159.4132        -999.25       -57.4562     -0.9787979              1
      3432.0000         0.9574        159.607        -999.25       -57.5444      -1.069149              1
      3432.5000         0.9626       159.6815        -999.25       -57.6326      -1.159504              1
      3433.0000         0.9676       159.7646        -999.25       -57.7208      -1.249859              1
      3433.5000         0.9617       159.9785        -999.25       -57.7141      -1.245312              1
      3434.0000         0.9559       160.2684        -999.25       -57.4984      -1.031769              1
      3434.5000           0.95       160.7699        -999.25       -57.2826     -0.8181229              1
      3435.0000         0.9442       161.1441        -999.25       -57.0626     -0.6002731              1
      3435.5000         0.9307       159.8378        -999.25       -56.8416     -0.3814278              1
      3436.0000         0.9147       158.4219        -999.25       -56.8909     -0.4328804              1
      3436.5000          0.917       156.8958        -999.25       -57.0828     -0.6269379              1
      3437.0000         0.9231       155.3696        -999.25       -57.2746     -0.8208923              1
      3437.5000         0.9393       153.8434        -999.25       -57.4665      -1.014942              1
      3438.0000         0.9554       152.3172        -999.25       -57.6577      -1.208298              1
      3438.5000         0.9715        150.791        -999.25       -57.7637      -1.316448              1
      3439.0000         1.0043       149.2648        -999.25       -57.8697      -1.424606              1
      3439.5000         1.0372       147.7386        -999.25       -57.9757      -1.532761      0.9975733
      3440.0000         1.0614       146.2124        -999.25       -58.0817      -1.640911      0.9895622
      3440.5000         1.0771       144.6862        -999.25       -58.1877      -1.749065      0.9815507
      3441.0000         1.0791         143.16        -999.25       -57.9441      -1.507622      0.9994354
      3441.5000         1.0707       140.5839        -999.25       -57.7006      -1.266273              1
      3442.0000         1.0622       138.4946        -999.25       -57.4569      -1.024731              1
      3442.5000         1.0538       138.4969        -999.25       -57.2277     -0.7976799              1
      3443.0000         1.0445       141.3624        -999.25       -57.0945     -0.6666374              1
      3443.5000          1.035       147.2589        -999.25       -56.9612     -0.5354919              1
      3444.0000         1.0254       153.1555        -999.25       -56.9633     -0.5397415              1
      3444.5000         1.0159       158.8531        -999.25       -57.1774     -0.7559967              1
      3445.0000         1.0064       158.9272        -999.25       -57.3914     -0.9721527              1
      3445.5000         0.9968       158.8394        -999.25       -57.6055      -1.188404              1
      3446.0000         0.9873       158.1179        -999.25       -57.8195       -1.40456              1
      3446.5000         0.9777       157.4065        -999.25       -58.0335      -1.620712      0.9910583
      3447.0000         0.9681       157.4083        -999.25       -58.1935      -1.782867      0.9790469
      3447.5000         0.9585       158.4276        -999.25       -58.3325      -1.924023      0.9685909
      3448.0000         0.9489       166.2056        -999.25       -58.4714      -2.065075      0.9581426
      3448.5000         0.9571       166.9337        -999.25       -58.0221      -1.617928      0.9912646
      3449.0000         0.9678       165.7006        -999.25       -57.5118      -1.109779              1
      3449.5000         0.9785       162.9775        -999.25       -57.0011     -0.6012344              1
      3450.0000         0.9893       159.9065        -999.25       -56.4151     -0.0173912              1
      3450.5000          1.003       156.8355        -999.25       -56.2914      0.1041565              1
      3451.0000         1.0169       154.2935        -999.25       -56.5587     -0.1652985              1
      3451.5000         1.0308       152.8995        -999.25       -56.8259     -0.4346542              1
      3452.0000         1.0447       151.5055        -999.25       -57.0932     -0.7041054              1
      3452.5000         1.0705       150.5248        -999.25       -57.3605     -0.9735603              1
      3453.0000         1.1014       149.4052        -999.25       -57.4353       -1.05051              1
      3453.5000          1.128       147.7195        -999.25       -57.4877      -1.105068              1
      3454.0000         1.1294       146.0337        -999.25       -57.5401      -1.159622              1
      3454.5000         1.1152       144.2088        -999.25       -57.5925      -1.214172              1
      3455.0000          1.101       141.3682        -999.25       -57.6456      -1.269428              1
      3455.5000         1.0867       137.8898        -999.25       -57.6988       -1.32478              1
      3456.0000         1.0652       137.3824        -999.25        -57.752      -1.380135              1
      3456.5000         1.0434        138.134        -999.25       -57.8052       -1.43549              1
      3457.0000         1.0219       143.1507        -999.25       -57.9271      -1.559544      0.9955894
      3457.5000         1.0008       150.4528        -999.25       -58.1906      -1.825199      0.9759112
      3458.0000         0.9796       157.7549        -999.25        -58.454      -2.090752      0.9562406
      3458.5000         0.9589        165.057        -999.25       -58.7175      -2.356403      0.9365627
      3459.0000         0.9385       169.5882        -999.25       -58.9811      -2.622158      0.9168772
      3459.5000          0.921       170.3715        -999.25       -59.2201      -2.863312      0.8990139
      3460.0000         0.9087       170.7547        -999.25       -59.4549      -3.100266      0.8814618
      3460.5000         0.8964       170.8288        -999.25       -59.6896      -3.337124      0.8639168
      3461.0000         0.8901       170.5404        -999.25        -59.465      -3.114674      0.8803945
      3461.5000         0.8868       169.8881        -999.25       -59.1297      -2.781528       0.905072
      3462.0000         0.8835       169.0906        -999.25       -58.7944      -2.448383      0.9297494
      3462.5000         0.8753       168.3657        -999.25       -58.3483      -2.004436      0.9626343
      3463.0000         0.8661       167.5948        -999.25       -57.6985      -1.356792              1
      3463.5000         0.8679       166.8368        -999.25       -57.0486     -0.7090416              1
      3464.0000         0.8781       165.5285        -999.25       -56.5164      -0.178997              1
      3464.5000         0.8943       163.0135        -999.25       -56.4995     -0.1642532              1
      3465.0000         0.9106       160.1622        -999.25       -56.4825     -0.1494026              1
      3465.5000         0.9268       159.5888        -999.25       -56.6066     -0.2756615              1
      3466.0000          0.943       158.8577        -999.25       -56.7637     -0.4349098              1
      3466.5000         0.9633       157.8421        -999.25       -56.9208     -0.5941658              1
      3467.0000           0.97       157.1899        -999.25       -57.0779     -0.7534218              1
      3467.5000         0.9682       157.0462        -999.25        -57.235      -0.912674              1
