#------------------------------------------------------------------------------
# Created by    : vladimir.rabinovich
# Created on    : 09/19/2023 17:20:57
#------------------------------------------------------------------------------
~Version Information Section
VERS.           2.0     :   CWLS log ASCII Standard - VERSION 2.0
WRAP.           NO      :   One line per depth step
~Well Information Section
#MNEM       .UNIT                                         VALUE :DESCRIPTION
#------------------------------------------------------------------------------
STRT        .FT                                             601 :START DEPTH
STOP        .FT                                            9006 :STOP DEPTH
STEP        .FT                                             0.5 :STEP      
NULL        .                                           -999.25 :NULL      
COMP        .                                        SUN OIL CO :COMPANY   
WELL        .                               OCS G01715 ST00BP00 :WELL      
FLD         .                                           WILDCAT :FIELD     
LOC         .                                                   :LOCATION  
CNTY        .                                BRAZOS LARGE BLOCK :LOCATION  
STAT        .                                             TEXAS :STATE     
CTRY        .                                     UNITED STATES :COUNTRY   
SRVC        .                                                   :SERVICE COMPANY
DATE        .                             9/13/2023 11:18:52 AM :LOG DATE  
API         .                                    42704000710000 :API NUMBER
UWI         .                                    42704000710000 :UNIQUE WELL ID
XCOORD      .                                  842225.693118258 :SURFACE X 
YCOORD      .                                  10368215.6352389 :SURFACE Y 
LAT         .                                          28.54781 :LATITUDE  
LON         .                                        -95.486614 :LONGITUDE 
ELEV        .FT                                              79 :ELEVATION VALUE
ELEV_TYPE   .                                                KB :ELEVATION REFERENCE TYPE
~Curve Information Section
#MNEM       .UNIT                                      API CODE :CURVE DESCRIPTION
#------------------------------------------------------------------------------
DEPT        .FT                                                 :DEPTH     
ASN         .OHMM                                               :          
CALI        .IN                                                 :          
CILD        .MMHO                                               :          
DT          .US/F                                               :          
ILD         .OHMM                                               :          
SP          .MV                                                 :          
SP_NORM     .MV                                                 :SP Normalized
VSH_SP      .V/V                                                :Volume of Shale from SP
~A        DEPTH            ASN           CALI           CILD             DT            ILD             SP        SP_NORM         VSH_SP
# ...
      6737.0000         0.5999          9.624       2340.918       186.2563         0.4208       -33.7785      -1.375244      0.9945617
      6737.5000         0.6001         9.5854       2350.355       185.5291         0.4175       -33.6379       -1.24334      0.9964733
      6738.0000         0.6002         9.5368       2359.793       185.4844         0.4199       -33.6462       -1.26033      0.9962271
      6738.5000         0.5992         9.5387       2369.234       186.5886         0.4242       -33.7518      -1.374626      0.9945706
      6739.0000         0.5979         9.4017       2378.672       187.9033         0.4302        -34.038      -1.669518      0.9902968
      6739.5000         0.5966         8.9296       2388.109       189.5059         0.4358       -34.4872      -2.127415      0.9836606
      6740.0000         0.5947         9.1973       2400.371        190.241         0.4409       -34.9631      -2.612007      0.9766376
      6740.5000         0.5916         9.5236        2413.07       189.0024         0.4358       -35.1725      -2.830101      0.9734768
      6741.0000         0.5927         9.6052        2425.77       187.2349         0.4332       -35.2909      -2.957195      0.9716349
      6741.5000         0.5976         9.6396       2438.469       186.1062          0.436       -35.1476      -2.822586      0.9735857
      6742.0000         0.5994         9.6109       2446.055       185.8059         0.4386       -35.0352       -2.71888      0.9750887
      6742.5000          0.597          9.568       2453.215       185.6226         0.4389       -34.8397      -2.532074       0.977796
      6743.0000         0.5935         9.5051       2460.375       185.3574         0.4389       -34.5489      -2.249969      0.9818845
      6743.5000         0.5914         9.5793       2450.371        185.905          0.441       -34.2345      -1.944263       0.986315
      6744.0000         0.5934         9.7099       2439.977       186.2744          0.444       -33.9594      -1.677856       0.990176
      6744.5000         0.5991         9.7731       2429.582       185.9634         0.4463       -33.7658       -1.49295      0.9928558
      6745.0000         0.6033         9.7738       2416.344       185.3198         0.4463       -33.3736      -1.109444      0.9984139
      6745.5000         0.6063         9.8559       2400.188       184.6445         0.4462       -32.8681     -0.6126366              1
      6746.0000         0.6085         9.8566       2384.027        183.614         0.4411       -32.4742     -0.2274323              1
      6746.5000         0.6109         9.9052       2367.871       183.5076         0.4359       -32.7249      -0.486824              1
      6747.0000         0.6148        10.0506       2351.691       183.6641          0.436       -33.8965      -1.667118      0.9903316
      6747.5000         0.6172        10.0905       2340.953       183.4539         0.4378       -34.9183      -2.697613      0.9753969
      6748.0000         0.6184         9.9655       2332.824       176.9336         0.4393       -35.5217      -3.309708       0.966526
      6748.5000         0.6126          9.898       2324.699       182.4021         0.4407       -35.2611        -3.0578      0.9701768
      6749.0000          0.606        10.0475       2316.559       184.4954         0.4414       -34.6813      -2.486694      0.9784537
      6749.5000         0.6002        10.1634       2308.434       184.8872         0.4347        -34.188      -2.002087       0.985477
      6750.0000         0.5953        10.2307       2311.582       185.4226         0.4306       -33.6789      -1.501682      0.9927292
      6750.5000         0.5908        10.2372       2329.016       186.0332         0.4294       -33.1269      -0.958374              1
      6751.0000         0.5861        10.1246       2346.469       185.9722         0.4306       -32.6638     -0.5039673              1
      6751.5000         0.5851        10.0666       2363.902       185.2778          0.431       -32.2151    -0.06396103              1
      6752.0000         0.5866        10.0609        2381.16       184.9373         0.4314       -31.9435      0.1989441              1
      6752.5000         0.5862        10.0511       2398.445        185.105         0.4315       -32.1417   -0.007949829              1
      6753.0000         0.5838         9.9874       2415.703       185.5376         0.4317       -32.5441     -0.4190445              1
      6753.5000         0.5812          9.973       2432.965       186.1455         0.4329       -32.7798     -0.6634369              1
      6754.0000         0.5783          10.05       2444.523       186.8235         0.4348        -32.989     -0.8813286              1
      6754.5000         0.5746        10.1049       2453.891        187.022         0.4337       -33.1478      -1.048824      0.9992924
      6755.0000         0.5707        10.1575       2463.266       187.1929          0.428       -33.1846      -1.094318      0.9986331
      6755.5000         0.5664        10.1144       2472.633       187.5212          0.421       -33.1184      -1.036812      0.9994665
      6756.0000         0.5634         9.9982       2481.996       187.7661         0.4126       -33.0673     -0.9944077              1
      6756.5000         0.5609         9.9074       2490.414       187.8782         0.4037       -33.1387      -1.074501      0.9989203
      6757.0000         0.5567         9.9027       2495.457       189.0225         0.3946       -33.3799      -1.324398      0.9952986
      6757.5000         0.5523          9.903         2500.5       190.0117         0.3868       -33.6816      -1.634789      0.9908001
      6758.0000         0.5476         9.8748       2505.547       190.8806         0.3797       -33.8242      -1.786083      0.9886075
      6758.5000         0.5421         9.8002        2510.59       191.7632         0.3757       -33.7233      -1.693878      0.9899438
      6759.0000         0.5344         9.7294       2516.859       192.6758         0.3726       -33.4809      -1.460171      0.9933308
      6759.5000         0.5252         9.6701       2531.398       191.9377         0.3664       -33.0828      -1.070766      0.9989744
      6760.0000         0.5229         9.6599       2545.926       191.5073          0.363       -32.6009     -0.5975571              1
      6760.5000         0.5261         9.6714       2560.465        190.928         0.3617       -32.1456     -0.1509495              1
      6761.0000         0.5311          9.691       2606.176       187.2397         0.3623       -32.1798     -0.1938419              1
      6761.5000         0.5366         9.6608       2666.926       180.7947         0.3649       -32.5383      -0.561039              1
      6762.0000         0.5422         9.6041       2748.715        186.719         0.3702       -32.6292     -0.6606331              1
      6762.5000         0.5469          9.593       2783.871       187.7556         0.3723       -32.7055     -0.7456284              1
      6763.0000         0.5487         9.5942       2786.336       187.2341         0.3727       -33.2436      -1.292419      0.9957621
      6763.5000         0.5489         9.6479       2771.465       187.9233          0.371       -33.8512      -1.908714      0.9868302
      6764.0000         0.5465         9.6244        2751.34       189.1177         0.3707       -33.8204      -1.886608      0.9871506
      6764.5000         0.5445         9.5531       2731.234       190.2747         0.3708       -33.4521         -1.527      0.9923623
      6765.0000         0.5434         9.4869       2711.105       191.2122         0.3792       -33.0256      -1.109196      0.9984174
      6765.5000          0.553         9.4602       2690.977       190.8203         0.3963       -32.8205     -0.9127884              1
      6766.0000         0.5659         9.4269       2677.359       188.9624         0.4186       -32.7761     -0.8770828              1
