#------------------------------------------------------------------------------
# Created by    : vladimir.rabinovich
# Created on    : 09/19/2023 17:19:48
#------------------------------------------------------------------------------
~Version Information Section
VERS.           2.0     :   CWLS log ASCII Standard - VERSION 2.0
WRAP.           NO      :   One line per depth step
~Well Information Section
#MNEM       .UNIT                                         VALUE :DESCRIPTION
#------------------------------------------------------------------------------
STRT        .FT                                             130 :START DEPTH
STOP        .FT                                            9502 :STOP DEPTH
STEP        .FT                                             0.5 :STEP      
NULL        .                                           -999.25 :NULL      
COMP        .            MOBIL PRODUCING TEXAS & NEW MEXICO INC :COMPANY   
WELL        .                               OCS G07243 ST00BP00 :WELL      
FLD         .                                           WILDCAT :FIELD     
LOC         .                                                   :LOCATION  
CNTY        .                             GALVESTON LARGE BLOCK :LOCATION  
STAT        .                                             TEXAS :STATE     
CTRY        .                                     UNITED STATES :COUNTRY   
SRVC        .                                                   :SERVICE COMPANY
DATE        .                             9/13/2023 11:19:36 AM :LOG DATE  
API         .                                    42706401330000 :API NUMBER
UWI         .                                    42706401330000 :UNIQUE WELL ID
XCOORD      .                                  993943.906145108 :SURFACE X 
YCOORD      .                                  10496155.9223708 :SURFACE Y 
LAT         .                                         28.907432 :LATITUDE  
LON         .                                        -95.020991 :LONGITUDE 
ELEV        .FT                                              92 :ELEVATION VALUE
ELEV_TYPE   .                                                KB :ELEVATION REFERENCE TYPE
~Curve Information Section
#MNEM       .UNIT                                      API CODE :CURVE DESCRIPTION
#------------------------------------------------------------------------------
DEPT        .FT                                                 :DEPTH     
ASFL        .OHMM                                               :          
CILD        .MMHO                                               :          
DT          .US/F                                               :          
GR          .GAPI                                               :          
GR_NORM     .GAPI                                               :GammaRay Normalized
ILD         .OHMM                                               :          
SP          .MV                                                 :          
SP_NORM     .GAPI                                               :SP Normalized
VSH_GR      .V/V                                                :Volume of Shale from GR
VSH_SP      .V/V                                                :Volume of Shale from SP
~A        DEPTH           ASFL           CILD             DT             GR        GR_NORM            ILD             SP        SP_NORM         VSH_GR         VSH_SP
# ...
      9489.0000         0.8181       1507.334        -999.25        87.1497       86.91124          0.644        84.0374      -2.831524              1      0.9528079
      9489.5000         0.8126       1513.203        -999.25         87.152       86.91466         0.6463        83.8246      -3.060692              1      0.9489884
      9490.0000         0.8068        1519.07        -999.25        87.1543       86.91808         0.6622        83.6755      -3.221263              1      0.9463123
      9490.5000         0.8011       1517.217        -999.25        87.1641       86.93265         0.6781        83.5262      -3.382047              1      0.9436325
      9491.0000         0.8013       1503.162        -999.25         87.174       86.94736         0.6939        83.3773      -3.542404              1      0.9409599
      9491.5000         0.8184       1474.736        -999.25         87.184       86.96223         0.7108        83.2474      -3.682294              1      0.9386284
      9492.0000         0.8355       1441.211        -999.25        87.1938        86.9768         0.7318        83.1777      -3.757358              1      0.9373773
      9492.5000         0.8526       1407.686        -999.25        87.2039       86.99182         0.7528        83.1082      -3.832201              1        0.93613
      9493.0000         0.8697       1368.939        -999.25        87.2031       86.99062         0.7739        83.0385      -3.907264              1      0.9348789
      9493.5000         0.8862       1329.559        -999.25        87.1982       86.98333         0.7917         82.969      -3.982106              1      0.9336315
      9494.0000         0.8997       1299.205        -999.25        87.1934        86.9762         0.8081        82.9475       -4.00526              1      0.9332457
      9494.5000         0.9131           1273        -999.25        87.1885       86.96891         0.8244        82.9863       -3.96348              1       0.933942
      9495.0000         0.9246       1253.383        -999.25        87.1836       86.96165          0.833        83.0251      -3.921692              1      0.9346384
      9495.5000         0.8974       1239.207        -999.25        87.1749        86.9487         0.8366        83.0638      -3.880019              1       0.935333
      9496.0000         0.8696       1236.037        -999.25        87.1567       86.92165         0.8403        83.1027      -3.838124              1      0.9360313
      9496.5000         0.8474       1237.947        -999.25        87.1385       86.89459         0.8439        83.1759      -3.759289              1      0.9373452
      9497.0000         0.8306       1239.855        -999.25        87.1204       86.86769         0.8437        83.2494      -3.680142              1      0.9386643
      9497.5000          0.822        1241.77        -999.25        87.1022       86.84064         0.8407        83.3229      -3.600986              1      0.9399835
      9498.0000         0.8138       1243.678        -999.25         87.084       86.81358         0.8376        83.3961      -3.522151              1      0.9412975
      9498.5000         0.8102       1257.678        -999.25        87.0681       86.78996         0.8346        83.4106       -3.50654              1      0.9415576
      9499.0000         0.8157       1282.711        -999.25        87.0549       86.77035         0.8315        83.3722      -3.547893              1      0.9408684
      9499.5000         0.8211       1307.697        -999.25        87.0416       86.75057         0.8285        83.3336      -3.589459              1      0.9401757
      9500.0000         0.8256       1332.682        -999.25        87.0283        86.7308         0.8262         83.295      -3.631033              1      0.9394828
      9500.5000         0.8279       1343.324        -999.25        87.0151       86.71117         0.8239        83.2565      -3.672493              1      0.9387918
      9501.0000         0.8216       1343.596        -999.25             87       86.68873         0.8221           83.3      -3.625643              1      0.9395726
      9501.5000         0.8141       1343.865        -999.25             87       86.68873         0.8216           83.3      -3.625643              1      0.9395726
      9502.0000         0.8095       1344.137        -999.25             87       86.68873         0.8211           83.3      -3.625643              1      0.9395726
