#------------------------------------------------------------------------------
# Created by    : vladimir.rabinovich
# Created on    : 09/19/2023 17:19:36
#------------------------------------------------------------------------------
~Version Information Section
VERS.           2.0     :   CWLS log ASCII Standard - VERSION 2.0
WRAP.           NO      :   One line per depth step
~Well Information Section
#MNEM       .UNIT                                         VALUE :DESCRIPTION
#------------------------------------------------------------------------------
STRT        .FT                                            4496 :START DEPTH
STOP        .FT                                            7801 :STOP DEPTH
STEP        .FT                                             0.5 :STEP      
NULL        .                                           -999.25 :NULL      
COMP        .                             HELIS WM G CO LLC THE :COMPANY   
WELL        .                               OCS G12508 ST00BP00 :WELL      
FLD         .                              GALVESTON BLOCK 0395 :FIELD     
LOC         .                                                   :LOCATION  
CNTY        .                             GALVESTON LARGE BLOCK :LOCATION  
STAT        .                                             TEXAS :STATE     
CTRY        .                                     UNITED STATES :COUNTRY   
SRVC        .                                                   :SERVICE COMPANY
DATE        .                             9/13/2023 11:19:03 AM :LOG DATE  
API         .                                    42706404300000 :API NUMBER
UWI         .                                    42706404300000 :UNIQUE WELL ID
XCOORD      .                                  908236.382466376 :SURFACE X 
YCOORD      .                                  10386259.9403327 :SURFACE Y 
LAT         .                                         28.601028 :LATITUDE  
LON         .                                        -95.282181 :LONGITUDE 
ELEV        .FT                                             103 :ELEVATION VALUE
ELEV_TYPE   .                                                KB :ELEVATION REFERENCE TYPE
~Curve Information Section
#MNEM       .UNIT                                      API CODE :CURVE DESCRIPTION
#------------------------------------------------------------------------------
DEPT        .FT                                                 :DEPTH     
AHT10       .OHMM                                               :          
AHT20       .OHMM                                               :          
AHT30       .OHMM                                               :          
AHT60       .OHMM                                               :          
AHT90       .OHMM                                               :          
CPCHM       .MMHO                                               :          
DCAL        .IN                                                 :          
DPHZ        .FRAC                                               :          
GR          .GAPI                                               :          
GR_NORM     .GAPI                                               :GammaRay Normalized
GRAM        .GAPI                                               :          
HDRA        .G/CC                                               :          
NPOR        .FRAC                                               :          
RACHM       .OHMM                                               :          
ROPS        .F/HR                                               :          
RPCHM       .OHMM                                               :          
RWA         .OHMM                                               :          
SP          .MV                                                 :          
SP_NORM     .MV                                                 :SP Normalized
TENS        .LB/F                                               :          
VSH_GR      .V/V                                                :Volume of Shale from GR
VSH_SP      .V/V                                                :Volume of Shale from SP
~A        DEPTH          AHT10          AHT20          AHT30          AHT60          AHT90          CPCHM           DCAL           DPHZ             GR        GR_NORM           GRAM           HDRA           NPOR          RACHM           ROPS          RPCHM            RWA             SP        SP_NORM           TENS         VSH_GR         VSH_SP
# ...
      6476.0000         0.8538         0.8819         0.9617         1.0197         1.0515       1051.366         0.8032          0.202        67.6819       79.13389         68.688         0.0823         0.3632          0.859         31.203          0.713         0.0544       -35.0625      -10.05199           2946      0.9815721      0.8564001
      6476.5000         0.9004         0.9589         1.0496         1.1511          1.195       1564.912         0.7551         0.2196        67.7043       79.16279         59.543         0.0816         0.3953          0.705         31.203          0.646         0.0741       -33.9375       -8.48295           2922       0.982187       0.878815
      6477.0000         0.9326         1.0389         1.1218          1.212         1.2375       1266.038           1.26         0.2355        63.9133       73.72595         51.866         0.0771         0.3639          0.604         31.203          0.908         0.0892       -32.3125      -6.213907           3000      0.8665096      0.9112299
      6477.5000          0.931         1.0136          1.097         1.1822         1.2101        858.919         1.6087         0.2375        63.4476       73.05526         51.303         0.0723         0.3392          0.576          33.49          1.436         0.0887       -32.0625      -5.869864           2985      0.8522395      0.9161448
      6478.0000         0.9328         1.0057         1.0741         1.1631         1.1713        686.529          1.765         0.2265        63.1383       72.60876         56.986         0.0696         0.3196          0.556          33.49          1.306         0.0776       -33.1875      -7.450819           2995      0.8427397      0.8935597
      6478.5000         0.9407         0.9804         1.0641         1.1238         1.1702       1051.929         2.4382         0.2042         62.033       71.02132         60.064         0.0705         0.3239          0.545          33.49          0.787          0.062            -33      -7.194277           2986      0.8089642      0.8972246
      6479.0000         0.9612         1.0225         1.1032         1.1732         1.2188       1695.321          2.318         0.1803        58.4972       65.95026         61.689         0.0752         0.3729          0.518          33.49          0.499         0.0494       -33.5625      -7.987734           2932      0.7010693      0.8858895
      6479.5000         0.9893         1.0765         1.1495         1.2163         1.2877       2069.444         2.3541          0.166        56.1382        62.5659          59.28         0.0778         0.3461           0.48          57.43          0.478         0.0437       -32.9375      -7.118691           2927      0.6290617      0.8983044
      6480.0000         0.9699         1.0974         1.1794         1.2495         1.3344       2076.282         1.7409         0.1717         55.348       61.43011         57.721         0.0763         0.3149          0.475          57.43          0.483         0.0487       -31.9375      -5.724647           2936      0.6048959      0.9182193
      6480.5000         0.9831         1.0839         1.1758         1.2485         1.3408        2052.59         2.3661         0.1876         55.295       61.35094         55.129         0.0739         0.3304          0.441          57.43          0.475         0.0592        -31.625      -5.293104           2922      0.6032116      0.9243842
      6481.0000           0.99         1.0854         1.1701         1.2455         1.3383       2454.477         2.4382         0.2021        60.1597       68.32031         54.241         0.0737         0.3696          0.405          57.43          0.373         0.0694        -30.875      -4.249061           2918       0.751496      0.9392991
      6481.5000         0.9878         1.0857         1.1782         1.2547         1.3454       2785.046          2.294         0.2071        60.7091       69.10458         54.934         0.0747         0.3565          0.403         81.894          0.387         0.0735       -31.1875      -4.692516           2948      0.7681826      0.9329641
      6482.0000         1.0486         1.1516         1.2221         1.2728         1.3785        2352.23         1.9092          0.187        63.0787       72.49773         56.289         0.0826         0.3845          0.434         81.894          0.471         0.0605       -30.4375      -3.648473           2944      0.8403772       0.947879
      6482.5000         1.1372           1.19         1.3591         1.4362         1.5488       2114.778         1.4524         0.1364        59.0988       66.79015         56.104         0.1068         0.3564          0.457         81.894           0.46         0.0345        -30.125      -3.216931           2955      0.7189394      0.9540439
      6483.0000         1.3263          1.481           1.52         1.6063          1.754       2290.838          1.212         0.1044        62.7616       72.03683         55.063         0.1209         0.2634          0.448         81.894          0.399          0.022        -31.375      -4.972888           2929      0.8305709      0.9289587
      6483.5000         1.1997          1.338          1.366         1.4147         1.4649       2604.805         0.7912         0.1151        61.0943       69.64389         53.491          0.116         0.2409           0.43         59.856          0.372         0.0226        -31.375      -4.978843           2918      0.7796572      0.9288737
      6484.0000         1.1436          1.268         1.3472         1.4294         1.6123       2839.051         1.4524         0.1457        64.0428       73.86678         53.303         0.0998         0.2877          0.405         59.856          0.348         0.0413       -31.1875      -4.722301           2925      0.8695059      0.9325386
      6484.5000         1.1564         1.2932         1.3067         1.3324         1.4215       2941.584         2.5224         0.1579         64.464       74.46729         54.611         0.0914         0.3471          0.488         59.856          0.366         0.0433        -31.875      -5.690758           2909      0.8822829      0.9187034
      6485.0000         1.1568         1.3303         1.3394         1.3546         1.5043       2574.582         0.9956         0.1624        65.4995       75.94827         61.743         0.0869         0.3529          0.644         59.856          0.455         0.0487       -33.5625      -8.059216           2917      0.9137928      0.8848683
      6485.5000         1.1484         1.2587         1.2409         1.2277           1.37       1579.145         1.5486         0.1844        66.1314       76.85076         70.647         0.0769         0.3198          0.739         35.879          0.753         0.0583        -34.375       -9.20267           2952      0.9329949      0.8685333
      6486.0000         1.1517         1.1095         1.0808         1.0499         1.1641       1045.476         0.8032           0.21        61.7086       70.50836         74.601         0.0693         0.3466          0.906         35.879          1.073         0.0655        -36.125      -11.65863           3012      0.7980502      0.8334482
      6486.5000         1.0569         0.9512         0.9298         0.8792         0.9851        923.994         1.4284         0.2256        64.0406       73.84763         76.873         0.0663         0.3444          0.994         35.879          1.077         0.0647        -38.375      -14.81458           3048      0.8690986      0.7883631
      6487.0000         1.0421         0.8988         0.8293         0.7763          0.848        957.127         2.1256         0.2184        62.3557       71.42947         78.448         0.0622         0.3432          1.014         35.879          1.004         0.0519         -43.25      -21.64554           3019      0.8176482       0.690778
      6487.5000         1.0246         0.9462         0.8458          0.761         0.7952        994.923         2.9912         0.2082        60.0458       68.11547         79.016         0.0475         0.3388          1.014         18.813          0.994         0.0439          -49.5       -30.4015           3014      0.7471377      0.5656929
