#------------------------------------------------------------------------------
# Created by    : vladimir.rabinovich
# Created on    : 09/19/2023 17:20:57
#------------------------------------------------------------------------------
~Version Information Section
VERS.           2.0     :   CWLS log ASCII Standard - VERSION 2.0
WRAP.           NO      :   One line per depth step
~Well Information Section
#MNEM       .UNIT                                         VALUE :DESCRIPTION
#------------------------------------------------------------------------------
STRT        .FT                                             598 :START DEPTH
STOP        .FT                                           10008 :STOP DEPTH
STEP        .FT                                             0.5 :STEP      
NULL        .                                           -999.25 :NULL      
COMP        .                                        SUN OIL CO :COMPANY   
WELL        .                               OCS G01712 ST00BP00 :WELL      
FLD         .                                           WILDCAT :FIELD     
LOC         .                                                   :LOCATION  
CNTY        .                                BRAZOS LARGE BLOCK :LOCATION  
STAT        .                                             TEXAS :STATE     
CTRY        .                                     UNITED STATES :COUNTRY   
SRVC        .                                                   :SERVICE COMPANY
DATE        .                             9/13/2023 11:18:52 AM :LOG DATE  
API         .                                    42704300120000 :API NUMBER
UWI         .                                    42704300120000 :UNIQUE WELL ID
XCOORD      .                                   818594.06951761 :SURFACE X 
YCOORD      .                                  10373365.4427938 :SURFACE Y 
LAT         .                                         28.560597 :LATITUDE  
LON         .                                        -95.560517 :LONGITUDE 
ELEV        .FT                                              89 :ELEVATION VALUE
ELEV_TYPE   .                                                KB :ELEVATION REFERENCE TYPE
~Curve Information Section
#MNEM       .UNIT                                      API CODE :CURVE DESCRIPTION
#------------------------------------------------------------------------------
DEPT        .FT                                                 :DEPTH     
ASN         .OHMM                                               :          
CALI        .IN                                                 :          
CILD        .MMHO                                               :          
ILD         .OHMM                                               :          
SP          .MV                                                 :          
SP_NORM     .MV                                                 :SP Normalized
VSH_SP      .V/V                                                :Volume of Shale from SP
~A        DEPTH            ASN           CALI           CILD            ILD             SP        SP_NORM         VSH_SP
# ...
      9978.0000         0.4586         8.9392       2862.199         0.3303       -41.5167      -1.040508              1
      9978.5000         0.4576         8.9321       2946.297         0.3282       -41.6185      -1.142307              1
      9979.0000         0.4566         8.9268       2960.688         0.3261       -41.5403      -1.064106              1
      9979.5000         0.4556         8.9235       2975.105         0.3252       -41.4427      -0.966507              1
      9980.0000         0.4547         8.9202           3016         0.3248       -41.3085     -0.8323059              1
      9980.5000         0.4564         8.9176        3133.43         0.3245       -41.1743     -0.6981087              1
      9981.0000         0.4583         8.9213       3139.559         0.3242       -41.0398     -0.5636063              1
      9981.5000         0.4601          8.925       3133.652         0.3239       -40.9056      -0.429409              1
      9982.0000          0.462         8.9287        3123.91         0.3236       -40.7714      -0.295208              1
      9982.5000         0.4638         8.9343       3108.969         0.3232       -40.6559     -0.1797066              1
      9983.0000         0.4657         8.9409        3088.09         0.3229       -40.5629    -0.08670807              1
      9983.5000         0.4675         8.9474       3064.422         0.3226       -40.4698    0.006393433              1
      9984.0000         0.4689         8.9681       2914.973         0.3235       -40.3769     0.09929276              1
      9984.5000         0.4697         8.9916       2732.414         0.3247       -40.2865      0.1896935              1
      9985.0000         0.4706         9.0245       2686.723         0.3258       -40.2051      0.2710915              1
      9985.5000         0.4714         9.0052       2710.488          0.327       -40.1237      0.3524933              1
      9986.0000         0.4697         8.9912       2937.047         0.3282       -40.1082      0.3679924              1
      9986.5000         0.4675         8.9799       3007.348         0.3293       -40.1089      0.3672943              1
      9987.0000         0.4652         8.9838       3053.086         0.3305       -40.1097      0.3664932              1
      9987.5000         0.4617         8.9948       3104.297         0.3317       -40.2515      0.2246933              1
      9988.0000          0.458         9.0029       3155.305         0.3313       -40.5147    -0.03850937              1
      9988.5000         0.4543         9.0111       3204.824         0.3304       -40.8913     -0.4151077              1
      9989.0000         0.4505         9.0141       3305.949         0.3295       -41.2672      -0.791008              1
      9989.5000          0.452         8.9977       3379.926         0.3286       -41.6693      -1.193108              1
      9990.0000         0.4557         8.9826        3316.59         0.3277       -42.0893      -1.613106              1
      9990.5000         0.4593         8.9698       3289.988         0.3269         -42.51      -2.033806      0.9987926
      9991.0000          0.463         8.9607       3170.918          0.326       -42.9301      -2.453907       0.983789
      9991.5000         0.4729         8.9613       3064.922         0.3283       -43.2128      -2.736607      0.9736926
      9992.0000         0.4841         8.9619       2975.133         0.3318       -43.4583      -2.982109      0.9649247
      9992.5000         0.4992         8.9633       2899.563         0.3353       -43.7037      -3.227509      0.9561604
      9993.0000         0.5147         8.9687       2836.918         0.3388       -43.9489      -3.472706      0.9474034
      9993.5000         0.5286         8.9741       2716.105         0.3423       -44.0942      -3.618008       0.942214
      9994.0000         0.5424         8.9812       2535.535         0.3465       -44.2015      -3.725307      0.9383819
      9994.5000         0.5557         8.9907       2488.105         0.3514       -44.3085      -3.832306      0.9345605
      9995.0000         0.5689         8.9962       2420.887         0.3563       -44.4155      -3.939308       0.930739
      9995.5000         0.5824         9.0143       2379.621         0.3612       -44.4457      -3.969509      0.9296604
      9996.0000         0.5864         9.1792       2342.633         0.3654       -44.4741      -3.997906      0.9286462
      9996.5000          0.579         9.3196       2292.117         0.3694       -44.5025      -4.026306      0.9276319
      9997.0000          0.571         9.3638       2258.859         0.3733       -44.5309      -4.054707      0.9266176
      9997.5000         0.5622         9.0672       2231.168         0.3772       -44.5593      -4.083107      0.9256033
      9998.0000         0.5534         9.0157       2204.668         0.3812       -44.6113      -4.135109      0.9237461
      9998.5000         0.5446         8.9993       2186.918         0.3849       -44.7511      -4.274906      0.9187533
      9999.0000         0.5339         9.0089       2169.766         0.3776       -44.8909      -4.414707      0.9137605
      9999.5000         0.5226         9.0615        2164.57         0.3703        -45.031      -4.554806      0.9087569
     10000.0000         0.5114         9.1655       2184.555          0.363       -45.1708      -4.694607      0.9037641
     10000.5000         0.5001         9.0795       2533.148         0.3558       -45.3107      -4.834507      0.8987676
     10001.0000          0.493         9.1468       3100.469         0.3485       -45.5797      -5.103508      0.8891605
     10001.5000          0.487         9.4196       3127.563         0.3442       -45.9202      -5.444008      0.8769997
     10002.0000         0.4811         9.9458       3142.504         0.3408       -46.2607      -5.784508       0.864839
     10002.5000         0.4751        10.3209       3157.469         0.3374       -46.6013      -6.125107      0.8526748
     10003.0000         0.4691        10.1322        3171.34          0.334       -46.9685      -6.492306      0.8395605
     10003.5000         0.4631          9.484       3185.434         0.3305       -47.4135      -6.937309      0.8236675
     10004.0000         0.4572         9.3255       3196.797         0.3272       -47.8583      -7.382107      0.8077819
     10004.5000         0.4541         9.2799        3196.32         0.3244       -48.3027      -7.826508      0.7919105
     10005.0000         0.4515         9.2262       3195.844         0.3216       -48.8439      -8.367706      0.7725819
     10005.5000        -999.25          9.101        -999.25        -999.25        -999.25        -999.25        -999.25
     10006.0000        -999.25         8.9887        -999.25        -999.25        -999.25        -999.25        -999.25
     10006.5000        -999.25         8.9854        -999.25        -999.25        -999.25        -999.25        -999.25
     10007.0000        -999.25          8.987        -999.25        -999.25        -999.25        -999.25        -999.25
     10007.5000        -999.25         8.9897        -999.25        -999.25        -999.25        -999.25        -999.25
     10008.0000        -999.25         8.9909        -999.25        -999.25        -999.25        -999.25        -999.25
