#------------------------------------------------------------------------------
# Created by    : vladimir.rabinovich
# Created on    : 09/19/2023 17:20:36
#------------------------------------------------------------------------------
~Version Information Section
VERS.           2.0     :   CWLS log ASCII Standard - VERSION 2.0
WRAP.           NO      :   One line per depth step
~Well Information Section
#MNEM       .UNIT                                         VALUE :DESCRIPTION
#------------------------------------------------------------------------------
STRT        .FT                                             510 :START DEPTH
STOP        .FT                                            7943 :STOP DEPTH
STEP        .FT                                             0.5 :STEP      
NULL        .                                           -999.25 :NULL      
COMP        .                       BLUE DOLPHIN EXPLORATION CO :COMPANY   
WELL        .                                OCS 00709 ST00BP00 :WELL      
FLD         .                                FEDERAL BLOCK 0288 :FIELD     
LOC         .                                                   :LOCATION  
CNTY        .                             GALVESTON LARGE BLOCK :LOCATION  
STAT        .                                             TEXAS :STATE     
CTRY        .                                     UNITED STATES :COUNTRY   
SRVC        .                                                   :SERVICE COMPANY
DATE        .                             9/13/2023 11:19:25 AM :LOG DATE  
API         .                                    42706000400000 :API NUMBER
UWI         .                                    42706000400000 :UNIQUE WELL ID
XCOORD      .                                   1098851.8122004 :SURFACE X 
YCOORD      .                                  10485233.3471489 :SURFACE Y 
LAT         .                                         28.881916 :LATITUDE  
LON         .                                        -94.692672 :LONGITUDE 
ELEV        .FT                                              93 :ELEVATION VALUE
ELEV_TYPE   .                                                KB :ELEVATION REFERENCE TYPE
~Curve Information Section
#MNEM       .UNIT                                      API CODE :CURVE DESCRIPTION
#------------------------------------------------------------------------------
DEPT        .FT                                                 :DEPTH     
ASN         .OHMM                                               :          
GR          .GAPI                                               :          
ILD         .OHMM                                               :          
NEUT        .NAPI                                               :          
SP          .MV                                                 :          
SP_NORM     .MV                                                 :SP Normalized
VSH_SP      .V/V                                                :Volume of Shale from SP
~A        DEPTH            ASN             GR            ILD           NEUT             SP        SP_NORM         VSH_SP
# ...
      7411.0000         1.3582        -999.25         0.9989        -999.25       -76.6963      -28.64997      0.4447923
      7411.5000         1.2811        -999.25         0.9944        -999.25       -69.4171      -21.37883      0.5962744
      7412.0000         1.1876        -999.25          0.918        -999.25       -63.7295      -15.69929      0.7145982
      7412.5000          1.092        -999.25         0.8359        -999.25        -60.785      -12.76284      0.7757741
      7413.0000         1.0535        -999.25         0.7567        -999.25       -61.9888       -13.9747      0.7505271
      7413.5000         1.0461        -999.25         0.6798        -999.25       -65.9991      -17.99306      0.6668113
      7414.0000         1.0241        -999.25         0.6151        -999.25       -74.2006      -26.20261      0.4957789
      7414.5000         0.9724        -999.25         0.5583        -999.25       -83.6815      -35.69157      0.2980922
      7415.0000         0.9152        -999.25         0.5133        -999.25       -90.4769      -42.49503      0.1563536
      7415.5000          0.891        -999.25         0.4566        -999.25       -94.9597      -46.98589     0.06279405
      7416.0000         0.9113        -999.25         0.4076        -999.25       -97.0847      -49.11894     0.01835537
      7416.5000         0.9381        -999.25         0.3714        -999.25       -99.7092       -51.7515              0
      7417.0000          0.954        -999.25         0.3552        -999.25      -107.4224      -59.47276              0
      7417.5000         0.9331        -999.25         0.3575        -999.25      -112.4998      -64.55821              0
      7418.0000         0.8884        -999.25         0.3618        -999.25      -113.8685      -65.93497              0
      7418.5000         0.8803        -999.25         0.3678        -999.25      -113.4785      -65.55302              0
      7419.0000         0.8735        -999.25         0.3802        -999.25      -112.2058      -64.28838              0
      7419.5000           0.86        -999.25         0.3979        -999.25       -110.212      -62.30264              0
      7420.0000         0.8474        -999.25           0.43        -999.25      -106.1836       -58.2823              0
      7420.5000         0.8452        -999.25         0.4776        -999.25       -99.8358      -51.94255              0
      7421.0000          0.893        -999.25         0.5433        -999.25       -94.1482      -46.26301     0.07785392
      7421.5000         0.9676        -999.25         0.6239        -999.25       -86.7786      -38.90147      0.2312194
      7422.0000         1.0156        -999.25         0.6885        -999.25       -83.0034      -35.13433      0.3097015
      7422.5000         1.0683        -999.25         0.7637        -999.25       -80.4873      -32.62628      0.3619525
      7423.0000          1.115        -999.25         0.8444        -999.25       -76.7687      -28.91574      0.4392555
      7423.5000          1.192        -999.25         0.9256        -999.25       -72.5548       -24.7099      0.5268772
      7424.0000         1.2608        -999.25         1.0068        -999.25       -70.7012      -22.86435       0.565326
      7424.5000         1.3046        -999.25          1.088        -999.25        -71.402      -23.57321      0.5505581
      7425.0000         1.3583        -999.25         1.1692        -999.25         -71.16      -23.33927      0.5554319
      7425.5000          1.398        -999.25         1.2265        -999.25       -67.7533      -19.94062       0.626237
      7426.0000         1.4368        -999.25         1.2857        -999.25       -61.9572      -14.15258      0.7468213
      7426.5000         1.4949        -999.25         1.3503        -999.25       -58.1368      -10.34023      0.8262451
      7427.0000         1.5423        -999.25         1.4223        -999.25       -55.1483      -7.359791      0.8883377
      7427.5000         1.5989        -999.25         1.4966        -999.25       -53.4031      -5.622646      0.9245282
      7428.0000         1.6525        -999.25         1.5721        -999.25       -52.7085      -4.936104      0.9388312
      7428.5000         1.7173        -999.25         1.5913        -999.25       -52.4426      -4.678265      0.9442028
      7429.0000         1.7854        -999.25         1.5907        -999.25       -52.4173      -4.661022       0.944562
      7429.5000           1.81        -999.25         1.5767        -999.25       -52.6299       -4.88168       0.939965
      7430.0000         1.8023        -999.25         1.5623        -999.25       -53.2798      -5.539635      0.9262576
      7430.5000         1.7212        -999.25         1.5515        -999.25       -54.6848       -6.95269      0.8968189
      7431.0000         1.7028        -999.25         1.5526        -999.25       -57.1105      -9.386448      0.8461156
      7431.5000         1.7726        -999.25         1.5667        -999.25       -59.5609      -11.84491      0.7948978
      7432.0000          1.847        -999.25         1.5915        -999.25       -58.4567      -10.74876      0.8177342
      7432.5000         1.8637        -999.25         1.5362        -999.25       -56.8754      -9.175518      0.8505101
      7433.0000         1.8092        -999.25         1.4715        -999.25       -55.2454      -7.553574      0.8843005
      7433.5000         1.7186        -999.25          1.406        -999.25       -53.7783      -6.094532      0.9146972
      7434.0000         1.6552        -999.25         1.3501        -999.25       -53.0674      -5.391689      0.9293398
      7434.5000         1.6206        -999.25          1.306        -999.25       -52.6808      -5.013145      0.9372261
      7435.0000         1.5993        -999.25         1.2702        -999.25       -51.8579      -4.198299      0.9542021
      7435.5000         1.5514        -999.25           1.24        -999.25       -50.6451      -2.993557      0.9793009
      7436.0000         1.4995        -999.25         1.2215        -999.25       -49.3204      -1.676914              1
      7436.5000         1.4545        -999.25           1.21        -999.25       -48.4636     -0.8281708              1
      7437.0000         1.4417        -999.25         1.2159        -999.25       -48.0189     -0.3915329              1
      7437.5000         1.4297        -999.25         1.2345        -999.25       -47.8623     -0.2429886              1
      7438.0000         1.4232        -999.25         1.2582        -999.25       -48.1794     -0.5681458              1
      7438.5000         1.4239        -999.25         1.2948        -999.25       -48.3167      -0.713501              1
      7439.0000         1.4181        -999.25         1.2965        -999.25       -48.2856     -0.6904564              1
      7439.5000         1.4205        -999.25         1.3004        -999.25       -48.1359     -0.5488129              1
      7440.0000         1.4277        -999.25         1.3092        -999.25       -48.6722       -1.09317              1
      7440.5000         1.4414        -999.25         1.3179        -999.25       -49.1855      -1.614529              1
      7441.0000         1.4661        -999.25         1.3255        -999.25        -49.193      -1.630085              1
      7441.5000         1.4797        -999.25         1.3332        -999.25       -49.1143      -1.559441              1
      7442.0000         1.4661        -999.25         1.3222        -999.25        -49.088      -1.541199              1
      7442.5000         1.4641        -999.25         1.3031        -999.25       -49.5566      -2.017853      0.9996281
      7443.0000         1.4471        -999.25         1.2723        -999.25       -50.0201       -2.48941       0.989804
      7443.5000          1.432        -999.25         1.2411        -999.25       -49.6957      -2.173069      0.9963944
      7444.0000         1.4489        -999.25         1.2137        -999.25       -49.0141      -1.499523              1
