#------------------------------------------------------------------------------
# Created by    : vladimir.rabinovich
# Created on    : 09/19/2023 17:22:40
#------------------------------------------------------------------------------
~Version Information Section
VERS.           2.0     :   CWLS log ASCII Standard - VERSION 2.0
WRAP.           NO      :   One line per depth step
~Well Information Section
#MNEM       .UNIT                                         VALUE :DESCRIPTION
#------------------------------------------------------------------------------
STRT        .FT                                            3744 :START DEPTH
STOP        .FT                                            9989 :STOP DEPTH
STEP        .FT                                             0.5 :STEP      
NULL        .                                           -999.25 :NULL      
COMP        .                          SEAGULL ENERGY E & P INC :COMPANY   
WELL        .                               OCS G07243 ST00BP00 :WELL      
FLD         .                                           WILDCAT :FIELD     
LOC         .                                                   :LOCATION  
CNTY        .                             GALVESTON LARGE BLOCK :LOCATION  
STAT        .                                             TEXAS :STATE     
CTRY        .                                     UNITED STATES :COUNTRY   
SRVC        .                                                   :SERVICE COMPANY
DATE        .                             9/13/2023 11:19:34 AM :LOG DATE  
API         .                                    42706403030000 :API NUMBER
UWI         .                                    42706403030000 :UNIQUE WELL ID
XCOORD      .                                   1005609.3052046 :SURFACE X 
YCOORD      .                                  10500547.7567395 :SURFACE Y 
LAT         .                                          28.92005 :LATITUDE  
LON         .                                        -94.984771 :LONGITUDE 
ELEV        .FT                                              96 :ELEVATION VALUE
ELEV_TYPE   .                                                KB :ELEVATION REFERENCE TYPE
~Curve Information Section
#MNEM       .UNIT                                      API CODE :CURVE DESCRIPTION
#------------------------------------------------------------------------------
DEPT        .FT                                                 :DEPTH     
DCAL        .IN                                                 :          
DPHI        .%                                                  :          
GR          .GAPI                                               :          
GR_NORM     .GAPI                                               :GammaRay Normalized
ILD         .OHMM                                               :          
ILM         .OHMM                                               :          
NPHI        .%                                                  :          
SFL         .OHMM                                               :          
SP          .MV                                                 :          
SP_NORM     .MV                                                 :SP Normalized
VSH_GR      .V/V                                                :Volume of Shale from GR
VSH_SP      .V/V                                                :Volume of Shale from SP
~A        DEPTH           DCAL           DPHI             GR        GR_NORM            ILD            ILM           NPHI            SFL             SP        SP_NORM         VSH_GR         VSH_SP
# ...
      9156.0000         9.3736        15.2921        66.7915       88.67699         0.4922         0.4942        43.7463         0.5431       -39.5201      -1.257444              1              1
      9156.5000         9.4376        21.1703        63.8868       84.43908         0.4863         0.4908        42.3557         0.5355       -39.5025      -1.235042              1              1
      9157.0000         9.4943        23.7263          62.23       82.02222         0.4806         0.4871        40.7815         0.5291       -39.3099     -0.9899147              1              1
      9157.5000          9.541        21.6693         62.966       83.09718         0.4773         0.4832        39.3602         0.5227       -39.2114     -0.8645519              1              1
      9158.0000         9.5626        19.5285        64.3247       85.08083         0.4729          0.479         38.856         0.5116       -39.2125      -0.865955              1              1
      9158.5000          9.561        16.9387        65.3114       86.52162         0.4719         0.4771        39.2468          0.517        -39.256     -0.9213173              1              1
      9159.0000         9.5315        18.4018        63.6929       84.16067         0.4717         0.4761        39.9478         0.5265       -39.2958     -0.9719703              1              1
      9159.5000         9.5024        20.1692        62.6996       82.71205         0.4726         0.4767        40.9151         0.5377       -39.3303       -1.01588              1              1
      9160.0000         9.5342        21.9622         62.846        82.9266         0.4738         0.4775        41.1412         0.5461       -39.3406      -1.028988              1              1
      9160.5000         9.5865        21.4504        64.1216       84.78899         0.4754          0.478        40.4797         0.5505       -39.2943     -0.9700623              1              1
      9161.0000         9.5653        18.9394        64.4883       85.32501         0.4774          0.478        40.4017         0.5498       -39.2478      -0.910879              1              1
      9161.5000         9.4818        17.2164        62.2801       82.10352         0.4799         0.4786        40.0556         0.5493       -39.2007     -0.8509334              1              1
      9162.0000         9.4187        20.1852        59.8239       78.52008         0.4838         0.4798        39.0287         0.5501       -39.1581     -0.7967169      0.9685124              1
      9162.5000         9.3786         23.002        58.4955       76.58246         0.4885         0.4811        39.3635         0.5538       -39.1339     -0.7659163      0.9272863              1
      9163.0000         9.3581        24.8691        58.4163       76.46781         0.4913         0.4827        40.1812         0.5618       -39.1096     -0.7349895      0.9248471              1
      9163.5000         9.3562        22.6511        59.7157       78.36492         0.4938          0.478          39.32         0.5773        -39.127     -0.7571335      0.9652111              1
      9164.0000         9.3779        17.8739        61.6653       81.21088          0.495         0.4783        37.1793         0.5984       -39.1401     -0.7738058              1              1
      9164.5000         9.4275        15.1762        63.4251       83.77986         0.4951         0.4784        36.6545         0.5726       -39.1346     -0.7668096              1              1
      9165.0000         9.5007         20.211        64.7034       85.64621         0.4946         0.4792        40.2922         0.5356       -39.1291     -0.7598086              1              1
      9165.5000         9.5941        22.1377        65.9077       87.40456         0.4934         0.4794         43.183         0.5041       -39.1236     -0.7528076              1              1
      9166.0000         9.7017        21.2766        67.1556       89.22651         0.4927         0.4761        44.9536         0.4878       -39.1138     -0.7403349              1              1
      9166.5000         9.4966        20.1724        68.3243       90.93291         0.4974         0.4881        43.7979         0.4893       -39.0899      -0.709918              1              1
      9167.0000         9.2321        20.5941        69.6949       92.93393         0.5156          0.518        41.1968         0.5186       -39.0659     -0.6793699              1              1
      9167.5000           9.14        21.4423        70.0366       93.43348         0.5401         0.5559        39.2234         0.5722       -39.0594     -0.6710968              1              1
      9168.0000         9.1552        20.7164        66.9235       88.89146         0.5705         0.5949        36.9797         0.6661        -39.054     -0.6642269              1              1
      9168.5000         9.3177         16.818        63.4567       83.83326         0.5991         0.6281        33.7637         0.7791       -39.0187      -0.619298              1              1
      9169.0000         9.5172        14.3795        59.3094       77.78199         0.6155         0.6501        31.9481         0.8471        -38.953     -0.5356792      0.9528083              1
      9169.5000         9.4777        14.0753        56.3492       73.46309         0.6289         0.6656        30.8858         0.8422       -38.8873     -0.4520603      0.8609168              1
      9170.0000         9.4148        13.8282        56.4986       73.68202         0.6415         0.6731        31.9578         0.8064       -38.8209      -0.367553       0.865575              1
      9170.5000         9.4639        16.4413        57.0517       74.49006         0.6491         0.6763        34.0084         0.7577       -38.7542     -0.2826621      0.8827672              1
      9171.0000         9.4902        18.0751        57.6657       75.38699         0.6525         0.6765        36.0703         0.7091       -38.6874      -0.197645      0.9018508              1
      9171.5000         9.2058        18.2602        57.7422       75.49954         0.6543         0.6713        35.6453         0.6894       -38.6779      -0.185551      0.9042456              1
      9172.0000         8.8776         16.958        56.0142       72.97878         0.6548         0.6616        34.1741          0.702       -38.6724     -0.1785549      0.8506122              1
      9172.5000         8.7267        14.4487        54.4484        70.6947         0.6507         0.6503        33.3694         0.7269       -38.8109     -0.3548279      0.8020149              1
      9173.0000         8.7445        16.1548         53.713       69.62246         0.6459         0.6351        32.7239         0.7482       -39.0823     -0.7002418      0.7792013              1
      9173.5000         8.7558        15.9617        53.3721       69.12589         0.6427         0.6259        32.4592         0.7452       -39.1872     -0.8337513       0.768636              1
      9174.0000         8.6919        13.8982        53.5751       69.42303         0.6428         0.6233        33.8055         0.7273        -39.248     -0.9111363       0.774958              1
      9174.5000         8.9119        12.7755         55.505       72.24026         0.6474         0.6254        35.5552         0.7087        -39.269     -0.9378634      0.8348991              1
      9175.0000         9.0642        15.7138        58.3754       76.42994         0.6533         0.6322        35.6863         0.7035       -39.2156     -0.8698973      0.9240413              1
      9175.5000         9.1334        17.7258        60.7604       79.91127         0.6604         0.6415        34.9516         0.7035       -39.1232     -0.7522978      0.9981121              1
      9176.0000         9.0921        16.7971        60.2539       79.17304         0.6687         0.6567        34.2264         0.7054       -39.0616     -0.6738982      0.9824051              1
