#------------------------------------------------------------------------------
# Created by    : vladimir.rabinovich
# Created on    : 09/19/2023 17:20:36
#------------------------------------------------------------------------------
~Version Information Section
VERS.           2.0     :   CWLS log ASCII Standard - VERSION 2.0
WRAP.           NO      :   One line per depth step
~Well Information Section
#MNEM       .UNIT                                         VALUE :DESCRIPTION
#------------------------------------------------------------------------------
STRT        .FT                                             510 :START DEPTH
STOP        .FT                                            7943 :STOP DEPTH
STEP        .FT                                             0.5 :STEP      
NULL        .                                           -999.25 :NULL      
COMP        .                       BLUE DOLPHIN EXPLORATION CO :COMPANY   
WELL        .                                OCS 00709 ST00BP00 :WELL      
FLD         .                                FEDERAL BLOCK 0288 :FIELD     
LOC         .                                                   :LOCATION  
CNTY        .                             GALVESTON LARGE BLOCK :LOCATION  
STAT        .                                             TEXAS :STATE     
CTRY        .                                     UNITED STATES :COUNTRY   
SRVC        .                                                   :SERVICE COMPANY
DATE        .                             9/13/2023 11:19:25 AM :LOG DATE  
API         .                                    42706000400000 :API NUMBER
UWI         .                                    42706000400000 :UNIQUE WELL ID
XCOORD      .                                   1098851.8122004 :SURFACE X 
YCOORD      .                                  10485233.3471489 :SURFACE Y 
LAT         .                                         28.881916 :LATITUDE  
LON         .                                        -94.692672 :LONGITUDE 
ELEV        .FT                                              93 :ELEVATION VALUE
ELEV_TYPE   .                                                KB :ELEVATION REFERENCE TYPE
~Curve Information Section
#MNEM       .UNIT                                      API CODE :CURVE DESCRIPTION
#------------------------------------------------------------------------------
DEPT        .FT                                                 :DEPTH     
ASN         .OHMM                                               :          
GR          .GAPI                                               :          
ILD         .OHMM                                               :          
NEUT        .NAPI                                               :          
SP          .MV                                                 :          
SP_NORM     .MV                                                 :SP Normalized
VSH_SP      .V/V                                                :Volume of Shale from SP
~A        DEPTH            ASN             GR            ILD           NEUT             SP        SP_NORM         VSH_SP
# ...
      2486.5000         0.5429        -999.25         0.3575        -999.25        -56.753      -5.506607      0.4155655
      2487.0000         0.5431        -999.25         0.3598        -999.25       -56.4528      -5.207333      0.4654446
      2487.5000         0.5424        -999.25          0.361        -999.25       -56.4674      -5.222855      0.4628576
      2488.0000         0.5406        -999.25          0.356        -999.25       -56.8568      -5.613174      0.3978043
      2488.5000         0.5393        -999.25         0.3502        -999.25       -57.0537      -5.810997      0.3648338
      2489.0000         0.5392        -999.25         0.3403        -999.25       -57.6046       -6.36282      0.2728634
      2489.5000         0.5397        -999.25         0.3309        -999.25       -58.2199      -6.979038      0.1701603
      2490.0000         0.5413        -999.25         0.3315        -999.25       -58.4264      -7.186462      0.1355896
      2490.5000         0.5426        -999.25         0.3334        -999.25       -59.0929      -7.853886     0.02435239
      2491.0000         0.5435        -999.25         0.3416        -999.25       -59.0042      -7.766106     0.03898239
      2491.5000          0.546        -999.25          0.352        -999.25       -58.5029      -7.265728      0.1223787
      2492.0000         0.5491        -999.25          0.367        -999.25       -57.9175      -6.681252      0.2197914
      2492.5000         0.5523        -999.25         0.3777        -999.25       -57.5122      -6.276871      0.2871882
      2493.0000         0.5501        -999.25         0.3851        -999.25       -57.7825      -6.548096      0.2419841
      2493.5000          0.553        -999.25         0.3755        -999.25       -58.3602      -7.126713      0.1455479
      2494.0000         0.5646        -999.25         0.3688        -999.25       -58.7322      -7.499638     0.08339373
      2494.5000         0.5779        -999.25         0.3639        -999.25       -58.7792      -7.547562     0.07540639
      2495.0000         0.5782        -999.25         0.3669        -999.25       -59.2891       -8.05838              0
      2495.5000         0.5713        -999.25         0.3709        -999.25       -59.1171      -7.887302     0.01878293
      2496.0000         0.5668        -999.25         0.3736        -999.25       -58.4647      -7.235825      0.1273626
      2496.5000         0.5684        -999.25         0.3743        -999.25       -57.7469      -6.518944      0.2468427
      2497.0000         0.5697        -999.25         0.3591        -999.25       -57.1562      -5.929169      0.3451385
      2497.5000         0.5689        -999.25         0.3453        -999.25       -57.3061       -6.07999      0.3200016
      2498.0000         0.5678        -999.25         0.3346        -999.25       -57.8569       -6.63171      0.2280483
      2498.5000         0.5673        -999.25         0.3318        -999.25        -57.502      -6.277733      0.2870445
      2499.0000         0.5703        -999.25         0.3438        -999.25        -57.148      -5.924656      0.3458907
      2499.5000         0.5791        -999.25         0.3632        -999.25       -57.0518      -5.829376      0.3617706
      2500.0000         0.5891        -999.25         0.3907        -999.25       -56.7018      -5.480301      0.4199499
      2500.5000         0.6031        -999.25         0.4253        -999.25       -55.3483      -4.127724      0.6453794
      2501.0000         0.6159        -999.25         0.4645        -999.25       -53.7729      -2.553242       0.907793
      2501.5000         0.6299        -999.25         0.4972        -999.25       -52.0919     -0.8834381              1
      2502.0000         0.6493        -999.25         0.5275        -999.25       -51.3118     -0.1164284              1
      2502.5000         0.6724        -999.25         0.5528        -999.25       -51.5691     -0.3868256              1
      2503.0000         0.7015        -999.25         0.5767        -999.25        -51.348     -0.1788216              1
      2503.5000         0.7207        -999.25         0.5878        -999.25        -51.345     -0.1889153              1
      2504.0000         0.7361        -999.25         0.5874        -999.25       -51.1979    -0.05490875              1
      2504.5000         0.7463        -999.25         0.5821        -999.25       -50.8701      0.2597961              1
      2505.0000         0.7539        -999.25         0.5789        -999.25       -50.7375       0.379303              1
      2505.5000         0.7604        -999.25         0.5759        -999.25        -50.575      0.5287056              1
      2506.0000         0.7645        -999.25         0.5661        -999.25       -50.3522      0.7384109              1
      2506.5000         0.7653        -999.25         0.5561        -999.25       -50.1609      0.9166183              1
      2507.0000         0.7634        -999.25          0.547        -999.25       -50.5547      0.5097237              1
      2507.5000         0.7606        -999.25         0.5386        -999.25       -51.2442     -0.1928749              1
      2508.0000         0.7588        -999.25         0.5352        -999.25       -51.9705     -0.9322701              1
      2508.5000         0.7596        -999.25         0.5347        -999.25       -52.3173       -1.29216              1
      2509.0000          0.765        -999.25         0.5398        -999.25       -52.3066      -1.294556              1
      2509.5000         0.7717        -999.25         0.5497        -999.25       -52.1457      -1.146751              1
      2510.0000         0.7806        -999.25         0.5586        -999.25       -52.1761      -1.190247              1
      2510.5000         0.7934        -999.25         0.5686        -999.25       -52.8147      -1.841942              1
      2511.0000         0.8054        -999.25         0.5791        -999.25       -53.0522      -2.092537      0.9845772
      2511.5000         0.8078        -999.25         0.5896        -999.25       -52.6976       -1.75103              1
      2512.0000         0.8093        -999.25          0.599        -999.25        -52.063      -1.129524              1
      2512.5000         0.8099        -999.25         0.6083        -999.25       -52.0522      -1.131821              1
      2513.0000         0.8111        -999.25         0.6104        -999.25       -51.9073      -1.000015              1
      2513.5000         0.8127        -999.25          0.605        -999.25       -51.7407      -0.846508              1
      2514.0000         0.8138        -999.25         0.6014        -999.25       -51.4976     -0.6165047              1
      2514.5000         0.8158        -999.25         0.5984        -999.25       -51.2326     -0.3646011              1
      2515.0000         0.8194        -999.25         0.5991        -999.25       -51.0699     -0.2149925              1
      2515.5000         0.8262        -999.25         0.6026        -999.25       -51.1219     -0.2800865              1
      2516.0000         0.8312        -999.25         0.6114        -999.25       -51.0568     -0.2280846              1
      2516.5000         0.8288        -999.25         0.6227        -999.25       -50.9134    -0.09777451              1
      2517.0000         0.8299        -999.25         0.6401        -999.25       -50.7584     0.04412842              1
      2517.5000         0.8379        -999.25          0.659        -999.25       -50.5549      0.2345314              1
      2518.0000         0.8482        -999.25         0.6756        -999.25       -50.0989      0.6774368              1
      2518.5000         0.8619        -999.25         0.6874        -999.25       -50.6458      0.1174431              1
      2519.0000         0.8776        -999.25         0.6976        -999.25       -50.8948     -0.1446495              1
      2519.5000         0.8873        -999.25         0.7016        -999.25        -51.476     -0.7389488              1
