#------------------------------------------------------------------------------
# Created by    : vladimir.rabinovich
# Created on    : 09/19/2023 17:22:25
#------------------------------------------------------------------------------
~Version Information Section
VERS.           2.0     :   CWLS log ASCII Standard - VERSION 2.0
WRAP.           NO      :   One line per depth step
~Well Information Section
#MNEM       .UNIT                                         VALUE :DESCRIPTION
#------------------------------------------------------------------------------
STRT        .FT                                            3984 :START DEPTH
STOP        .FT                                           14348 :STOP DEPTH
STEP        .FT                                             0.5 :STEP      
NULL        .                                           -999.25 :NULL      
COMP        .                                  CNG PRODUCING CO :COMPANY   
WELL        .                               OCS G07292 ST00BP00 :WELL      
FLD         .                                           WILDCAT :FIELD     
LOC         .                                                   :LOCATION  
CNTY        .                           HIGH ISLAND LARGE BLOCK :LOCATION  
STAT        .                                             TEXAS :STATE     
CTRY        .                                     UNITED STATES :COUNTRY   
SRVC        .                                                   :SERVICE COMPANY
DATE        .                             9/13/2023 11:19:59 AM :LOG DATE  
API         .                                    42708402890000 :API NUMBER
UWI         .                                    42708402890000 :UNIQUE WELL ID
XCOORD      .                                  1158246.84135722 :SURFACE X 
YCOORD      .                                  10525039.0147689 :SURFACE Y 
LAT         .                                         28.993597 :LATITUDE  
LON         .                                        -94.508673 :LONGITUDE 
ELEV        .FT                                             101 :ELEVATION VALUE
ELEV_TYPE   .                                                KB :ELEVATION REFERENCE TYPE
~Curve Information Section
#MNEM       .UNIT                                      API CODE :CURVE DESCRIPTION
#------------------------------------------------------------------------------
DEPT        .FT                                                 :DEPTH     
CALX        .IN                                                 :          
DTL         .US/F                                               :          
GR          .GAPI                                               :          
GR_NORM     .GAPI                                               :GammaRay Normalized
ILD         .OHMM                                               :          
ILM         .OHMM                                               :          
LL3         .OHMM                                               :          
SP          .MV                                                 :          
SP_NORM     .MV                                                 :SP Normalized
VSH_GR      .V/V                                                :Volume of Shale from GR
VSH_SP      .V/V                                                :Volume of Shale from SP
~A        DEPTH           CALX            DTL             GR        GR_NORM            ILD            ILM            LL3             SP        SP_NORM         VSH_GR         VSH_SP
# ...
      5356.5000        14.6153       105.6002        38.4232       63.11273         0.9378          1.307          1.257       -60.7703      -22.02205      0.6406963      0.6853993
      5357.0000        14.6084       112.3196        38.2449       62.77311          0.957         1.3007          1.143       -58.1926      -19.44588      0.6334705      0.7222018
      5357.5000        14.6167         124.92        39.2318       64.65292         0.9775         1.3045         1.0874       -59.5482      -20.80301      0.6734664      0.7028142
      5358.0000        14.6396       126.6365         41.613       69.18854         0.9951         1.3253         1.1208       -61.3605      -22.61684      0.7699689      0.6769023
      5358.5000        14.6634       119.5891        42.7255       71.30757         1.0109         1.3624         1.1575       -61.0701      -22.32797      0.8150547       0.681029
      5359.0000        14.6778       115.1787        42.2505       70.40283          1.022         1.3997         1.2465       -61.0222       -22.2816      0.7958049      0.6816913
      5359.5000        14.6868       114.9576        39.9814       66.08073         1.0318         1.4275          1.254       -63.1098      -24.37073      0.7038453      0.6518467
      5360.0000        14.6963       114.8978        37.5134       61.37978         1.0399         1.4381         1.2545         -63.04      -24.30247       0.603825      0.6528219
      5360.5000        14.7105       114.4341        36.7107       59.85083         1.0434         1.4337         1.3062       -63.5306       -24.7946      0.5712942      0.6457915
      5361.0000        14.7058       113.6365        37.1959       60.77502         1.0418         1.4231           1.35       -66.4283      -27.69383      0.5909578      0.6043739
      5361.5000         14.717       112.8411        39.1764       64.54739         1.0334         1.4112         1.2791       -66.8661      -28.13316      0.6712211      0.5980978
      5362.0000        14.7188       112.5103        39.1282       64.45559         1.0257         1.4025         1.3516       -69.8085      -31.07709      0.6692678      0.5560415
      5362.5000        14.7332       112.3503        38.9068       64.03387         1.0281         1.4066         1.3025        -71.825      -33.09512      0.6602951      0.5272126
      5363.0000        14.7505       112.3268        39.4756        65.1173         1.0363         1.4054         1.3365       -70.3578      -31.62946      0.6833469      0.5481507
      5363.5000        14.7601       112.5991        39.5191       65.20016         1.0476         1.4026         1.2997       -67.1804      -28.45358      0.6851099      0.5935202
      5364.0000        14.7777       113.0383        38.2101       62.70683           1.06         1.3987         1.2569       -66.6488      -27.92352      0.6320601      0.6010926
      5364.5000        14.8021       113.3292        37.2085       60.79902         1.0732         1.3927         1.2117       -70.7433      -32.01955      0.5914684      0.5425779
      5365.0000        14.8316       113.3519        38.0161       62.33731         1.0844         1.4122         1.1999       -69.2441      -30.52188       0.624198      0.5639731
      5365.5000         14.851       112.3674        39.5267       65.21464         1.0914         1.4348         1.2637       -67.8551      -29.13441      0.6854178      0.5837941
      5366.0000        14.8626       111.5115        40.1207       66.34606         1.0986         1.4491         1.3259       -68.3302      -29.61104      0.7094907      0.5769852
      5366.5000        14.8615       111.4822        40.6315       67.31902            1.1         1.4494         1.3377       -67.4941      -28.77647      0.7301918      0.5889075
      5367.0000        14.8155       112.0684        41.0419       68.10074         1.0947         1.4404         1.3146        -67.004       -28.2879      0.7468242      0.5958872
      5367.5000        14.7302       113.0648        41.4246       68.82968         1.0837         1.4127          1.272       -69.2517      -30.53714      0.7623336      0.5637552
      5368.0000        14.6774        113.397        41.8738        69.6853         1.0705         1.3926         1.2345       -69.1584      -30.44537      0.7805382      0.5650662
      5368.5000        14.5974       113.3024        42.3148       70.52531         1.0532         1.3762          1.214        -70.698      -31.98649      0.7984108      0.5430501
      5369.0000        14.5959       113.6854         42.589        71.0476         1.0293         1.3551         1.2061       -68.1858      -29.47583      0.8095234      0.5789168
      5369.5000        14.6075       114.3691        41.4278       68.83578         0.9914         1.3306         1.1944        -67.411      -28.70256      0.7624633      0.5899634
      5370.0000        14.6097       116.6913         39.407       64.98663         0.9608         1.3186         1.1934       -66.3514      -27.64449      0.6805665      0.6050787
      5370.5000        14.5474       118.3472        37.1354       60.65978         0.9401         1.3086         1.1787       -66.8453      -28.13992      0.5885059      0.5980012
      5371.0000        14.4692       117.3817        35.4396       57.42969          0.933         1.3113         1.1798       -72.6483      -33.94445      0.5197806      0.5150793
      5371.5000        14.5253        114.879        35.5891       57.71444         0.9475         1.3179         1.2284       -75.5271      -36.82478      0.5258392      0.4739317
      5372.0000        14.6032       112.1251        36.3921       59.24397         0.9737          1.332         1.2936       -74.1097      -35.40892      0.5583823      0.4941583
      5372.5000        14.6427        110.141        37.4164       61.19502         0.9986         1.3559         1.2476       -66.1675      -27.46825       0.599894      0.6075964
      5373.0000        14.6671       110.5646        39.4322       65.03465          1.018         1.3798         1.2511       -63.7259      -25.02818      0.6815882      0.6424546
      5373.5000        14.6981       113.6169        41.0423       68.10149         1.0361         1.3943         1.2739       -61.3775       -22.6813      0.7468401      0.6759813
      5374.0000        14.7207       116.9312          41.95       69.83043         1.0499         1.4075         1.2781        -59.082      -20.38734      0.7836261      0.7087523
      5374.5000         14.724       119.0854        42.4146       70.71539         1.0656         1.4048         1.2255       -58.5315      -19.83837      0.8024552      0.7165947
      5375.0000        14.6725       119.8802        42.0656       70.05064         1.0791         1.3986         1.1378       -60.8433       -22.1517      0.7883114      0.6835471
      5375.5000        14.5831       119.1272        42.4388       70.76149         1.0863         1.3855         1.1502       -59.9614      -21.27133       0.803436      0.6961238
      5376.0000        14.5516       116.8567        43.6552       73.07844         1.0612         1.3756         1.1579       -58.5391      -19.85056      0.8527327      0.7164205
      5376.5000          14.54       115.4532        45.1627       75.94988         1.0178         1.3633         1.1833       -58.0156      -19.32859      0.9138273      0.7238773
      5377.0000         14.547       114.5042        45.2118        76.0434         0.9794         1.3474         1.2086        -63.295      -24.60952       0.915817      0.6484354
      5377.5000        14.5435       114.3253        43.8467       73.44319         0.9552          1.319         1.1715       -63.4185      -24.73455      0.8604934      0.6466492
      5378.0000        14.5315       114.7295        42.3324       70.55882         0.9377         1.2951         1.1626       -62.7561      -24.07369      0.7991237      0.6560901
      5378.5000         14.521       115.1823        42.1227       70.15939         0.9335         1.2808         1.2861       -65.8248      -27.14392      0.7906254      0.6122298
