#------------------------------------------------------------------------------
# Created by    : vladimir.rabinovich
# Created on    : 09/19/2023 17:22:41
#------------------------------------------------------------------------------
~Version Information Section
VERS.           2.0     :   CWLS log ASCII Standard - VERSION 2.0
WRAP.           NO      :   One line per depth step
~Well Information Section
#MNEM       .UNIT                                         VALUE :DESCRIPTION
#------------------------------------------------------------------------------
STRT        .FT                                            2948 :START DEPTH
STOP        .FT                                            8770 :STOP DEPTH
STEP        .FT                                             0.5 :STEP      
NULL        .                                           -999.25 :NULL      
COMP        .                 BROOKLYN UNION EXPLORATION CO INC :COMPANY   
WELL        .                               OCS G07238 ST00BP00 :WELL      
FLD         .                                           WILDCAT :FIELD     
LOC         .                                                   :LOCATION  
CNTY        .                             GALVESTON LARGE BLOCK :LOCATION  
STAT        .                                             TEXAS :STATE     
CTRY        .                                     UNITED STATES :COUNTRY   
SRVC        .                                                   :SERVICE COMPANY
DATE        .                             9/13/2023 11:19:34 AM :LOG DATE  
API         .                                    42706402470000 :API NUMBER
UWI         .                                    42706402470000 :UNIQUE WELL ID
XCOORD      .                                  1057740.92261072 :SURFACE X 
YCOORD      .                                   10547901.298013 :SURFACE Y 
LAT         .                                         29.052568 :LATITUDE  
LON         .                                        -94.824133 :LONGITUDE 
ELEV        .FT                                              85 :ELEVATION VALUE
ELEV_TYPE   .                                                KB :ELEVATION REFERENCE TYPE
~Curve Information Section
#MNEM       .UNIT                                      API CODE :CURVE DESCRIPTION
#------------------------------------------------------------------------------
DEPT        .FT                                                 :DEPTH     
DCAL        .IN                                                 :          
DT          .US/F                                               :          
GR          .GAPI                                               :          
GR_NORM     .GAPI                                               :GammaRay Normalized
ILD         .OHMM                                               :          
ILM         .OHMM                                               :          
SFL         .OHMM                                               :          
SP          .MV                                                 :          
SP_NORM     .MV                                                 :SP Normalized
VSH_GR      .V/V                                                :Volume of Shale from GR
VSH_SP      .V/V                                                :Volume of Shale from SP
~A        DEPTH           DCAL             DT             GR        GR_NORM            ILD            ILM            SFL             SP        SP_NORM         VSH_GR         VSH_SP
# ...
      5310.5000         5.4614       118.2264        45.7133       50.70297         0.1842         0.2398         0.4756      -105.4578      -56.87023       0.376659     0.05216281
      5311.0000         6.4984       117.5822         44.799       49.39487           0.18         0.2362         0.4389      -104.9681      -56.38053      0.3488271     0.06032448
      5311.5000         7.3416       117.6664        43.9418       48.16835         0.1783         0.2341         0.4274      -104.3177      -55.73013      0.3227309     0.07116445
      5312.0000         7.7888       119.0848        43.2042       47.11275         0.1799         0.2328         0.4252      -103.4575      -54.86993      0.3002712     0.08550122
      5312.5000         7.0814       120.8414        43.0751       46.92661         0.1879         0.2351         0.4242      -102.4108      -53.82323      0.2963108      0.1029462
      5313.0000         6.3671       122.7401        45.1186        49.8449         0.2035          0.243         0.4213         -101.4      -52.81243      0.3584022      0.1197928
      5313.5000         6.3845       124.4755        48.7034       54.96555         0.2263         0.2601         0.4167       -98.8062      -50.21863      0.4673521      0.1630229
      5314.0000         6.3747       126.5364        52.2288       60.00133         0.2615          0.292         0.4024       -94.6366      -46.04903      0.5744964      0.2325162
      5314.5000         5.8203       128.6746        55.9573       65.32731         0.3044          0.331         0.3975       -89.4142      -40.82663      0.6878151      0.3195562
      5315.0000         3.5915       129.2446        59.8766       70.92593         0.3603         0.3619         0.4018       -82.1256      -33.53803      0.8069348      0.4410328
      5315.5000         2.3245        128.168        62.4209       74.55981         0.3908         0.3836         0.4079       -73.3853      -24.79773      0.8842514      0.5867045
      5316.0000          1.946        127.661        64.0101       76.82896         0.4072         0.4017         0.4135       -70.4991      -21.91153       0.932531      0.6348078
      5316.5000         1.7014       127.7758        65.3752       78.77788         0.4157         0.4135         0.4179       -68.2843      -19.69673      0.9739974      0.6717212
      5317.0000         1.5507       128.1562        61.8288       73.70878         0.4125         0.4155         0.4246       -68.0242      -19.43663      0.8661442      0.6760561
      5317.5000         1.5997       128.1418        53.8019       62.23748         0.3948         0.4023         0.4691       -70.7246      -22.13703      0.6220741      0.6310495
      5318.0000          1.944       127.3385        47.8165        53.6833          0.363         0.3755         0.5413       -75.3029      -26.71533      0.4400703      0.5547445
      5318.5000         2.5451       126.5438        44.1028       48.37514         0.3272         0.3427         0.6392       -84.4198      -35.83223      0.3271307      0.4027962
      5319.0000         3.2991         125.96          42.36       45.88319         0.2931         0.3149         0.7423       -90.5389      -41.95133      0.2741104      0.3008111
      5319.5000         3.4599       125.1179        41.4706       44.61068         0.2636         0.2908          0.785       -94.8175      -46.22993      0.2470357      0.2295012
      5320.0000         2.8598       121.7609        40.8751        43.7581         0.2382         0.2698         0.6739       -97.4064      -48.81883      0.2288957      0.1863528
      5320.5000         2.2417       117.5093        40.5905       43.34978         0.2145         0.2533         0.5031       -99.0068      -50.41923       0.220208      0.1596795
      5321.0000          1.746       114.0586        41.1008       44.07728         0.1935         0.2387         0.3632      -100.0925      -51.50493      0.2356868      0.1415845
      5321.5000         1.4203       112.5896        42.2968       45.78458         0.1789         0.2261         0.3421      -100.6023      -52.01473      0.2720124      0.1330878
      5322.0000         1.2318       113.1927        44.0434       48.27862         0.1677          0.216         0.3527      -100.8707      -52.28313      0.3250771      0.1286146
      5322.5000          1.302       114.0181        45.3859       50.19526         0.1599         0.2088          0.364      -101.2108      -52.62323      0.3658566      0.1229462
      5323.0000          1.478       114.0498        44.8683         49.454         0.1592         0.2063         0.3574      -101.7468      -53.15923      0.3500852      0.1140128
      5323.5000         1.6474       113.5995        43.6829       47.75853         0.1648         0.2115         0.3412      -102.2532      -53.66563      0.3140113      0.1055729
      5324.0000         1.6198       113.0796        42.4529       45.99931         0.1749         0.2268         0.3213      -102.4006      -53.81303      0.2765811      0.1031162
      5324.5000         1.4037       113.4272        43.2952       47.20122         0.1882         0.2487         0.3116      -101.2823      -52.69473      0.3021536      0.1217545
      5325.0000         1.1761       115.0865        46.7438       52.12725         0.2043         0.2707         0.3596       -97.8176      -49.23003      0.4069627      0.1794996
      5325.5000         1.0564       116.8468        50.7968       57.91691         0.2209         0.2886         0.4301       -93.5416      -44.95403      0.5301471      0.2507661
      5326.0000         1.0475       118.4624         53.849       62.27653         0.2435         0.2963         0.5035       -88.7502      -40.16263      0.6229048      0.3306229
      5326.5000         1.3144       117.5841        54.1639       62.72483         0.2823         0.3079         0.4638       -84.5269      -35.93933      0.6324431      0.4010111
      5327.0000         1.5829       115.3772        54.0635       62.57971         0.3273         0.3381         0.4149       -85.0376      -36.45003      0.6293555      0.3924995
      5327.5000         1.8352       113.9038        55.5708       64.73183         0.3649         0.3695         0.3814       -85.4602      -36.87263      0.6751453      0.3854562
      5328.0000         1.5648       113.1105        58.4075       68.78352         0.3977          0.418         0.4071       -84.3429      -35.75533      0.7613514      0.4040778
      5328.5000         1.3515        110.069        55.1398       64.11266          0.435         0.5032         0.5498       -81.1693      -32.58173      0.6619714      0.4569712
      5329.0000          1.335       104.2754        48.5894       54.75113         0.4864         0.6166         0.7246       -78.2955      -29.70793        0.46279      0.5048678
      5329.5000         1.5007         97.384        44.0062       48.20053         0.5871         0.7391         1.0911       -75.5679      -26.98033      0.3234156      0.5503278
      5330.0000         1.6527        81.8597        39.6237       41.93674         0.7645         0.8649         1.5758       -74.9313      -26.34373      0.1901433      0.5609379
      5330.5000         1.6882        76.7748        36.7003       37.75783         0.9501         0.9887         2.0138        -76.684      -28.09643      0.1012304      0.5317262
      5331.0000         1.6683        74.9746        34.5784       34.72419         1.0971         1.0691         2.1545       -77.8273      -29.23973     0.03668497      0.5126712
      5331.5000         1.5798        74.9241        34.7902       35.02517         1.1983         1.1071         1.8941        -78.312      -29.72443     0.04308863      0.5045929
      5332.0000         1.4376        76.4255        38.4568        40.2627         1.2229         1.1229         1.6434       -78.2054      -29.61783      0.1545255      0.5063695
      5332.5000         1.3293        81.0763        42.9012       46.61163         1.1993         1.1228         1.4671       -77.8881      -29.30053      0.2896092      0.5116578
