#------------------------------------------------------------------------------
# Created by    : vladimir.rabinovich
# Created on    : 09/19/2023 17:21:34
#------------------------------------------------------------------------------
~Version Information Section
VERS.           2.0     :   CWLS log ASCII Standard - VERSION 2.0
WRAP.           NO      :   One line per depth step
~Well Information Section
#MNEM       .UNIT                                         VALUE :DESCRIPTION
#------------------------------------------------------------------------------
STRT        .FT                                            4495 :START DEPTH
STOP        .FT                                            9058 :STOP DEPTH
STEP        .FT                                             0.5 :STEP      
NULL        .                                           -999.25 :NULL      
COMP        .                          SEAGULL ENERGY E & P INC :COMPANY   
WELL        .                               OCS G11322 ST00BP00 :WELL      
FLD         .                                           WILDCAT :FIELD     
LOC         .                                                   :LOCATION  
CNTY        .                             GALVESTON LARGE BLOCK :LOCATION  
STAT        .                                             TEXAS :STATE     
CTRY        .                                     UNITED STATES :COUNTRY   
SRVC        .                                                   :SERVICE COMPANY
DATE        .                             9/13/2023 11:19:34 AM :LOG DATE  
API         .                                    42706402570000 :API NUMBER
UWI         .                                    42706402570000 :UNIQUE WELL ID
XCOORD      .                                  1032943.49501878 :SURFACE X 
YCOORD      .                                  10418025.6284813 :SURFACE Y 
LAT         .                                         28.694364 :LATITUDE  
LON         .                                        -94.895236 :LONGITUDE 
ELEV        .FT                                              97 :ELEVATION VALUE
ELEV_TYPE   .                                                KB :ELEVATION REFERENCE TYPE
~Curve Information Section
#MNEM       .UNIT                                      API CODE :CURVE DESCRIPTION
#------------------------------------------------------------------------------
DEPT        .FT                                                 :DEPTH     
CALI        .IN                                                 :          
DCAL        .IN                                                 :          
DPHI        .%                                                  :          
DRHO        .G/C3                                               :          
GR          .GAPI                                               :          
GR_1        .GAPI                                               :          
GR_NORM     .GAPI                                               :GammaRay Normalized
ILD         .OHMM                                               :          
ILM         .OHMM                                               :          
NPHI        .%                                                  :          
SGRD        .OHMM                                               :          
SP          .MV                                                 :          
SP_NORM     .MV                                                 :SP Normalized
VSH_GR      .V/V                                                :Volume of Shale from GR
VSH_SP      .V/V                                                :Volume of Shale from SP
~A        DEPTH           CALI           DCAL           DPHI           DRHO             GR           GR_1        GR_NORM            ILD            ILM           NPHI           SGRD             SP        SP_NORM         VSH_GR         VSH_SP
# ...
      7521.0000        -999.25         1.5067         21.941        -0.0182        -999.25        73.7262       80.49403         0.4841          0.485        49.8991         0.6928       -43.7006      -1.478374              1      0.9753605
      7521.5000        -999.25          1.519        21.9577        -0.0225        -999.25        71.6876       77.93052         0.4823         0.4853        50.0197         0.6901       -43.8693      -1.647076      0.9559685      0.9725487
      7522.0000        -999.25         1.5284        22.3398        -0.0282        -999.25        68.5653        74.0043         0.4803         0.4858        49.8997         0.6875       -43.9264      -1.704174      0.8724318      0.9715971
      7522.5000        -999.25         1.5242        22.5044        -0.0363        -999.25        71.8828       78.17598         0.4782         0.4865         49.335         0.6839       -43.9835      -1.761276      0.9611911      0.9706454
      7523.0000        -999.25          1.501        22.3051         -0.042        -999.25        74.9128       81.98617          0.476         0.4874        48.8763         0.6804       -44.0309      -1.808674              1      0.9698554
      7523.5000        -999.25         1.4474         21.417        -0.0422        -999.25        74.9524       82.03595         0.4739         0.4864        48.7772         0.6775       -44.0637      -1.841476              1      0.9693087
      7524.0000        -999.25         1.4305        20.6491        -0.0337        -999.25        77.1017       84.73866         0.4717         0.4851        48.4286         0.6707       -44.1044      -1.882175              1      0.9686304
      7524.5000        -999.25         1.4114        20.6332        -0.0213        -999.25        77.0569       84.68232         0.4691         0.4821         47.786         0.6653        -44.187      -1.964775              1      0.9672537
      7525.0000        -999.25         1.3974         20.902        -0.0134        -999.25        76.6771       84.20473         0.4664          0.478        46.9963         0.6613        -44.287      -2.064774              1      0.9655871
      7525.5000        -999.25         1.3856        21.3011        -0.0056        -999.25        79.2167       87.39823          0.464         0.4737        46.2495         0.6578       -44.3975      -2.175274              1      0.9637454
      7526.0000        -999.25         1.3622        21.6524        -0.0005        -999.25        81.9355       90.81708         0.4616         0.4725        45.7725         0.6578       -44.5168      -2.294575              1      0.9617571
      7526.5000        -999.25         1.3373        21.8312         0.0029        -999.25        80.1687       88.59536         0.4605          0.472        45.7134         0.6651       -44.6402      -2.417976              1      0.9597004
      7527.0000        -999.25         1.3119        21.8712         0.0044        -999.25        78.0682       85.95402         0.4597         0.4725        46.0129          0.675       -44.7639      -2.541676              1      0.9576387
      7527.5000        -999.25         1.2937        21.9064         0.0024        -999.25        76.7312       84.27276         0.4603          0.473        46.5568         0.6813       -44.8802      -2.657974              1      0.9557005
      7528.0000        -999.25         1.2717        21.9276        -0.0009        -999.25        74.5464       81.52542         0.4616         0.4736        47.5674         0.6807       -44.9954      -2.773174              1      0.9537804
      7528.5000        -999.25         1.2521        21.9182        -0.0027        -999.25        74.2128       81.10591         0.4632         0.4745        48.3835          0.674        -44.915      -2.692776              1      0.9551204
      7529.0000        -999.25         1.2462        21.8811        -0.0044        -999.25        75.2373       82.39421          0.465         0.4759        48.6625         0.6712       -44.7369      -2.514675              1      0.9580888
      7529.5000        -999.25         1.2404        21.7169        -0.0054        -999.25        75.6456       82.90765         0.4676         0.4777        48.6189         0.6713       -44.4624      -2.240173              1      0.9626638
      7530.0000        -999.25         1.2367        21.0895        -0.0063        -999.25        76.0746       83.44711         0.4705          0.481        48.1019         0.6768       -44.1031      -1.880875              1      0.9686521
      7530.5000        -999.25         1.2366        20.7294        -0.0069        -999.25         76.031       83.39227         0.4762          0.485        47.4484         0.6833       -43.7688      -1.546574              1      0.9742238
      7531.0000        -999.25         1.2327        20.7624        -0.0071        -999.25        75.2307       82.38591         0.4825         0.4893        47.0291         0.6884       -43.4504      -1.228176              1      0.9795304
      7531.5000        -999.25         1.2303        20.7925        -0.0062        -999.25        74.7441       81.77402         0.4877         0.4934         46.528         0.6912       -43.2393      -1.017075              1      0.9830487
      7532.0000        -999.25         1.2431        20.8205        -0.0051        -999.25        74.3512       81.27995         0.4941         0.4943        45.9694         0.6896       -43.2066      -0.984375              1      0.9835938
      7532.5000        -999.25         1.2543        20.7908        -0.0044        -999.25         75.373       82.56486         0.5014         0.4953         45.778         0.6886       -43.2495      -1.027275              1      0.9828787
      7533.0000        -999.25         1.2747        20.7634        -0.0041        -999.25        76.1055       83.48596         0.4979         0.4963        46.0829         0.6886       -43.3351      -1.112873              1      0.9814521
      7533.5000        -999.25         1.3074        20.7506        -0.0043        -999.25        75.6018       82.85255         0.4939         0.4974        46.4125         0.6886        -43.514      -1.291775              1      0.9784704
      7534.0000        -999.25         1.3272        20.8105        -0.0048        -999.25        75.2903       82.46085         0.4883          0.499         46.798         0.6886       -43.9636      -1.741375              1      0.9709771
      7534.5000        -999.25         1.3415        20.9802        -0.0049        -999.25        75.1509       82.28556         0.4822         0.5001        47.6577         0.6867       -44.4693      -2.247074              1      0.9625488
      7535.0000        -999.25         1.3477        21.2957         -0.005        -999.25        75.2045       82.35296         0.4762         0.5006        48.0041         0.6791       -44.9308      -2.708576              1      0.9548571
      7535.5000        -999.25         1.3521        21.8123        -0.0054        -999.25         75.439       82.64785         0.4711         0.5002        48.1892         0.6706       -45.4391      -3.216873              1      0.9463854
      7536.0000        -999.25         1.3596        22.0309        -0.0059        -999.25        76.3699       83.81844         0.4661         0.4991        48.3369         0.6666       -46.1749      -3.952675              1      0.9341221
      7536.5000        -999.25         1.3675        21.2342        -0.0068        -999.25        77.1281       84.77185         0.4611         0.4942        48.3234         0.6633       -47.1321      -4.909874              1      0.9181688
      7537.0000        -999.25         1.3726        20.6958        -0.0077        -999.25        75.6974       82.97278         0.4585         0.4837        48.2516         0.6611       -47.9852      -5.762974              1      0.9039505
      7537.5000        -999.25         1.3773        20.4727        -0.0082        -999.25        74.5509       81.53107         0.4566         0.4744        48.4197         0.6592        -48.754      -6.531776              1      0.8911371
