#------------------------------------------------------------------------------
# Created by    : vladimir.rabinovich
# Created on    : 09/19/2023 17:20:24
#------------------------------------------------------------------------------
~Version Information Section
VERS.           2.0     :   CWLS log ASCII Standard - VERSION 2.0
WRAP.           NO      :   One line per depth step
~Well Information Section
#MNEM       .UNIT                                         VALUE :DESCRIPTION
#------------------------------------------------------------------------------
STRT        .FT                                            2124 :START DEPTH
STOP        .FT                                            8264 :STOP DEPTH
STEP        .FT                                             0.5 :STEP      
NULL        .                                           -999.25 :NULL      
COMP        .                               SUPERIOR OIL CO THE :COMPANY   
WELL        .                                     ST TR 00009-L :WELL      
FLD         .                                           WILDCAT :FIELD     
LOC         .                                                   :LOCATION  
CNTY        .                           HIGH ISLAND LARGE BLOCK :LOCATION  
STAT        .                                             TEXAS :STATE     
CTRY        .                                     UNITED STATES :COUNTRY   
SRVC        .                                                   :SERVICE COMPANY
DATE        .                             9/13/2023 11:19:15 AM :LOG DATE  
API         .                                    42708300270000 :API NUMBER
UWI         .                                    42708300270000 :UNIQUE WELL ID
XCOORD      .                                  1318170.30554107 :SURFACE X 
YCOORD      .                                  10738395.6931535 :SURFACE Y 
LAT         .                                        29.5851559 :LATITUDE  
LON         .                                       -94.0141459 :LONGITUDE 
ELEV        .FT                                              72 :ELEVATION VALUE
ELEV_TYPE   .                                                KB :ELEVATION REFERENCE TYPE
~Curve Information Section
#MNEM       .UNIT                                      API CODE :CURVE DESCRIPTION
#------------------------------------------------------------------------------
DEPT        .FT                                                 :DEPTH     
ASN         .OHMM                                               :          
CILD        .MMHO                                               :          
ILD         .OHMM                                               :          
SN          .OHMM                                               :          
SP          .MV                                                 :          
SP_NORM     .MV                                                 :SP Normalized
VSH_SP      .V/V                                                :Volume of Shale from SP
~A        DEPTH            ASN           CILD            ILD             SN             SP        SP_NORM         VSH_SP
# ...
      7417.0000         0.5061           1884         0.6366         0.5194       -41.7336      0.6906433              1
      7417.5000         0.5456        1640.43          0.695         0.5458       -41.0421       1.382145              1
      7418.0000         0.5853       1594.139         0.7441         0.5712       -40.3828       2.041443              1
      7418.5000          0.616       1586.271         0.7564         0.6055       -40.0483       2.375942              1
      7419.0000         0.6405       1629.359          0.733          0.641       -40.1527       2.271545              1
      7419.5000         0.6558       1655.361         0.7153         0.6552       -40.2221       2.202145              1
      7420.0000         0.6529       1673.748         0.7048         0.6494       -39.9877       2.436543              1
      7420.5000         0.6393       1690.381          0.696         0.6555        -39.467       2.957245              1
      7421.0000         0.6338       1708.291         0.6863         0.6708       -38.8878       3.536446              1
      7421.5000         0.6478       1733.217          0.686         0.6854       -39.1153       3.308945              1
      7422.0000         0.6709       1779.008          0.675         0.6897       -39.7179       2.706345              1
      7422.5000         0.6754       1843.387          0.659         0.6874       -40.1625       2.261745              1
      7423.0000          0.663       1932.164         0.6254         0.6758       -40.3765       2.047745              1
      7423.5000          0.653       2004.625         0.5974         0.6571       -40.6309       1.793343              1
      7424.0000         0.6433        2089.98         0.5744         0.6327       -40.8234       1.600845              1
      7424.5000         0.6195       2276.754         0.5502         0.6032       -41.2922       1.132046              1
      7425.0000          0.588       2378.559         0.5261         0.5754       -41.2343       1.189945              1
      7425.5000         0.5605       2439.781         0.5059         0.5508       -42.6538      -0.229557              1
      7426.0000          0.548       2494.789         0.4893         0.5334       -44.8497      -2.425457      0.9814876
      7426.5000         0.5493       2534.168          0.476         0.5354       -47.5424      -5.118156      0.9465175
      7427.0000         0.5537       2566.508         0.4699         0.5469       -48.7197      -6.295456      0.9312279
      7427.5000         0.5509       2546.844         0.4675         0.5594       -42.0512      0.3730431              1
      7428.0000         0.5476       2485.172         0.4733         0.5627        -39.051       3.373245              1
      7428.5000         0.5554        2414.73         0.4829         0.5625       -38.2745       4.149742              1
      7429.0000         0.5764       2374.398          0.494         0.5802       -39.7872       2.637043              1
      7429.5000         0.5943       2378.008         0.5051          0.596       -41.5268      0.8974457              1
      7430.0000         0.5934       2414.531         0.5085         0.6035       -43.0975     -0.6732559              1
      7430.5000         0.5967         2437.5         0.5122         0.5975       -43.8841      -1.459858      0.9940278
      7431.0000         0.6013       2421.043         0.5168         0.5875       -44.2103      -1.786057      0.9897915
      7431.5000         0.5938       2374.449         0.5169         0.5777        -44.764      -2.339756      0.9826006
      7432.0000         0.5861       2314.031         0.5166         0.5689       -46.7154      -4.291157      0.9572577
      7432.5000         0.5878       2232.066         0.5292         0.5653       -48.9391      -6.514854      0.9283785
      7433.0000         0.5865        2138.18          0.561         0.5804       -47.6483      -5.224056      0.9451421
      7433.5000         0.6346       1984.168         0.5997         0.6314       -44.6833      -2.259056      0.9836486
      7434.0000         0.6938       1895.992         0.6433         0.6872       -44.3718      -1.947556      0.9876941
      7434.5000         0.7337       1771.342         0.6889         0.7414       -43.9371      -1.512856      0.9933395
      7435.0000         0.7507       1678.355         0.7209         0.7645       -42.8139     -0.3896561              1
      7435.5000         0.7622       1614.328         0.7393         0.7545       -41.8016      0.6226425              1
      7436.0000         0.7683       1576.453         0.7509         0.7571       -41.5174      0.9068451              1
      7436.5000         0.7687       1536.072          0.757         0.7527       -41.6284       0.795845              1
      7437.0000          0.765       1508.191          0.763         0.7576       -41.5513      0.8729439              1
      7437.5000          0.759       1484.846         0.7688         0.7739       -41.6627      0.7615433              1
      7438.0000         0.7606       1468.713         0.7726         0.7805       -42.3185      0.1057434              1
      7438.5000         0.7766       1466.133         0.7723         0.7803       -42.6547     -0.2304573              1
      7439.0000         0.7917       1506.012          0.772           0.78       -42.9393     -0.5150566              1
      7439.5000         0.8002       1550.852         0.7745         0.7843       -43.4111     -0.9868546              1
      7440.0000         0.8122       1593.287         0.7638         0.8011       -44.2976      -1.873356      0.9886577
      7440.5000          0.835        1644.59         0.7297         0.8316       -46.9171      -4.492855      0.9546382
      7441.0000         0.8481       1707.314         0.7045         0.8294       -51.9645      -9.540257      0.8890876
      7441.5000         0.7775       1776.953         0.6743         0.7707       -55.2294      -12.80516      0.8466863
      7442.0000         0.7179       1861.723         0.6401         0.7051       -53.5226      -11.09835      0.8688526
      7442.5000         0.6726       1939.678         0.6047         0.6487       -47.3961      -4.971855      0.9484175
      7443.0000         0.6431       2014.125         0.5795         0.6318       -40.3015       2.122746              1
      7443.5000          0.653       2058.125         0.5599         0.6515       -38.4409       3.983345              1
      7444.0000         0.6621       2098.551         0.5433         0.6615       -38.1106       4.313644              1
      7444.5000         0.6389        2139.43         0.5351         0.6254       -39.1405       3.283745              1
      7445.0000         0.6104       2177.004         0.5382         0.5777       -39.5603       2.863945              1
      7445.5000         0.5876       2214.531         0.5392         0.5531       -38.7762       3.648045              1
      7446.0000         0.5814       2245.566         0.5373         0.5566       -38.4335       3.990746              1
      7446.5000         0.5889       2261.688         0.5391          0.559       -38.2286       4.195644              1
      7447.0000         0.6019       2245.219         0.5453         0.5679       -38.0444       4.379845              1
      7447.5000         0.6142       2216.234         0.5598          0.582       -38.4705       3.953743              1
      7448.0000         0.6271       2182.215         0.5735         0.5913       -39.2694       3.154842              1
      7448.5000          0.621       2139.531         0.5862         0.5807        -39.324       3.100243              1
      7449.0000         0.6124       2093.391         0.5963         0.5932       -39.7255       2.698746              1
      7449.5000         0.6051       2041.436         0.6047         0.5902       -40.2005       2.223743              1
      7450.0000         0.6006       2013.932          0.601         0.5791       -39.6031       2.821144              1
