#------------------------------------------------------------------------------
# Created by    : vladimir.rabinovich
# Created on    : 09/19/2023 17:22:46
#------------------------------------------------------------------------------
~Version Information Section
VERS.           2.0     :   CWLS log ASCII Standard - VERSION 2.0
WRAP.           NO      :   One line per depth step
~Well Information Section
#MNEM       .UNIT                                         VALUE :DESCRIPTION
#------------------------------------------------------------------------------
STRT        .FT                                             862 :START DEPTH
STOP        .FT                                           11792 :STOP DEPTH
STEP        .FT                                             0.5 :STEP      
NULL        .                                           -999.25 :NULL      
COMP        .                     FREEPORT-MCMORAN OIL & GAS CO :COMPANY   
WELL        .                               OCS G08155 ST00BP00 :WELL      
FLD         .                            HIGH ISLAND BLOCK 0262 :FIELD     
LOC         .                                                   :LOCATION  
CNTY        .                           HIGH ISLAND LARGE BLOCK :LOCATION  
STAT        .                                             TEXAS :STATE     
CTRY        .                                     UNITED STATES :COUNTRY   
SRVC        .                                                   :SERVICE COMPANY
DATE        .                             9/13/2023 11:19:59 AM :LOG DATE  
API         .                                    42708403380000 :API NUMBER
UWI         .                                    42708403380000 :UNIQUE WELL ID
XCOORD      .                                  1194111.75057656 :SURFACE X 
YCOORD      .                                  10524686.1808471 :SURFACE Y 
LAT         .                                         28.993839 :LATITUDE  
LON         .                                         -94.39647 :LONGITUDE 
ELEV        .FT                                              98 :ELEVATION VALUE
ELEV_TYPE   .                                                KB :ELEVATION REFERENCE TYPE
~Curve Information Section
#MNEM       .UNIT                                      API CODE :CURVE DESCRIPTION
#------------------------------------------------------------------------------
DEPT        .FT                                                 :DEPTH     
DT          .US/F                                               :          
GR          .GAPI                                               :          
GR_NORM     .GAPI                                               :GammaRay Normalized
ILD         .OHMM                                               :          
ILM         .OHMM                                               :          
SFL         .OHMM                                               :          
SP          .MV                                                 :          
SP_NORM     .MV                                                 :SP Normalized
VSH_GR      .V/V                                                :Volume of Shale from GR
VSH_SP      .V/V                                                :Volume of Shale from SP
~A        DEPTH             DT             GR        GR_NORM            ILD            ILM            SFL             SP        SP_NORM         VSH_GR         VSH_SP
# ...
      3802.0000       142.6143        71.7991       72.80869         0.7719         0.6626         0.6521       -65.5808      -1.800968      0.8469934      0.9578438
      3802.5000       146.5947        73.2568        74.5981         0.7622         0.6497         0.6447       -65.5388      -1.770889      0.8850659      0.9594269
      3803.0000       149.4805        76.6051       78.72159         0.7525         0.6338         0.6303       -65.5328      -1.776806      0.9727997      0.9591155
      3803.5000       151.2695        79.8693       82.74125         0.7418         0.6183         0.6213        -65.557      -1.812931              1      0.9572142
      3804.0000       152.2771        82.2747       85.70066         0.7312         0.6032          0.618       -65.5812      -1.849052              1       0.955313
      3804.5000       152.3447        83.5483       87.26279         0.7187         0.5897         0.6075       -65.6052      -1.884975              1      0.9534224
      3805.0000       151.3176         83.916       87.70653         0.7055         0.5932         0.5952       -65.5836      -1.875301              1      0.9539315
      3805.5000        149.998        84.1681       88.00754         0.6934         0.5943         0.5871       -65.5413      -1.844917              1      0.9555306
      3806.0000       149.9922        84.3918       88.27349         0.6851         0.5905         0.5841       -65.4989      -1.814442              1      0.9571347
      3806.5000       151.5776        83.5885       87.27156         0.6774          0.585         0.5872       -65.4568      -1.784264              1      0.9587229
      3807.0000       152.2563        82.3701       85.75714         0.6722         0.5771          0.579       -65.4769      -1.816284              1      0.9570377
      3807.5000       151.7458        81.7607       84.99457          0.667         0.5687         0.5694       -65.4972      -1.848507              1      0.9553418
      3808.0000       150.1978        80.7083        83.6851         0.6692         0.5602         0.5615       -65.5176      -1.880829              1      0.9536406
      3808.5000        149.229        77.8152       80.10316         0.6736         0.5547         0.5608        -65.541      -1.916153              1      0.9517815
      3809.0000       148.6602        74.1635       75.58466         0.6779         0.5511         0.5689       -65.5646      -1.951672      0.9060566       0.949912
      3809.5000       148.5298        70.9209       71.57124         0.6821         0.5677         0.5792       -65.5736      -1.972595      0.8206648      0.9488108
      3810.0000       149.0627        68.4479       68.50793         0.6863         0.5865         0.5908       -65.5653      -1.976219       0.755488        0.94862
      3810.5000        149.915        67.4536       67.27019         0.6904         0.6022         0.6021       -65.5569       -1.97974      0.7291529      0.9484347
      3811.0000       150.9451        68.5183       68.57442         0.6941         0.6118         0.6134       -65.4264       -1.86116      0.7569026      0.9546758
      3811.5000       151.6682        70.4275       70.92124         0.6977         0.6195         0.6182       -65.2837      -1.730385      0.8068349      0.9615587
      3812.0000       151.6162        73.1844       74.31461         0.7014         0.6157         0.6169       -65.1405       -1.59911      0.8790342      0.9684679
      3812.5000       150.4819        75.6006       77.28735         0.7048         0.6118         0.6157       -64.9935      -1.464027      0.9422841      0.9755775
      3813.0000       150.2126        76.1302       77.93097         0.7078         0.6091         0.6113       -64.8466      -1.329052      0.9559781      0.9826815
      3813.5000       149.9973        75.4235       77.04828         0.7107         0.6066         0.6068       -64.7737       -1.26807      0.9371974       0.985891
      3814.0000       149.8315        77.1691       79.19312         0.7122         0.6043         0.6056       -64.8123      -1.318596      0.9828324      0.9832318
      3814.5000       149.6992        80.0963       82.79673         0.7115         0.6031         0.6058       -64.8508      -1.369015              1      0.9805782
      3815.0000       149.7012        80.7891       83.64183         0.7108         0.6018         0.6087       -64.8871       -1.41724              1        0.97804
      3815.5000       149.9395        79.3611       81.86864         0.7088          0.604         0.6147       -64.9226      -1.464661              1      0.9755442
      3816.0000       150.4097        78.1146       80.31953         0.7042          0.608         0.6182        -64.922      -1.475979              1      0.9749485
      3816.5000       151.4971        78.8755       81.24871         0.6995         0.6084         0.6184       -64.9087      -1.474606              1      0.9750208
      3817.0000       152.6384        80.3167       83.01775         0.6945         0.6053         0.6084       -64.8617      -1.439529              1      0.9768669
      3817.5000       152.9795        81.8497       84.90012         0.6891          0.601         0.5976       -64.8147      -1.404446              1      0.9787134
      3818.0000       153.0471        81.2742       84.17941         0.6838         0.5948         0.5915        -65.025      -1.626675              1      0.9670171
      3818.5000       153.0405        79.8442       82.40377         0.6808         0.5887         0.5855       -65.4128      -2.026398              1      0.9459791
      3819.0000       153.0137        80.0963       82.70478          0.679         0.5837         0.5835       -65.7981      -2.423618              1      0.9250727
      3819.5000         153.01        81.3485        84.2405         0.6773         0.5798         0.5815       -65.8743      -2.511734              1      0.9204351
      3820.0000       153.1284        80.0983       82.68682         0.6746         0.5759         0.5793       -65.8081      -2.457458              1      0.9232917
      3820.5000       153.8147        78.0149       80.10451         0.6719          0.574          0.577       -65.6481      -2.309383              1      0.9310851
      3821.0000       153.2063        76.6776        78.4433         0.6694         0.5703         0.5696       -65.5111      -2.184303      0.9668787      0.9376683
      3821.5000       152.4766        76.7363       78.50555         0.6672         0.5628         0.5593       -65.4089      -2.094025      0.9682033      0.9424198
      3822.0000       152.5862        82.2581       85.31237          0.665          0.563         0.5579       -65.3066      -2.003651              1      0.9471763
      3822.5000       153.3208        85.9294       89.83463         0.6655         0.5658         0.5581       -65.2943      -2.003265              1      0.9471965
      3823.0000       153.7852        85.6307       89.45564         0.6678         0.5691         0.5609       -65.3154      -2.036293              1      0.9454582
      3823.5000       153.7192         83.476        86.7853         0.6711         0.5754         0.5669       -65.3365      -2.069317              1      0.9437202
      3824.0000       152.8467        78.5377       80.67842          0.679         0.5817         0.5729       -65.4181      -2.162834              1      0.9387982
      3824.5000       151.4363         75.752       77.22907         0.6871         0.5877         0.5777       -65.5072      -2.263859      0.9410441      0.9334811
      3825.0000       149.6172        74.8101       76.05601         0.6966         0.5895         0.5819       -65.5961      -2.364681      0.9160852      0.9281747
      3825.5000       147.4995        72.7947       73.55766         0.7063         0.5913         0.5861       -65.6176      -2.398102      0.8629288      0.9264157
      3826.0000       145.3228        68.3088       68.00928          0.715         0.5932         0.5905        -65.559      -2.351421      0.7448784      0.9288726
