#------------------------------------------------------------------------------
# Created by    : vladimir.rabinovich
# Created on    : 09/19/2023 17:21:34
#------------------------------------------------------------------------------
~Version Information Section
VERS.           2.0     :   CWLS log ASCII Standard - VERSION 2.0
WRAP.           NO      :   One line per depth step
~Well Information Section
#MNEM       .UNIT                                         VALUE :DESCRIPTION
#------------------------------------------------------------------------------
STRT        .FT                                            4500 :START DEPTH
STOP        .FT                                            8225 :STOP DEPTH
STEP        .FT                                             0.5 :STEP      
NULL        .                                           -999.25 :NULL      
COMP        .                             WALTER OIL & GAS CORP :COMPANY   
WELL        .                               OCS G08132 ST00BP00 :WELL      
FLD         .                              GALVESTON BLOCK 0385 :FIELD     
LOC         .                                                   :LOCATION  
CNTY        .                             GALVESTON LARGE BLOCK :LOCATION  
STAT        .                                             TEXAS :STATE     
CTRY        .                                     UNITED STATES :COUNTRY   
SRVC        .                                                   :SERVICE COMPANY
DATE        .                             9/13/2023 11:19:34 AM :LOG DATE  
API         .                                    42706402490000 :API NUMBER
UWI         .                                    42706402490000 :UNIQUE WELL ID
XCOORD      .                                  1009947.10754335 :SURFACE X 
YCOORD      .                                  10405011.8756564 :SURFACE Y 
LAT         .                                         28.657556 :LATITUDE  
LON         .                                        -94.966279 :LONGITUDE 
ELEV        .FT                                             101 :ELEVATION VALUE
ELEV_TYPE   .                                                KB :ELEVATION REFERENCE TYPE
~Curve Information Section
#MNEM       .UNIT                                      API CODE :CURVE DESCRIPTION
#------------------------------------------------------------------------------
DEPT        .FT                                                 :DEPTH     
CALI        .IN                                                 :          
DPHI        .%                                                  :          
DRHO        .G/C3                                               :          
GR          .GAPI                                               :          
GR_NORM     .GAPI                                               :GammaRay Normalized
ILD         .OHMM                                               :          
ILM         .OHMM                                               :          
NPHI        .%                                                  :          
SFL         .OHMM                                               :          
SP          .MV                                                 :          
SP_NORM     .MV                                                 :SP Normalized
VSH_GR      .V/V                                                :Volume of Shale from GR
VSH_SP      .V/V                                                :Volume of Shale from SP
~A        DEPTH           CALI           DPHI           DRHO             GR        GR_NORM            ILD            ILM           NPHI            SFL             SP        SP_NORM         VSH_GR         VSH_SP
# ...
      7483.0000        10.4133        17.7469         0.0022        85.5238       78.80952         0.7965         0.8203        33.8367         0.8383        -54.976      -4.853947      0.9746706      0.9191009
      7483.5000        10.4437        17.6117         0.0056        84.5708       77.81681         0.7874         0.8092        33.1968          0.868       -54.7905      -4.650267      0.9535491      0.9224955
      7484.0000        10.4591        17.3445         0.0068        82.8597       76.03442         0.7785         0.8012        32.7543         0.8856       -54.9878      -4.893192      0.9156259      0.9184468
      7484.5000         10.474        17.2561         0.0072        81.0886       74.18951         0.7697         0.7933        32.6573         0.8963       -55.1855       -5.13658      0.8763726      0.9143903
      7485.0000        10.4874        17.2964         0.0052        80.2268       73.29181         0.7611         0.7842        32.7487         0.8706        -55.241      -5.214067      0.8572725      0.9130989
      7485.5000        10.4884        17.6174         0.0024        80.0822       73.14118         0.7527         0.7711        33.0143         0.8412       -55.1388      -5.107571      0.8540677      0.9148738
      7486.0000        10.4893        17.9388         0.0008        81.2485       74.35608         0.7443         0.7582        33.6763         0.8151       -55.0367      -5.001192      0.8799165      0.9166468
      7486.5000        10.4907        18.1185         0.0018        81.6587       74.78337         0.7372         0.7433        34.4434         0.7974       -54.9344      -4.894576      0.8890079      0.9184237
      7487.0000        10.4929        18.2528         0.0046        81.4852       74.60264         0.7312         0.7282        35.1411         0.7805        -54.838      -4.794854      0.8851625      0.9200858
      7487.5000        10.4952        18.0197         0.0077        81.8693       75.00275         0.7253         0.7171        35.4712         0.7639       -54.7525      -4.707838      0.8936754       0.921536
      7488.0000        10.5012        17.7717           0.01        83.2419       76.43253         0.7194         0.7109        35.3236         0.7559       -54.6672      -4.621058      0.9240965      0.9229824
      7488.5000        10.5155         17.503         0.0114        84.8781       78.13691          0.716         0.7049        34.9521         0.7489       -54.5818      -4.534163      0.9603598      0.9244306
      7489.0000        10.5321        17.2324          0.012        84.0088       77.23138         0.7133         0.7061        34.4719          0.745       -54.4964      -4.447267      0.9410933      0.9258789
      7489.5000        10.5612        17.0664         0.0118        81.3909       74.50441         0.7106         0.7094        33.8931         0.7504       -54.5568      -4.530473      0.8830726      0.9244921
      7490.0000        10.5825        16.9044         0.0113        78.9828       71.99598         0.7084         0.7128        33.2729         0.7558       -54.6337      -4.632927      0.8297017      0.9227846
      7490.5000        10.5917        16.9272         0.0099        77.8175       70.78212         0.7082         0.7176        32.7791         0.7718       -54.7107      -4.735502      0.8038749       0.921075
      7491.0000        10.5937        17.1273         0.0085        78.1859       71.16587         0.7081          0.723        32.7987         0.7917       -54.7876      -4.837957      0.8120398      0.9193674
      7491.5000        10.5797        17.5865          0.007        80.4366       73.51035          0.708         0.7284        34.0015         0.7954       -54.8799      -4.958378      0.8619224      0.9173604
      7492.0000        10.5658        18.0306         0.0055        81.4845       74.60191         0.7091         0.7335        35.3669         0.7903       -54.9883       -5.09758      0.8851469      0.9150403
      7492.5000         10.563        18.3968          0.004         82.204       75.35139         0.7115         0.7384        35.7548         0.7848       -55.0966      -5.236666      0.9010935      0.9127222
      7493.0000        10.5609        18.6783         0.0025         83.413       76.61077         0.7138         0.7434        35.4851          0.779       -55.1219      -5.278919      0.9278888       0.912018
      7493.5000        10.5737        18.3911          0.002        84.0563       77.28087         0.7167          0.748        34.6865          0.779       -55.1263      -5.296797      0.9421461        0.91172
      7494.0000        10.5995        18.1977          0.002         82.972       76.15139         0.7192         0.7487        33.8999         0.7842       -55.1307      -5.314665      0.9181147      0.9114223
      7494.5000        10.6221        18.3603          0.002        81.4384       74.55389         0.7191         0.7493        33.1909         0.7843       -55.1025      -5.294505      0.8841254      0.9117582
      7495.0000        10.6353        18.7509          0.002        80.4667        73.5417         0.7184           0.75        32.8875         0.7755       -55.0499      -5.245874      0.8625894      0.9125687
      7495.5000        10.6484        18.9783          0.002        80.2568       73.32306         0.7168         0.7502        32.9393         0.7734       -54.9975       -5.19748      0.8579375      0.9133753
      7496.0000        10.6591        19.2052          0.002        81.0424       74.14139         0.7152           0.75        33.1592         0.7774       -54.9524      -5.157599      0.8753487        0.91404
      7496.5000        10.6643        19.2959          0.002        82.0366       75.17702         0.7136         0.7499        33.6124         0.7816         -55.02      -5.249208      0.8973833      0.9125132
      7497.0000        10.6694        19.1802          0.002        82.9927       76.17295         0.7117         0.7497          34.28          0.789       -55.0876      -5.340812      0.9185734      0.9109865
      7497.5000        10.6748        19.0594          0.002        82.9047       76.08129         0.7096         0.7437        35.2736         0.7965       -54.9609      -5.205731      0.9166232      0.9132378
      7498.0000        10.6806        18.9282         0.0018        81.0311       74.12962         0.7076         0.7371        34.9093         0.7993       -54.6646      -4.872786      0.8750982      0.9187869
      7498.5000        10.6864        18.8739         0.0016          76.33       69.23264         0.7056         0.7325        33.7651         0.7912       -53.9968      -4.106422      0.7709073      0.9315596
      7499.0000        10.6934        18.9027         0.0013        77.1593        70.0965         0.7036          0.728        34.1235         0.7599       -53.4297      -3.457542      0.7892871      0.9423743
      7499.5000        10.7049        18.9237         0.0011        80.5291        73.6067         0.7018         0.7239        35.0086         0.7312        -52.985      -2.951469      0.8639724      0.9508088
      7500.0000        10.7164        18.8038         0.0009        82.3513       75.50483         0.6999         0.7214        35.8472         0.7082       -52.9061      -2.872157      0.9043581      0.9521307
      7500.5000        10.7279        18.5978         0.0015        83.3412       76.53598         0.6981         0.7189         35.117         0.7072       -52.8306      -2.796811      0.9262974      0.9533865
      7501.0000        10.7403        18.3517         0.0021        83.7252       76.93597         0.6963         0.7164        34.3959         0.7243         -53.02      -3.030514       0.934808      0.9494914
      7501.5000        10.7528        18.0415         0.0027        84.6982       77.94952         0.6946         0.7157        33.9138         0.7492       -53.2177      -3.273902      0.9563727       0.945435
