#------------------------------------------------------------------------------
# Created by    : vladimir.rabinovich
# Created on    : 09/19/2023 17:20:36
#------------------------------------------------------------------------------
~Version Information Section
VERS.           2.0     :   CWLS log ASCII Standard - VERSION 2.0
WRAP.           NO      :   One line per depth step
~Well Information Section
#MNEM       .UNIT                                         VALUE :DESCRIPTION
#------------------------------------------------------------------------------
STRT        .FT                                             510 :START DEPTH
STOP        .FT                                            7943 :STOP DEPTH
STEP        .FT                                             0.5 :STEP      
NULL        .                                           -999.25 :NULL      
COMP        .                       BLUE DOLPHIN EXPLORATION CO :COMPANY   
WELL        .                                OCS 00709 ST00BP00 :WELL      
FLD         .                                FEDERAL BLOCK 0288 :FIELD     
LOC         .                                                   :LOCATION  
CNTY        .                             GALVESTON LARGE BLOCK :LOCATION  
STAT        .                                             TEXAS :STATE     
CTRY        .                                     UNITED STATES :COUNTRY   
SRVC        .                                                   :SERVICE COMPANY
DATE        .                             9/13/2023 11:19:25 AM :LOG DATE  
API         .                                    42706000400000 :API NUMBER
UWI         .                                    42706000400000 :UNIQUE WELL ID
XCOORD      .                                   1098851.8122004 :SURFACE X 
YCOORD      .                                  10485233.3471489 :SURFACE Y 
LAT         .                                         28.881916 :LATITUDE  
LON         .                                        -94.692672 :LONGITUDE 
ELEV        .FT                                              93 :ELEVATION VALUE
ELEV_TYPE   .                                                KB :ELEVATION REFERENCE TYPE
~Curve Information Section
#MNEM       .UNIT                                      API CODE :CURVE DESCRIPTION
#------------------------------------------------------------------------------
DEPT        .FT                                                 :DEPTH     
ASN         .OHMM                                               :          
GR          .GAPI                                               :          
ILD         .OHMM                                               :          
NEUT        .NAPI                                               :          
SP          .MV                                                 :          
SP_NORM     .MV                                                 :SP Normalized
VSH_SP      .V/V                                                :Volume of Shale from SP
~A        DEPTH            ASN             GR            ILD           NEUT             SP        SP_NORM         VSH_SP
# ...
      5434.5000         0.8105        -999.25         0.6988        -999.25       -57.4248      -6.205288      0.9235402
      5435.0000         0.7906        -999.25         0.6822        -999.25       -57.8196      -6.600086       0.916362
      5435.5000         0.7685        -999.25         0.6512        -999.25       -58.9319      -7.712387      0.8961384
      5436.0000         0.7558        -999.25         0.6213        -999.25       -59.5198      -8.300285      0.8854493
      5436.5000         0.7375        -999.25         0.5948        -999.25       -59.5537      -8.334187       0.884833
      5437.0000         0.7165        -999.25         0.5896        -999.25       -60.6355      -9.415989      0.8651639
      5437.5000         0.6948        -999.25         0.5955        -999.25       -60.3054      -9.085888      0.8711657
      5438.0000          0.704        -999.25         0.6046        -999.25       -59.3457      -8.126186      0.8886148
      5438.5000         0.7239        -999.25         0.6021        -999.25       -58.5482      -7.328686      0.9031148
      5439.0000         0.7445        -999.25         0.5981        -999.25       -57.8897      -6.670189      0.9150875
      5439.5000         0.7626        -999.25          0.606        -999.25       -57.3166      -6.097088      0.9255075
      5440.0000         0.7755        -999.25         0.6144        -999.25       -57.6907      -6.471188      0.9187057
      5440.5000         0.7779        -999.25         0.6247        -999.25       -58.5312      -7.311687      0.9034238
      5441.0000         0.7834        -999.25         0.6358        -999.25       -58.6584      -7.438889      0.9011111
      5441.5000         0.7992        -999.25         0.6493        -999.25       -60.1201      -8.900585      0.8745348
      5442.0000         0.8255        -999.25         0.6605        -999.25       -63.5294      -12.30989      0.8125475
      5442.5000         0.8418        -999.25         0.6679        -999.25       -68.0873      -16.86779      0.7296765
      5443.0000         0.8421        -999.25         0.6761        -999.25       -69.7015      -18.48199      0.7003275
      5443.5000         0.8356        -999.25         0.6855        -999.25       -66.9907      -15.77119      0.7496148
      5444.0000         0.8248        -999.25         0.6946        -999.25       -62.4125      -11.19299      0.8328548
      5444.5000         0.8082        -999.25         0.6986        -999.25       -57.6783      -6.458786      0.9189312
      5445.0000         0.7969        -999.25         0.7024        -999.25       -52.6773      -1.457787              1
      5445.5000         0.7898        -999.25         0.7047        -999.25       -50.7657      0.4538116              1
      5446.0000         0.7919        -999.25         0.7063        -999.25       -50.2797      0.9398117              1
      5446.5000         0.8006        -999.25         0.7066        -999.25       -50.4286      0.7909126              1
      5447.0000         0.8072        -999.25         0.7061        -999.25       -50.7386      0.4809113              1
      5447.5000         0.8024        -999.25         0.7046        -999.25       -51.1221     0.09741211              1
      5448.0000         0.7955        -999.25         0.7046        -999.25       -51.3479     -0.1283875              1
      5448.5000         0.8001        -999.25         0.7065        -999.25       -51.2648    -0.04528809              1
      5449.0000          0.802        -999.25         0.7083        -999.25       -51.5519      -0.332386              1
      5449.5000         0.8001        -999.25         0.7101        -999.25       -51.6218     -0.4022865              1
      5450.0000         0.7991        -999.25         0.7119        -999.25        -51.205     0.01451111              1
      5450.5000          0.807        -999.25         0.7139        -999.25       -51.7634     -0.5438881              1
      5451.0000         0.8114        -999.25         0.7159        -999.25       -52.3766      -1.157085              1
      5451.5000         0.8036        -999.25         0.7186        -999.25        -52.512      -1.292488              1
      5452.0000         0.7986        -999.25         0.7223        -999.25       -52.0059     -0.7863884              1
      5452.5000         0.8101        -999.25         0.7263        -999.25       -51.2394    -0.01988602              1
      5453.0000         0.8205        -999.25         0.7316        -999.25        -52.085     -0.8654861              1
      5453.5000         0.8129        -999.25         0.7368        -999.25       -52.5433      -1.323788      0.9937733
      5454.0000         0.8063        -999.25         0.7376        -999.25       -51.9584     -0.7388878              1
      5454.5000         0.8246        -999.25          0.738        -999.25        -51.054      0.1655121              1
      5455.0000         0.8521        -999.25         0.7344        -999.25       -50.8132       0.406311              1
      5455.5000         0.8749        -999.25         0.7293        -999.25       -51.6826     -0.4630852              1
      5456.0000         0.8687        -999.25         0.7254        -999.25       -52.8536      -1.634087       0.987806
      5456.5000         0.8583        -999.25         0.7219        -999.25       -53.0224      -1.802887      0.9845599
      5457.0000         0.8515        -999.25         0.7204        -999.25       -53.4709      -2.251389      0.9759349
      5457.5000         0.8537        -999.25          0.719        -999.25       -55.5508      -4.331287      0.9359368
      5458.0000         0.8543        -999.25         0.7177        -999.25       -58.8743      -7.654785      0.8720233
      5458.5000         0.8331        -999.25         0.7161        -999.25       -61.9265      -10.70699      0.8133272
      5459.0000         0.8197        -999.25         0.7132        -999.25       -59.7809      -8.561386      0.8545887
      5459.5000         0.8291        -999.25         0.7102        -999.25       -55.7973      -4.577785      0.9311965
      5460.0000         0.8491        -999.25         0.7055        -999.25       -53.5444      -2.324886      0.9745214
      5460.5000          0.857        -999.25         0.7009        -999.25       -53.2756      -2.056087      0.9796906
      5461.0000         0.8637        -999.25         0.6966        -999.25       -53.4755      -2.255985      0.9758464
      5461.5000         0.8733        -999.25         0.6923        -999.25       -53.3635      -2.143986      0.9780003
      5462.0000         0.8732        -999.25         0.6901        -999.25       -54.4193      -3.199787      0.9576964
      5462.5000         0.8567        -999.25         0.6891        -999.25       -56.3376      -5.118088       0.920806
      5463.0000         0.8335        -999.25         0.6892        -999.25       -56.8328      -5.613289      0.9112829
      5463.5000         0.8109        -999.25          0.694        -999.25       -54.9133      -3.693787      0.9481964
      5464.0000         0.7993        -999.25         0.6987        -999.25       -53.1464      -1.926888      0.9821752
      5464.5000         0.8139        -999.25         0.7028        -999.25       -52.0618     -0.8422852              1
      5465.0000         0.8479        -999.25         0.7066        -999.25       -51.8148     -0.5952873              1
      5465.5000         0.8694        -999.25         0.7118        -999.25       -52.2918      -1.072289      0.9986098
      5466.0000         0.8744        -999.25         0.7186        -999.25       -52.5332      -1.313686      0.9939676
      5466.5000         0.8727        -999.25         0.7256        -999.25       -51.7006     -0.4810867              1
      5467.0000         0.8695        -999.25         0.7334        -999.25       -51.1846     0.03491211              1
      5467.5000         0.8661        -999.25         0.7412        -999.25       -51.5802     -0.3606873              1
