#------------------------------------------------------------------------------
# Created by    : vladimir.rabinovich
# Created on    : 09/19/2023 17:20:24
#------------------------------------------------------------------------------
~Version Information Section
VERS.           2.0     :   CWLS log ASCII Standard - VERSION 2.0
WRAP.           NO      :   One line per depth step
~Well Information Section
#MNEM       .UNIT                                         VALUE :DESCRIPTION
#------------------------------------------------------------------------------
STRT        .FT                                            2979 :START DEPTH
STOP        .FT                                           11003 :STOP DEPTH
STEP        .FT                                             0.5 :STEP      
NULL        .                                           -999.25 :NULL      
COMP        .                                        TEXACO USA :COMPANY   
WELL        .                               OCS G01821 ST00BP00 :WELL      
FLD         .                                           WILDCAT :FIELD     
LOC         .                                                   :LOCATION  
CNTY        .                           HIGH ISLAND LARGE BLOCK :LOCATION  
STAT        .                                             TEXAS :STATE     
CTRY        .                                     UNITED STATES :COUNTRY   
SRVC        .                                                   :SERVICE COMPANY
DATE        .                             9/13/2023 11:19:15 AM :LOG DATE  
API         .                                    42708300170000 :API NUMBER
UWI         .                                    42708300170000 :UNIQUE WELL ID
XCOORD      .                                  1345073.13508324 :SURFACE X 
YCOORD      .                                  10640242.4404634 :SURFACE Y 
LAT         .                                         29.315788 :LATITUDE  
LON         .                                        -93.927032 :LONGITUDE 
ELEV        .FT                                              74 :ELEVATION VALUE
ELEV_TYPE   .                                                KB :ELEVATION REFERENCE TYPE
~Curve Information Section
#MNEM       .UNIT                                      API CODE :CURVE DESCRIPTION
#------------------------------------------------------------------------------
DEPT        .FT                                                 :DEPTH     
ASN         .OHMM                                               :          
CILD        .MMHO                                               :          
ILD         .OHMM                                               :          
SP          .MV                                                 :          
SP_NORM     .MV                                                 :SP Normalized
VSH_SP      .V/V                                                :Volume of Shale from SP
~A        DEPTH            ASN           CILD            ILD             SP        SP_NORM         VSH_SP
# ...
      8299.0000         0.8126       1362.758         0.6377       -43.7322      -3.543808      0.9589708
      8299.5000         0.8203       1351.867         0.6398       -43.8627      -3.606213      0.9579643
      8300.0000          0.828       1340.988         0.6418       -43.9931       -3.66851      0.9569595
      8300.5000         0.8332       1337.246         0.6438       -44.1235      -3.730812      0.9559547
      8301.0000         0.8277       1345.717         0.6458       -44.2539       -3.79311      0.9549499
      8301.5000         0.8221       1358.117         0.6479       -44.3239       -3.79501      0.9549192
      8302.0000         0.8165       1373.412         0.6499       -44.2665       -3.66951      0.9569434
      8302.5000         0.8109        1388.73         0.6519       -44.2092      -3.544113      0.9589659
      8303.0000         0.8054       1404.025         0.6539       -44.1519      -3.418716      0.9609885
      8303.5000         0.8008        1419.32         0.6559       -44.0795      -3.278214      0.9632546
      8304.0000         0.8023       1425.783          0.658       -43.9233      -3.053917      0.9668723
      8304.5000         0.8072       1419.596           0.66       -43.7673      -2.829815      0.9704869
      8305.0000          0.812       1412.521          0.662       -43.6111      -2.605515      0.9741046
      8305.5000         0.8166       1402.217          0.664       -43.7195      -2.645817      0.9734546
      8306.0000         0.8211       1391.912         0.6661       -44.0192      -2.877415      0.9697191
      8306.5000         0.8256       1381.621         0.6681       -44.3193      -3.109421      0.9659771
      8307.0000         0.8251       1371.316         0.6701       -44.6025       -3.32452      0.9625077
      8307.5000         0.8237       1361.422         0.6721       -44.8596      -3.513519      0.9594594
      8308.0000         0.8223       1368.783         0.6763       -44.4786      -3.064419      0.9667029
      8308.5000         0.8209       1376.143         0.6833       -44.1006       -2.61832      0.9738981
      8309.0000         0.8214       1383.492         0.6903       -43.9501      -2.399719      0.9774239
      8309.5000         0.8268       1390.852         0.6974        -44.074      -2.455521      0.9765239
      8310.0000         0.8322       1392.848         0.7044       -44.5627      -2.876118        0.96974
      8310.5000         0.8376       1378.576         0.7114       -44.9437      -3.189022      0.9646932
      8311.0000          0.843       1360.088         0.7185       -45.2637      -3.440922      0.9606303
      8311.5000         0.8483       1340.852         0.7255       -45.5836      -3.692722       0.956569
      8312.0000         0.8543       1321.613         0.7325       -45.4517      -3.492722      0.9597948
      8312.5000         0.8686       1302.377         0.7396       -45.0719      -3.044823       0.967019
      8313.0000         0.8829       1283.139         0.7466       -44.7594      -2.664223      0.9731577
      8313.5000         0.8972       1259.611         0.7537       -44.4581      -2.294823      0.9791158
      8314.0000         0.9114       1222.883         0.7607       -44.1565      -1.925129      0.9850786
      8314.5000         0.9266       1186.156         0.7677       -43.8549      -1.555428      0.9910415
      8315.0000         0.9453       1149.379         0.7762       -43.9863      -1.618729      0.9900205
      8315.5000         0.9639       1114.049         0.7889       -44.1664      -1.730728      0.9882141
      8316.0000         0.9825       1079.018         0.8015       -44.3467      -1.842926      0.9864044
      8316.5000         1.0011       1043.938         0.8141       -44.5269      -1.955029      0.9845963
      8317.0000          1.026       1017.864         0.8268       -44.7255      -2.085526      0.9824916
      8317.5000         1.0634       997.2051         0.8394       -44.9256      -2.217529      0.9803624
      8318.0000         1.0859       976.5703         0.8526       -45.1257      -2.349533      0.9782333
      8318.5000          1.101       955.9365         0.8674       -45.3259      -2.481632      0.9761027
      8319.0000         1.1162       935.3516         0.8821       -45.5261      -2.613731      0.9739721
      8319.5000         1.1313       917.9111         0.8969       -45.7262      -2.745731      0.9718431
      8320.0000         1.1447       900.4707         0.9116       -45.9266      -2.878033      0.9697092
      8320.5000          1.157       883.0303         0.9256       -46.1268      -3.010132      0.9675785
      8321.0000         1.1693       866.5127         0.9394       -46.3269      -3.142136      0.9654495
      8321.5000         1.1815       853.6758         0.9531        -46.527      -3.274136      0.9633204
      8322.0000         1.1942       863.2314         0.9626       -46.7272      -3.406235      0.9611897
      8322.5000         1.1835       872.8008         0.9676       -46.9183      -3.529236      0.9592059
      8323.0000         1.1696       885.2012         0.9606       -47.0948      -3.637634      0.9574575
      8323.5000         1.1516       901.2695         0.9521       -47.2709      -3.745636      0.9557155
      8324.0000         1.1335       917.3623         0.9436       -47.4471      -3.853737       0.953972
      8324.5000          1.116       933.4307         0.9351       -47.6233      -3.961838      0.9522284
      8325.0000         1.1029       949.5234         0.9266       -47.6572      -3.927639        0.95278
      8325.5000         1.0897       965.5918         0.9163       -47.4789       -3.68124      0.9567542
      8326.0000         1.0766       981.2607         0.9053       -47.1978      -3.332039      0.9623865
      8326.5000         1.0657       992.1523         0.8943       -46.8536      -2.919739      0.9690365
      8327.0000         1.0556       1003.043         0.8832       -46.5087      -2.506741      0.9756978
      8327.5000         1.0476       1013.935         0.8756       -46.8299      -2.759838      0.9716155
      8328.0000         1.0499       1024.838         0.8692       -47.2296      -3.091438      0.9662671
      8328.5000         1.0464       1030.201         0.8628       -47.6292      -3.422943      0.9609203
      8329.0000         1.0395       1034.955         0.8563       -48.0289      -3.754543      0.9555719
      8329.5000         1.0326       1039.707         0.8499       -48.4285      -4.086044      0.9502251
      8330.0000         1.0258       1044.461         0.8425       -48.7771      -4.366543      0.9457009
      8330.5000         1.0189       1049.215         0.8311       -48.3071      -3.828442        0.95438
      8331.0000         1.0121       1055.178         0.8197        -47.829      -3.282242      0.9631897
      8331.5000          1.003       1062.238         0.8083       -47.3497      -2.734844      0.9720187
      8332.0000         0.9935       1069.299         0.7969       -46.8704      -2.187447      0.9808477
      8332.5000          0.984       1076.361         0.7855        -46.391      -1.639946      0.9896783
      8333.0000         0.9745       1083.408         0.7741       -46.4564      -1.637249      0.9897218
      8333.5000         0.9654       1097.955         0.7626        -46.739      -1.900013      0.9854836
      8334.0000         0.9574        1118.59         0.7512       -47.0213      -2.199005      0.9806612
      8334.5000         0.9493       1139.248         0.7398        -47.224      -2.418388      0.9771228
      8335.0000         0.9412       1157.164         0.7284       -47.2641      -2.475174      0.9762069
      8335.5000         0.9331       1173.031          0.717       -47.3043      -2.532059      0.9752894
      8336.0000         0.9251       1188.926         0.7086       -47.3443      -2.588749       0.974375
      8336.5000          0.917       1204.795         0.7017       -47.2675      -2.528637      0.9753445
