#------------------------------------------------------------------------------
# Created by    : vladimir.rabinovich
# Created on    : 09/19/2023 17:22:56
#------------------------------------------------------------------------------
~Version Information Section
VERS.           2.0     :   CWLS log ASCII Standard - VERSION 2.0
WRAP.           NO      :   One line per depth step
~Well Information Section
#MNEM       .UNIT                                         VALUE :DESCRIPTION
#------------------------------------------------------------------------------
STRT        .FT                                             671 :START DEPTH
STOP        .FT                                           10000 :STOP DEPTH
STEP        .FT                                             0.5 :STEP      
NULL        .                                           -999.25 :NULL      
COMP        .                                    MOBIL OIL CORP :COMPANY   
WELL        .                                     ST TR 00565-L :WELL      
FLD         .                                           WILDCAT :FIELD     
LOC         .                                                   :LOCATION  
CNTY        .                      MATAGORDA ISLAND LARGE BLOCK :LOCATION  
STAT        .                                             TEXAS :STATE     
CTRY        .                                     UNITED STATES :COUNTRY   
SRVC        .                                                   :SERVICE COMPANY
DATE        .                             9/13/2023 11:12:05 AM :LOG DATE  
API         .                                    42703000150000 :API NUMBER
UWI         .                                    42703000150000 :UNIQUE WELL ID
XCOORD      .                                  584511.465629887 :SURFACE X 
YCOORD      .                                  10263641.5286434 :SURFACE Y 
LAT         .                                         28.243485 :LATITUDE  
LON         .                                       -96.2796592 :LONGITUDE 
ELEV        .FT                                              11 :ELEVATION VALUE
ELEV_TYPE   .                                                KB :ELEVATION REFERENCE TYPE
~Curve Information Section
#MNEM       .UNIT                                      API CODE :CURVE DESCRIPTION
#------------------------------------------------------------------------------
DEPT        .FT                                                 :DEPTH     
SP          .MV                                                 :          
SP_NORM     .MV                                                 :SP Normalized
VSH_SP      .V/V                                                :Volume of Shale from SP
~A        DEPTH             SP        SP_NORM         VSH_SP
# ...
      7469.0000          8.136         0.0273              1
      7469.5000         8.0383          0.125              1
      7470.0000         7.9413          0.222              1
      7470.5000         8.0188         0.1445              1
      7471.0000         8.0963          0.067              1
      7471.5000         8.1737        -0.0104              1
      7472.0000         8.2775        -0.1142              1
      7472.5000         8.3977        -0.2344              1
      7473.0000         8.5178        -0.3545              1
      7473.5000          8.638        -0.4747              1
      7474.0000         8.7467        -0.5834              1
      7474.5000          8.821        -0.6577              1
      7475.0000         8.8954        -0.7321              1
      7475.5000         8.9229        -0.7596              1
      7476.0000         8.8172        -0.6539              1
      7476.5000         8.7113         -0.548              1
      7477.0000         8.5351        -0.3718              1
      7477.5000         8.3418        -0.1785              1
      7478.0000         8.1486         0.0147              1
      7478.5000         7.9553          0.208              1
      7479.0000         7.8258         0.3375              1
      7479.5000         7.7736         0.3897              1
      7480.0000         7.7213          0.442              1
      7480.5000         7.7482         0.4151              1
      7481.0000         7.8919         0.2714              1
      7481.5000         8.0356         0.1277              1
      7482.0000         8.1793         -0.016              1
      7482.5000         8.3203         -0.157              1
      7483.0000         8.4162        -0.2529              1
      7483.5000          8.512        -0.3487              1
      7484.0000         8.6079        -0.4446              1
      7484.5000         8.6751        -0.5118              1
      7485.0000          8.711        -0.5477              1
      7485.5000         8.7468        -0.5835              1
      7486.0000         8.7743         -0.611              1
      7486.5000          8.683        -0.5197              1
      7487.0000         8.5919        -0.4286              1
      7487.5000         8.5003         -0.337              1
      7488.0000         8.3123         -0.149              1
      7488.5000         8.1247         0.0386              1
      7489.0000         7.9371         0.2262              1
      7489.5000         7.8222         0.3411              1
      7490.0000         7.7855         0.3778              1
      7490.5000         7.9032         0.2601              1
      7491.0000         8.1545         0.0088              1
      7491.5000         8.4221        -0.2588              1
      7492.0000         8.6528        -0.4895              1
      7492.5000          8.852        -0.6887              1
      7493.0000         9.0512        -0.8879              1
      7493.5000         9.2365        -1.0732              1
      7494.0000         9.3673         -1.204              1
      7494.5000         9.4983         -1.335              1
      7495.0000         9.5756        -1.4123              1
      7495.5000         9.5832        -1.4199              1
      7496.0000         9.5908        -1.4275              1
      7496.5000         9.4826        -1.3193              1
      7497.0000         9.3019        -1.1386              1
      7497.5000         9.1212        -0.9579              1
      7498.0000         8.9916        -0.8283              1
      7498.5000         8.9107        -0.7474              1
      7499.0000         8.8299        -0.6666              1
      7499.5000         8.7491        -0.5858              1
      7500.0000         8.6682        -0.5049              1
      7500.5000         8.5873         -0.424              1
      7501.0000         8.5065        -0.3432              1
      7501.5000         8.4256        -0.2623              1
      7502.0000         8.3947        -0.2314              1
      7502.5000         8.3658        -0.2025              1
      7503.0000         8.3369        -0.1736              1
      7503.5000         8.3081        -0.1448              1
      7504.0000         8.2792        -0.1159              1
      7504.5000         8.2184        -0.0551              1
      7505.0000         8.1541         0.0092              1
      7505.5000           8.09         0.0733              1
      7506.0000         8.0257         0.1376              1
      7506.5000         7.9615         0.2018              1
      7507.0000         7.8568         0.3065              1
      7507.5000         7.7432         0.4201              1
      7508.0000         7.6295         0.5338              1
      7508.5000         7.5157         0.6476              1
      7509.0000         7.4888         0.6745              1
      7509.5000         7.5441         0.6192              1
      7510.0000         7.5994         0.5639              1
      7510.5000         7.6546         0.5087              1
      7511.0000         7.7098         0.4535              1
      7511.5000         7.7573          0.406              1
      7512.0000         7.7978         0.3655              1
      7512.5000         7.8384         0.3249              1
      7513.0000          7.879         0.2843              1
      7513.5000         7.9195         0.2438              1
      7514.0000         7.8906         0.2727              1
      7514.5000         7.8353          0.328              1
      7515.0000         7.7801         0.3832              1
      7515.5000         7.7407         0.4226              1
      7516.0000         7.7436         0.4197              1
      7516.5000         7.7465         0.4168              1
      7517.0000         7.7604         0.4029              1
      7517.5000           7.78         0.3833              1
      7518.0000          7.803         0.3603              1
      7518.5000          7.836         0.3273              1
      7519.0000         7.8886         0.2747              1
      7519.5000         8.0016         0.1617              1
      7520.0000         8.1145         0.0488              1
      7520.5000         8.3632        -0.1999              1
      7521.0000         8.6308        -0.4675              1
      7521.5000         8.8542        -0.6909              1
      7522.0000         9.0634        -0.9001              1
      7522.5000         9.0833          -0.92              1
      7523.0000         9.1029        -0.9396              1
      7523.5000         9.0492        -0.8859              1
      7524.0000         8.9452        -0.7819              1
      7524.5000          8.841        -0.6777              1
      7525.0000         8.7368        -0.5735              1
      7525.5000         8.6395        -0.4762              1
      7526.0000         8.6106        -0.4473              1
      7526.5000         8.5818        -0.4185              1
      7527.0000         8.5529        -0.3896              1
      7527.5000          8.524        -0.3607              1
      7528.0000          8.495        -0.3317              1
      7528.5000         8.4612        -0.2979              1
      7529.0000         8.4274        -0.2641              1
      7529.5000         8.3935        -0.2302              1
      7530.0000         8.3597        -0.1964              1
      7530.5000         8.3259        -0.1626              1
      7531.0000         8.2482        -0.0849              1
      7531.5000         8.1368         0.0265              1
      7532.0000         8.0254         0.1379              1
      7532.5000         7.9139         0.2494              1
      7533.0000         7.8627         0.3006              1
      7533.5000         7.8199         0.3434              1
      7534.0000         7.7938         0.3695              1
      7534.5000         7.8198         0.3435              1
