#------------------------------------------------------------------------------
# Created by    : vladimir.rabinovich
# Created on    : 09/19/2023 17:20:38
#------------------------------------------------------------------------------
~Version Information Section
VERS.           2.0     :   CWLS log ASCII Standard - VERSION 2.0
WRAP.           NO      :   One line per depth step
~Well Information Section
#MNEM       .UNIT                                         VALUE :DESCRIPTION
#------------------------------------------------------------------------------
STRT        .FT                                             495 :START DEPTH
STOP        .FT                                            8683 :STOP DEPTH
STEP        .FT                                             0.5 :STEP      
NULL        .                                           -999.25 :NULL      
COMP        .                                      SHELL OIL CO :COMPANY   
WELL        .                                OCS 00706 ST00BP00 :WELL      
FLD         .                                           WILDCAT :FIELD     
LOC         .                                                   :LOCATION  
CNTY        .                             GALVESTON LARGE BLOCK :LOCATION  
STAT        .                                             TEXAS :STATE     
CTRY        .                                     UNITED STATES :COUNTRY   
SRVC        .                                                   :SERVICE COMPANY
DATE        .                             9/13/2023 11:19:25 AM :LOG DATE  
API         .                                    42706000290000 :API NUMBER
UWI         .                                    42706000290000 :UNIQUE WELL ID
XCOORD      .                                  1097630.70361638 :SURFACE X 
YCOORD      .                                  10500448.3193905 :SURFACE Y 
LAT         .                                          28.92371 :LATITUDE  
LON         .                                        -94.697168 :LONGITUDE 
ELEV        .FT                                              92 :ELEVATION VALUE
ELEV_TYPE   .                                                KB :ELEVATION REFERENCE TYPE
~Curve Information Section
#MNEM       .UNIT                                      API CODE :CURVE DESCRIPTION
#------------------------------------------------------------------------------
DEPT        .FT                                                 :DEPTH     
ASN         .OHMM                                               :          
CILD        .MMHO                                               :          
ILD         .OHMM                                               :          
SP          .MV                                                 :          
SP_NORM     .MV                                                 :SP Normalized
VSH_SP      .V/V                                                :Volume of Shale from SP
~A        DEPTH            ASN           CILD            ILD             SP        SP_NORM         VSH_SP
# ...
      6993.0000         1.1651       2149.563         0.6404       -82.9084      -44.13459      0.2689053
      6993.5000         1.1983       2085.938         0.6548       -81.3196       -42.5442      0.2958609
      6994.0000         1.2667       2022.313         0.6692         -79.63      -40.85302      0.3245251
      6994.5000         1.3193       1958.688         0.6836        -77.787      -39.00844      0.3557891
      6995.0000         1.4133       1895.125         0.7012       -78.9507      -40.17056      0.3360922
      6995.5000         1.5718       1825.492         0.7219        -80.557      -41.77528      0.3088936
      6996.0000         1.4843       1674.334         0.7426       -82.1655      -43.38219      0.2816578
      6996.5000         1.3721       1675.914         0.7621       -81.4094      -42.62452      0.2944997
      6997.0000         1.2863        1752.02          0.771       -75.2953      -36.50883      0.3981553
      6997.5000         1.2427       1898.877         0.7677       -69.2075      -30.41945      0.5013654
      6998.0000         1.1991        1983.08         0.7528       -61.0554      -22.26577      0.6395632
      6998.5000         1.0178       1985.008          0.738       -57.6389      -18.84769      0.6974968
      6999.0000         0.9438       1986.936         0.7232       -56.8582       -18.0654      0.7107559
      6999.5000         0.9253       1988.867         0.7083       -57.2888      -18.49442      0.7034844
      7000.0000          0.968       1990.795         0.6935       -60.1174      -21.32144      0.6555688
      7000.5000          1.036       1872.719         0.6947       -66.8911      -28.09356      0.5407872
      7001.0000          1.104       1604.463         0.7083        -68.366      -29.56688      0.5158157
      7001.5000          1.172        1484.51          0.834       -69.5231       -30.7224      0.4962306
      7002.0000           1.24       1435.969          0.992       -70.0599      -31.25761      0.4871591
      7002.5000         1.3061        1397.52         1.1178       -68.6575      -29.85363      0.5109553
      7003.0000         1.3547       1123.076         1.2444        -66.981      -28.17555      0.5393974
      7003.5000         1.4034       1066.809         1.3605       -64.7369      -25.92987      0.5774598
      7004.0000          1.452       794.0762         1.4432       -57.6061      -18.79749      0.6983477
      7004.5000         1.5007       754.3564         1.5202       -48.9017       -10.0915      0.8459067
      7005.0000         1.5512       725.2568         1.5656       -46.4648      -7.653027      0.8872368
      7005.5000         1.6026       700.1953         1.5676       -44.6678      -5.854443      0.9177213
      7006.0000         1.6262       722.7988         1.5197       -43.0374      -4.222458      0.9453821
      7006.5000         1.5883        761.335         1.4683       -41.4836       -2.66708      0.9717444
      7007.0000         1.5503       805.6631         1.4168       -39.7568     -0.9386978              1
      7007.5000         1.5123       911.7021         1.3558       -39.0336      -0.213913              1
      7008.0000         1.4743       1017.565         1.2742       -40.4558      -1.634533      0.9892452
      7008.5000         1.4358       1154.852         0.9989       -42.3098       -3.48695      0.9578483
      7009.0000         1.4155        1535.73         0.8945       -46.5568      -7.732372       0.885892
      7009.5000         1.4047       1614.645         0.8312       -56.4446      -17.61859       0.718329
      7010.0000         1.3948       1643.238         0.8037       -68.0154      -29.18781      0.5222405
      7010.5000         1.3888       1666.721         0.8135       -73.2375      -34.40833      0.4337571
      7011.0000         1.4076       1695.051         0.8509       -74.3552      -35.52444      0.4148399
      7011.5000         1.4272       1664.328         0.8883       -75.4728      -36.64046      0.3959244
      7012.0000         1.4467        1596.65         0.9256       -77.5109      -38.67698      0.3614071
      7012.5000         1.4662        1528.27          0.963       -79.4283       -40.5928      0.3289357
      7013.0000         1.4819       1444.789         1.0128       -80.7893      -41.95221      0.3058947
      7013.5000         1.4924       1370.967         1.0883       -78.4028      -39.56414      0.3463706
      7014.0000          1.503        1300.83         1.1629       -73.5334      -34.69315      0.4289296
      7014.5000         1.5141       1218.932         1.2184       -68.6597      -29.81787      0.5115616
      7015.0000          1.526       1035.121         1.2739       -63.7859      -24.94249      0.5941951
      7015.5000          1.538       838.1426         1.3343       -58.4958      -19.65081      0.6838846
      7016.0000         1.5515       753.6104         1.4016       -52.3597      -13.51313      0.7879131
      7016.5000         1.5667       710.9922         1.4647       -48.7745      -9.926346       0.848706
      7017.0000         1.5827       673.5547         1.5279       -47.1573       -8.30756       0.876143
      7017.5000         1.6024       646.8691         1.5969       -45.6156      -6.764282      0.9023003
      7018.0000         1.6243       624.4639         1.6723       -44.4169      -5.563999      0.9226441
      7018.5000         1.6482       631.6719         1.6901       -43.3107      -4.456215      0.9414201
      7019.0000         1.6721       645.6182         1.6708       -42.6577      -3.801636      0.9525146
      7019.5000         1.6886       659.9922         1.6484       -42.0046      -3.146954      0.9636109
      7020.0000         1.7048       674.3447          1.626        -41.402       -2.54277      0.9738513
      7020.5000          1.706       688.6963         1.6037       -40.9714      -2.110592      0.9811764
      7021.0000         1.6368       697.2939         1.5813       -40.5408      -1.678406      0.9885016
      7021.5000         1.5455       703.1748          1.559       -40.6532      -1.789223      0.9866233
      7022.0000         1.5007       709.0615         1.5366       -40.7932      -1.927647      0.9842772
      7022.5000         1.4999       714.9482          1.515        -40.933      -2.065861      0.9819345
      7023.0000         1.5177       721.4492         1.4955       -40.8295      -1.960781      0.9837156
      7023.5000         1.5567       729.0205         1.4759       -40.3654      -1.495098      0.9916085
      7024.0000         1.5802       736.5801         1.4564       -39.9014      -1.029518      0.9994997
      7024.5000         1.5532       744.1514         1.4369       -39.4943     -0.6208382              1
      7025.0000         1.5313       756.4189         1.4173       -39.0917     -0.2166557              1
      7025.5000         1.5132       774.1729         1.3978       -38.6895        0.18713              1
      7026.0000         1.4952       791.9043         1.3783       -38.4487      0.4295082              1
      7026.5000         1.4891       810.3154         1.3587       -38.3081      0.5716896              1
      7027.0000         1.4839       825.8525         1.3384       -38.2817      0.5996742              1
      7027.5000         1.4787       836.6064         1.3177       -38.4255      0.4574547              1
      7028.0000         1.4718       845.9873          1.297       -38.5694       0.315136              1
      7028.5000         1.4597       855.3799         1.2762       -38.5553      0.3308182              1
      7029.0000         1.4476       865.6611         1.2555       -38.3441      0.5435982              1
      7029.5000         1.3727       882.0322         1.2348       -38.1329       0.756382              1
      7030.0000           1.34       895.7178         1.2349        -37.751       1.139862              1
      7030.5000         1.3273       898.2881         1.2392       -37.3276       1.564846              1
