#------------------------------------------------------------------------------
# Created by    : vladimir.rabinovich
# Created on    : 09/19/2023 17:20:18
#------------------------------------------------------------------------------
~Version Information Section
VERS.           2.0     :   CWLS log ASCII Standard - VERSION 2.0
WRAP.           NO      :   One line per depth step
~Well Information Section
#MNEM       .UNIT                                         VALUE :DESCRIPTION
#------------------------------------------------------------------------------
STRT        .FT                                             780 :START DEPTH
STOP        .FT                                            9803 :STOP DEPTH
STEP        .FT                                             0.5 :STEP      
NULL        .                                           -999.25 :NULL      
COMP        .                                  SAMEDAN OIL CORP :COMPANY   
WELL        .                               OCS G04076 ST00BP00 :WELL      
FLD         .                            HIGH ISLAND BLOCK 0105 :FIELD     
LOC         .                                                   :LOCATION  
CNTY        .                           HIGH ISLAND LARGE BLOCK :LOCATION  
STAT        .                                             TEXAS :STATE     
CTRY        .                                     UNITED STATES :COUNTRY   
SRVC        .                                                   :SERVICE COMPANY
DATE        .                             9/13/2023 11:19:59 AM :LOG DATE  
API         .                                    42708401630000 :API NUMBER
UWI         .                                    42708401630000 :UNIQUE WELL ID
XCOORD      .                                  1167393.84075462 :SURFACE X 
YCOORD      .                                  10652000.2522841 :SURFACE Y 
LAT         .                                        29.3430877 :LATITUDE  
LON         .                                       -94.4850788 :LONGITUDE 
ELEV        .FT                                              87 :ELEVATION VALUE
ELEV_TYPE   .                                                KB :ELEVATION REFERENCE TYPE
~Curve Information Section
#MNEM       .UNIT                                      API CODE :CURVE DESCRIPTION
#------------------------------------------------------------------------------
DEPT        .FT                                                 :DEPTH     
ASFL        .OHMM                                               :          
CILD        .MMHO                                               :          
DT          .US/F                                               :          
GR          .GAPI                                               :          
GR_1        .GAPI                                               :          
GR_NORM     .GAPI                                               :GammaRay Normalized
ILD         .OHMM                                               :          
SP          .MV                                                 :          
SP_NORM     .MV                                                 :SP Normalized
VSH_GR      .V/V                                                :Volume of Shale from GR
VSH_SP      .V/V                                                :Volume of Shale from SP
~A        DEPTH           ASFL           CILD             DT             GR           GR_1        GR_NORM            ILD             SP        SP_NORM         VSH_GR         VSH_SP
# ...
       802.5000         1.8298       634.8789        -999.25        -999.25        61.2423       76.79379         1.3549      -133.0671       4.997421      0.9317827      0.7369778
       803.0000         1.8503       558.5566        -999.25        -999.25        61.5428       77.15559         1.3332      -132.5144        5.55011      0.9394805       0.707889
       803.5000         1.8599       539.6123        -999.25        -999.25        61.7413       77.39456         1.3115      -131.8765       6.188019      0.9445651      0.6743148
       804.0000         1.8609       549.0186        -999.25        -999.25        61.9398       77.63356         1.2898      -131.0322       7.032318      0.9496502       0.629878
       804.5000         1.8339       558.4268        -999.25        -999.25        62.2257       77.97778         1.2681      -130.1711       7.893417      0.9569741       0.584557
       805.0000         1.7966        567.835        -999.25        -999.25        62.6343       78.46971         1.2501        -129.49       8.574509      0.9674407        0.54871
       805.5000         1.7522       576.1533        -999.25        -999.25        63.8203       79.89764         1.2485      -128.8086        9.25592       0.997822      0.5128463
       806.0000         1.7019       583.9326        -999.25        -999.25        67.2363        84.0104         1.2482      -128.3127       9.751816              1      0.4867465
       806.5000         1.6732       590.6846        -999.25        -999.25        68.8315       85.93097         1.2813      -127.9791       10.08541              1      0.4691889
       807.0000         1.6523       587.6592        -999.25        -999.25        69.8068       87.10521         1.3377      -128.0342       10.03032              1      0.4720885
       807.5000         1.6345       584.6348        -999.25        -999.25        70.5608       88.01301         1.5212      -128.1423       9.922211              1      0.4777784
       808.0000           1.62       581.6084        -999.25        -999.25        71.2882       88.88877         1.5896      -128.1824       9.882111              1      0.4798889
       808.5000         1.6086        578.584        -999.25        -999.25        71.7983       89.50292         1.6332      -128.2004        9.86412              1      0.4808358
       809.0000         1.6001       576.6777        -999.25        -999.25        72.3085       90.11719         1.6611      -128.1868       9.877716              1      0.4801202
       809.5000         1.5944       578.0156        -999.25        -999.25        72.8185       90.73121         1.6834      -128.1672       9.897308              1       0.479089
       810.0000           1.59       580.4385        -999.25        -999.25        73.3245       91.34043         1.7001      -128.3989       9.665619              1      0.4912832
       810.5000         1.5856       591.8145        -999.25        -999.25        73.8289       91.94772         1.7096      -128.8496        9.21492              1      0.5150042
       811.0000          1.583       603.1895        -999.25        -999.25        74.3334        92.5551         1.7191      -129.3186       8.745911              1      0.5396889
       811.5000         1.5812       612.8252        -999.25        -999.25        74.8378       93.16238         1.7227      -129.7876       8.276917              1      0.5643728
       812.0000         1.5794       609.1123        -999.25        -999.25        75.3864       93.82289         1.7258      -129.9988        8.06572              1      0.5754884
       812.5000         1.5824       602.8545        -999.25        -999.25        75.9884       94.54769         1.7324      -130.1196       7.944916              1      0.5818465
       813.0000         1.5871        592.375        -999.25        -999.25        76.5903       95.27235          1.753      -130.2405        7.82402              1      0.5882095
       813.5000         1.5917       581.8945        -999.25        -999.25        77.1008       95.88698         1.7735      -130.3611       7.703415              1      0.5945571
       814.0000         1.5992        571.415        -999.25        -999.25        77.5028       96.37099         1.7918      -130.4231       7.641418              1      0.5978201
       814.5000          1.608       556.2119        -999.25        -999.25        77.6237       96.51654         1.8055      -130.3433       7.721207              1      0.5936207
       815.0000         1.6168       539.4775        -999.25        -999.25        75.5243       93.98892          1.819      -130.2632       7.801315              1      0.5894045
       815.5000         1.6248       540.0439        -999.25        -999.25        73.3347        91.3527         1.8237      -130.1304       7.934113              1      0.5824151
       816.0000         1.6273       543.1172        -999.25        -999.25        71.3768       88.99545         1.8284      -129.8542       8.210312              1      0.5678783
       816.5000          1.613        543.708        -999.25        -999.25        69.4442       86.66865          1.833      -129.5781        8.48642              1      0.5533463
       817.0000         1.5877       544.0625        -999.25        -999.25        67.5195       84.35136         1.8452       -129.282       8.782516              1      0.5377623
       817.5000         1.5583        544.418        -999.25        -999.25        65.5989       82.03901         1.8642      -128.8491       9.215408              1      0.5149785
       818.0000         1.5376       544.1182        -999.25        -999.25        63.3822       79.37016         1.8837      -128.4849        9.57962      0.9865992      0.4958095
       818.5000         1.5203       543.3818        -999.25        -999.25        61.2013       76.74442         1.9222      -128.2725       9.792007      0.9307324      0.4846312
       819.0000         1.5127       541.8623        -999.25        -999.25        60.0646       75.37586         1.9608        -128.25       9.814514      0.9016141      0.4834466
       819.5000          1.505       530.2344        -999.25        -999.25        59.0368       74.13843         1.9953      -128.3364       9.728119      0.8752857      0.4879937
       820.0000         1.5155       517.8555        -999.25        -999.25        58.4651       73.45011         2.0236      -128.4229       9.641617      0.8606406      0.4925465
       820.5000         1.5306       501.8359        -999.25        -999.25        57.8132       72.66525          2.052       -128.468       9.596512      0.8439414      0.4949204
       821.0000         1.6122       485.8159        -999.25        -999.25         55.225       69.54913         2.0776      -128.4797       9.584808       0.777641      0.4955364
       821.5000         1.6721       476.8306        -999.25        -999.25        47.6295       60.40436         2.0982      -128.4915       9.573013      0.5830715      0.4961572
       822.0000         1.7038       468.5474        -999.25        -999.25        45.5397       57.88829         2.1187      -128.5034       9.561111      0.5295382      0.4967836
       822.5000         1.7251       462.6797        -999.25        -999.25         44.902       57.12053         2.1392      -128.5151       9.549408      0.5132027      0.4973996
       823.0000         1.7348       460.1421        -999.25        -999.25        44.6204       56.78148         2.1553      -128.5264       9.538116       0.505989      0.4979939
       823.5000         1.7219        457.604        -999.25        -999.25        44.8525       57.06093         2.1673      -128.5034       9.561111      0.5119347      0.4967836
       824.0000         1.7045       455.0659        -999.25        -999.25        45.0846       57.34037         2.1778      -128.4802        9.58432      0.5178801      0.4955621
       824.5000         1.6972       455.0127        -999.25        -999.25        45.7609       58.15462         2.1825      -128.4551       9.609421      0.5352046       0.494241
