#------------------------------------------------------------------------------
# Created by    : vladimir.rabinovich
# Created on    : 09/19/2023 17:19:56
#------------------------------------------------------------------------------
~Version Information Section
VERS.           2.0     :   CWLS log ASCII Standard - VERSION 2.0
WRAP.           NO      :   One line per depth step
~Well Information Section
#MNEM       .UNIT                                         VALUE :DESCRIPTION
#------------------------------------------------------------------------------
STRT        .FT                                            3966 :START DEPTH
STOP        .FT                                           12200 :STOP DEPTH
STEP        .FT                                             0.5 :STEP      
NULL        .                                           -999.25 :NULL      
COMP        .                       HOUSTON OIL & MINERALS CORP :COMPANY   
WELL        .                                ST TR 00526-L SW/4 :WELL      
FLD         .                                           CAVALLO :FIELD     
LOC         .                                                   :LOCATION  
CNTY        .                      MATAGORDA ISLAND LARGE BLOCK :LOCATION  
STAT        .                                             TEXAS :STATE     
CTRY        .                                     UNITED STATES :COUNTRY   
SRVC        .                                                   :SERVICE COMPANY
DATE        .                             9/13/2023 11:19:05 AM :LOG DATE  
API         .                                    42703302090000 :API NUMBER
UWI         .                                    42703302090000 :UNIQUE WELL ID
XCOORD      .                                  601997.830501628 :SURFACE X 
YCOORD      .                                  10286578.1750905 :SURFACE Y 
LAT         .                                        28.3077871 :LATITUDE  
LON         .                                       -96.2273179 :LONGITUDE 
ELEV        .FT                                             113 :ELEVATION VALUE
ELEV_TYPE   .                                                KB :ELEVATION REFERENCE TYPE
~Curve Information Section
#MNEM       .UNIT                                      API CODE :CURVE DESCRIPTION
#------------------------------------------------------------------------------
DEPT        .FT                                                 :DEPTH     
ASFL        .OHMM                                               :          
CILD        .MMHO                                               :          
ILD         .OHMM                                               :          
SP          .MV                                                 :          
SP_NORM     .MV                                                 :SP Normalized
VSH_SP      .V/V                                                :Volume of Shale from SP
~A        DEPTH           ASFL           CILD            ILD             SP        SP_NORM         VSH_SP
# ...
      5068.0000         0.7761           1712         0.6078          -66.6       -17.4982      0.7770513
      5068.5000            0.8           1680         0.6078            -66       -16.8982      0.7851595
      5069.0000         0.8311           1648         0.6275          -65.7       -16.5982      0.7892135
      5069.5000            0.8           1624         0.6471          -64.8       -15.6982      0.8013756
      5070.0000         0.7562           1592         0.6667          -63.9       -14.7982      0.8135378
      5070.5000         0.7522           1560         0.6667            -63       -13.8982         0.8257
      5071.0000         0.8351           1528         0.6667          -60.9       -11.7982      0.8540784
      5071.5000         0.9179           1512         0.6667       -58.8235      -9.721703      0.8821391
      5072.0000         1.0876           1528         0.6471       -57.0588      -7.957001      0.9059865
      5072.5000         1.2598           1568         0.6275          -60.9       -11.7982      0.8540784
      5073.0000         1.2558           1616         0.6078          -64.8       -15.6982      0.8013756
      5073.5000         1.1363           1656         0.5686            -69       -19.8982      0.7446189
      5074.0000          1.012           1704          0.549          -80.7       -31.5982      0.5865108
      5074.5000         0.7761           1744         0.5294          -79.5       -30.3982       0.602727
      5075.0000          0.839           1792         0.5098          -78.3       -29.1982      0.6189432
      5075.5000          0.906           1792         0.5098          -75.6       -26.4982      0.6554297
      5076.0000         1.0359           1792         0.5098          -72.9       -23.7982      0.6919162
      5076.5000         1.1721           1688          0.549          -70.2       -21.0982      0.7284027
      5077.0000         1.1641           1584         0.5882          -67.8       -18.6982      0.7608351
      5077.5000         1.1602           1480         0.6275          -65.1       -15.9982      0.7973216
      5078.0000         1.0279           1480         0.6863          -62.4       -13.2982      0.8338081
      5078.5000         0.7562           1472         0.7451            -60       -10.8982      0.8662405
      5079.0000         0.7562           1472         0.7451          -63.6       -14.4982      0.8175919
      5079.5000         0.7681           1480         0.7059          -67.5       -18.3982      0.7648892
      5080.0000         0.7841           1544         0.6667          -71.1       -21.9982      0.7162405
      5080.5000          0.855           1616         0.6275            -75       -25.8982      0.6635378
      5081.0000         0.9251           1688         0.5882         -81.45       -32.3482      0.5763757
      5081.5000         0.9251           1760          0.549            -87       -37.8982      0.5013757
      5082.0000           0.91           1832         0.4902       -93.5294       -44.4276      0.4131405
      5082.5000         0.8709           1904         0.4314       -97.6471       -48.5453      0.3574959
      5083.0000         0.8159           1976         0.4118       -96.6177       -47.5159      0.3714068
      5083.5000          0.812           2024         0.3922          -85.8       -36.6982      0.5175918
      5084.0000          0.894           2032          0.451          -79.8       -30.6982      0.5986729
      5084.5000         0.9761           1872          0.549          -79.8       -30.6982      0.5986729
      5085.0000         1.0598           1712         0.6667          -79.8       -30.6982      0.5986729
      5085.5000         1.1442           1544         0.7647          -73.5       -24.3982      0.6838081
      5086.0000         1.2359           1384         0.8824          -67.5       -18.3982      0.7648892
      5086.5000         1.2398           1216         0.9804          -61.5       -12.3982      0.8459703
      5087.0000         1.2558       1057.412            1.1            -55      -5.898201      0.9338081
      5087.5000         1.2637       895.0588            1.2            -55      -5.898201      0.9338081
      5088.0000          1.494       871.2941           1.32       -55.8824      -6.780602      0.9218838
      5088.5000         1.7243       839.6078           1.56       -56.1765      -7.074699      0.9179094
      5089.0000         2.0398       807.9216           1.76          -60.3       -11.1982      0.8621865
      5089.5000           2.49            776           1.76          -64.5       -15.3982      0.8054297
      5090.0000         2.8805            744           1.76          -68.7       -19.5982       0.748673
      5090.5000         3.4582            712           1.76          -72.9       -23.7982      0.6919162
      5091.0000         4.0398            680           1.68         -82.65       -33.5482      0.5601594
      5091.5000         4.4303            632            1.6          -87.9       -38.7982      0.4892135
      5092.0000         3.6614            632           1.52       -94.1347       -45.0329      0.4049608
      5092.5000         2.8645            640           1.44       -97.9834       -48.8816      0.3529513
      5093.0000         2.8645            688           1.44          -98.1       -48.9982      0.3513757
      5093.5000         2.0996            744           1.44       -92.9619       -43.8601      0.4208094
      5094.0000         1.9841            800           1.36       -90.2964       -41.1946      0.4568297
      5094.5000         1.2478        855.451           1.28          -89.1       -39.9982      0.4729973
      5095.0000         1.2438       900.6013            1.2          -87.9       -38.7982      0.4892135
      5095.5000         1.2159       958.4314           1.12          -85.2       -36.0982         0.5257
      5096.0000         1.1841       1009.882           1.02          -82.5       -33.3982      0.5621865
      5096.5000         1.1562       1120.889         0.9608          -78.9       -29.7982      0.6108351
      5097.0000         1.1243       1180.157          0.902          -78.3       -29.1982      0.6189432
      5097.5000         1.0837       1184.157         0.8431          -77.7       -28.5982      0.6270514
      5098.0000         1.0677       1184.157         0.7647          -77.1       -27.9982      0.6351595
      5098.5000         1.1124       1184.157         0.7647          -75.9       -26.7982      0.6513757
      5099.0000         1.1562       1180.235         0.7451          -70.8       -21.6982      0.7202945
      5099.5000          1.204       1172.314         0.7451          -65.7       -16.5982      0.7892135
      5100.0000         1.2478       1156.471         0.7647          -60.6       -11.4982      0.8581324
      5100.5000         1.2956       1140.706         0.7843       -55.2941      -6.192303      0.9298338
      5101.0000         1.2199           1128         0.7843       -54.4118      -5.310001      0.9417567
      5101.5000         1.1402       1168.078         0.8039       -54.1176        -5.0158      0.9457324
      5102.0000         1.0637           1204         0.8235       -54.1176        -5.0158      0.9457324
      5102.5000         0.9841           1240         0.8039       -54.4118      -5.310001      0.9417567
      5103.0000         0.7482           1288         0.7843       -54.7059      -5.604099      0.9377825
      5103.5000         0.7602           1344         0.7647       -55.5882      -6.486401      0.9258595
      5104.0000          0.792           1368         0.7451       -55.8824      -6.780602      0.9218838
      5104.5000         0.8239           1352         0.6275       -55.8824      -6.780602      0.9218838
      5105.0000         0.8861           1328         0.6078       -56.1765      -7.074699      0.9179094
      5105.5000          0.949           1312         0.6078       -56.1765      -7.074699      0.9179094
