#------------------------------------------------------------------------------
# Created by    : vladimir.rabinovich
# Created on    : 09/19/2023 17:20:33
#------------------------------------------------------------------------------
~Version Information Section
VERS.           2.0     :   CWLS log ASCII Standard - VERSION 2.0
WRAP.           NO      :   One line per depth step
~Well Information Section
#MNEM       .UNIT                                         VALUE :DESCRIPTION
#------------------------------------------------------------------------------
STRT        .FT                                             510 :START DEPTH
STOP        .FT                                            9509 :STOP DEPTH
STEP        .FT                                             0.5 :STEP      
NULL        .                                           -999.25 :NULL      
COMP        .                       BLUE DOLPHIN EXPLORATION CO :COMPANY   
WELL        .                                OCS 00714 ST00BP00 :WELL      
FLD         .                              GALVESTON BLOCK 0288 :FIELD     
LOC         .                                                   :LOCATION  
CNTY        .                             GALVESTON LARGE BLOCK :LOCATION  
STAT        .                                             TEXAS :STATE     
CTRY        .                                     UNITED STATES :COUNTRY   
SRVC        .                                                   :SERVICE COMPANY
DATE        .                             9/13/2023 11:19:25 AM :LOG DATE  
API         .                                    42706000660000 :API NUMBER
UWI         .                                    42706000660000 :UNIQUE WELL ID
XCOORD      .                                  1093932.46617998 :SURFACE X 
YCOORD      .                                  10479390.8980397 :SURFACE Y 
LAT         .                                         28.865655 :LATITUDE  
LON         .                                       -94.7077791 :LONGITUDE 
ELEV        .FT                                              83 :ELEVATION VALUE
ELEV_TYPE   .                                                KB :ELEVATION REFERENCE TYPE
~Curve Information Section
#MNEM       .UNIT                                      API CODE :CURVE DESCRIPTION
#------------------------------------------------------------------------------
DEPT        .FT                                                 :DEPTH     
ASN         .OHMM                                               :          
CALI        .IN                                                 :          
DT          .US/F                                               :          
IL          .OHMM                                               :          
SP          .MV                                                 :          
SP_NORM     .MV                                                 :SP Normalized
VSH_SP      .V/V                                                :Volume of Shale from SP
~A        DEPTH            ASN           CALI             DT             IL             SP        SP_NORM         VSH_SP
# ...
      4697.5000         0.9945        -999.25        -999.25         0.8701        -52.828      -3.096783      0.9451609
      4698.0000         1.0068        -999.25        -999.25         0.8933       -53.3495      -3.622372      0.9188814
      4698.5000         1.0166        -999.25        -999.25         0.9197        -53.444      -3.720963      0.9139519
      4699.0000         1.0198        -999.25        -999.25          0.938       -53.2214      -3.502453      0.9248773
      4699.5000         1.0078        -999.25        -999.25         0.9402       -52.8809      -3.166042      0.9416979
      4700.0000         1.0028        -999.25        -999.25         0.9273         -52.71      -2.999229      0.9500386
      4700.5000         0.9991        -999.25        -999.25         0.8901       -52.6932      -2.986519      0.9506741
      4701.0000         0.9938        -999.25        -999.25         0.8463       -53.3608      -3.658211      0.9170895
      4701.5000         0.9716        -999.25        -999.25         0.8183       -55.2043      -5.505798      0.8247101
      4702.0000         0.9431        -999.25        -999.25          0.802       -56.5268      -6.832386      0.7583807
      4702.5000         0.9298        -999.25        -999.25         0.7848       -57.3102      -7.619877      0.7190062
      4703.0000         0.9208        -999.25        -999.25         0.7672       -56.8862      -7.199966      0.7400017
      4703.5000         0.9177        -999.25        -999.25         0.7486        -54.382      -4.699856      0.8650072
      4704.0000         0.9124        -999.25        -999.25         0.7324       -52.6539      -2.975845      0.9512078
      4704.5000         0.8997        -999.25        -999.25         0.7243       -50.8099      -1.135933              1
      4705.0000         0.9005        -999.25        -999.25          0.747       -50.3723     -0.7024231              1
      4705.5000         0.9235        -999.25        -999.25         0.7808       -50.1254     -0.4596138              1
      4706.0000           0.96        -999.25        -999.25         0.8155       -50.0562     -0.3945045              1
      4706.5000         0.9893        -999.25        -999.25         0.8501       -50.5677     -0.9100952              1
      4707.0000         0.9973        -999.25        -999.25         0.8732       -52.3261      -2.672585      0.9663708
      4707.5000         0.9858        -999.25        -999.25         0.8872       -54.3606      -4.711174      0.8644413
      4708.0000         0.9651        -999.25        -999.25         0.8978        -55.571      -5.925663      0.8037168
      4708.5000         0.9659        -999.25        -999.25         0.8728       -55.5434      -5.902153      0.8048924
      4709.0000         0.9837        -999.25        -999.25         0.8484       -54.6433      -5.006142      0.8496929
      4709.5000         0.9983        -999.25        -999.25          0.827       -53.5833      -3.950233      0.9024884
      4710.0000         0.9819        -999.25        -999.25         0.8141       -52.6906      -3.061623      0.9469188
      4710.5000         0.9554        -999.25        -999.25         0.8107       -51.9105       -2.28561      0.9857195
      4711.0000          0.952        -999.25        -999.25         0.8422       -51.6505      -2.029701       0.998515
      4711.5000         0.9706        -999.25        -999.25         0.8682       -51.4933      -1.876591              1
      4712.0000         0.9937        -999.25        -999.25         0.8883       -51.4995      -1.886879              1
      4712.5000         1.0135        -999.25        -999.25         0.9086       -51.4155      -1.806969              1
      4713.0000         1.0121        -999.25        -999.25         0.9178        -51.212      -1.607559              1
      4713.5000         1.0009        -999.25        -999.25         0.9206       -50.9372      -1.336845              1
      4714.0000         0.9953        -999.25        -999.25         0.9172       -50.7346      -1.138336              1
      4714.5000         0.9935        -999.25        -999.25         0.9073       -50.4398     -0.8476257              1
      4715.0000         0.9919        -999.25        -999.25         0.9063       -49.9575     -0.3694153              1
      4715.5000           0.99        -999.25        -999.25         0.9123        -50.047     -0.4630051              1
      4716.0000          0.988        -999.25        -999.25         0.9175       -50.3246     -0.7446938              1
      4716.5000         0.9861        -999.25        -999.25         0.9215       -50.0357     -0.4598846              1
      4717.0000         0.9845        -999.25        -999.25         0.9254       -49.6721     -0.1003723              1
      4717.5000         0.9826        -999.25        -999.25         0.9232       -49.3452      0.2224388              1
      4718.0000         0.9783        -999.25        -999.25         0.9208       -49.1404      0.4231491              1
      4718.5000         0.9798        -999.25        -999.25          0.917       -49.2068      0.3526611              1
      4719.0000         0.9922        -999.25        -999.25         0.9131       -49.2842      0.2711716              1
      4719.5000         0.9997        -999.25        -999.25         0.9053       -49.3725      0.1787796              1
      4720.0000         0.9979        -999.25        -999.25         0.8965       -49.5652    -0.01800919              1
      4720.5000         0.9872        -999.25        -999.25         0.8927       -49.7626     -0.2194977              1
      4721.0000         0.9765        -999.25        -999.25         0.8921       -49.8876      -0.348587              1
      4721.5000         0.9734        -999.25        -999.25         0.8916       -49.9677     -0.4327774              1
      4722.0000         0.9782        -999.25        -999.25          0.891       -50.0341     -0.5032654              1
      4722.5000         0.9827        -999.25        -999.25         0.8904         -49.92     -0.3932533              1
      4723.0000         0.9749        -999.25        -999.25         0.8898       -49.7737     -0.2510452              1
      4723.5000         0.9697        -999.25        -999.25         0.8837        -49.548     -0.0294342              1
      4724.0000         0.9655        -999.25        -999.25         0.8687       -49.4067      0.1077766              1
      4724.5000         0.9575        -999.25        -999.25         0.8527       -49.2821      0.2282867              1
      4725.0000         0.9363        -999.25        -999.25         0.8351       -49.0495      0.4567986              1
      4725.5000         0.9326        -999.25        -999.25         0.8195       -48.4961       1.006107              1
      4726.0000         0.9274        -999.25        -999.25         0.8091       -47.9619       1.536221              1
      4726.5000         0.9175        -999.25        -999.25         0.8054       -48.1492        1.34483              1
      4727.0000         0.9097        -999.25        -999.25         0.8097       -48.5803      0.9096413              1
      4727.5000         0.9149        -999.25        -999.25         0.8316       -48.9636      0.5222511              1
      4728.0000         0.9291        -999.25        -999.25         0.8546       -49.0252      0.4565582              1
      4728.5000         0.9453        -999.25        -999.25         0.8793       -49.0667      0.4109688              1
      4729.0000          0.958        -999.25        -999.25         0.8969        -49.249      0.2245789              1
      4729.5000         0.9701        -999.25        -999.25         0.9136       -49.4464     0.02309036              1
      4730.0000         0.9797        -999.25        -999.25          0.929       -49.9442     -0.4787979              1
      4730.5000         0.9961        -999.25        -999.25         0.9406       -50.5607      -1.099388              1
