#------------------------------------------------------------------------------
# Created by    : vladimir.rabinovich
# Created on    : 09/19/2023 17:19:56
#------------------------------------------------------------------------------
~Version Information Section
VERS.           2.0     :   CWLS log ASCII Standard - VERSION 2.0
WRAP.           NO      :   One line per depth step
~Well Information Section
#MNEM       .UNIT                                         VALUE :DESCRIPTION
#------------------------------------------------------------------------------
STRT        .FT                                            3966 :START DEPTH
STOP        .FT                                           12200 :STOP DEPTH
STEP        .FT                                             0.5 :STEP      
NULL        .                                           -999.25 :NULL      
COMP        .                       HOUSTON OIL & MINERALS CORP :COMPANY   
WELL        .                                ST TR 00526-L SW/4 :WELL      
FLD         .                                           CAVALLO :FIELD     
LOC         .                                                   :LOCATION  
CNTY        .                      MATAGORDA ISLAND LARGE BLOCK :LOCATION  
STAT        .                                             TEXAS :STATE     
CTRY        .                                     UNITED STATES :COUNTRY   
SRVC        .                                                   :SERVICE COMPANY
DATE        .                             9/13/2023 11:19:05 AM :LOG DATE  
API         .                                    42703302090000 :API NUMBER
UWI         .                                    42703302090000 :UNIQUE WELL ID
XCOORD      .                                  601997.830501628 :SURFACE X 
YCOORD      .                                  10286578.1750905 :SURFACE Y 
LAT         .                                        28.3077871 :LATITUDE  
LON         .                                       -96.2273179 :LONGITUDE 
ELEV        .FT                                             113 :ELEVATION VALUE
ELEV_TYPE   .                                                KB :ELEVATION REFERENCE TYPE
~Curve Information Section
#MNEM       .UNIT                                      API CODE :CURVE DESCRIPTION
#------------------------------------------------------------------------------
DEPT        .FT                                                 :DEPTH     
ASFL        .OHMM                                               :          
CILD        .MMHO                                               :          
ILD         .OHMM                                               :          
SP          .MV                                                 :          
SP_NORM     .MV                                                 :SP Normalized
VSH_SP      .V/V                                                :Volume of Shale from SP
~A        DEPTH           ASFL           CILD            ILD             SP        SP_NORM         VSH_SP
      3966.0000         0.1363             56           0.54          -16.2       42.48264              1
      3966.5000         0.1203             56           0.54          -20.1       38.58263              1
      3967.0000         0.1203             56           0.56            -36       22.68264              1
      3967.5000         0.1203             72           0.58            -36       22.68264              1
      3968.0000         0.1841             88            0.6            -36       22.68264              1
      3968.5000         0.2518       439.6078           0.62          -43.8       14.88264              1
      3969.0000         0.3641            960           0.64          -51.6       7.082638              1
      3969.5000         0.5139           1136           0.64          -59.7      -1.017365      0.9997653
      3970.0000         0.6199           1136           0.68          -59.7      -1.017365      0.9997653
      3970.5000         0.6956           1472            0.7          -59.7      -1.017365      0.9997653
      3971.0000         0.7602           1392           0.72          -59.7      -1.017365      0.9997653
      3971.5000         0.8741           1312           0.76          -59.4     -0.7173653              1
      3972.0000         1.0558           1232           0.78          -59.4     -0.7173653              1
      3972.5000         1.1044           1152            0.8          -59.4     -0.7173653              1
      3973.0000         1.1044           1144           0.82          -59.1     -0.4173622              1
      3973.5000          0.996           1144           0.84          -58.5      0.1826363              1
      3974.0000          0.996           1168           0.84          -58.5      0.1333618              1
      3974.5000         0.7721           1200           0.84          -58.5    -0.06218719              1
      3975.0000         0.7721       1258.667           0.84          -58.5       -0.25774              1
      3975.5000         0.7896           1280           0.84          -58.5     -0.4532928              1
      3976.0000         0.8199           1280           0.84          -58.8     -0.9488411              1
      3976.5000         0.8598           1264           0.84          -59.4      -1.744396      0.9899406
      3977.0000         0.9363           1232           0.84            -60      -2.539948      0.9791899
      3977.5000          0.988           1200           0.84          -60.9      -3.635502      0.9643851
      3978.0000         0.9761           1168           0.84          -61.2       -4.13105      0.9576885
      3978.5000         0.9522           1136           0.84          -61.8      -4.926601      0.9469378
      3979.0000         0.9283           1104           0.84          -61.8      -5.122154      0.9442952
      3979.5000         0.9243           1072           0.84          -61.8      -5.317707      0.9416526
      3980.0000         0.9323           1064           0.84          -61.8      -5.513256        0.93901
      3980.5000         0.9482           1064           0.84          -61.5       -5.40881      0.9404215
      3981.0000         0.9681           1064           0.84          -60.9      -5.004364       0.945887
      3981.5000          1.008           1072           0.86          -60.3      -4.599915      0.9513525
      3982.0000         1.0438           1080           0.86          -59.7      -4.195465       0.956818
      3982.5000         1.0837           1096           0.86          -59.1      -3.791016      0.9622836
      3983.0000         1.0598           1136           0.88          -58.5       -3.38657      0.9677491
      3983.5000         0.9721           1176           0.88          -58.2       -3.28212      0.9691606
      3984.0000         0.9243           1216           0.88          -57.6       -2.87767      0.9746261
      3984.5000         0.8797           1264           0.88            -57      -2.473225      0.9800916
      3985.0000         0.8797           1280           0.86          -56.4      -2.068779       0.985557
      3985.5000         0.8319           1296           0.86          -55.8      -1.664326      0.9910226
      3986.0000          0.788           1296           0.84          -55.2       -1.25988      0.9964881
      3986.5000          0.788           1280           0.84          -54.6     -0.8554306              1
      3987.0000         0.7323           1252           0.82          -54.3     -0.7509842              1
      3987.5000         0.7363           1232            0.8          -53.7     -0.3465347              1
      3988.0000         0.7761           1220           0.76         -52.65      0.5079117              1
      3988.5000          0.796           1200           0.76          -51.3       1.662361              1
      3989.0000         0.8159           1192           0.76          -50.7       2.066807              1
      3989.5000         0.8438           1184         0.7592       -50.7091        1.86216              1
      3990.0000         0.8861           1176         0.7602       -50.6944       1.681305              1
      3990.5000         0.9283           1168         0.7612       -50.6797       1.500454              1
      3991.0000         0.9562           1160         0.7622        -50.665       1.319603              1
      3991.5000         0.9522           1144         0.7632       -51.2498      0.5392494              1
      3992.0000         0.9363           1128         0.7842       -51.8347     -0.2412033              1
      3992.5000         0.9163           1120         0.8052       -52.1198     -0.6267815              1
      3993.0000         0.8964           1104         0.8262       -52.4049     -0.9197464              1
      3993.5000         0.8773           1088         0.8472       -52.9899      -1.512611      0.9930728
      3994.0000         0.8574           1064         0.8681        -53.575      -2.105583      0.9850597
      3994.5000         0.8414           1048         0.9091       -53.5604      -2.098846      0.9851507
      3995.0000         0.8972       1034.667           0.95       -53.8457      -2.392014       0.981189
      3995.5000         0.9745           1008          0.971       -54.4309      -2.985081      0.9731746
      3996.0000         1.0398            984          0.992       -54.7162      -3.278252      0.9692128
      3996.5000         1.1283            960         0.9931       -55.3015      -3.871414      0.9611971
      3997.0000         1.1841            928         1.0138       -55.8868      -4.464581      0.9531813
      3997.5000         1.2398            904         1.0345       -56.4722       -5.05785      0.9451642
      3998.0000         1.3378            880         1.0551       -57.3576      -5.951118       0.933093
      3998.5000          1.396            856         1.0953       -58.5431      -7.144482      0.9169664
      3999.0000         1.4159            824         1.1158       -61.5286      -10.13785      0.8765156
      3999.5000         1.4797            816         1.1363       -64.8143      -13.43142      0.8320078
      4000.0000         1.5801            808         1.1373          -68.4      -17.02499      0.7834461
      4000.5000         1.7331       807.9962         1.1569          -71.7      -20.33285      0.7387453
      4001.0000         1.8159       807.9963         1.1961       -77.9935      -26.63422      0.6535916
      4001.5000         1.8956            800         1.2157        -81.279      -29.92759      0.6090867
      4002.0000          1.996       807.9848         1.2157       -84.5571      -33.21355      0.5646818
      4002.5000         2.0797       823.9431         1.2157        -87.828      -36.49232      0.5203741
      4003.0000         2.1554       847.8636         1.1961        -87.828      -36.50019      0.5202677
      4003.5000         2.0757       879.7351         1.1569       -87.8158      -36.49586      0.5203263
