#------------------------------------------------------------------------------
# Created by    : vladimir.rabinovich
# Created on    : 09/19/2023 17:19:38
#------------------------------------------------------------------------------
~Version Information Section
VERS.           2.0     :   CWLS log ASCII Standard - VERSION 2.0
WRAP.           NO      :   One line per depth step
~Well Information Section
#MNEM       .UNIT                                         VALUE :DESCRIPTION
#------------------------------------------------------------------------------
STRT        .FT                                            9400 :START DEPTH
STOP        .FT                                           17100 :STOP DEPTH
STEP        .FT                                             0.5 :STEP      
NULL        .                                           -999.25 :NULL      
COMP        .                                   FOREST OIL CORP :COMPANY   
WELL        .                               OCS G18937 ST00BP00 :WELL      
FLD         .                            HIGH ISLAND BLOCK 0116 :FIELD     
LOC         .                                                   :LOCATION  
CNTY        .                           HIGH ISLAND LARGE BLOCK :LOCATION  
STAT        .                                             TEXAS :STATE     
CTRY        .                                     UNITED STATES :COUNTRY   
SRVC        .                                                   :SERVICE COMPANY
DATE        .                             9/13/2023 11:19:48 AM :LOG DATE  
API         .                                    42708405250000 :API NUMBER
UWI         .                                    42708405250000 :UNIQUE WELL ID
XCOORD      .                                  1337259.97993026 :SURFACE X 
YCOORD      .                                  10628189.4209318 :SURFACE Y 
LAT         .                                         29.282461 :LATITUDE  
LON         .                                        -93.951246 :LONGITUDE 
ELEV        .FT                                              93 :ELEVATION VALUE
ELEV_TYPE   .                                                KB :ELEVATION REFERENCE TYPE
~Curve Information Section
#MNEM       .UNIT                                      API CODE :CURVE DESCRIPTION
#------------------------------------------------------------------------------
DEPT        .FT                                                 :DEPTH     
AHT10       .OHMM                                               :          
AHT20       .OHMM                                               :          
AHT30       .OHMM                                               :          
AHT60       .OHMM                                               :          
AHT90       .OHMM                                               :          
CALI        .IN                                                 :          
COND        .MMHO                                               :          
DTCO        .US/F                                               :          
GR          .GAPI                                               :          
GR_NORM     .GAPI                                               :GammaRay Normalized
HDRA        .G/CC                                               :          
NPOR        .FRAC                                               :          
RHOZ        .G/CC                                               :          
VSH_GR      .V/V                                                :Volume of Shale from GR
~A        DEPTH          AHT10          AHT20          AHT30          AHT60          AHT90           CALI           COND           DTCO             GR        GR_NORM           HDRA           NPOR           RHOZ         VSH_GR
# ...
     16582.0000          0.952           0.79          0.737          0.669          0.634          5.771       1577.287          102.9         85.191       75.84206         -0.032          0.244          2.557      0.9115331
     16582.5000          0.966          0.802          0.741          0.675          0.639          5.799       1564.945          102.1         86.189       76.88996         -0.028          0.232          2.562      0.9338289
     16583.0000          0.968           0.81          0.749          0.684          0.647          5.864       1545.595             98         91.288        82.2439         -0.029          0.244          2.549              1
     16583.5000          0.969          0.819          0.761          0.695          0.657          5.842        1522.07           97.4         91.022       81.96461         -0.029          0.247          2.548              1
     16584.0000          0.994          0.835          0.783          0.714          0.674          5.844       1483.679           97.5         90.726       81.65381         -0.028          0.243          2.546              1
     16584.5000          1.051          0.883          0.823          0.744          0.701          5.843       1426.534             98         89.462       80.32661         -0.029          0.248          2.548              1
     16585.0000          1.085          0.924          0.848          0.763          0.719          5.845       1390.821          100.3         86.091       76.78706          -0.03          0.264          2.553      0.9316397
     16585.5000          1.033          0.892          0.822          0.741            0.7          5.835       1428.571          105.6         81.049       71.49296         -0.028          0.246          2.562      0.8189991
     16586.0000          0.969          0.836          0.778          0.703          0.666          5.812       1501.501          106.9         79.644        70.0177         -0.026          0.234           2.57      0.7876107
     16586.5000          0.952          0.821          0.762           0.69          0.655          5.806       1526.718          104.5         80.192        70.5931         -0.026          0.238          2.568      0.7998532
     16587.0000          0.955          0.822           0.76           0.69          0.655          5.809       1526.718          102.9         82.018       72.51041         -0.029          0.246          2.553      0.8406469
     16587.5000          0.942          0.807           0.75          0.684          0.651           5.87       1536.098            100         84.968        75.6079         -0.029           0.24          2.556      0.9065511
     16588.0000          0.937          0.803          0.749          0.686          0.653          5.878       1531.394           98.8         86.808        77.5399         -0.027          0.237           2.56      0.9476575
     16588.5000          0.946          0.811          0.759          0.698          0.664          5.877       1506.024           98.6         87.216        77.9683         -0.025           0.22          2.569      0.9567723
     16589.0000          0.947          0.819           0.77          0.708          0.672          5.879       1488.095           98.7         88.199       79.00046         -0.029          0.244           2.55      0.9787331
     16589.5000          0.971          0.829          0.782          0.717          0.681          5.877       1468.429           98.9         87.637       78.41035         -0.032          0.298          2.539      0.9661778
     16590.0000          0.995           0.84          0.796           0.73          0.692          5.879       1445.087           99.6         87.511       78.27805         -0.033          0.262          2.539      0.9633628
     16590.5000              1          0.853          0.815           0.74            0.7          5.942       1428.571           98.7         82.454       72.96821         -0.035          0.274          2.549      0.8503874
     16591.0000           1.05          0.877           0.83          0.754          0.712          5.956       1404.494           96.5         79.491       69.85706         -0.038          0.305          2.556      0.7841927
     16591.5000          1.152          0.937          0.843          0.773          0.728          5.985       1373.626           94.9         76.822        67.0546         -0.036          0.303          2.556       0.724566
     16592.0000          1.208          0.982          0.843          0.767           0.72          6.044       1388.889             95         81.176        71.6263         -0.034          0.295          2.547      0.8218361
     16592.5000          1.148          0.958          0.831          0.746            0.7          6.029       1428.571           92.4         79.785       70.16577         -0.036          0.249          2.544      0.7907611
     16593.0000          1.084          0.928          0.824          0.729          0.684          5.914       1461.988           95.8         79.211       69.56306         -0.036          0.219          2.541      0.7779374
     16593.5000          1.072          0.908          0.812          0.714           0.67          5.813       1492.537           96.3           73.4        63.4615         -0.033          0.248          2.553      0.6481171
     16594.0000          1.036          0.867          0.791          0.698          0.654          5.803       1529.052           99.9         71.422        61.3846         -0.033          0.262          2.554      0.6039277
     16594.5000          0.962          0.821          0.757          0.669          0.628          5.802       1592.357          101.4         76.773       67.00316         -0.036          0.237          2.556      0.7234715
     16595.0000          0.885           0.77          0.715          0.635          0.596          5.789       1677.852           97.4         77.361       67.62055         -0.034          0.201          2.557      0.7366075
     16595.5000          0.825          0.718          0.674          0.602          0.567          5.807       1763.668          101.8         83.528       74.09591         -0.034          0.262           2.56      0.8743811
     16596.0000          0.783          0.687          0.647          0.582          0.549          5.825       1821.494          100.6         86.823       77.55566         -0.039          0.299          2.554      0.9479927
     16596.5000           0.78          0.698          0.659          0.596          0.561          5.821       1782.531          101.3         88.628        79.4509         -0.047          0.254          2.539      0.9883171
     16597.0000          0.842          0.743          0.712          0.642          0.603          5.935       1658.375           99.5         88.794       79.62521         -0.046          0.248          2.529      0.9920257
     16597.5000          0.965          0.818          0.774          0.704          0.657          5.969        1522.07           98.1         84.234        74.8372         -0.051          0.285          2.507      0.8901533
     16598.0000          1.139          0.956          0.858          0.786          0.729          5.942       1371.742           96.4         87.932        78.7201         -0.055          0.309          2.503      0.9727681
     16598.5000          1.283          1.075          0.889          0.813          0.752          5.944       1329.787           95.6         85.544        76.2127         -0.051          0.286          2.514      0.9194192
     16599.0000          1.211          1.026          0.856          0.787          0.731          5.939       1367.989           92.2         86.372        77.0821         -0.047          0.273          2.527       0.937917
     16599.5000          1.061          0.927           0.83          0.767          0.716          5.914       1396.648           90.1         83.001       73.54256         -0.052          0.241          2.528      0.8626076
