#------------------------------------------------------------------------------
# Created by    : vladimir.rabinovich
# Created on    : 09/19/2023 17:22:25
#------------------------------------------------------------------------------
~Version Information Section
VERS.           2.0     :   CWLS log ASCII Standard - VERSION 2.0
WRAP.           NO      :   One line per depth step
~Well Information Section
#MNEM       .UNIT                                         VALUE :DESCRIPTION
#------------------------------------------------------------------------------
STRT        .FT                                            3984 :START DEPTH
STOP        .FT                                           14348 :STOP DEPTH
STEP        .FT                                             0.5 :STEP      
NULL        .                                           -999.25 :NULL      
COMP        .                                  CNG PRODUCING CO :COMPANY   
WELL        .                               OCS G07292 ST00BP00 :WELL      
FLD         .                                           WILDCAT :FIELD     
LOC         .                                                   :LOCATION  
CNTY        .                           HIGH ISLAND LARGE BLOCK :LOCATION  
STAT        .                                             TEXAS :STATE     
CTRY        .                                     UNITED STATES :COUNTRY   
SRVC        .                                                   :SERVICE COMPANY
DATE        .                             9/13/2023 11:19:59 AM :LOG DATE  
API         .                                    42708402890000 :API NUMBER
UWI         .                                    42708402890000 :UNIQUE WELL ID
XCOORD      .                                  1158246.84135722 :SURFACE X 
YCOORD      .                                  10525039.0147689 :SURFACE Y 
LAT         .                                         28.993597 :LATITUDE  
LON         .                                        -94.508673 :LONGITUDE 
ELEV        .FT                                             101 :ELEVATION VALUE
ELEV_TYPE   .                                                KB :ELEVATION REFERENCE TYPE
~Curve Information Section
#MNEM       .UNIT                                      API CODE :CURVE DESCRIPTION
#------------------------------------------------------------------------------
DEPT        .FT                                                 :DEPTH     
CALX        .IN                                                 :          
DTL         .US/F                                               :          
GR          .GAPI                                               :          
GR_NORM     .GAPI                                               :GammaRay Normalized
ILD         .OHMM                                               :          
ILM         .OHMM                                               :          
LL3         .OHMM                                               :          
SP          .MV                                                 :          
SP_NORM     .MV                                                 :SP Normalized
VSH_GR      .V/V                                                :Volume of Shale from GR
VSH_SP      .V/V                                                :Volume of Shale from SP
~A        DEPTH           CALX            DTL             GR        GR_NORM            ILD            ILM            LL3             SP        SP_NORM         VSH_GR         VSH_SP
# ...
      9451.5000        15.0074        77.9249        28.1769       50.18981          2.033         2.6292         5.5556       -77.8701      -44.41259      0.3657406      0.3655345
      9452.0000        14.9684        87.6692        32.1138       57.69002         1.9219          2.288         3.5476       -74.1455      -40.68464      0.5253196      0.4187909
      9452.5000        15.0066        91.7258        33.1384         59.643         1.8077         2.1368          2.902       -70.7444      -37.28019      0.5668724      0.4674259
      9453.0000        15.4975        93.2408        33.3484       60.04436          1.715         2.0714          2.425       -66.3427      -32.87514      0.5754119      0.5303552
      9453.5000        15.8045        93.2019        33.4742       60.28533         1.6346         1.9897         2.0653       -57.1347      -23.66379       0.580539      0.6619458
      9454.0000        15.4429        92.7166        34.0582       61.39907         1.5652         1.9061         2.3805       -61.6578      -28.18354      0.6042355       0.597378
      9454.5000        15.4141        94.0713        35.5452       64.23281         1.5209         1.8271         2.7581       -59.5201       -26.0425      0.6645279      0.6279643
      9455.0000        16.1271        99.2605        38.9717       70.76083         1.4857         1.7625         2.6716       -53.6476      -20.16665      0.8034219      0.7119051
      9455.5000        16.8246        103.491        42.2364       76.98068         1.4676         1.7335         1.9841       -51.7222       -18.2379      0.9357592      0.7394586
      9456.0000        17.0719       105.0134        44.0987       80.52927         1.4576         1.7526         1.6124       -49.6956      -16.20795              1      0.7684578
      9456.5000        17.1262        102.205        43.7626       79.89042         1.4483         1.8417         1.6576       -48.3248       -14.8338      0.9976685      0.7880886
      9457.0000         17.054        96.2859        41.7007       75.96436         1.4466         1.8994         1.6818       -51.0045      -17.51016      0.9141352      0.7498549
      9457.5000        16.0766        94.9585        38.9009       70.63278         1.4413         2.0691         1.6885       -53.3444      -19.84671      0.8006975      0.7164756
      9458.0000        14.8389        93.2811        36.0026       65.11356         1.4488         2.1828         1.8039       -58.0545      -24.55346      0.6832672      0.6492363
      9458.5000        14.8355        87.8906        35.4056       63.97778         1.4936         2.2474         2.4738       -64.2756      -30.77121      0.6591016      0.5604113
      9459.0000        14.8912        85.4167        35.4897       64.13933         1.5755         2.3141         3.0481       -69.1019      -35.59416      0.6625389       0.491512
      9459.5000        14.9545        85.0881         37.496       67.96219         1.7367         2.3933         3.1667       -72.7963      -39.28522      0.7438763      0.4387825
      9460.0000        15.0532        85.2183        38.2095        69.3226         1.9007         2.4862         3.1163       -73.1019      -39.58747      0.7728213      0.4344648
      9460.5000        15.3458        85.1431        37.0967       67.20434         2.0098         2.6955          2.981       -71.9738      -38.45602      0.7277519      0.4506283
      9461.0000        15.5177        84.0654          34.58       62.41199         2.1179          3.006         3.0301       -72.5536      -39.03247       0.625787      0.4423933
      9461.5000        15.5533        81.2468        31.8649       57.24173         2.1929         3.3736         3.3028       -71.1487      -37.62422      0.5157816      0.4625111
      9462.0000         15.264        78.2622        31.4378       56.42956         2.2027         3.5238          3.999       -72.0251      -38.49728      0.4985013      0.4500389
      9462.5000        15.0522        76.2136        31.9394       57.38635         2.1859         3.3363         4.6835       -69.0969      -35.56573      0.5188586      0.4919181
      9463.0000        14.9238        75.1909        33.0057       59.41876         2.1676         3.0583          5.034       -67.5176      -33.98308      0.5621012      0.5145274
      9463.5000        14.8738        75.6549        34.7771       62.79421         2.1486         2.7983         4.4917       -66.8783      -33.34044      0.6339194       0.523708
      9464.0000        15.1831        77.8041        37.6198       68.21025         2.1516         2.5932         4.3433       -63.4519      -29.91069      0.7491543      0.5727045
      9464.5000        15.6101        82.2434        39.4467        71.6914         2.1432         2.5141         3.6173       -58.2086      -24.66404      0.8232213      0.6476566
      9465.0000        15.5691        89.1187        39.7866       72.34019         2.1064         2.5179         2.6728       -57.3154      -23.76749      0.8370254      0.6604644
      9465.5000        15.7542        94.5344        39.2831       71.38251         2.0256         2.5617         2.2774       -54.7241      -21.17284      0.8166491      0.6975309
      9466.0000        15.8037        95.1484        39.0431       70.92671         1.8845         2.5335         2.0543       -53.1574      -19.60279      0.8069513      0.7199602
      9466.5000        14.7566        89.8737        39.4329       71.67055         1.7819         2.3882         2.6815       -55.8915      -22.33355      0.8227776      0.6809493
      9467.0000        14.4294        82.6637        40.8188       74.31173         1.7106         2.1705         3.3615       -57.9636       -24.4023      0.8789729      0.6513957
      9467.5000        14.4475        82.0446        42.4057       77.33574         1.6879         2.0354         3.0509       -56.9164      -23.35175      0.9433136      0.6664035
      9468.0000        14.8556        85.3489        43.7172       79.83521         1.7591         2.0284         2.3673       -56.3325       -22.7645      0.9964937      0.6747928
      9468.5000        16.8771        89.1136        44.3773        81.0939         1.8154         2.1678         1.8549       -51.0298      -17.45845              1      0.7505935
      9469.0000        17.1331        91.5472        43.1865       78.82706         1.8265         2.3479         1.8349       -51.6792      -18.10451      0.9750438      0.7413642
      9469.5000        16.5476        90.5658          38.81       70.49223         1.7719         2.4864         1.8991       -51.8839      -18.30586      0.7977071      0.7384877
      9470.0000        14.8839        78.4131        34.5143        62.3113         1.7026         2.5648         2.7191       -54.5699      -20.98851      0.6236447      0.7001641
      9470.5000        14.5316        76.3193        33.6797       60.72294         1.6902         2.5666         3.7713       -55.7702      -22.18546      0.5898498      0.6830648
      9471.0000        14.5496         76.722          35.99       65.12487         1.7079         2.5414         3.9739       -61.1069      -27.51881      0.6835079      0.6068741
      9471.5000        14.6007        78.8032        39.9016       72.57689          1.769         2.5224         3.4889       -63.9901      -30.39867      0.8420615      0.5657333
      9472.0000        14.6801        80.7284        43.0778       78.62817          1.876          2.538         2.5049       -64.0112      -30.41642       0.970812      0.5654797
      9472.5000        14.5615         83.011         44.179       80.72704         1.9638            2.6         2.7102       -64.2977      -30.69957              1      0.5614347
      9473.0000        14.4875        84.5763         43.275        79.0065         2.0317         2.6838         3.1867       -66.4943      -32.89283      0.9788617      0.5301025
      9473.5000        14.4767        83.9384        40.6394       73.98766         2.0521         2.7569         3.0839       -68.5303      -34.92547      0.8720778      0.5010647
