#------------------------------------------------------------------------------
# Created by    : vladimir.rabinovich
# Created on    : 09/19/2023 17:21:03
#------------------------------------------------------------------------------
~Version Information Section
VERS.           2.0     :   CWLS log ASCII Standard - VERSION 2.0
WRAP.           NO      :   One line per depth step
~Well Information Section
#MNEM       .UNIT                                         VALUE :DESCRIPTION
#------------------------------------------------------------------------------
STRT        .FT                                          2542.5 :START DEPTH
STOP        .FT                                            8214 :STOP DEPTH
STEP        .FT                                             0.5 :STEP      
NULL        .                                           -999.25 :NULL      
COMP        .                          SEAGULL ENERGY E & P INC :COMPANY   
WELL        .                               OCS G12505 ST00BP00 :WELL      
FLD         .                              GALVESTON BLOCK 0357 :FIELD     
LOC         .                                                   :LOCATION  
CNTY        .                             GALVESTON LARGE BLOCK :LOCATION  
STAT        .                                             TEXAS :STATE     
CTRY        .                                     UNITED STATES :COUNTRY   
SRVC        .                                                   :SERVICE COMPANY
DATE        .                             9/13/2023 11:19:54 AM :LOG DATE  
API         .                                    42706403610000 :API NUMBER
UWI         .                                    42706403610000 :UNIQUE WELL ID
XCOORD      .                                  1003713.76055251 :SURFACE X 
YCOORD      .                                  10412171.7759297 :SURFACE Y 
LAT         .                                          28.67696 :LATITUDE  
LON         .                                        -94.986081 :LONGITUDE 
ELEV        .FT                                              96 :ELEVATION VALUE
ELEV_TYPE   .                                                KB :ELEVATION REFERENCE TYPE
~Curve Information Section
#MNEM       .UNIT                                      API CODE :CURVE DESCRIPTION
#------------------------------------------------------------------------------
DEPT        .FT                                                 :DEPTH     
AT10        .OHMM                                               :          
AT20        .OHMM                                               :          
AT30        .OHMM                                               :          
AT60        .OHMM                                               :          
AT90        .OHMM                                               :          
DCAL        .IN                                                 :          
DPSS        .V/V                                                :          
DTLF        .US/FT                                              :          
DTLN        .US/FT                                              :          
GR          .GAPI                                               :          
GR_NORM     .GAPI                                               :GammaRay Normalized
NPSS        .V/V                                                :Neutron Porosity Sandstone
SP          .MV                                                 :          
SP_NORM     .MV                                                 :SP Normalized
TENS        .LB                                                 :          
VSH_GR      .V/V                                                :Volume of Shale from GR
VSH_SP      .V/V                                                :Volume of Shale from SP
~A        DEPTH           AT10           AT20           AT30           AT60           AT90           DCAL           DPSS           DTLF           DTLN             GR        GR_NORM           NPSS             SP        SP_NORM           TENS         VSH_GR         VSH_SP
# ...
      3127.5000         0.7929          0.832         0.8569         0.8912         0.9147         5.4613         0.3091          141.6          142.2           91.4       80.64629          0.456              0     -0.7881594       2227.723              1      0.9887406
      3128.0000         0.7929          0.832         0.8569         0.8912         0.9147         5.2534         0.3115            142          142.6             90       78.94334         0.4337           -0.2     -0.9863357       2231.848      0.9775178      0.9859095
      3128.5000         0.7929          0.832         0.8569         0.8912         0.9147         5.1696         0.3127          142.4            143           88.4       77.00038           0.43           -0.6      -1.384512       2235.974      0.9361783      0.9802213
      3129.0000            0.8          0.832         0.8569         0.8912         0.9147         5.0025         0.3128          142.6          143.2           87.8       76.25743         0.4636             -1      -1.782688       2240.099      0.9203709       0.974533
      3129.5000            0.8          0.832         0.8569         0.8912         0.9147         5.0014         0.3129          142.6          143.2           86.8       75.03448         0.4929           -1.4      -2.180864       2244.224      0.8943506      0.9688448
      3130.0000         0.8079         0.8485         0.8739         0.9073         0.9297         5.2503         0.3129            142          142.6             87       75.25152         0.4976           -1.4      -2.179041        2248.35      0.8989685      0.9688708
      3130.5000         0.8239         0.8653         0.8912         0.9222         0.9448         5.8738         0.3129          141.6          142.2             89       77.62856           0.48           -1.4      -2.177217           2250      0.9495439      0.9688969
      3131.0000         0.8402         0.8825            0.9         0.9372         0.9603         6.2718         0.3129          140.8          141.4             91       80.00561         0.4588           -1.4      -2.175393           2250              1       0.968923
      3131.5000         0.8402            0.9            0.9         0.9525          0.976         6.3094         0.3128          140.2          140.8           92.8       82.14266         0.4339           -1.4      -2.173569           2250              1       0.968949
      3132.0000         0.8402         0.8825            0.9         0.9448         0.9681         6.1896          0.314          140.4            141           92.6        81.8797         0.4302           -1.2      -1.971746           2250              1      0.9718322
      3132.5000         0.8239         0.8739            0.9         0.9297         0.9525         5.6586         0.3151          141.4            142           92.4       81.61675         0.4302           -0.8      -1.569922           2250              1      0.9775726
      3133.0000         0.8239         0.8569         0.8825         0.9147         0.9372         5.4912          0.315          142.2          142.8           90.6        79.4338         0.4377           -0.4      -1.168098           2250      0.9879532      0.9833129
      3133.5000         0.8159         0.8569         0.8825         0.9147         0.9372         5.3655         0.3138          142.4            143           89.8       78.45085         0.4428           -0.2     -0.9662744           2250      0.9670394      0.9861961
      3134.0000         0.8079         0.8569         0.8825         0.9147         0.9372         5.3641         0.3126          142.4            143           90.6        79.3879          0.454            0.4     -0.3644507           2250      0.9869766      0.9947935
      3134.5000         0.8079         0.8569         0.8825         0.9147         0.9372         5.3627         0.3102          142.4            143             93       82.24495         0.4627            0.4     -0.3626269           2250              1      0.9948196
      3135.0000         0.8159         0.8485         0.8739         0.9073         0.9297           5.32         0.3101          142.8          143.4           94.8         84.382         0.4689            0.4     -0.3608032           2250              1      0.9948457
      3135.5000            0.8         0.8402         0.8653            0.9         0.9222         5.3189         0.3101          143.4            144           94.6       84.11903         0.4676            0.4     -0.3589795           2250              1      0.9948717
      3136.0000         0.7929          0.832         0.8569         0.8912         0.9147         5.2764         0.3124          143.8          144.4           93.2       82.41608         0.4479            0.2     -0.5571557           2250              1      0.9920406
      3136.5000         0.7859          0.832         0.8569         0.8912         0.9147         5.2339         0.3112          144.2          144.8           91.8       80.71313         0.4282           -0.2      -0.955332           2250              1      0.9863524
      3137.0000         0.7929          0.832         0.8569         0.8912         0.9147         5.1915         0.3099          144.2          144.8           92.4       81.41018         0.4295           -0.4      -1.153508           2250              1      0.9835213
      3137.5000         0.8079          0.832         0.8569         0.8912         0.9147         5.1493         0.3087          144.2          144.8             93       82.10722         0.4431           -0.8      -1.551684           2250              1      0.9778331
      3138.0000         0.7929          0.832         0.8569         0.8912         0.9147         5.1481         0.3074            144          144.6           92.6       81.60427         0.4554           -1.2      -1.949861           2250              1      0.9721448
      3138.5000         0.7929         0.8402         0.8653            0.9         0.9222         5.1878         0.3074          143.8          144.4           90.8       79.42132         0.4677           -1.6      -2.348037           2250      0.9876876      0.9664566
      3139.0000         0.7929         0.8402         0.8653            0.9         0.9222         5.3094         0.3073          143.6          144.2           87.4       75.31837           0.48           -1.6      -2.346213           2250      0.9003908      0.9664826
      3139.5000         0.7929         0.8402         0.8653            0.9         0.9222         5.4306         0.3085          143.4            144           85.2       72.65541         0.4836           -1.2       -1.94439           2250      0.8437321       0.972223
      3140.0000         0.7929          0.832         0.8569         0.8912         0.9147         5.6742         0.3096          143.8          144.4           85.2       72.63246         0.4739           -0.8      -1.542566           2250      0.8432438      0.9779633
      3140.5000         0.7929         0.8239         0.8485         0.8825         0.9073         5.8776          0.312            144          144.6        88.0059       75.97659         0.4727              0      -0.740742           2250      0.9143955       0.989418
      3141.0000         0.7929         0.8159         0.8402         0.8912            0.9           6.12         0.3133          143.6          144.2        92.0127        80.7618         0.4727            0.6     -0.1389182           2250              1      0.9980155
      3141.5000            0.8         0.8239         0.8485            0.9         0.9073           6.16         0.3121          142.6          143.2         94.215       83.38159         0.4702            0.6     -0.1370945           2250              1      0.9980415
      3142.0000         0.8159          0.832         0.8569         0.9073         0.9147           6.16         0.3098          141.4            142          94.42       83.60464         0.4567            0.2     -0.5352708           2250              1      0.9923533
