#------------------------------------------------------------------------------
# Created by    : vladimir.rabinovich
# Created on    : 09/19/2023 17:19:45
#------------------------------------------------------------------------------
~Version Information Section
VERS.           2.0     :   CWLS log ASCII Standard - VERSION 2.0
WRAP.           NO      :   One line per depth step
~Well Information Section
#MNEM       .UNIT                                         VALUE :DESCRIPTION
#------------------------------------------------------------------------------
STRT        .FT                                            3127 :START DEPTH
STOP        .FT                                           13892 :STOP DEPTH
STEP        .FT                                             0.5 :STEP      
NULL        .                                           -999.25 :NULL      
COMP        .                                       MONSANTO CO :COMPANY   
WELL        .                                     ST TR 00010-L :WELL      
FLD         .                                           WILDCAT :FIELD     
LOC         .                                                   :LOCATION  
CNTY        .                           HIGH ISLAND LARGE BLOCK :LOCATION  
STAT        .                                             TEXAS :STATE     
CTRY        .                                     UNITED STATES :COUNTRY   
SRVC        .                                                   :SERVICE COMPANY
DATE        .                             9/13/2023 11:19:15 AM :LOG DATE  
API         .                                    42708300750000 :API NUMBER
UWI         .                                    42708300750000 :UNIQUE WELL ID
XCOORD      .                                  1327265.43976741 :SURFACE X 
YCOORD      .                                  10725214.5969587 :SURFACE Y 
LAT         .                                        29.5491158 :LATITUDE  
LON         .                                       -93.9851741 :LONGITUDE 
ELEV        .FT                                              54 :ELEVATION VALUE
ELEV_TYPE   .                                                KB :ELEVATION REFERENCE TYPE
~Curve Information Section
#MNEM       .UNIT                                      API CODE :CURVE DESCRIPTION
#------------------------------------------------------------------------------
DEPT        .FT                                                 :DEPTH     
ASFL        .OHMM                                               :          
CILD        .MMHO                                               :          
ILD         .OHMM                                               :          
SP          .MV                                                 :          
SP_NORM     .MV                                                 :SP Normalized
VSH_SP      .V/V                                                :Volume of Shale from SP
~A        DEPTH           ASFL           CILD            ILD             SP        SP_NORM         VSH_SP
# ...
      8827.0000         0.7996       1795.117        -999.25       -50.0518       1.520527              1
      8827.5000         0.8128       1733.693        -999.25       -50.9299      0.6424255              1
      8828.0000          0.826       1643.344        -999.25       -51.6222    -0.04987335              1
      8828.5000         0.8403       1592.256        -999.25       -52.0897     -0.5173721              1
      8829.0000         0.8561       1548.424        -999.25       -52.6146      -1.042274      0.9994287
      8829.5000         0.8931       1512.941        -999.25        -52.488     -0.9156723              1
      8830.0000         0.9037       1479.396        -999.25       -52.1279     -0.5555725              1
      8830.5000         0.8899       1474.303        -999.25       -51.7476     -0.1752739              1
      8831.0000         0.8779       1497.834        -999.25       -51.3671      0.2052269              1
      8831.5000         0.8658        1521.34        -999.25       -50.9867      0.5856285              1
      8832.0000         0.8543       1542.859        -999.25       -50.6063      0.9660263              1
      8832.5000         0.8536       1563.533        -999.25       -50.3977       1.174625              1
      8833.0000         0.8528        1585.25        -999.25       -50.2904       1.281925              1
      8833.5000         0.8547       1573.248        -999.25       -50.1831       1.389225              1
      8834.0000         0.8576       1557.719        -999.25       -50.0067       1.565628              1
      8834.5000         0.8609       1539.828        -999.25       -49.8159       1.756428              1
      8835.0000         0.8667       1515.426        -999.25       -49.7117       1.860626              1
      8835.5000         0.8725       1486.652        -999.25       -49.7285       1.843826              1
      8836.0000         0.8783       1439.242        -999.25       -49.7454       1.826927              1
      8836.5000         0.8713       1434.744        -999.25       -49.7622       1.810127              1
      8837.0000          0.862       1453.207        -999.25       -49.8387       1.733627              1
      8837.5000         0.8527       1471.668        -999.25       -49.9249       1.647427              1
      8838.0000          0.845       1490.156        -999.25       -49.8707       1.701626              1
      8838.5000         0.8421       1508.617        -999.25       -49.8001       1.772228              1
      8839.0000         0.8392       1527.303        -999.25       -49.6766       1.895725              1
      8839.5000         0.8366       1562.539        -999.25       -49.4351       2.137226              1
      8840.0000         0.8342       1592.928        -999.25       -49.1934       2.378925              1
      8840.5000         0.8318       1615.465        -999.25       -48.9198       2.652527              1
      8841.0000         0.8294       1614.416        -999.25       -48.5598       3.012527              1
      8841.5000         0.8264       1610.197        -999.25       -48.3453       3.227028              1
      8842.0000         0.8233       1605.266        -999.25       -48.3203       3.252026              1
      8842.5000         0.8176       1600.338        -999.25       -48.2954       3.276928              1
      8843.0000         0.8115       1595.412        -999.25         -48.59       2.982327              1
      8843.5000         0.8089       1590.486        -999.25       -48.9383       2.634026              1
      8844.0000          0.812       1585.561        -999.25       -49.2872       2.285126              1
      8844.5000         0.8152       1584.842        -999.25       -49.3403       2.232025              1
      8845.0000         0.8184       1584.293        -999.25        -48.947       2.625328              1
      8845.5000         0.8216        1596.01        -999.25        -48.553       3.019325              1
      8846.0000         0.8208       1615.639        -999.25       -48.6067       2.965626              1
      8846.5000         0.8199       1673.262        -999.25       -49.0599       2.512428              1
      8847.0000         0.8183       1735.133        -999.25       -49.5077       2.064625              1
      8847.5000         0.8144        1762.02        -999.25       -49.8498       1.722527              1
      8848.0000         0.8104       1784.955        -999.25       -50.1926       1.379726              1
      8848.5000         0.8065       1801.354        -999.25       -50.5347       1.037628              1
      8849.0000         0.8027       1817.779        -999.25       -50.8768      0.6955261              1
      8849.5000          0.799       1847.299        -999.25       -51.1948      0.3775253              1
      8850.0000         0.7953        1887.85        -999.25       -51.5085     0.06382751              1
      8850.5000         0.7916       1897.529        -999.25       -51.8883     -0.3159752              1
      8851.0000         0.7876       1906.934        -999.25       -52.7035      -1.131172      0.9982274
      8851.5000         0.7837       1905.119        -999.25       -53.3834      -1.811073      0.9890395
      8852.0000         0.7797       1894.672        -999.25       -53.3479      -1.775574      0.9895193
      8852.5000         0.7797       1881.912        -999.25       -53.0876      -1.515274      0.9930369
      8853.0000         0.7867        1860.74        -999.25       -52.8273      -1.254974      0.9965544
      8853.5000          0.794       1839.545        -999.25        -52.567     -0.9946747              1
      8854.0000         0.8013       1818.375        -999.25       -52.3191     -0.7467728              1
      8854.5000         0.8086       1797.205        -999.25       -52.1057     -0.5333748              1
      8855.0000         0.8034       1776.033        -999.25       -51.8923      -0.319973              1
      8855.5000         0.7921       1754.242        -999.25        -51.679     -0.1066742              1
      8856.0000         0.7859        1730.76        -999.25       -51.7269     -0.1545715              1
      8856.5000         0.7868       1707.254        -999.25       -51.8286     -0.2562752              1
      8857.0000         0.7994       1681.412        -999.25       -51.9303      -0.357975              1
      8857.5000         0.8143       1653.682        -999.25       -52.0319     -0.4595718              1
      8858.0000         0.8293       1600.854        -999.25       -52.1269     -0.5545731              1
      8858.5000         0.8462       1571.781        -999.25       -52.1375     -0.5651741              1
      8859.0000         0.8653       1547.529        -999.25       -51.9877     -0.4153748              1
      8859.5000         0.8851       1525.191        -999.25       -51.8377     -0.2653732              1
      8860.0000         0.8965       1502.729        -999.25       -51.6879     -0.1155739              1
      8860.5000         0.8786       1479.795        -999.25       -51.6852     -0.1128731              1
      8861.0000          0.842       1483.969        -999.25       -51.8151      -0.242775              1
      8861.5000         0.8345       1507.201        -999.25        -51.945      -0.372673              1
      8862.0000         0.8296       1537.441        -999.25       -51.1491      0.4232254              1
      8862.5000         0.8287        1570.34        -999.25       -50.6378      0.9345284              1
      8863.0000         0.8278       1612.135        -999.25       -50.7085      0.8638268              1
      8863.5000         0.8269       1656.912        -999.25       -50.8589      0.7134285              1
      8864.0000          0.826       1670.305        -999.25        -51.009      0.5633278              1
      8864.5000         0.8216       1651.568        -999.25       -51.1593      0.4130249              1
