#------------------------------------------------------------------------------
# Created by    : vladimir.rabinovich
# Created on    : 09/19/2023 17:22:47
#------------------------------------------------------------------------------
~Version Information Section
VERS.           2.0     :   CWLS log ASCII Standard - VERSION 2.0
WRAP.           NO      :   One line per depth step
~Well Information Section
#MNEM       .UNIT                                         VALUE :DESCRIPTION
#------------------------------------------------------------------------------
STRT        .FT                                            4658 :START DEPTH
STOP        .FT                                           10852 :STOP DEPTH
STEP        .FT                                             0.5 :STEP      
NULL        .                                           -999.25 :NULL      
COMP        .                             WALTER OIL & GAS CORP :COMPANY   
WELL        .                               OCS G04721 ST00BP00 :WELL      
FLD         .                              GALVESTON BLOCK 0350 :FIELD     
LOC         .                                                   :LOCATION  
CNTY        .                             GALVESTON LARGE BLOCK :LOCATION  
STAT        .                                             TEXAS :STATE     
CTRY        .                                     UNITED STATES :COUNTRY   
SRVC        .                                                   :SERVICE COMPANY
DATE        .                             9/13/2023 11:19:36 AM :LOG DATE  
API         .                                    42706401870000 :API NUMBER
UWI         .                                    42706401870000 :UNIQUE WELL ID
XCOORD      .                                  1032064.33467067 :SURFACE X 
YCOORD      .                                   10428906.138822 :SURFACE Y 
LAT         .                                        28.7242451 :LATITUDE  
LON         .                                       -94.8985179 :LONGITUDE 
ELEV        .FT                                              92 :ELEVATION VALUE
ELEV_TYPE   .                                                KB :ELEVATION REFERENCE TYPE
~Curve Information Section
#MNEM       .UNIT                                      API CODE :CURVE DESCRIPTION
#------------------------------------------------------------------------------
DEPT        .FT                                                 :DEPTH     
DT          .US/F                                               :          
GR          .GAPI                                               :          
GR_1        .GAPI                                               :          
GR_NORM     .GAPI                                               :GammaRay Normalized
ILD         .OHMM                                               :          
ILM         .OHMM                                               :          
NPHI        .%                                                  :          
RFOC        .OHMM                                               :          
RHOB        .G/C3                                               :          
SP          .MV                                                 :          
SP_NORM     .MV                                                 :SP Normalized
VSH_GR      .V/V                                                :Volume of Shale from GR
VSH_SP      .V/V                                                :Volume of Shale from SP
~A        DEPTH             DT             GR           GR_1        GR_NORM            ILD            ILM           NPHI           RFOC           RHOB             SP        SP_NORM         VSH_GR         VSH_SP
# ...
      6349.0000        -999.25        49.5886        -999.25       47.39396         0.3551         0.4115        38.1345         0.7097         2.2255       -93.3846      -49.55921      0.3062544      0.2375506
      6349.5000        -999.25        48.4442        -999.25       46.04093         0.3767         0.4281        38.7175         0.7262         2.2159         -91.91       -47.8376      0.2774666      0.2640369
      6350.0000        -999.25        46.7939        -999.25       44.08992         0.3971         0.4318        38.4239         0.7444         2.2045       -90.8931      -46.64996      0.2359557      0.2823083
      6350.5000        -999.25        43.8693        -999.25       40.63265         0.4169          0.429        35.1781         0.7798         2.1907       -90.4172       -46.0935      0.1623968      0.2908693
      6351.0000        -999.25        41.2775        -999.25       37.56875         0.4196         0.4234        33.9318         0.7696         2.1703       -90.4617      -46.14417     0.09720741      0.2900896
      6351.5000        -999.25        39.7892        -999.25       35.80922         0.4142         0.4167        33.2385         0.7248         2.1672       -91.1058      -46.89437     0.05977063      0.2785482
      6352.0000        -999.25        38.8168        -999.25       34.65951         0.4089           0.41        32.6907         0.6815         2.1694       -92.0944      -48.04649     0.03530867      0.2608233
      6352.5000        -999.25        37.6613        -999.25       33.29336         0.3969          0.402        32.1393         0.6351         2.1729       -93.3352      -49.49284    0.006241737      0.2385717
      6353.0000        -999.25        36.3772        -999.25       31.77521          0.384          0.394        32.0886         0.5935         2.1629        -95.416      -51.91919              0      0.2012432
      6353.5000        -999.25        35.2452        -999.25       30.43685         0.3716         0.3861        32.7643         0.5627         2.1516       -97.4351      -54.27355              0      0.1650223
      6354.0000        -999.25        34.8256        -999.25       29.94056         0.3555         0.3807        33.3745         0.5457         2.1411       -99.3997      -56.56434              0      0.1297794
      6354.5000        -999.25        36.0518        -999.25       31.38966         0.3381         0.3755        33.4697         0.5423         2.1395      -100.6294      -57.99775              0       0.107727
      6355.0000        -999.25        37.3471        -999.25       32.92044         0.3242         0.3661        33.3079           0.54         2.1369      -101.8293      -59.39637              0     0.08620963
      6355.5000        -999.25        38.2947        -999.25       34.04023         0.3108         0.3527        33.1106         0.5388         2.1316      -102.5339      -60.21716     0.02213255     0.07358216
      6356.0000        -999.25        38.6863        -999.25       34.50281         0.2957         0.3465        32.9073         0.5479          2.129      -103.1803      -60.97004     0.03197471     0.06199934
      6356.5000        -999.25        38.9105        -999.25       34.76752         0.2893         0.3491        32.5198         0.5589         2.1323      -103.8038      -61.69621     0.03760683      0.0508275
      6357.0000        -999.25         39.363        -999.25       35.30209         0.3007         0.3548        32.3871         0.5751         2.1529      -104.1156      -62.05873     0.04898055     0.04525029
      6357.5000        -999.25        40.0558        -999.25       36.12069          0.313         0.3661        32.8832         0.6039         2.1746      -103.3164      -61.12508     0.06639764     0.05961415
      6358.0000        -999.25        41.5311        -999.25       37.86424          0.327         0.3781        34.4201         0.6346         2.1944      -101.6438      -59.17247      0.1034944     0.08965436
      6358.5000        -999.25        43.2742        -999.25       39.92433         0.3421         0.3911        35.9781         0.6737         2.1894       -97.0095      -53.76453      0.1473262      0.1728533
      6359.0000        -999.25        42.9674        -999.25       39.56139         0.3588         0.4046        36.1963          0.709         2.1627       -94.3076      -50.61107       0.139604      0.2213682
      6359.5000        -999.25        42.3723        -999.25       38.85765          0.378         0.4189        36.2365         0.7294         2.1517       -93.3129      -49.44933      0.1246309       0.239241
      6360.0000        -999.25        42.2062        -999.25       38.66101         0.4015         0.4357         35.193         0.6975         2.1603       -92.2081      -48.15915       0.120447      0.2590899
      6360.5000        -999.25        47.0586        -999.25        44.3964         0.4339         0.4473        33.2578         0.6243         2.1819       -90.9314      -46.66842      0.2424767      0.2820244
      6361.0000        -999.25        49.3906        -999.25       47.15259         0.4487         0.4497        32.6982         0.5959         2.1844       -85.7738      -40.64998       0.301119      0.3746157
      6361.5000        -999.25        50.4515        -999.25       48.40631         0.4489         0.4484        32.8624         0.5958         2.1817       -84.4519       -39.1065      0.3277939      0.3983615
      6362.0000        -999.25        48.6817        -999.25       46.31405         0.4425         0.4453        33.5112         0.6139         2.1664        -84.407      -39.05287      0.2832776      0.3991866
      6362.5000        -999.25        39.1063        -999.25        34.9953         0.4362         0.4358        33.3282         0.6636         2.1482       -85.4423      -40.25948      0.0424532      0.3806235
      6363.0000        -999.25        37.9539        -999.25       33.63282         0.4248         0.4266        32.6149         0.6485         2.1337       -87.7186      -42.91391     0.01346418      0.3397861
      6363.5000        -999.25        38.0015        -999.25       33.68877         0.4117         0.4131        31.5249         0.5993         2.1325       -91.4176      -47.22816     0.01465477      0.2734129
      6364.0000        -999.25        38.6597        -999.25       34.46648          0.399         0.3993        31.5529         0.5251         2.1442       -94.3336      -50.62891     0.03120179      0.2210936
      6364.5000        -999.25        39.0679        -999.25        34.9487         0.3855         0.3859        32.1385         0.5015         2.1511       -95.8589      -52.40718     0.04146162      0.1937357
      6365.0000        -999.25        38.9016        -999.25       34.75182         0.3707         0.3736        32.4916         0.5033          2.155       -96.8339      -53.54343     0.03727268      0.1762549
      6365.5000        -999.25        38.0919        -999.25       33.79441         0.3565         0.3617         32.613         0.5151         2.1459       -97.4604       -54.2731     0.01690244      0.1650292
      6366.0000        -999.25         37.443        -999.25       33.02709           0.34         0.3568        32.9634         0.5307         2.1391       -98.1823      -55.11406    0.000576344      0.1520914
      6366.5000        -999.25        36.9565        -999.25       32.45172         0.3231         0.3519        32.5845         0.5552         2.1387        -98.932      -55.98747              0      0.1386543
      6367.0000        -999.25        36.8622        -999.25       32.33996         0.3112          0.346        32.2099         0.5794         2.1448       -99.5079       -56.6581              0       0.128337
      6367.5000        -999.25        36.7679        -999.25       32.22818          0.305         0.3424        31.9831         0.6063          2.155       -99.9452      -57.16703              0      0.1205072
