#------------------------------------------------------------------------------
# Created by    : vladimir.rabinovich
# Created on    : 09/19/2023 17:21:35
#------------------------------------------------------------------------------
~Version Information Section
VERS.           2.0     :   CWLS log ASCII Standard - VERSION 2.0
WRAP.           NO      :   One line per depth step
~Well Information Section
#MNEM       .UNIT                                         VALUE :DESCRIPTION
#------------------------------------------------------------------------------
STRT        .FT                                            3376 :START DEPTH
STOP        .FT                                            7813 :STOP DEPTH
STEP        .FT                                             0.5 :STEP      
NULL        .                                           -999.25 :NULL      
COMP        .                                MARINER ENERGY INC :COMPANY   
WELL        .                               OCS G27491 ST00BP00 :WELL      
FLD         .                                           WILDCAT :FIELD     
LOC         .                                                   :LOCATION  
CNTY        .                             GALVESTON LARGE BLOCK :LOCATION  
STAT        .                                             TEXAS :STATE     
CTRY        .                                     UNITED STATES :COUNTRY   
SRVC        .                                                   :SERVICE COMPANY
DATE        .                             9/13/2023 11:19:33 AM :LOG DATE  
API         .                                    42706404580000 :API NUMBER
UWI         .                                    42706404580000 :UNIQUE WELL ID
XCOORD      .                                  1038987.60828679 :SURFACE X 
YCOORD      .                                  10490484.8642062 :SURFACE Y 
LAT         .                                         28.893877 :LATITUDE  
LON         .                                         -94.87996 :LONGITUDE 
ELEV        .FT                                             110 :ELEVATION VALUE
ELEV_TYPE   .                                                KB :ELEVATION REFERENCE TYPE
~Curve Information Section
#MNEM       .UNIT                                      API CODE :CURVE DESCRIPTION
#------------------------------------------------------------------------------
DEPT        .FT                                                 :DEPTH     
CALI        .IN                                                 :          
DPSS        .%                                                  :          
DRHO        .G/CM3                                              :          
GR          .GAPI                                               :          
GR_NORM     .GAPI                                               :GammaRay Normalized
M2R1        .OHMM                                               :          
M2R2        .OHMM                                               :          
M2R3        .OHMM                                               :          
M2R6        .OHMM                                               :          
M2R9        .OHMM                                               :          
M2RX        .OHMM                                               :          
NPSS        .%                                                  :Neutron Porosity Sandstone
SP          .MV                                                 :          
SP_NORM     .MV                                                 :SP Normalized
TENS        .LB                                                 :          
VSH_GR      .V/V                                                :Volume of Shale from GR
VSH_SP      .V/V                                                :Volume of Shale from SP
~A        DEPTH           CALI           DPSS           DRHO             GR        GR_NORM           M2R1           M2R2           M2R3           M2R6           M2R9           M2RX           NPSS             SP        SP_NORM           TENS         VSH_GR         VSH_SP
# ...
      4366.0000        19.0587        33.6735          0.012           30.2       32.54594         0.4309         0.3464         0.3117          0.292         0.2894         0.2842        42.1176          -87.6      -43.28862              0              0      0.1024213
      4366.5000        19.1403        33.7959          0.016           30.2        32.5444          0.439         0.3497         0.3147         0.2973          0.292         0.2868        43.7647          -87.6      -43.28862              0              0      0.1024213
      4367.0000        19.1811        33.4286           0.02           29.6       31.76873         0.4269         0.3464         0.3147         0.2973         0.2894         0.2842        45.0588          -87.2      -42.88862              0              0       0.111117
      4367.5000        19.3036        32.8163           0.02           28.8         30.735         0.4037          0.327         0.3029         0.2868         0.2842         0.2791        45.7647          -86.8      -42.48862              0              0      0.1198125
      4368.0000         19.426        31.8367          0.024           28.2       29.95932          0.374         0.3147         0.2894         0.2766         0.2766         0.2717        45.6471          -86.4      -42.08862              0              0      0.1285082
      4368.5000        19.5893        31.3469          0.032           28.8       30.73192         0.3565         0.3029         0.2791         0.2668         0.2644         0.2597        43.8824            -86      -41.68862              0              0      0.1372039
      4369.0000        19.7526        31.3469           0.04           29.6       31.76257         0.3398         0.2946         0.2742         0.2644         0.2621         0.2574             42            -86      -41.68862              0              0      0.1372039
      4369.5000         19.955         32.449          0.032           30.2       32.53518         0.3334         0.2894         0.2742         0.2621         0.2597         0.2551           41.4            -86      -41.68862              0              0      0.1372039
      4370.0000         20.155          37.08          0.016           29.2       31.24341         0.3366         0.2946         0.2791         0.2693         0.2644         0.2597          41.52          -86.4      -42.08862              0              0      0.1285082
      4370.5000         20.475             42          0.004           29.8       32.01601         0.3497         0.3117         0.2973         0.2868         0.2791         0.2742        44.2353          -86.8      -42.48862         0.6122              0      0.1198125
      4371.0000         20.835        45.0588          0.008           30.6       33.04666         0.3849         0.3398         0.3208         0.3058         0.2973          0.292        48.2353          -87.2      -42.88862         1.6327   0.0009927952       0.111117
      4371.5000         21.235        44.9412           0.02           30.8       33.30316         0.4229          0.374         0.3464          0.327         0.3147         0.3088        50.5882          -87.2      -42.88862         2.6531    0.006450247       0.111117
      4372.0000         21.515          40.32          0.028           30.2       32.52749         0.4514         0.4075          0.374         0.3431         0.3302         0.3239        49.0588          -87.6      -43.28862         3.6735              0      0.1024213
      4372.5000         21.555          36.24          0.032           29.4       31.49377         0.4642         0.4075          0.374         0.3431         0.3334          0.327        43.8824          -87.6      -43.28862         4.6939              0      0.1024213
      4373.0000         21.555        33.1837           0.04           28.4         30.202         0.4472         0.3887           0.36          0.327         0.3208         0.3147          39.84            -88      -43.68862         5.7143              0     0.09372562
      4373.5000         21.555        32.3265           0.06           27.2       28.65218         0.4309         0.3705         0.3398         0.3117         0.3058            0.3          36.24            -88      -43.68862         6.7347              0     0.09372562
      4374.0000         21.555        32.0816          0.084           26.8       28.13456          0.419         0.3531         0.3239         0.2973         0.2894         0.2842        34.7755            -88      -43.68862         7.7551              0     0.09372562
      4374.5000         21.555        32.5714          0.104           27.8       29.42325         0.4075         0.3398         0.3147         0.2868         0.2766         0.2717        35.2653          -88.4      -44.08862         8.7755              0     0.08502994
      4375.0000         21.555        33.1837          0.104             29          30.97         0.4075         0.3398         0.3088         0.2842         0.2742         0.2693          37.68          -88.4      -44.08862         9.7959              0     0.08502994
      4375.5000         21.555         33.551          0.104           30.2       32.51674         0.4037         0.3366         0.3029         0.2817         0.2717         0.2668          39.48          -88.8      -44.48862        10.8163              0     0.07633425
      4376.0000         21.555        34.0408            0.1           31.4       34.06347         0.4037         0.3366         0.3029         0.2817         0.2717         0.2668          39.72          -88.4      -44.08862        11.8367     0.02262708     0.08502994
      4376.5000         21.555        35.6327            0.1           31.6       34.31998         0.4037         0.3398         0.3029         0.2842         0.2717         0.2668          39.84          -88.4      -44.08862        12.8571     0.02808461     0.08502994
      4377.0000         21.555          38.88          0.104           31.8       34.57649         0.4037         0.3398         0.3088         0.2868         0.2766         0.2717        43.5294          -88.4      -44.08862        13.8776     0.03354239     0.08502994
      4377.5000         21.555        43.0588          0.096           31.8       34.57496         0.4075         0.3431         0.3147         0.2894         0.2817         0.2766             50          -88.4      -44.08862         14.898     0.03350976     0.08502994
      4378.0000         21.595        47.2941          0.064           31.4       34.05733         0.4113         0.3464         0.3178          0.292         0.2817         0.2766        53.2941          -88.8      -44.48862        15.9184     0.02249641     0.07633425
      4378.5000         21.595             50          0.028             31        33.5397          0.419         0.3497         0.3178         0.2946         0.2817         0.2766          55.92          -89.2      -44.88862        16.9388     0.01148297     0.06763873
      4379.0000         21.595        50.7059          0.012           32.6       35.60253         0.4229         0.3531         0.3178         0.2946         0.2817         0.2766          56.04          -89.6      -45.28862        17.9592     0.05537301     0.05894304
      4379.5000         21.595        49.1765          0.016           37.4       41.79411         0.4309         0.3531         0.3178         0.2946         0.2817         0.2766        52.9412            -90      -45.68862        18.9796      0.1871088     0.05024736
      4380.0000         21.595        45.5294          0.044           41.6       47.21153         0.4472         0.3565         0.3208         0.2973         0.2868         0.2817        49.8824          -89.6      -45.28862             20       0.302373     0.05894304
      4380.5000         21.596        42.2353           0.08           45.2       51.85484         0.4642         0.3669         0.3302         0.3029          0.292         0.2868        48.9412          -89.2      -44.88862        20.4082      0.4011667     0.06763873
