#------------------------------------------------------------------------------
# Created by    : vladimir.rabinovich
# Created on    : 09/19/2023 17:20:37
#------------------------------------------------------------------------------
~Version Information Section
VERS.           2.0     :   CWLS log ASCII Standard - VERSION 2.0
WRAP.           NO      :   One line per depth step
~Well Information Section
#MNEM       .UNIT                                         VALUE :DESCRIPTION
#------------------------------------------------------------------------------
STRT        .FT                                             582 :START DEPTH
STOP        .FT                                            8015 :STOP DEPTH
STEP        .FT                                             0.5 :STEP      
NULL        .                                           -999.25 :NULL      
COMP        .                                CONTINENTAL OIL CO :COMPANY   
WELL        .                                OCS 00719 ST00BP00 :WELL      
FLD         .                                           WILDCAT :FIELD     
LOC         .                                                   :LOCATION  
CNTY        .                             GALVESTON LARGE BLOCK :LOCATION  
STAT        .                                             TEXAS :STATE     
CTRY        .                                     UNITED STATES :COUNTRY   
SRVC        .                                                   :SERVICE COMPANY
DATE        .                             9/13/2023 11:19:25 AM :LOG DATE  
API         .                                    42706000350000 :API NUMBER
UWI         .                                    42706000350000 :UNIQUE WELL ID
XCOORD      .                                  1010979.62119212 :SURFACE X 
YCOORD      .                                  10432235.4027546 :SURFACE Y 
LAT         .                                          28.73246 :LATITUDE  
LON         .                                        -94.964458 :LONGITUDE 
ELEV        .FT                                              63 :ELEVATION VALUE
ELEV_TYPE   .                                                KB :ELEVATION REFERENCE TYPE
~Curve Information Section
#MNEM       .UNIT                                      API CODE :CURVE DESCRIPTION
#------------------------------------------------------------------------------
DEPT        .FT                                                 :DEPTH     
ASN         .OHMM                                               :          
DT          .US/F                                               :          
LN          .OHMM                                               :          
SP          .MV                                                 :          
SP_NORM     .MV                                                 :SP Normalized
VSH_SP      .V/V                                                :Volume of Shale from SP
~A        DEPTH            ASN             DT             LN             SP        SP_NORM         VSH_SP
# ...
      3546.0000         0.6505        -999.25         0.6664       -46.0972       1.516843              1
      3546.5000         0.6452        -999.25         0.6653       -45.7695       2.009495              1
      3547.0000         0.6398        -999.25         0.6641       -45.8644       1.865003              1
      3547.5000         0.6389        -999.25          0.663       -45.9629       1.715076              1
      3548.0000         0.6384        -999.25         0.6619       -46.0613       1.565304              1
      3548.5000         0.6379        -999.25         0.6608       -46.1599       1.415227              1
      3549.0000         0.6366        -999.25         0.6597       -46.0005        1.65414              1
      3549.5000          0.635        -999.25         0.6586       -45.6718       2.148305              1
      3550.0000         0.6334        -999.25         0.6574        -45.343       2.642614              1
      3550.5000         0.6317        -999.25         0.6563       -45.0142       3.136929              1
      3551.0000         0.6301        -999.25         0.6552       -44.6855       3.631088              1
      3551.5000         0.6285        -999.25         0.6541       -44.2685       4.258381              1
      3552.0000         0.6345        -999.25          0.653       -44.3547       4.127002              1
      3552.5000         0.6413        -999.25         0.6529       -45.2915       2.713178              1
      3553.0000         0.6489        -999.25          0.656       -46.0702        1.53772              1
      3553.5000         0.6586        -999.25          0.659       -46.2805       1.219243              1
      3554.0000         0.6683        -999.25         0.6621       -46.4907      0.9009092              1
      3554.5000         0.6785        -999.25         0.6651       -46.2683         1.2348              1
      3555.0000         0.6887        -999.25         0.6682       -45.9516       1.710872              1
      3555.5000         0.7081        -999.25         0.6712       -45.6197       2.209857              1
      3556.0000         0.7202        -999.25         0.6743       -46.6318      0.6825059              1
      3556.5000         0.7287        -999.25         0.6774         -47.83      -1.125432              1
      3557.0000         0.7317        -999.25         0.6804       -49.7047      -3.953315      0.9593059
      3557.5000         0.7347        -999.25         0.6835       -50.7686      -5.558764      0.9258591
      3558.0000         0.7371        -999.25         0.6865         -51.96      -7.356441      0.8884075
      3558.5000         0.7387        -999.25         0.6896       -52.9578      -8.862242      0.8570367
      3559.0000         0.7379        -999.25         0.6926       -53.6198      -9.861747      0.8362136
      3559.5000         0.7371        -999.25         0.6957       -54.0403      -10.49714      0.8229762
      3560.0000         0.7362        -999.25          0.699       -52.9203      -8.809944      0.8581262
      3560.5000         0.7335        -999.25         0.7024       -51.2067      -6.227777      0.9119213
      3561.0000         0.7295        -999.25         0.7058       -49.8199      -4.138332      0.9554514
      3561.5000         0.7254        -999.25         0.7092       -48.4332       -2.04903      0.9989786
      3562.0000         0.7214        -999.25         0.7126       -47.6794     -0.9139476              1
      3562.5000         0.7173        -999.25          0.716       -47.0196     0.07941519              1
      3563.0000         0.7133        -999.25         0.7194        -46.737      0.5040691              1
      3563.5000         0.7093        -999.25         0.7229       -46.8769      0.2917278              1
      3564.0000         0.7083        -999.25         0.7263       -47.4715      -0.606162              1
      3564.5000         0.7073        -999.25         0.7297       -47.7958       -1.09652              1
      3565.0000         0.7063        -999.25         0.7331       -47.7116     -0.9709899              1
      3565.5000         0.7053        -999.25         0.7365       -47.4354      -0.555981              1
      3566.0000         0.7044        -999.25         0.7399       -47.1774     -0.1684122              1
      3566.5000         0.7033        -999.25         0.7433       -46.9391      0.1894565              1
      3567.0000         0.7005        -999.25         0.7467       -46.7009      0.5471699              1
      3567.5000         0.6968        -999.25         0.7501       -46.4626      0.9050329              1
      3568.0000         0.6901        -999.25         0.7535       -46.2242       1.263051              1
      3568.5000         0.6835        -999.25         0.7569        -45.986        1.62077              1
      3569.0000         0.7154        -999.25         0.7585       -45.7477       1.978639              1
      3569.5000         0.7458        -999.25         0.7576       -45.6014       2.197802              1
      3570.0000         0.7733        -999.25         0.7566       -45.7862       1.917755              1
      3570.5000         0.7954        -999.25         0.7557       -46.7812      0.4161878              1
      3571.0000         0.8174        -999.25         0.7548       -47.6632     -0.9150116              1
      3571.5000         0.8292        -999.25         0.7538       -48.2819      -1.849233              1
      3572.0000         0.8391        -999.25         0.7529       -48.9008      -2.783765      0.9836715
      3572.5000         0.8404        -999.25          0.752       -48.8943      -2.775379      0.9838462
      3573.0000         0.8416        -999.25         0.7511       -48.3723       -1.98978              1
      3573.5000         0.8402        -999.25         0.7501       -47.8725      -1.237653              1
      3574.0000         0.8316        -999.25         0.7492       -47.3724     -0.4850665              1
      3574.5000          0.823        -999.25         0.7483       -47.7012     -0.9822165              1
      3575.0000         0.8148        -999.25         0.7473       -48.2371      -1.791604              1
      3575.5000         0.8096        -999.25         0.7464       -48.6577      -2.427155      0.9911009
      3576.0000         0.8044        -999.25         0.7455       -49.0782      -3.062557      0.9778634
      3576.5000         0.7984        -999.25         0.7446       -49.0807      -3.067745      0.9777553
      3577.0000         0.7904        -999.25         0.7436       -48.7234      -2.530462      0.9889487
      3577.5000         0.7824        -999.25         0.7427       -48.3661      -1.993179              1
      3578.0000         0.7744        -999.25         0.7441       -48.5959      -2.341063      0.9928945
      3578.5000          0.766        -999.25          0.747       -48.8662       -2.75001      0.9843748
      3579.0000         0.7572        -999.25         0.7498       -48.9007       -2.80344      0.9832616
      3579.5000         0.7485        -999.25         0.7526       -48.9211      -2.835613      0.9825914
      3580.0000         0.7451        -999.25         0.7554       -48.9417      -2.868086      0.9819149
      3580.5000         0.7661        -999.25         0.7582       -48.7889      -2.639123      0.9866849
      3581.0000          0.787        -999.25         0.7611       -48.3163       -1.92801              1
      3581.5000         0.8007        -999.25         0.7639       -47.8434      -1.216436              1
      3582.0000         0.8117        -999.25         0.7667       -47.3708     -0.5053171              1
      3582.5000         0.8226        -999.25         0.7695       -46.9589      0.1142859              1
      3583.0000         0.8336        -999.25         0.7723       -47.2026     -0.2545565              1
      3583.5000         0.8367        -999.25         0.7751       -47.9933      -1.448108              1
