#------------------------------------------------------------------------------
# Created by    : vladimir.rabinovich
# Created on    : 09/19/2023 17:19:45
#------------------------------------------------------------------------------
~Version Information Section
VERS.           2.0     :   CWLS log ASCII Standard - VERSION 2.0
WRAP.           NO      :   One line per depth step
~Well Information Section
#MNEM       .UNIT                                         VALUE :DESCRIPTION
#------------------------------------------------------------------------------
STRT        .FT                                            3127 :START DEPTH
STOP        .FT                                           13892 :STOP DEPTH
STEP        .FT                                             0.5 :STEP      
NULL        .                                           -999.25 :NULL      
COMP        .                                       MONSANTO CO :COMPANY   
WELL        .                                     ST TR 00010-L :WELL      
FLD         .                                           WILDCAT :FIELD     
LOC         .                                                   :LOCATION  
CNTY        .                           HIGH ISLAND LARGE BLOCK :LOCATION  
STAT        .                                             TEXAS :STATE     
CTRY        .                                     UNITED STATES :COUNTRY   
SRVC        .                                                   :SERVICE COMPANY
DATE        .                             9/13/2023 11:19:15 AM :LOG DATE  
API         .                                    42708300750000 :API NUMBER
UWI         .                                    42708300750000 :UNIQUE WELL ID
XCOORD      .                                  1327265.43976741 :SURFACE X 
YCOORD      .                                  10725214.5969587 :SURFACE Y 
LAT         .                                        29.5491158 :LATITUDE  
LON         .                                       -93.9851741 :LONGITUDE 
ELEV        .FT                                              54 :ELEVATION VALUE
ELEV_TYPE   .                                                KB :ELEVATION REFERENCE TYPE
~Curve Information Section
#MNEM       .UNIT                                      API CODE :CURVE DESCRIPTION
#------------------------------------------------------------------------------
DEPT        .FT                                                 :DEPTH     
ASFL        .OHMM                                               :          
CILD        .MMHO                                               :          
ILD         .OHMM                                               :          
SP          .MV                                                 :          
SP_NORM     .MV                                                 :SP Normalized
VSH_SP      .V/V                                                :Volume of Shale from SP
~A        DEPTH           ASFL           CILD            ILD             SP        SP_NORM         VSH_SP
# ...
      7421.0000         0.7182       5852.055        -999.25      -133.4324      -82.22248     0.03306571
      7421.5000         0.7097        5793.25        -999.25        -130.22      -79.00017     0.07142657
      7422.0000         0.7103       5119.383        -999.25      -126.1969      -74.96716      0.1194385
      7422.5000         0.7217       4625.109        -999.25      -120.1895      -68.94985      0.1910732
      7423.0000          0.733       4294.539        -999.25      -116.0707      -64.82114      0.2402245
      7423.5000         0.7647       3963.566        -999.25      -113.9634      -62.70394      0.2654293
      7424.0000         0.8023       3632.594        -999.25      -130.6277      -79.35833     0.06716274
      7424.5000         0.8395       3401.352        -999.25      -133.7026      -82.42332     0.03067471
      7425.0000         0.8756       3758.547        -999.25      -136.5503      -85.26111              0
      7425.5000         0.9104       4115.742        -999.25      -137.6519      -86.35281              0
      7426.0000         0.9322       4473.336        -999.25      -138.6821      -87.37309              0
      7426.5000         0.9539       4830.531        -999.25      -139.5068       -88.1879              0
      7427.0000         0.9641       5085.414        -999.25      -139.8569      -88.52808              0
      7427.5000         0.9714       5260.438        -999.25      -139.8191      -88.48038              0
      7428.0000         0.9787       5435.461        -999.25      -139.7812      -88.43257              0
      7428.5000         0.9758       5610.477        -999.25      -139.7434      -88.38484              0
      7429.0000          0.969       5785.305        -999.25      -139.7056      -88.33714              0
      7429.5000         0.9402       5932.516        -999.25      -139.6624      -88.28404              0
      7430.0000         0.9051       5781.531        -999.25      -139.6016      -88.21332              0
      7430.5000         0.8673       5630.547        -999.25      -139.2581      -87.85992              0
      7431.0000         0.8247       5479.563        -999.25      -136.3208      -84.91272    0.001039051
      7431.5000         0.7905       5328.578        -999.25      -132.9265       -81.5085     0.04156549
      7432.0000         0.7858       5177.594        -999.25      -126.7373      -75.30939      0.1153644
      7432.5000         0.7791       5030.781        -999.25      -110.9596      -59.52179       0.303312
      7433.0000         0.7721       4899.469        -999.25        -97.245      -45.79728       0.466699
      7433.5000          0.764       4679.945        -999.25      -102.5353      -51.07767      0.4038372
      7434.0000          0.756        4579.82        -999.25      -107.8257      -56.35816      0.3409743
      7434.5000         0.7479       4524.094        -999.25       -113.116      -61.63855      0.2781125
      7435.0000         0.7399       4540.359        -999.25      -118.4113      -66.92395      0.2151911
      7435.5000         0.7318       4556.602        -999.25      -123.7015      -72.20424      0.1523305
      7436.0000         0.7248       4572.867        -999.25      -116.0977      -64.59053      0.2429699
      7436.5000         0.7186       4589.102        -999.25       -107.472      -55.95493      0.3457747
      7437.0000         0.7124       4550.414        -999.25       -98.8463      -47.31931      0.4485796
      7437.5000         0.7063       4504.328        -999.25       -90.2207      -38.68381      0.5513832
      7438.0000         0.7001       4458.234        -999.25       -81.5951       -30.0483      0.6541869
      7438.5000         0.7034        4393.07        -999.25       -75.0226      -23.46589       0.732549
      7439.0000         0.7077       4258.977        -999.25       -68.9906      -17.42398      0.8044764
      7439.5000         0.7119       3788.543        -999.25       -73.4901      -21.91357      0.7510289
      7440.0000           0.72       3571.805        -999.25       -80.2196      -28.63316      0.6710337
      7440.5000         0.7289       3370.758        -999.25       -77.5892      -25.99286      0.7024659
      7441.0000         0.7378       3082.695        -999.25       -74.9587      -23.35245      0.7338994
      7441.5000         0.7468       2373.867        -999.25       -72.3259      -20.70974      0.7653602
      7442.0000         0.7522       2694.906        -999.25       -70.4937      -18.86763      0.7872901
      7442.5000         0.7526       3092.629        -999.25       -77.5573      -25.92132      0.7033176
      7443.0000          0.753       3450.023        -999.25       -84.6208      -32.97491      0.6193463
      7443.5000         0.7534       3655.242        -999.25       -86.8197      -35.16391      0.5932868
      7444.0000         0.7538       3813.578        -999.25       -87.4724       -35.8067      0.5856345
      7444.5000          0.753       3993.566        -999.25       -89.3365       -37.6609      0.5635608
      7445.0000         0.7501       4060.066        -999.25       -94.5433      -42.85778      0.5016931
      7445.5000         0.7472       4108.641        -999.25        -97.692      -45.99658      0.4643264
      7446.0000         0.7444       4169.977        -999.25      -100.8407      -49.13537      0.4269599
      7446.5000         0.7415       4192.023        -999.25      -102.1178      -50.40256      0.4118743
      7447.0000         0.7386       4174.219        -999.25      -101.2681      -49.54295      0.4221078
      7447.5000         0.7357       4153.086        -999.25       -97.8541      -46.11905      0.4628685
      7448.0000         0.7295       4131.508        -999.25       -94.4402      -42.69524      0.5036281
      7448.5000         0.7232       4109.906        -999.25       -91.0262      -39.27133      0.5443889
      7449.0000         0.7207        4086.34        -999.25       -87.6123      -35.84752      0.5851486
      7449.5000         0.7298        4044.57        -999.25       -84.1051      -32.33041      0.6270189
      7450.0000          0.739       4002.801        -999.25       -80.6028       -28.8182      0.6688309
      7450.5000         0.7482       3874.766        -999.25       -77.0956      -25.30109      0.7107013
      7451.0000         0.7566       3803.445        -999.25       -73.5933      -21.78889      0.7525132
      7451.5000         0.7621        3755.07        -999.25       -70.0859      -18.27158       0.794386
      7452.0000         0.7676       3682.457        -999.25       -66.5787      -14.75447      0.8362563
      7452.5000         0.7711       3510.219        -999.25       -63.0764      -11.24226      0.8780683
      7453.0000         0.7606       3316.918        -999.25       -59.5692      -7.725151      0.9199387
      7453.5000           0.75       3221.066        -999.25       -52.5596     -0.7056465              1
      7454.0000         0.7395       3142.891        -999.25       -50.0741       1.789761              1
      7454.5000         0.7285       3015.746        -999.25       -47.5886       4.285172              1
      7455.0000         0.7171       2846.883        -999.25       -45.1055       6.778179              1
      7455.5000         0.7133       2716.633        -999.25       -43.5864       8.307186              1
      7456.0000         0.7183       2693.492        -999.25       -43.1456       8.757896              1
      7456.5000         0.7234       2682.277        -999.25       -42.7053       9.208103              1
      7457.0000         0.7285       2679.988        -999.25         -42.48        9.44331              1
      7457.5000         0.7336       2677.695        -999.25       -44.6278        7.30542              1
      7458.0000         0.7386        2675.41        -999.25       -45.9234       6.019726              1
      7458.5000         0.7512       2667.281        -999.25       -47.2177       4.735336              1
