#------------------------------------------------------------------------------
# Created by    : vladimir.rabinovich
# Created on    : 09/19/2023 17:21:26
#------------------------------------------------------------------------------
~Version Information Section
VERS.           2.0     :   CWLS log ASCII Standard - VERSION 2.0
WRAP.           NO      :   One line per depth step
~Well Information Section
#MNEM       .UNIT                                         VALUE :DESCRIPTION
#------------------------------------------------------------------------------
STRT        .FT                                            3102 :START DEPTH
STOP        .FT                                            8740 :STOP DEPTH
STEP        .FT                                             0.5 :STEP      
NULL        .                                           -999.25 :NULL      
COMP        .                          SEAGULL ENERGY E & P INC :COMPANY   
WELL        .                               OCS G13314 ST00BP00 :WELL      
FLD         .                              GALVESTON BLOCK 0330 :FIELD     
LOC         .                                                   :LOCATION  
CNTY        .                             GALVESTON LARGE BLOCK :LOCATION  
STAT        .                                             TEXAS :STATE     
CTRY        .                                     UNITED STATES :COUNTRY   
SRVC        .                                                   :SERVICE COMPANY
DATE        .                             9/13/2023 11:19:54 AM :LOG DATE  
API         .                                    42706403240000 :API NUMBER
UWI         .                                    42706403240000 :UNIQUE WELL ID
XCOORD      .                                  980373.867630971 :SURFACE X 
YCOORD      .                                  10452895.3513713 :SURFACE Y 
LAT         .                                         28.787844 :LATITUDE  
LON         .                                        -95.061044 :LONGITUDE 
ELEV        .FT                                              95 :ELEVATION VALUE
ELEV_TYPE   .                                                KB :ELEVATION REFERENCE TYPE
~Curve Information Section
#MNEM       .UNIT                                      API CODE :CURVE DESCRIPTION
#------------------------------------------------------------------------------
DEPT        .FT                                                 :DEPTH     
CALI        .IN                                                 :          
DRHO        .G/C3                                               :          
DT          .US/F                                               :          
GR          .GAPI                                               :          
GR_1        .GAPI                                               :          
GR_NORM     .GAPI                                               :GammaRay Normalized
ILD         .OHMM                                               :          
ILM         .OHMM                                               :          
NPHI        .%                                                  :          
RFOC        .OHMM                                               :          
RHOB        .G/C3                                               :          
SP          .MV                                                 :          
SP_NORM     .MV                                                 :SP Normalized
VSH_GR      .V/V                                                :Volume of Shale from GR
VSH_SP      .V/V                                                :Volume of Shale from SP
~A        DEPTH           CALI           DRHO             DT             GR           GR_1        GR_NORM            ILD            ILM           NPHI           RFOC           RHOB             SP        SP_NORM         VSH_GR         VSH_SP
# ...
      6876.0000        -999.25        -999.25        88.8329        39.6636        -999.25       46.67634         0.6321          0.608        -999.25         1.3048        -999.25       -71.8108       -42.1836       0.290986       0.472705
      6876.5000        -999.25        -999.25        90.3912        39.1064        -999.25       46.04698          0.601         0.5762        -999.25         1.3532        -999.25       -77.9382      -48.31127      0.2775954      0.3961091
      6877.0000        -999.25        -999.25        93.0895        38.3663        -999.25       45.21104         0.5144         0.5249        -999.25         1.4093        -999.25       -86.7384      -57.11174      0.2598094      0.2861032
      6877.5000        -999.25        -999.25        95.7329        37.1343        -999.25        43.8195         0.4471         0.4652        -999.25         1.3802        -999.25       -98.0889       -68.4625      0.2302021      0.1442187
      6878.0000        -999.25        -999.25        99.6694        35.0189        -999.25       41.43016         0.3736         0.3986        -999.25         1.2265        -999.25      -110.4772      -80.85107      0.1793652              0
      6878.5000        -999.25        -999.25       102.1086        34.7242        -999.25       41.09729         0.3405         0.3668        -999.25          1.152        -999.25       -116.297      -86.67113      0.1722828              0
      6879.0000        -999.25        -999.25       103.1837        35.4835        -999.25       41.95493         0.3133         0.3456        -999.25         1.1727        -999.25      -119.2737       -89.6481      0.1905303              0
      6879.5000        -999.25        -999.25       103.1089        36.6154        -999.25        43.2334         0.2893         0.3292        -999.25         1.3683        -999.25      -121.1919      -91.56657      0.2177319              0
      6880.0000        -999.25        -999.25        102.625        37.6335        -999.25       44.38334         0.2743         0.3184        -999.25         1.4854        -999.25       -122.621      -92.99594      0.2421988              0
      6880.5000        -999.25        -999.25       102.8112        38.3981        -999.25       45.24696         0.2703         0.3113        -999.25         1.4214        -999.25      -123.6533       -94.0285      0.2605737              0
      6881.0000        -999.25        -999.25       103.8103        38.6566        -999.25       45.53894         0.2692         0.3103        -999.25         1.1501        -999.25      -124.1263      -94.50177      0.2667859              0
      6881.5000        -999.25        -999.25       105.8408        40.1715        -999.25       47.25001         0.2683          0.312        -999.25         0.9005        -999.25      -122.1835      -92.55925      0.3031917              0
      6882.0000        -999.25        -999.25       107.0715        42.3141        -999.25       49.67007         0.2646         0.3076        -999.25         0.7138        -999.25      -113.8949       -84.2709      0.3546824              0
      6882.5000        -999.25        -999.25       108.1305         43.559        -999.25       51.07619         0.2555         0.3008        -999.25         0.7784        -999.25      -105.8733      -76.24957      0.3845997     0.04688034
      6883.0000        -999.25        -999.25       108.6138        43.7993        -999.25       51.34761         0.2446         0.2949        -999.25         0.9121        -999.25      -105.8176      -76.19414      0.3903746     0.04757328
      6883.5000        -999.25        -999.25       107.6545        42.9307        -999.25       50.36652         0.2429         0.2909        -999.25         0.8491        -999.25      -109.6654      -80.04221      0.3695005              0
      6884.0000        -999.25        -999.25       106.6218        41.2959        -999.25       48.52002         0.2444          0.288        -999.25          0.651        -999.25      -113.6985      -84.07558      0.3302132              0
      6884.5000        -999.25        -999.25       106.0485         38.019        -999.25       44.81877         0.2457         0.2859        -999.25         0.5487        -999.25       -115.678      -86.05535      0.2514631              0
      6885.0000        -999.25        -999.25       105.9679        35.0881        -999.25       41.50832          0.249         0.2858        -999.25         0.6525        -999.25      -116.3865      -86.76411      0.1810281              0
      6885.5000        -999.25        -999.25       105.9783        33.2891        -999.25       39.47635         0.2531         0.2874        -999.25         0.8491        -999.25      -116.5615      -86.93938      0.1377947              0
      6886.0000        -999.25        -999.25       106.0828        31.9509        -999.25       37.96486          0.255         0.2885        -999.25         1.0338        -999.25      -117.0865      -87.46465      0.1056352              0
      6886.5000        -999.25        -999.25       106.3104        31.2849        -999.25       37.21261         0.2556         0.2863        -999.25          1.088        -999.25      -119.7258      -90.10422     0.08963004              0
      6887.0000        -999.25        -999.25       106.7358        30.9315        -999.25       36.81345         0.2564         0.2843        -999.25         1.0992        -999.25      -121.4163      -91.79498     0.08113715              0
      6887.5000        -999.25        -999.25       107.4198        30.8182        -999.25       36.68547         0.2579         0.2846        -999.25         1.0983        -999.25      -123.8479      -94.22685     0.07841427              0
      6888.0000        -999.25        -999.25       107.8806        30.9597        -999.25        36.8453         0.2582         0.2822        -999.25         1.0646        -999.25      -125.3251      -95.70432     0.08181487              0
      6888.5000        -999.25        -999.25       107.8739        30.9037        -999.25       36.78205         0.2558         0.2739        -999.25         0.9398        -999.25       -126.135      -96.51449     0.08046917              0
      6889.0000        -999.25        -999.25       107.8706        30.2927        -999.25       36.09193         0.2545         0.2702        -999.25         0.7509        -999.25      -126.4355      -96.81525     0.06578567              0
      6889.5000        -999.25        -999.25        107.897        30.1438        -999.25       35.92374         0.2579         0.2719        -999.25         0.5876        -999.25      -126.2866      -96.66662     0.06220716              0
      6890.0000        -999.25        -999.25       107.8259        31.2738        -999.25       37.20007         0.2624         0.2767        -999.25         0.5417        -999.25      -125.5299      -95.91019     0.08936326              0
      6890.5000        -999.25        -999.25        107.691        33.1902        -999.25       39.36464         0.2651         0.2813        -999.25         0.5704        -999.25      -124.3187      -94.69926      0.1354179              0
      6891.0000        -999.25        -999.25       107.5256        33.8599        -999.25       40.12107         0.2578         0.2744        -999.25         0.6298        -999.25      -121.2827      -91.66352      0.1515122              0
      6891.5000        -999.25        -999.25        107.246        32.1671        -999.25       38.20905         0.2489         0.2676        -999.25         0.6525        -999.25      -121.0103      -91.39139      0.1108309              0
      6892.0000        -999.25        -999.25       106.9557        30.1432        -999.25       35.92307         0.2441         0.2616        -999.25         0.6481        -999.25      -122.3225      -92.70386     0.06219288              0
      6892.5000        -999.25        -999.25       106.9073        28.4281        -999.25       33.98586         0.2404         0.2565        -999.25         0.6936        -999.25      -123.9526      -94.33422      0.0209758              0
