#------------------------------------------------------------------------------
# Created by    : vladimir.rabinovich
# Created on    : 09/19/2023 17:20:04
#------------------------------------------------------------------------------
~Version Information Section
VERS.           2.0     :   CWLS log ASCII Standard - VERSION 2.0
WRAP.           NO      :   One line per depth step
~Well Information Section
#MNEM       .UNIT                                         VALUE :DESCRIPTION
#------------------------------------------------------------------------------
STRT        .FT                                             900 :START DEPTH
STOP        .FT                                            8286 :STOP DEPTH
STEP        .FT                                             0.5 :STEP      
NULL        .                                           -999.25 :NULL      
COMP        .                                       ALLIED CORP :COMPANY   
WELL        .                               OCS G04069 ST00BP00 :WELL      
FLD         .                                           WILDCAT :FIELD     
LOC         .                                                   :LOCATION  
CNTY        .                             GALVESTON LARGE BLOCK :LOCATION  
STAT        .                                             TEXAS :STATE     
CTRY        .                                     UNITED STATES :COUNTRY   
SRVC        .                                                   :SERVICE COMPANY
DATE        .                             9/13/2023 11:18:53 AM :LOG DATE  
API         .                                    42706400840000 :API NUMBER
UWI         .                                    42706400840000 :UNIQUE WELL ID
XCOORD      .                                  987200.391396966 :SURFACE X 
YCOORD      .                                   10401886.486665 :SURFACE Y 
LAT         .                                         28.647914 :LATITUDE  
LON         .                                        -95.037018 :LONGITUDE 
ELEV        .FT                                              83 :ELEVATION VALUE
ELEV_TYPE   .                                                KB :ELEVATION REFERENCE TYPE
~Curve Information Section
#MNEM       .UNIT                                      API CODE :CURVE DESCRIPTION
#------------------------------------------------------------------------------
DEPT        .FT                                                 :DEPTH     
ASFL        .OHMM                                               :          
CILD        .MMHO                                               :          
DPHI        .%                                                  :          
DT          .US/F                                               :          
GR          .GAPI                                               :          
GR_NORM     .GAPI                                               :GammaRay Normalized
ILD         .OHMM                                               :          
SP          .MV                                                 :          
SP_NORM     .MV                                                 :SP Normalized
VSH_GR      .V/V                                                :Volume of Shale from GR
VSH_SP      .V/V                                                :Volume of Shale from SP
~A        DEPTH           ASFL           CILD           DPHI             DT             GR        GR_NORM            ILD             SP        SP_NORM         VSH_GR         VSH_SP
# ...
      2362.5000         0.6192       1843.029        -999.25       150.4998        28.8723       35.01148         0.4737       -65.0254      -6.796776     0.04279749      0.8954342
      2363.0000         0.6119       1855.797        -999.25       154.1794        28.0897       34.23597         0.4728        -65.021      -6.797832     0.02629722       0.895418
      2363.5000         0.6086        1868.57        -999.25        156.541         27.387       33.53963         0.4794       -65.0167      -6.798985     0.01148143      0.8954002
      2364.0000         0.6053       1881.338        -999.25       158.4983        29.8941       36.02402         0.4859       -65.0033      -6.791039     0.06434096      0.8955225
      2364.5000          0.602       1894.113        -999.25       160.1077        32.4011       38.50834         0.4924        -64.821      -6.614189      0.1171986      0.8982432
      2365.0000         0.5987       1906.881        -999.25       159.4976        34.9008        40.9854          0.499       -64.6387      -6.437344      0.1699022       0.900964
      2365.5000         0.5954       1891.779        -999.25       157.2402        37.3893       43.45138         0.5055       -64.3422      -6.146297      0.2223697      0.9054416
      2366.0000         0.6098       1862.609        -999.25        153.479         39.879       45.91853          0.512       -63.9398      -5.749348      0.2748624      0.9115485
      2366.5000         0.6287       1833.426        -999.25       150.5249        42.6463       48.66078         0.5244       -63.5374      -5.352402      0.3332081      0.9176553
      2367.0000         0.6475       1774.939        -999.25       152.0686        45.4979       51.48656         0.5371       -63.1315      -4.951954       0.393331      0.9238161
      2367.5000         0.6656       1708.592        -999.25       154.7156         49.766       55.71602         0.5497       -62.7523      -4.578209      0.4833196       0.929566
      2368.0000         0.6812       1642.221        -999.25       156.0686        57.9874       63.86299         0.5623        -62.472       -4.30336      0.6566593      0.9337944
      2368.5000         0.6956       1575.875        -999.25       154.7915        61.1442        66.9912         0.5721       -62.2678       -4.10461      0.7232171      0.9368522
      2369.0000         0.6912       1523.965        -999.25        153.292        60.4052       66.25891         0.5741        -61.865      -3.707268      0.7076364      0.9429651
      2369.5000          0.686       1500.475        -999.25       151.9436        59.2279       65.09225          0.576       -61.9088      -3.756516      0.6828139      0.9422075
      2370.0000         0.6751       1520.486        -999.25       152.2559        57.6683       63.54678          0.578       -61.9226      -3.775772      0.6499314      0.9419112
      2370.5000         0.6642       1541.033        -999.25       152.6614        56.1086        62.0012         0.5788       -61.9129      -3.771523      0.6170468      0.9419765
      2371.0000         0.6533       1561.572        -999.25       153.0383        54.5273       60.43422         0.5736       -62.0027      -3.866779      0.5837068      0.9405111
      2371.5000         0.6424       1582.121        -999.25       153.3621        52.1876        58.1157         0.5684        -62.421      -4.290531      0.5343765      0.9339918
      2372.0000         0.6315        1602.66        -999.25       154.3628        49.8304       55.77984         0.5632       -63.5353      -5.410286      0.4846774      0.9167649
      2372.5000         0.6206       1623.201        -999.25       155.3813        47.2862       53.25867          0.558        -64.457      -6.337437      0.4310355       0.902501
      2373.0000         0.6097       1643.748        -999.25       156.1189        46.0438       52.02752         0.5528       -64.7007       -6.58659      0.4048408      0.8986679
      2373.5000          0.647       1655.193        -999.25       155.9568        45.6525       51.63976         0.5471       -64.6523       -6.54364      0.3965907      0.8993286
      2374.0000         0.6951        1650.25        -999.25       154.4253        46.5854       52.56422          0.537       -64.5851      -6.481892      0.4162599      0.9002786
      2374.5000         0.6741       1645.307        -999.25       153.4919        47.3838       53.35539         0.5269       -64.4875      -6.389751      0.4330934      0.9016961
      2375.0000          0.653       1641.656        -999.25       153.3777        48.1813       54.14566         0.5168       -64.3822      -6.289902      0.4499077      0.9032323
      2375.5000         0.6319        1639.82        -999.25       156.3101        48.0149       53.98077         0.5067       -64.2886      -6.201752      0.4463995      0.9045885
      2376.0000         0.6113       1637.982        -999.25       161.1262        47.6396       53.60887         0.4966       -64.3506      -6.269207      0.4384866      0.9035507
      2376.5000         0.5974       1688.219        -999.25       164.4568        46.9175       52.89331         0.4865       -64.4126      -6.336658      0.4232619       0.902513
      2377.0000         0.5835       1764.912        -999.25       164.5781         46.195       52.17735         0.4768       -64.6023      -6.531815      0.4080287      0.8995106
      2377.5000         0.5727       1840.719        -999.25       162.4873        45.4725       51.46139         0.4671       -64.9016      -6.836571      0.3927956       0.894822
      2378.0000         0.5778        1916.23        -999.25       159.4229        44.7503       50.74573         0.4574       -65.2009      -7.141315      0.3775688      0.8901336
      2378.5000         0.5829       1981.727        -999.25       156.7314        44.0278       50.02977         0.4477       -65.5002      -7.446068      0.3623356      0.8854451
      2379.0000          0.588       2009.678        -999.25       156.6855        42.3074       48.32495          0.438       -65.8766      -7.827927      0.3260627      0.8795704
      2379.5000          0.593       2037.627        -999.25        157.366        42.5781       48.59319         0.4365       -66.4786      -8.435375      0.3317701       0.870225
      2380.0000         0.5935       2065.566        -999.25       158.0601        43.0094       49.02059         0.4353       -67.0039      -8.966129      0.3408636      0.8620595
      2380.5000         0.5915       2090.461        -999.25       158.3372        43.4184       49.42589         0.4341        -67.239       -9.20668      0.3494871      0.8583587
      2381.0000         0.5895       2099.977        -999.25       158.3813        42.8024       48.81546         0.4329       -66.7426      -8.715736      0.3364992      0.8659117
      2381.5000         0.5875       2109.492        -999.25       158.2654        42.1252        48.1444         0.4317       -66.2458      -8.224384      0.3222212       0.873471
      2382.0000          0.582       2113.137        -999.25       157.9575        41.4479       47.47323         0.4305         -66.04      -8.024044       0.307941      0.8765532
      2382.5000         0.5754        2107.34        -999.25       157.5576        40.7706       46.80206         0.4363       -65.8358      -7.825294      0.2936608      0.8796108
      2383.0000         0.5687       2101.539        -999.25       157.4004        41.0643        47.0931         0.4486       -65.6891      -7.684052      0.2998532      0.8817838
      2383.5000         0.5621       2093.168        -999.25       157.7676        43.1172       49.12742         0.4609       -65.6987        -7.6991      0.3431366      0.8815523
      2384.0000          0.567       2038.848        -999.25       158.8596        45.1701       51.16173         0.4732       -65.7083      -7.714149      0.3864198      0.8813208
      2384.5000         0.5853       1984.523        -999.25       160.3313        47.0606       53.03512         0.4854       -65.6223      -7.633606      0.4262791      0.8825599
