#------------------------------------------------------------------------------
# Created by    : vladimir.rabinovich
# Created on    : 09/19/2023 17:20:32
#------------------------------------------------------------------------------
~Version Information Section
VERS.           2.0     :   CWLS log ASCII Standard - VERSION 2.0
WRAP.           NO      :   One line per depth step
~Well Information Section
#MNEM       .UNIT                                         VALUE :DESCRIPTION
#------------------------------------------------------------------------------
STRT        .FT                                             502 :START DEPTH
STOP        .FT                                            9122 :STOP DEPTH
STEP        .FT                                             0.5 :STEP      
NULL        .                                           -999.25 :NULL      
COMP        .                       BLUE DOLPHIN EXPLORATION CO :COMPANY   
WELL        .                                OCS 00714 ST00BP00 :WELL      
FLD         .                              GALVESTON BLOCK 0288 :FIELD     
LOC         .                                                   :LOCATION  
CNTY        .                             GALVESTON LARGE BLOCK :LOCATION  
STAT        .                                             TEXAS :STATE     
CTRY        .                                     UNITED STATES :COUNTRY   
SRVC        .                                                   :SERVICE COMPANY
DATE        .                             9/13/2023 11:19:24 AM :LOG DATE  
API         .                                    42706000680000 :API NUMBER
UWI         .                                    42706000680000 :UNIQUE WELL ID
XCOORD      .                                  1088404.51782723 :SURFACE X 
YCOORD      .                                  10474534.8869196 :SURFACE Y 
LAT         .                                        28.8520809 :LATITUDE  
LON         .                                       -94.7248272 :LONGITUDE 
ELEV        .FT                                              85 :ELEVATION VALUE
ELEV_TYPE   .                                                KB :ELEVATION REFERENCE TYPE
~Curve Information Section
#MNEM       .UNIT                                      API CODE :CURVE DESCRIPTION
#------------------------------------------------------------------------------
DEPT        .FT                                                 :DEPTH     
ASN         .OHMM                                               :          
ASN_1       .OHMM                                               :          
DT          .US/F                                               :          
ILD         .OHMM                                               :          
LAT         .OHMM                                               :          
LN          .OHMM                                               :          
SP          .MV                                                 :          
SP_NORM     .MV                                                 :SP Normalized
VSH_SP      .V/V                                                :Volume of Shale from SP
~A        DEPTH            ASN          ASN_1             DT            ILD            LAT             LN             SP        SP_NORM         VSH_SP
# ...
      1456.0000        -999.25          0.782        -999.25        -999.25         0.8495         0.5887       -38.5832       -8.55899      0.7092696
      1456.5000        -999.25         0.7785        -999.25        -999.25         0.8389         0.5858       -39.4769      -9.458086       0.674689
      1457.0000        -999.25         0.7705        -999.25        -999.25         0.8362         0.5829       -39.9108      -9.897383       0.657793
      1457.5000        -999.25         0.7613        -999.25        -999.25         0.8354         0.5823        -39.755      -9.746979      0.6635777
      1458.0000        -999.25         0.7594        -999.25        -999.25          0.845         0.5867       -39.7341      -9.731472      0.6641741
      1458.5000        -999.25         0.7632        -999.25        -999.25         0.8546         0.5911        -40.264      -10.26677      0.6435859
      1459.0000        -999.25         0.7684        -999.25        -999.25         0.8748          0.595       -41.1938      -11.20196      0.6076168
      1459.5000        -999.25         0.7702        -999.25        -999.25         0.9024          0.594       -40.7729      -10.78646      0.6235978
      1460.0000        -999.25         0.7642        -999.25        -999.25         0.9284          0.593       -39.7401      -9.759052      0.6631134
      1460.5000        -999.25         0.7521        -999.25        -999.25          0.946          0.592        -38.863      -8.887346      0.6966406
      1461.0000        -999.25          0.747        -999.25        -999.25         0.9631         0.5928       -38.5562      -8.585939      0.7082331
      1461.5000        -999.25          0.754        -999.25        -999.25         0.9546          0.595        -39.674      -9.709137      0.6650332
      1462.0000        -999.25         0.7585        -999.25        -999.25         0.9357         0.5972       -40.6318      -10.67233      0.6279872
      1462.5000        -999.25         0.7564        -999.25        -999.25          0.905         0.5964       -40.9267      -10.97263      0.6164374
      1463.0000        -999.25         0.7546        -999.25        -999.25         0.8796         0.5921       -40.6913      -10.74262      0.6252838
      1463.5000        -999.25         0.7557        -999.25        -999.25         0.8573         0.5877       -40.5371      -10.59382      0.6310071
      1464.0000        -999.25         0.7623        -999.25        -999.25         0.8511         0.5876       -40.8091      -10.87121       0.620338
      1464.5000        -999.25         0.7682        -999.25        -999.25           0.85         0.5887       -40.3151      -10.38261      0.6391305
      1465.0000        -999.25         0.7687        -999.25        -999.25         0.8704         0.5897       -39.9268      -9.999701      0.6538576
      1465.5000        -999.25         0.7608        -999.25        -999.25         0.8899         0.5921       -39.5732      -9.651495      0.6672502
      1466.0000        -999.25         0.7634        -999.25        -999.25         0.8816         0.5945       -39.3573       -9.44099      0.6753465
      1466.5000        -999.25         0.7737        -999.25        -999.25         0.8691         0.5957       -39.8868      -9.975883      0.6547737
      1467.0000        -999.25         0.7821        -999.25        -999.25         0.8595         0.5942       -40.7585      -10.85298      0.6210393
      1467.5000        -999.25         0.7834        -999.25        -999.25          0.852         0.5927       -41.7201      -11.81997      0.5838471
      1468.0000        -999.25          0.775        -999.25        -999.25         0.8446         0.5918       -41.6398      -11.74507       0.586728
      1468.5000        -999.25         0.7753        -999.25        -999.25         0.8557         0.5916        -41.158      -11.26867      0.6050513
      1469.0000        -999.25         0.7849        -999.25        -999.25         0.8668         0.5914       -39.5158      -9.631861      0.6680053
      1469.5000        -999.25         0.7975        -999.25        -999.25         0.8803         0.5943       -38.0161      -8.137556      0.7254786
      1470.0000        -999.25         0.8044        -999.25        -999.25         0.9284         0.5992       -37.2112      -7.338051      0.7562288
      1470.5000        -999.25            0.8        -999.25        -999.25         0.9369         0.6041       -37.3768      -7.509045      0.7496521
      1471.0000        -999.25         0.7939        -999.25        -999.25         0.9346          0.609        -37.582      -7.719641      0.7415523
      1471.5000        -999.25         0.7898        -999.25        -999.25         0.9086         0.6112       -37.5774      -7.720434      0.7415218
      1472.0000        -999.25         0.7891        -999.25        -999.25         0.8848          0.613       -37.9715       -8.11993      0.7261565
      1472.5000        -999.25         0.7897        -999.25        -999.25         0.8614         0.6148       -39.0576      -9.211422      0.6841761
      1473.0000        -999.25          0.794        -999.25        -999.25         0.8319         0.6166       -39.6075      -9.766718      0.6628186
      1473.5000        -999.25         0.8027        -999.25        -999.25         0.8141         0.6181       -39.5881      -9.752714      0.6633571
      1474.0000        -999.25         0.8139        -999.25        -999.25         0.7998         0.6182       -39.9648      -10.13481      0.6486611
      1474.5000        -999.25         0.8284        -999.25        -999.25         0.8019         0.6182       -40.0806        -10.256      0.6439998
      1475.0000        -999.25         0.8479        -999.25        -999.25         0.8156         0.6182       -39.2839      -9.464699      0.6744347
      1475.5000        -999.25         0.8572        -999.25        -999.25         0.8244         0.6163       -38.4283      -8.614492      0.7071349
      1476.0000        -999.25          0.857        -999.25        -999.25         0.8364          0.613       -37.8859      -8.077486       0.727789
      1476.5000        -999.25         0.8562        -999.25        -999.25         0.8448         0.6097       -37.8251      -8.022083      0.7299199
      1477.0000        -999.25         0.8555        -999.25        -999.25         0.8426         0.6069       -38.0008      -8.203178      0.7229547
      1477.5000        -999.25         0.8566        -999.25        -999.25         0.8302         0.6053       -38.4913      -8.699072      0.7038819
      1478.0000        -999.25         0.8603        -999.25        -999.25          0.814         0.6038       -39.2997      -9.512869       0.672582
      1478.5000        -999.25         0.8702        -999.25        -999.25         0.8094         0.6018       -39.4787      -9.697262      0.6654899
      1479.0000        -999.25         0.8782        -999.25        -999.25         0.8159         0.5993       -38.9149      -9.138859       0.686967
      1479.5000        -999.25         0.8917        -999.25        -999.25         0.8269         0.5996       -37.9509      -8.180254      0.7238364
      1480.0000        -999.25         0.8924        -999.25        -999.25         0.8547         0.6042       -36.6331      -6.867846      0.7743136
      1480.5000        -999.25         0.8779        -999.25        -999.25         0.8259         0.6182       -36.1945      -6.434643      0.7909753
      1481.0000        -999.25         0.8646        -999.25        -999.25         0.8449         0.6385       -36.4592      -6.704739       0.780587
      1481.5000        -999.25         0.8601        -999.25        -999.25         0.8285          0.671       -36.8876      -7.138533      0.7639026
      1482.0000        -999.25         0.8531        -999.25        -999.25         0.7959         0.7117       -37.5204      -7.776728      0.7393566
