#------------------------------------------------------------------------------
# Created by    : vladimir.rabinovich
# Created on    : 09/19/2023 17:20:01
#------------------------------------------------------------------------------
~Version Information Section
VERS.           2.0     :   CWLS log ASCII Standard - VERSION 2.0
WRAP.           NO      :   One line per depth step
~Well Information Section
#MNEM       .UNIT                                         VALUE :DESCRIPTION
#------------------------------------------------------------------------------
STRT        .FT                                            3530 :START DEPTH
STOP        .FT                                           11780 :STOP DEPTH
STEP        .FT                                             0.5 :STEP      
NULL        .                                           -999.25 :NULL      
COMP        .                                        TEXACO INC :COMPANY   
WELL        .                                     ST TR 00820-L :WELL      
FLD         .                                           WILDCAT :FIELD     
LOC         .                                                   :LOCATION  
CNTY        .                        MUSTANG ISLAND LARGE BLOCK :LOCATION  
STAT        .                                             TEXAS :STATE     
CTRY        .                                     UNITED STATES :COUNTRY   
SRVC        .                                                   :SERVICE COMPANY
DATE        .                             9/13/2023 11:18:55 AM :LOG DATE  
API         .                                    42702302010000 :API NUMBER
UWI         .                                    42702302010000 :UNIQUE WELL ID
XCOORD      .                                  295719.314319733 :SURFACE X 
YCOORD      .                                  9994218.17259751 :SURFACE Y 
LAT         .                                        27.4796405 :LATITUDE  
LON         .                                       -97.1466422 :LONGITUDE 
ELEV        .FT                                              78 :ELEVATION VALUE
ELEV_TYPE   .                                                KB :ELEVATION REFERENCE TYPE
~Curve Information Section
#MNEM       .UNIT                                      API CODE :CURVE DESCRIPTION
#------------------------------------------------------------------------------
DEPT        .FT                                                 :DEPTH     
ASFL        .OHMM                                               :          
CILD        .MMHO                                               :          
GR          .GAPI                                               :          
GR_NORM     .GAPI                                               :GammaRay Normalized
ILD         .OHMM                                               :          
SP          .MV                                                 :          
SP_NORM     .MV                                                 :SP Normalized
VSH_GR      .V/V                                                :Volume of Shale from GR
VSH_SP      .V/V                                                :Volume of Shale from SP
~A        DEPTH           ASFL           CILD             GR        GR_NORM            ILD             SP        SP_NORM         VSH_GR         VSH_SP
# ...
     11745.0000         0.9056       1317.512        60.4823        76.0771         0.7656        -38.809     -0.2125092      0.9165339              1
     11745.5000         0.9147       1321.295        61.1754       77.08087         0.7563       -38.8851     -0.2886124      0.9378909              1
     11746.0000         0.9143       1330.887         62.035       78.32603         0.7469       -38.9725     -0.3760109      0.9643835              1
     11746.5000         0.8966       1371.689        62.8946       79.57117         0.7376       -39.0598     -0.4633102      0.9908761              1
     11747.0000         0.8796       1409.955        63.4395       80.36013         0.7286        -39.147     -0.5505104              1              1
     11747.5000         0.8655        1439.24         63.982       81.14562         0.7217       -39.3029     -0.7064095              1              1
     11748.0000         0.8514       1468.525        64.5066       81.90517         0.7148       -39.6249      -1.028412              1      0.9991643
     11748.5000         0.8373        1497.76        64.8826        82.4493         0.7133       -39.9469       -1.35041              1      0.9896938
     11749.0000         0.8241       1522.922        65.2579       82.99241         0.7262       -40.2684      -1.671909              1       0.980238
     11749.5000         0.8116       1537.148        65.5696       83.44337         0.7392       -40.6694       -2.07291              1      0.9684438
     11750.0000         0.7991         1551.4        65.8407       83.83543         0.7521       -41.0833      -2.486813              1      0.9562702
     11750.5000         0.7783       1158.984        66.1119       84.22767         0.7651       -41.4971      -2.900612              1      0.9440997
     11751.0000         0.8673       1073.863        66.4028       84.64845         0.7869       -42.0353      -3.438812              1      0.9282702
     11751.5000          1.221       978.2002        66.6997       85.07792         0.8184       -42.7345      -4.138012              1      0.9077055
     11752.0000         1.2622       906.2568        67.0616       85.60162         0.8497       -43.4337      -4.837212              1      0.8871408
     11752.5000         1.2976       849.9326        67.5018       86.23882         0.8812        -45.366      -6.769512              1      0.8303084
     11753.0000         1.3542        804.834        67.0481       85.58026         0.9125       -45.0611      -6.464611              1      0.8392761
     11753.5000         1.3791       823.1855         66.524       84.81966          0.948       -44.6337      -6.037212              1      0.8518467
     11754.0000         1.3908        1083.82        65.9987       84.05732         0.9873       -44.0889      -5.492413              1      0.8678702
     11754.5000         1.2883       1145.709        65.7822       83.74261         1.0257       -43.5439      -4.947411              1      0.8838997
     11755.0000         1.0785       1199.396        65.6094       83.49123         1.0133        -42.999      -4.402512              1      0.8999261
     11755.5000         1.0332       1244.105        65.4364       83.23956         0.9949       -42.4541      -3.857613              1      0.9159526
     11756.0000         0.9852       1287.105        65.2157       82.91875         0.9179       -41.9441       -3.34761              1      0.9309526
     11756.5000          0.923       1307.313        64.9352       82.51128         0.8443       -41.6613      -3.064812              1      0.9392703
     11757.0000          0.888       1327.518        64.6554        82.1048         0.7888        -41.379      -2.782513              1      0.9475732
     11757.5000         0.8597       1347.676        64.1216       81.33012         0.7345       -41.0961      -2.499611              1      0.9558938
     11758.0000         0.8291       1366.955        63.1555       79.92882         0.7208       -40.9149      -2.318413      0.9984855      0.9612231
     11758.5000         0.8345       1384.477        63.6648       80.66618         0.7117       -40.7802      -2.183712              1      0.9651849
     11759.0000         0.8562       1402.049        64.1987       81.43921         0.7132       -40.6539      -2.057411              1      0.9688997
     11759.5000         0.8777       1417.887        64.7803       82.28137         0.7148       -40.5416       -1.94511              1      0.9722027
     11760.0000          0.899       1428.965        65.3619       83.12354         0.7164       -40.4717       -1.87521              1      0.9742585
     11760.5000          0.917       1409.906        65.1244       82.77857          0.718       -40.4221      -1.825611              1      0.9757173
     11761.0000         0.8892       1378.426        63.5926       80.55816          0.733       -40.4557      -1.859211              1      0.9747291
     11761.5000         0.9055       1292.523        65.1796       82.85859         0.7542       -40.6244      -2.027912              1      0.9697673
     11762.0000         0.9261       1225.949        66.7102       85.07726         0.7753       -40.7931      -2.196609              1      0.9648056
     11762.5000         0.9685       1157.813        67.7069       86.52203         0.7964       -40.9532      -2.356712              1      0.9600967
     11763.0000         1.0059       1054.828        68.7061       87.97043         0.8176       -41.0961      -2.499611              1      0.9558938
     11763.5000         1.0475       998.5039        69.9967       89.84121         0.8593       -41.2391      -2.642612              1      0.9516879
     11764.0000         1.1404       941.0264        67.5012       86.22385         0.9098       -41.3637      -2.767212              1      0.9480232
     11764.5000          1.195       945.0713        65.5199       83.35187         0.9541       -41.4401      -2.843613              1      0.9457761
     11765.0000         1.1986       953.9912        64.2195       81.46687         0.9769       -41.4687      -2.872211              1       0.944935
     11765.5000         1.1488       971.6113        63.3587       80.21911         0.9928       -41.2801      -2.683613              1       0.950482
     11766.0000         1.0904       1003.873        62.5946       79.11151         1.0011       -41.0916       -2.49511       0.981096      0.9560262
     11766.5000         1.0707       1056.684        61.9211       78.13522         0.9863       -40.8702      -2.273712      0.9603239      0.9625379
     11767.0000         1.0552       1125.697        61.1546       77.02415         0.9715       -40.6161      -2.019611       0.936684      0.9700114
     11767.5000         1.0398       1193.639        60.4211       75.96091         0.9566       -40.3615      -1.765011      0.9140618      0.9774997
     11768.0000         1.0187       1260.797        59.9129       75.22425         0.9275       -40.1074       -1.51091      0.8983883      0.9849733
     11768.5000         0.9962       1314.975        59.8534       75.13799         0.8922       -40.0106      -1.414112       0.896553      0.9878202
     11769.0000         0.9737         1363.1        59.9147       75.22687         0.8568       -39.9895      -1.393009       0.898444      0.9884409
     11769.5000         0.9482       1398.973         60.257       75.72305         0.8136       -39.9684       -1.37191       0.909001      0.9890615
     11770.0000         0.8984        1433.09        61.7607       77.90272         0.7687       -39.9733      -1.376812       0.955377      0.9889173
     11770.5000          0.847       1467.744        62.9534       79.63161         0.7241       -40.0619      -1.465412      0.9921619      0.9863114
     11771.0000         0.7516       1503.178        64.1608       81.38178         0.6852       -40.1505      -1.554012              1      0.9837055
