#------------------------------------------------------------------------------
# Created by    : vladimir.rabinovich
# Created on    : 09/19/2023 17:20:36
#------------------------------------------------------------------------------
~Version Information Section
VERS.           2.0     :   CWLS log ASCII Standard - VERSION 2.0
WRAP.           NO      :   One line per depth step
~Well Information Section
#MNEM       .UNIT                                         VALUE :DESCRIPTION
#------------------------------------------------------------------------------
STRT        .FT                                             510 :START DEPTH
STOP        .FT                                            7943 :STOP DEPTH
STEP        .FT                                             0.5 :STEP      
NULL        .                                           -999.25 :NULL      
COMP        .                       BLUE DOLPHIN EXPLORATION CO :COMPANY   
WELL        .                                OCS 00709 ST00BP00 :WELL      
FLD         .                                FEDERAL BLOCK 0288 :FIELD     
LOC         .                                                   :LOCATION  
CNTY        .                             GALVESTON LARGE BLOCK :LOCATION  
STAT        .                                             TEXAS :STATE     
CTRY        .                                     UNITED STATES :COUNTRY   
SRVC        .                                                   :SERVICE COMPANY
DATE        .                             9/13/2023 11:19:25 AM :LOG DATE  
API         .                                    42706000400000 :API NUMBER
UWI         .                                    42706000400000 :UNIQUE WELL ID
XCOORD      .                                   1098851.8122004 :SURFACE X 
YCOORD      .                                  10485233.3471489 :SURFACE Y 
LAT         .                                         28.881916 :LATITUDE  
LON         .                                        -94.692672 :LONGITUDE 
ELEV        .FT                                              93 :ELEVATION VALUE
ELEV_TYPE   .                                                KB :ELEVATION REFERENCE TYPE
~Curve Information Section
#MNEM       .UNIT                                      API CODE :CURVE DESCRIPTION
#------------------------------------------------------------------------------
DEPT        .FT                                                 :DEPTH     
ASN         .OHMM                                               :          
GR          .GAPI                                               :          
ILD         .OHMM                                               :          
NEUT        .NAPI                                               :          
SP          .MV                                                 :          
SP_NORM     .MV                                                 :SP Normalized
VSH_SP      .V/V                                                :Volume of Shale from SP
~A        DEPTH            ASN             GR            ILD           NEUT             SP        SP_NORM         VSH_SP
# ...
      3960.5000          0.954        -999.25         0.8424        -999.25       -54.5919      -3.372387      0.9750475
      3961.0000         0.9425        -999.25         0.8483        -999.25       -54.8525      -3.632988      0.9703093
      3961.5000         0.9337        -999.25         0.8551        -999.25       -54.6485      -3.428986      0.9740185
      3962.0000         0.9535        -999.25         0.8638        -999.25       -53.7275      -2.507988      0.9907638
      3962.5000         0.9792        -999.25          0.877        -999.25       -54.2051      -2.985588      0.9820802
      3963.0000         0.9968        -999.25          0.878        -999.25       -54.6718      -3.452286      0.9735948
      3963.5000         1.0047        -999.25         0.8764        -999.25       -55.1383      -3.918789      0.9651129
      3964.0000         1.0015        -999.25         0.8761        -999.25       -55.3837      -4.164188      0.9606511
      3964.5000         0.9984        -999.25         0.8888        -999.25       -55.4728      -4.253288      0.9590311
      3965.0000         0.9987        -999.25         0.9047        -999.25       -55.3839      -4.164387      0.9606475
      3965.5000         1.0061        -999.25          0.909        -999.25       -55.0968      -3.877289      0.9658675
      3966.0000         1.0144        -999.25         0.9105        -999.25       -54.7148      -3.495289       0.972813
      3966.5000         1.0236        -999.25         0.9004        -999.25       -54.2284      -3.008888      0.9816566
      3967.0000         1.0294        -999.25         0.8889        -999.25       -54.0236      -2.804089      0.9853802
      3967.5000         1.0197        -999.25         0.8995        -999.25       -54.3686      -3.149086      0.9791075
      3968.0000          1.004        -999.25         0.8818        -999.25       -54.9171      -3.697586      0.9691348
      3968.5000         0.9854        -999.25         0.8603        -999.25       -55.0564      -3.836887       0.966602
      3969.0000         0.9735        -999.25         0.8475        -999.25       -54.8881      -3.668587      0.9696621
      3969.5000         0.9703        -999.25         0.8433        -999.25       -54.7921      -3.572586      0.9714075
      3970.0000         0.9827        -999.25         0.8432        -999.25       -55.0023      -3.782787      0.9675857
      3970.5000          0.993        -999.25         0.8466        -999.25       -55.2017      -3.982185      0.9639603
      3971.0000         0.9958        -999.25         0.8501        -999.25       -55.3704      -4.150887       0.960893
      3971.5000         0.9976        -999.25         0.8555        -999.25       -55.0111      -3.791588      0.9674257
      3972.0000         0.9983        -999.25         0.8595        -999.25       -54.7159      -3.496387       0.972793
      3972.5000         0.9928        -999.25         0.8592        -999.25        -54.872      -3.652489      0.9699547
      3973.0000         0.9798        -999.25         0.8604        -999.25       -54.9382      -3.718689      0.9687511
      3973.5000         0.9678        -999.25         0.8656        -999.25       -54.7145      -3.494987      0.9728184
      3974.0000         0.9588        -999.25         0.8695        -999.25       -54.3054      -3.085888      0.9802566
      3974.5000         0.9571        -999.25         0.8711        -999.25       -53.9877      -2.768188       0.986033
      3975.0000          0.959        -999.25         0.8689        -999.25        -54.142      -2.922485      0.9832276
      3975.5000         0.9637        -999.25         0.8624        -999.25        -54.523      -3.303486      0.9763002
      3976.0000         0.9706        -999.25          0.854        -999.25       -54.8268      -3.607288      0.9707766
      3976.5000         0.9698        -999.25         0.8443        -999.25       -55.1073      -3.887787      0.9656766
      3977.0000         0.9605        -999.25         0.8273        -999.25       -54.9293      -3.709785       0.968913
      3977.5000          0.948        -999.25         0.8089        -999.25       -54.7231      -3.503586      0.9726621
      3978.0000         0.9312        -999.25         0.7893        -999.25       -54.5247      -3.305187      0.9762693
      3978.5000         0.9116        -999.25         0.7685        -999.25       -54.0604      -2.840885      0.9847112
      3979.0000         0.8914        -999.25         0.7471        -999.25       -53.6511      -2.431587       0.992153
      3979.5000         0.8823        -999.25         0.7336        -999.25       -53.5898      -2.370289      0.9932675
      3980.0000         0.8804        -999.25         0.7264        -999.25        -53.891      -2.671486      0.9877912
      3980.5000         0.8795        -999.25         0.7238        -999.25       -54.5187      -3.299187      0.9763784
      3981.0000         0.8671        -999.25         0.7233        -999.25       -55.0989      -3.879387      0.9658293
      3981.5000          0.855        -999.25          0.722        -999.25       -55.3731      -4.153587      0.9608439
      3982.0000          0.846        -999.25         0.7192        -999.25       -55.0539      -3.834389      0.9666475
      3982.5000         0.8415        -999.25         0.7161        -999.25       -54.7955      -3.575989      0.9713457
      3983.0000         0.8412        -999.25         0.7233        -999.25       -54.7704      -3.550888      0.9718021
      3983.5000         0.8458        -999.25         0.7416        -999.25       -54.4607      -3.241188       0.977433
      3984.0000         0.8575        -999.25         0.7706        -999.25       -54.1298      -2.910286      0.9834493
      3984.5000         0.8762        -999.25         0.7947        -999.25       -54.2057      -2.986187      0.9820693
      3985.0000         0.9035        -999.25         0.8201        -999.25       -54.0474      -2.827888      0.9849475
      3985.5000         0.9372        -999.25          0.848        -999.25       -53.4989      -2.279388      0.9949202
      3986.0000         0.9791        -999.25         0.8798        -999.25       -52.9043      -1.684788              1
      3986.5000         1.0396        -999.25         0.9186        -999.25       -52.4771      -1.257587              1
      3987.0000          1.083        -999.25         0.9625        -999.25       -52.2922      -1.072685              1
      3987.5000         1.0982        -999.25         1.0059        -999.25       -52.2274      -1.007889              1
      3988.0000         1.1025        -999.25         1.0292        -999.25       -52.1171     -0.8975868              1
      3988.5000         1.1098        -999.25         1.0447        -999.25       -51.9441     -0.7245865              1
      3989.0000         1.1118        -999.25         1.0508        -999.25       -52.4429      -1.223389              1
      3989.5000         1.0996        -999.25         1.0412        -999.25       -53.1664      -1.946888              1
      3990.0000         1.0774        -999.25         1.0301        -999.25       -53.8757      -2.656189      0.9880693
      3990.5000         1.0508        -999.25         1.0171        -999.25       -55.0406      -3.821087      0.9668893
      3991.0000         1.0201        -999.25         0.9931        -999.25       -55.4536      -4.234089      0.9593802
      3991.5000         1.0038        -999.25         0.9657        -999.25       -55.2582      -4.038689      0.9629329
      3992.0000         1.0062        -999.25         0.9337        -999.25       -55.0707      -3.851189       0.966342
      3992.5000         1.0146        -999.25         0.8925        -999.25       -55.3256      -4.106087      0.9617075
      3993.0000         0.9745        -999.25         0.8506        -999.25       -56.2105      -4.990986      0.9456185
      3993.5000         0.9186        -999.25         0.8119        -999.25       -56.7913      -5.571789      0.9350584
