#------------------------------------------------------------------------------
# Created by    : vladimir.rabinovich
# Created on    : 09/19/2023 17:22:54
#------------------------------------------------------------------------------
~Version Information Section
VERS.           2.0     :   CWLS log ASCII Standard - VERSION 2.0
WRAP.           NO      :   One line per depth step
~Well Information Section
#MNEM       .UNIT                                         VALUE :DESCRIPTION
#------------------------------------------------------------------------------
STRT        .FT                                             606 :START DEPTH
STOP        .FT                                           12703 :STOP DEPTH
STEP        .FT                                             0.5 :STEP      
NULL        .                                           -999.25 :NULL      
COMP        .                                       PURE OIL CO :COMPANY   
WELL        .                                OCS 00099 ST00BP00 :WELL      
FLD         .                                           WILDCAT :FIELD     
LOC         .                                                   :LOCATION  
CNTY        .                             GALVESTON LARGE BLOCK :LOCATION  
STAT        .                                             TEXAS :STATE     
CTRY        .                                     UNITED STATES :COUNTRY   
SRVC        .                                                   :SERVICE COMPANY
DATE        .                             9/13/2023 11:19:42 AM :LOG DATE  
API         .                                    42706000130000 :API NUMBER
UWI         .                                    42706000130000 :UNIQUE WELL ID
XCOORD      .                                  1105531.03723184 :SURFACE X 
YCOORD      .                                  10576678.2721464 :SURFACE Y 
LAT         .                                         29.133654 :LATITUDE  
LON         .                                        -94.675857 :LONGITUDE 
ELEV        .FT                                              66 :ELEVATION VALUE
ELEV_TYPE   .                                                KB :ELEVATION REFERENCE TYPE
~Curve Information Section
#MNEM       .UNIT                                      API CODE :CURVE DESCRIPTION
#------------------------------------------------------------------------------
DEPT        .FT                                                 :DEPTH     
LAT         .OHMM                                               :          
LN          .OHMM                                               :          
SN          .OHMM                                               :          
SP          .MV                                                 :          
SP_NORM     .MV                                                 :SP Normalized
VSH_SP      .V/V                                                :Volume of Shale from SP
~A        DEPTH            LAT             LN             SN             SP        SP_NORM         VSH_SP
# ...
     12652.0000         0.7015         0.5872         0.5397       -38.2127      -1.627335      0.9839145
     12652.5000           0.71         0.5838         0.5405       -38.0745      -1.489136      0.9874581
     12653.0000         0.7184         0.5803         0.5414       -37.9365      -1.351135      0.9909965
     12653.5000         0.7269         0.5769         0.5422       -37.7982      -1.212833      0.9945427
     12654.0000         0.7353         0.5734         0.5431         -37.66      -1.074635      0.9980863
     12654.5000         0.7432           0.57         0.5439        -37.522     -0.9366341              1
     12655.0000         0.7487         0.5665         0.5448       -37.5223     -0.9369354              1
     12655.5000         0.7542         0.5631         0.5456       -37.7769      -1.191536      0.9950888
     12656.0000         0.7598         0.5597         0.5464       -38.0314      -1.446033      0.9885632
     12656.5000         0.7573         0.5562         0.5473       -38.2861      -1.700733      0.9820325
     12657.0000         0.7491         0.5528         0.5481       -38.5401      -1.954735      0.9755196
     12657.5000         0.7408         0.5493          0.549       -38.7947      -2.209335      0.9689914
     12658.0000         0.7325         0.5459         0.5498       -39.0493      -2.463936      0.9624632
     12658.5000         0.7243         0.5424         0.5507       -39.2789      -2.693535       0.956576
     12659.0000         0.7214          0.539         0.5516       -39.4214      -2.836033      0.9529222
     12659.5000         0.7186         0.5356         0.5525       -39.5638      -2.978436      0.9492709
     12660.0000         0.7158         0.5321         0.5534       -39.7064      -3.121037      0.9456145
     12660.5000          0.713         0.5306         0.5543       -39.8488      -3.263435      0.9419632
     12661.0000         0.7102         0.5292         0.5552        -39.991      -3.405636       0.938317
     12661.5000         0.7073         0.5278         0.5561       -40.1335      -3.548134      0.9346632
     12662.0000         0.7115         0.5264          0.557        -40.276      -3.690636      0.9310094
     12662.5000         0.7156          0.525         0.5579       -40.4185      -3.833134      0.9273555
     12663.0000         0.7198         0.5235         0.5588       -40.5609      -3.975536      0.9237042
     12663.5000          0.724         0.5221         0.5597       -40.6337      -4.048336      0.9218375
     12664.0000         0.7282         0.5207         0.5606       -40.5222      -3.936836      0.9246965
     12664.5000         0.7323         0.5193         0.5622       -40.4106      -3.825233      0.9275581
     12665.0000         0.7344         0.5179         0.5651        -40.299      -3.713634      0.9304196
     12665.5000         0.7359         0.5165          0.568       -40.1874      -3.602036      0.9332811
     12666.0000         0.7373         0.5173         0.5709       -40.0759      -3.490536      0.9361401
     12666.5000         0.7388         0.5214         0.5737       -39.9644      -3.379036      0.9389991
     12667.0000         0.7417         0.5256         0.5766       -39.8528      -3.267433      0.9418607
     12667.5000         0.7447         0.5298         0.5795       -39.7409      -3.155533      0.9447299
     12668.0000         0.7476         0.5339         0.5824       -39.6293      -3.043934      0.9475914
     12668.5000         0.7506         0.5381         0.5853       -39.5178      -2.932434      0.9504504
     12669.0000         0.7492         0.5423         0.5882       -39.3196      -2.734234      0.9555325
     12669.5000         0.7462         0.5465         0.5903       -39.1022      -2.516834      0.9611068
     12670.0000         0.7432         0.5506         0.5918       -38.8846      -2.299236      0.9666862
     12670.5000         0.7402         0.5548         0.5933       -38.6671      -2.081734      0.9722632
     12671.0000         0.7372          0.559         0.5948       -38.4496      -1.864235      0.9778401
     12671.5000         0.7339         0.5631         0.5963       -38.2321      -1.646736       0.983417
     12672.0000         0.7283         0.5651         0.5978        -38.236      -1.650635      0.9833171
     12672.5000         0.7228         0.5665         0.5994       -38.4232      -1.837833      0.9785171
     12673.0000         0.7172         0.5679         0.6009       -38.6104      -2.025036       0.973717
     12673.5000         0.7116         0.5693         0.6024       -38.7975      -2.212135      0.9689196
     12674.0000         0.7061         0.5707         0.6036       -38.9847      -2.399334      0.9641196
     12674.5000         0.7005         0.5721         0.6035       -39.1719      -2.586536      0.9593196
     12675.0000         0.6958         0.5733         0.6034       -39.1224      -2.537033      0.9605889
     12675.5000         0.6961         0.5735         0.6033       -39.0083      -2.422935      0.9635144
     12676.0000         0.6964         0.5737         0.6032       -38.8942      -2.308834      0.9664401
     12676.5000         0.6967         0.5739         0.6031       -38.7804      -2.195034      0.9693581
     12677.0000          0.697         0.5741         0.6031       -38.6663      -2.080936      0.9722837
     12677.5000         0.6973         0.5743          0.603       -38.5522      -1.966835      0.9752094
     12678.0000         0.6976         0.5746         0.6029       -38.4381      -1.852734       0.978135
     12678.5000         0.6979         0.5748         0.6028       -38.0888      -1.503433      0.9870915
     12679.0000         0.6982          0.574         0.6027       -37.7252      -1.139835      0.9964145
     12679.5000         0.6985         0.5732         0.6009       -37.3615     -0.7761345              1
     12680.0000         0.6989         0.5724         0.5986       -36.9979     -0.4125328              1
     12680.5000         0.6994         0.5716         0.5963       -36.6342    -0.04883575              1
     12681.0000         0.6999         0.5708          0.594       -36.2711      0.3142662              1
     12681.5000         0.7004           0.57         0.5917       -36.0202      0.5651665              1
     12682.0000         0.7009         0.5692         0.5894       -35.9171      0.6682663              1
     12682.5000         0.7014         0.5677         0.5871       -35.8139      0.7714653              1
     12683.0000         0.7019          0.566         0.5848       -35.7105      0.8748665              1
     12683.5000         0.7025         0.5642         0.5825       -35.6074      0.9779663              1
     12684.0000         0.7035         0.5625         0.5803       -35.5043       1.081066              1
     12684.5000         0.7047         0.5608         0.5787       -35.4279       1.157467              1
     12685.0000         0.7059         0.5591         0.5771       -35.4607       1.124664              1
     12685.5000         0.7072         0.5574         0.5755       -35.4935       1.091866              1
     12686.0000         0.7084         0.5557         0.5739       -35.5263       1.059067              1
     12686.5000         0.7096         0.5558         0.5723       -35.5591       1.026264              1
     12687.0000         0.7109         0.5559         0.5707       -35.5919      0.9934654              1
     12687.5000         0.7121          0.556         0.5691       -35.6246      0.9607658              1
     12688.0000         0.7132         0.5561         0.5675       -35.6734      0.9119644              1
     12688.5000         0.7128         0.5563         0.5664       -35.7853      0.8000641              1
     12689.0000         0.7123         0.5564         0.5666       -35.8971      0.6882668              1
     12689.5000         0.7119         0.5565         0.5669        -36.009      0.5763664              1
