#------------------------------------------------------------------------------
# Created by    : vladimir.rabinovich
# Created on    : 09/19/2023 17:20:30
#------------------------------------------------------------------------------
~Version Information Section
VERS.           2.0     :   CWLS log ASCII Standard - VERSION 2.0
WRAP.           NO      :   One line per depth step
~Well Information Section
#MNEM       .UNIT                                         VALUE :DESCRIPTION
#------------------------------------------------------------------------------
STRT        .FT                                             617 :START DEPTH
STOP        .FT                                           12396 :STOP DEPTH
STEP        .FT                                             0.5 :STEP      
NULL        .                                           -999.25 :NULL      
COMP        .                                        SUN OIL CO :COMPANY   
WELL        .                               OCS G01781 ST00BP00 :WELL      
FLD         .                                           WILDCAT :FIELD     
LOC         .                                                   :LOCATION  
CNTY        .                             GALVESTON LARGE BLOCK :LOCATION  
STAT        .                                             TEXAS :STATE     
CTRY        .                                     UNITED STATES :COUNTRY   
SRVC        .                                                   :SERVICE COMPANY
DATE        .                             9/13/2023 11:19:24 AM :LOG DATE  
API         .                                    42706001390000 :API NUMBER
UWI         .                                    42706001390000 :UNIQUE WELL ID
XCOORD      .                                  1010631.41746955 :SURFACE X 
YCOORD      .                                  10491097.5822315 :SURFACE Y 
LAT         .                                         28.894296 :LATITUDE  
LON         .                                        -94.968586 :LONGITUDE 
ELEV        .FT                                              65 :ELEVATION VALUE
ELEV_TYPE   .                                                KB :ELEVATION REFERENCE TYPE
~Curve Information Section
#MNEM       .UNIT                                      API CODE :CURVE DESCRIPTION
#------------------------------------------------------------------------------
DEPT        .FT                                                 :DEPTH     
ASN         .OHMM                                               :          
CILD        .MMHO                                               :          
DT          .US/F                                               :          
ILD         .OHMM                                               :          
SP          .MV                                                 :          
SP_NORM     .MV                                                 :SP Normalized
VSH_SP      .V/V                                                :Volume of Shale from SP
~A        DEPTH            ASN           CILD             DT            ILD             SP        SP_NORM         VSH_SP
# ...
      2191.5000         0.6297       1805.293       149.6313         0.4933       -90.4768      -2.589897      0.9888698
      2192.0000         0.6263       1816.521       149.4644         0.4915       -90.9525      -3.073868      0.9797384
      2192.5000         0.6229       1830.707       149.2214         0.4894       -91.4283      -3.557938       0.970605
      2193.0000         0.6194       1854.867       149.1687         0.4874       -91.4816      -3.619499      0.9694434
      2193.5000          0.616       1879.039       150.5864         0.4854        -90.531       -2.67717      0.9872232
      2194.0000         0.6126       1903.344        151.792         0.4833       -89.8994      -2.053833      0.9989843
      2194.5000         0.6092       1927.742        152.894         0.4813       -89.3962      -1.558907              1
      2195.0000         0.6057       1952.141       153.7881         0.4792       -88.8933      -1.064278              1
      2195.5000         0.6023       1973.971       154.3225         0.4772       -88.3903     -0.5695343              1
      2196.0000         0.5989       1995.277        154.571         0.4745       -88.1812     -0.3687057              1
      2196.5000         0.5954       2018.838       154.7881         0.4648       -88.2291     -0.4248734              1
      2197.0000          0.589        2048.34       155.0332         0.4552       -88.2771     -0.4811401              1
      2197.5000         0.5819       2077.844       155.3396         0.4455       -88.3252     -0.5375137              1
      2198.0000         0.5748       2112.098       155.7583         0.4359       -88.3732     -0.5937729              1
      2198.5000         0.5677       2147.109         156.24         0.4288       -88.4211     -0.6499405              1
      2199.0000         0.5557       2194.043       156.7585         0.4281       -88.4617     -0.6988068              1
      2199.5000          0.539       2243.152       157.2593         0.4275       -88.4498     -0.6951752              1
      2200.0000         0.5341       2256.734       157.4539         0.4268        -88.438     -0.6916504              1
      2200.5000          0.532       2237.457       157.0823         0.4262       -88.4261     -0.6880112              1
      2201.0000         0.5318       2206.238       156.6152         0.4287       -88.4143     -0.6844788              1
      2201.5000         0.5316       2163.313        156.115         0.4324       -88.4025     -0.6809387              1
      2202.0000         0.5377        2125.75       155.6604         0.4361       -88.3906     -0.6773148              1
      2202.5000         0.5482       2102.621       155.2078         0.4398       -88.3788     -0.6737823              1
      2203.0000         0.5588       2079.496       154.5354         0.4435       -88.4017     -0.7049484              1
      2203.5000         0.5693       2058.566       153.8364         0.4472       -88.6289     -0.9404144              1
      2204.0000         0.5799       2049.969       153.3914         0.4509       -88.8561       -1.17588              1
      2204.5000         0.5809       2041.939       153.2668         0.4549       -89.4489      -1.776947              1
      2205.0000         0.5804       2057.086       155.8364         0.4588        -90.166      -2.502319      0.9905223
      2205.5000         0.5798       2072.227       158.0693         0.4628       -90.8837      -3.228279      0.9768249
      2206.0000         0.5793       2087.371       155.0742         0.4668       -91.4651      -3.817955       0.965699
      2206.5000         0.5758       2099.656       154.8992         0.4707       -91.0924      -3.453514      0.9725752
      2207.0000         0.5717        2108.07        154.947         0.4747       -90.7197      -3.089088      0.9794512
      2207.5000         0.5677       2105.059       155.1885         0.4786        -90.347      -2.724655      0.9863273
      2208.0000         0.5636       2082.031       155.3286         0.4818       -89.9744      -2.360321      0.9932015
      2208.5000         0.5653       2057.902       154.9973         0.4842       -89.6017      -1.995888              1
      2209.0000         0.5751        2027.98       155.4043         0.4867        -89.229      -1.631447              1
      2209.5000          0.585       1998.055       153.1301         0.4891       -89.0255      -1.436218              1
      2210.0000         0.5948       1978.076       152.3669         0.4915       -89.1053      -1.524292              1
      2210.5000         0.6044       1954.891       151.5601         0.4939       -89.1852      -1.612457              1
      2211.0000         0.6108       1906.625       149.3237         0.4964        -89.265      -1.700523              1
      2211.5000         0.6172       1862.883       147.3975         0.4964        -89.462      -1.905785              1
      2212.0000         0.6235       1829.322       146.5083          0.491       -89.7433      -2.195358       0.996314
      2212.5000         0.6299       1803.467       145.8372         0.4857       -90.0247      -2.485023      0.9908486
      2213.0000         0.6309       1790.535       146.9758         0.4803       -90.3059       -2.77449       0.985387
      2213.5000         0.6296        1782.35       148.7825         0.4749       -90.5872      -3.064056      0.9799235
      2214.0000         0.6282       1779.508       150.4365         0.4696       -90.8684      -3.353523      0.9744619
      2214.5000         0.6269       1785.178       152.7449         0.4642       -91.1497      -3.643089      0.9689983
      2215.0000         0.6255       1799.521       156.0044         0.4595       -90.7307      -3.232361      0.9767479
      2215.5000         0.6242       1813.871       157.3169         0.4567       -90.1111      -2.621025      0.9882826
      2216.0000         0.6229       1966.924       156.0806          0.454       -89.6094      -2.127594      0.9975926
      2216.5000         0.6198       1987.207       154.6819         0.4512       -89.2832      -1.809662              1
      2217.0000         0.6164       2007.445       153.2393         0.4484        -88.957       -1.49173              1
      2217.5000          0.613       2012.885       151.4988         0.4456       -88.6306      -1.173599              1
      2218.0000         0.6096       2018.322       150.0632         0.4428       -88.3044     -0.8556595              1
      2218.5000         0.6063       2023.762       149.9556           0.44       -87.9781     -0.5376358              1
      2219.0000         0.6029       2029.199       149.9653         0.4388       -88.2062     -0.7739944              1
      2219.5000         0.5995       2035.715       149.8503         0.4394       -88.7445      -1.320564              1
      2220.0000         0.5961       2043.227       150.3828         0.4401       -89.4529      -2.037239      0.9992974
      2220.5000         0.5927       2050.738       152.1936         0.4407       -90.7261      -3.318695      0.9751189
      2221.0000         0.5896        2058.25       153.7136         0.4413       -91.9993      -4.600166      0.9509403
      2221.5000         0.5873       2065.766       154.9844          0.442       -93.0017      -5.610832      0.9318711
      2222.0000          0.585       2074.996       154.5044         0.4426       -92.8015        -5.4189      0.9354925
      2222.5000         0.5827       2085.441       155.8716         0.4433       -91.8958      -4.521469      0.9524251
      2223.0000         0.5804       2095.883       156.7969         0.4439       -91.0702      -3.704132      0.9678466
      2223.5000         0.5781       2106.324       154.3516         0.4445       -90.5221      -3.164307      0.9780319
      2224.0000         0.5759        2116.77       153.1511         0.4433       -90.0042      -2.654671      0.9876477
      2224.5000         0.5736       2123.129       153.3638          0.441       -90.1256       -2.78434      0.9852011
