#------------------------------------------------------------------------------
# Created by    : vladimir.rabinovich
# Created on    : 09/19/2023 17:21:24
#------------------------------------------------------------------------------
~Version Information Section
VERS.           2.0     :   CWLS log ASCII Standard - VERSION 2.0
WRAP.           NO      :   One line per depth step
~Well Information Section
#MNEM       .UNIT                                         VALUE :DESCRIPTION
#------------------------------------------------------------------------------
STRT        .FT                                            4234 :START DEPTH
STOP        .FT                                            7516 :STOP DEPTH
STEP        .FT                                             0.5 :STEP      
NULL        .                                           -999.25 :NULL      
COMP        .                          SEAGULL ENERGY E & P INC :COMPANY   
WELL        .                               OCS G11311 ST00BP00 :WELL      
FLD         .                                           WILDCAT :FIELD     
LOC         .                                                   :LOCATION  
CNTY        .                             GALVESTON LARGE BLOCK :LOCATION  
STAT        .                                             TEXAS :STATE     
CTRY        .                                     UNITED STATES :COUNTRY   
SRVC        .                                                   :SERVICE COMPANY
DATE        .                             9/13/2023 11:19:54 AM :LOG DATE  
API         .                                    42706403550000 :API NUMBER
UWI         .                                    42706403550000 :UNIQUE WELL ID
XCOORD      .                                  972569.007613557 :SURFACE X 
YCOORD      .                                  10477919.1442114 :SURFACE Y 
LAT         .                                         28.856272 :LATITUDE  
LON         .                                        -95.086774 :LONGITUDE 
ELEV        .FT                                              94 :ELEVATION VALUE
ELEV_TYPE   .                                                KB :ELEVATION REFERENCE TYPE
~Curve Information Section
#MNEM       .UNIT                                      API CODE :CURVE DESCRIPTION
#------------------------------------------------------------------------------
DEPT        .FT                                                 :DEPTH     
CALI        .IN                                                 :          
DPHI        .%                                                  :          
DRHO        .G/C3                                               :          
DTLN        .US/F                                               :          
GR          .GAPI                                               :          
GR_NORM     .GAPI                                               :GammaRay Normalized
IDPH        .OHMM                                               :          
IMPH        .OHMM                                               :          
NPHI        .%                                                  :          
SFLU        .OHMM                                               :          
SP          .MV                                                 :          
SP_NORM     .MV                                                 :SP Normalized
VSH_GR      .V/V                                                :Volume of Shale from GR
VSH_SP      .V/V                                                :Volume of Shale from SP
~A        DEPTH           CALI           DPHI           DRHO           DTLN             GR        GR_NORM           IDPH           IMPH           NPHI           SFLU             SP        SP_NORM         VSH_GR         VSH_SP
# ...
      5692.0000         9.7912        34.2542        -0.0174       116.1744        35.2374       40.11816         0.2437         0.2427        40.9982         0.5819      -121.4744      -59.25217      0.1514501      0.1535404
      5692.5000         9.8028        33.7888        -0.0129        114.665        38.1604       42.83507         0.2597         0.2463        41.8931         0.5424      -119.3501      -57.27626      0.2092568      0.1817677
      5693.0000         9.8275         31.502        -0.0052       113.2051        51.8748        55.5861         0.2879         0.2673        43.7614         0.4521      -114.7456       -52.9855      0.4805553      0.2430643
      5693.5000         9.8479        28.5708         0.0046       112.8247        65.1426       67.92187         0.3243         0.2996        46.2959         0.3921      -100.7117      -39.89397      0.7430184      0.4300861
      5694.0000         9.8713        24.9779         0.0093       113.0251        80.7186       82.40388         0.3731          0.351        48.5789         0.4162       -86.1957      -26.35248              1      0.6235361
      5694.5000         9.8908        23.5347         0.0075       113.9291        91.2516       92.19676         0.4349         0.4256        49.5932         0.4807       -75.1146      -16.01689              1      0.7711873
      5695.0000         9.8626        22.7791         0.0052       116.0115         92.949       93.77409         0.5071         0.5161        50.7826         0.5721       -64.4706      -6.089261              1      0.9130105
      5695.5000         9.7863        22.4724         0.0038       116.9117        91.6505       92.56574         0.5904         0.6257        51.1138         0.6686       -59.9282      -1.856463              1      0.9734791
      5696.0000         9.7374        22.1986         0.0016       115.9625        89.0135       90.11281         0.6633         0.7551        49.3769         0.7117       -59.4368      -1.404593              1      0.9799344
      5696.5000         9.7502        21.8464        -0.0006       114.8041        88.0554       89.22097         0.7129         0.8257        48.5868         0.7265        -59.116      -1.111958              1      0.9841149
      5697.0000         9.7437        21.5036        -0.0026       114.2136        89.1942       90.27888         0.7304         0.8196        48.0587         0.7357       -58.3604      -0.413503              1      0.9940928
      5697.5000         9.7297        21.3862        -0.0046       113.7109        89.6841       90.73343         0.7387         0.8048        46.9487         0.7456       -57.5256      0.3588689              1              1
      5698.0000         9.7302        21.5504        -0.0071       113.3988        89.0713       90.16267         0.7429         0.7939        46.7045         0.7523       -56.9427       0.896138              1              1
      5698.5000         9.7342         22.093        -0.0102       113.3158        87.6837       88.87146         0.7478          0.786        46.9711         0.7748       -57.1504      0.6955103              1              1
      5699.0000         9.7393         22.678        -0.0133       113.4144         86.838       88.08411         0.7467         0.7812         47.348          0.784       -58.0558     -0.1563044              1      0.9977671
      5699.5000         9.7499        22.8595        -0.0157       113.9886        88.2935       89.43654         0.7434         0.7821        47.0819         0.7797        -58.657     -0.7241964              1      0.9896544
      5700.0000         9.7626         22.675        -0.0183       114.6061        91.5879       92.49876         0.7464         0.7863        46.0474         0.7361       -59.1664      -1.206411              1      0.9827656
      5700.5000         9.7466         22.563        -0.0197       115.0906        93.6039       94.37232         0.7487         0.7854        44.3109         0.7443       -59.5473      -1.568687              1      0.9775902
      5701.0000         9.7346        22.6854        -0.0208       115.5576        93.4646       94.24184         0.7484         0.7854        42.5029         0.7429       -59.7102      -1.727505              1      0.9753214
      5701.5000         9.7362        22.6243        -0.0222       115.8126        89.1942       90.27013          0.747          0.789        43.8991         0.7353       -59.8699      -1.883329              1      0.9730953
      5702.0000         9.7456        22.6216        -0.0244        115.592        85.4119       86.75229         0.7456         0.7908         46.754         0.7294       -59.8212      -1.844649              1      0.9736479
      5702.5000         9.7582        22.6249        -0.0246       114.1384        84.7124        86.1009         0.7442         0.7872        47.1964         0.7295       -59.9065      -1.931038              1      0.9724137
      5703.0000         9.7846        22.4344        -0.0229       111.6487        84.2407       85.66132         0.7417         0.7798        46.0594         0.7274       -60.2902      -2.295928              1      0.9672011
      5703.5000         9.8667        21.7016        -0.0197       107.9603        82.6105       84.14454         0.7402         0.7699        41.4066         0.7339       -61.0544      -3.015959              1      0.9569149
      5704.0000        10.0657        20.8071        -0.0154       105.7814        79.3864       81.14572         0.7389         0.7591        37.4723         0.7418       -62.9319      -4.775063              1      0.9317848
      5704.5000         10.258        20.6406        -0.0118       105.4441        77.9825       79.83936         0.7386         0.7547        35.7241         0.7462       -65.5289      -7.205705       0.996582      0.8970613
      5705.0000        10.3559        20.9573        -0.0121       107.7698        79.5319       81.59301         0.7459         0.7614        37.9094         0.7438         -66.77      -8.370833              1      0.8804167
      5705.5000        10.3676        20.9355        -0.0155       110.7635        81.4489       83.46359         0.7623         0.7808        44.4036         0.7508       -63.6005      -5.419406              1      0.9225799
      5706.0000        10.2581        20.8082        -0.0178       113.6244        82.5403       84.52812         0.7882         0.8059        49.8499         0.7812       -59.3481      -1.457276              1      0.9791818
      5706.5000        10.0554        20.9852        -0.0185       115.0574        83.0438       85.01868         0.8248         0.8345        50.6767         0.8118        -56.657       1.047643              1              1
      5707.0000         9.8552        21.2408        -0.0186       115.4174        83.0837       85.05661         0.8561         0.8652        49.7946          0.829       -54.4479       3.102697              1              1
      5707.5000         9.8763        21.5612        -0.0186       115.3915        83.0988       85.07034         0.8696         0.8952        48.8611         0.8239       -53.5562       3.928179              1              1
      5708.0000         9.9718        21.9392        -0.0158       115.0812        83.1213       85.09129         0.8888         0.9224        47.7211         0.8212       -53.9884       3.518019              1              1
      5708.5000         9.9795        22.0449        -0.0122       114.4825        83.0513       85.02193         0.9091         0.9429        46.9853         0.8274        -54.576       2.962816              1              1
      5709.0000         9.9844        21.7135        -0.0082       113.9047        83.0186       84.98897         0.9337         0.9571         46.007         0.8468       -54.8557        2.69499              1              1
      5709.5000         9.9922        20.9089        -0.0053       112.9512        82.1012       84.09229         0.9551         0.9533        43.8408         0.8656       -55.3448       2.231724              1              1
