#------------------------------------------------------------------------------
# Created by    : vladimir.rabinovich
# Created on    : 09/19/2023 17:20:33
#------------------------------------------------------------------------------
~Version Information Section
VERS.           2.0     :   CWLS log ASCII Standard - VERSION 2.0
WRAP.           NO      :   One line per depth step
~Well Information Section
#MNEM       .UNIT                                         VALUE :DESCRIPTION
#------------------------------------------------------------------------------
STRT        .FT                                             526 :START DEPTH
STOP        .FT                                            9568 :STOP DEPTH
STEP        .FT                                             0.5 :STEP      
NULL        .                                           -999.25 :NULL      
COMP        .                       BLUE DOLPHIN EXPLORATION CO :COMPANY   
WELL        .                                OCS 00713 ST00BP00 :WELL      
FLD         .                              GALVESTON BLOCK 0288 :FIELD     
LOC         .                                                   :LOCATION  
CNTY        .                             GALVESTON LARGE BLOCK :LOCATION  
STAT        .                                             TEXAS :STATE     
CTRY        .                                     UNITED STATES :COUNTRY   
SRVC        .                                                   :SERVICE COMPANY
DATE        .                             9/13/2023 11:19:25 AM :LOG DATE  
API         .                                    42706000630000 :API NUMBER
UWI         .                                    42706000630000 :UNIQUE WELL ID
XCOORD      .                                  1101981.32688909 :SURFACE X 
YCOORD      .                                  10481575.8265757 :SURFACE Y 
LAT         .                                          28.87198 :LATITUDE  
LON         .                                        -94.682732 :LONGITUDE 
ELEV        .FT                                              58 :ELEVATION VALUE
ELEV_TYPE   .                                                KB :ELEVATION REFERENCE TYPE
~Curve Information Section
#MNEM       .UNIT                                      API CODE :CURVE DESCRIPTION
#------------------------------------------------------------------------------
DEPT        .FT                                                 :DEPTH     
ASN         .OHMM                                               :          
CALI        .IN                                                 :          
DT          .US/F                                               :          
ILD         .OHMM                                               :          
SP          .MV                                                 :          
SP_NORM     .MV                                                 :SP Normalized
VSH_SP      .V/V                                                :Volume of Shale from SP
~A        DEPTH            ASN           CALI             DT            ILD             SP        SP_NORM         VSH_SP
# ...
      4144.0000         0.7825        11.5341       154.6414         0.7958       -39.1533      0.3815804              1
      4144.5000         0.7776        11.4561       151.2795         0.7801       -39.4694     0.06548309              1
      4145.0000         0.7671        11.4893       148.3833          0.773       -39.8087      -0.273819              1
      4145.5000         0.7546        11.5412       149.8179         0.7698       -39.6683      -0.133419              1
      4146.0000         0.7506        11.6403       151.0725         0.7629       -39.4955     0.03938293              1
      4146.5000         0.7554        11.7752       148.9863         0.7648       -39.5657    -0.03081894              1
      4147.0000          0.763        11.7956       150.5481         0.7759       -39.6743     -0.1394196              1
      4147.5000         0.7663        11.4551       155.3457         0.7745       -39.9203     -0.3854179              1
      4148.0000         0.7682        11.2903        155.636         0.7693       -39.9526      -0.417717              1
      4148.5000         0.7583        11.7357        153.073         0.7702        -39.596    -0.06111908              1
      4149.0000         0.7478        11.9856       148.2754         0.7658       -39.5047     0.03018188              1
      4149.5000         0.7425        11.8536       148.7839         0.7602       -40.1791     -0.6442184              1
      4150.0000         0.7392        11.9933         153.01         0.7613       -40.2704     -0.7355194              1
      4150.5000         0.7353        12.1788       153.7153         0.7682       -39.9071     -0.3722191              1
      4151.0000         0.7349        11.8121       153.5173         0.7859       -39.5402   -0.005317688              1
      4151.5000         0.7374        11.6553       153.5127         0.8076       -39.7281     -0.1932182              1
      4152.0000         0.7444        11.7868       151.0928         0.8232       -39.5701    -0.03521729              1
      4152.5000         0.7686        12.3094       148.4294         0.8335        -39.215      0.3198814              1
      4153.0000          0.811         12.537       146.7202         0.8548        -39.623    -0.08811951              1
      4153.5000         0.8452        12.4801       143.3696          0.874       -39.7003     -0.1654167              1
      4154.0000         0.8638        12.4224       137.8677         0.8782       -39.4692     0.06568146              1
      4154.5000         0.8456         12.362       132.3162         0.8708       -39.7682     -0.2333183              1
      4155.0000         0.8134        12.2454       132.7437         0.8542       -40.4496     -0.9147186              1
      4155.5000         0.7898        12.1026       138.8601         0.8372       -40.8279      -1.293018      0.9898959
      4156.0000         0.7721        11.8385        154.054         0.8194       -40.2433     -0.7084198              1
      4156.5000         0.7644        11.5706        156.283         0.8044        -39.826     -0.2911186              1
      4157.0000         0.7709        11.6552       155.0161         0.7926       -39.7314     -0.1965179              1
      4157.5000         0.7729        11.9738       155.2209          0.788       -39.9125     -0.3776169              1
      4158.0000         0.7692        12.2906       157.1326         0.7869       -40.1047     -0.5698166              1
      4158.5000         0.7636        11.6092       156.7117         0.7859       -40.6266      -1.091717      0.9968374
      4159.0000         0.7597        11.6937       143.2415         0.7945       -40.3006     -0.7657166              1
      4159.5000          0.757        11.6076       142.3569         0.8018       -40.1188     -0.5839195              1
      4160.0000         0.7553        11.9779       144.1672          0.804       -40.0206     -0.4857178              1
      4160.5000         0.7582        12.7172       145.1855         0.8069       -39.7792     -0.2443199              1
      4161.0000         0.7513        12.9127       148.5835         0.8095       -39.8215     -0.2866173              1
      4161.5000         0.7494         12.791       150.4412         0.8026       -39.6317    -0.09681702              1
      4162.0000         0.7514        12.4605       151.2722         0.7914       -39.7045     -0.1696167              1
      4162.5000         0.7422        11.9165       151.1511         0.7818       -39.6625     -0.1276169              1
      4163.0000          0.735         11.777       149.3977         0.7746       -39.6498     -0.1149178              1
      4163.5000         0.7377        11.9818       150.1829         0.7627       -40.1312     -0.5963173              1
      4164.0000         0.7388        11.7203       147.5056         0.7491       -40.1953     -0.6604195              1
      4164.5000         0.7262        11.7176       142.6833         0.7409       -40.1332       -0.59832              1
      4165.0000         0.7148        12.0604       147.7983         0.7393       -39.9662     -0.4313202              1
      4165.5000         0.7071        12.4671       152.3833         0.7471       -39.8783     -0.3434181              1
      4166.0000         0.7076        12.3225       154.2554         0.7578       -39.8301     -0.2952194              1
      4166.5000         0.7085        11.9377       153.7683         0.7707       -39.8595     -0.3246193              1
      4167.0000         0.7136        12.2861       152.2156         0.7836       -39.9452     -0.4103203              1
      4167.5000         0.7313        12.4615       150.5615         0.7814       -40.0303     -0.4954185              1
      4168.0000         0.7689        12.1458       149.2102         0.8106       -40.1578     -0.6229172              1
      4168.5000           0.81        11.5495       142.4966         0.8297       -40.7214       -1.18652      0.9935683
      4169.0000         0.8363         10.626       140.0562         0.8431       -41.3284      -1.793518      0.9726373
      4169.5000         0.8352        10.3194       143.3223         0.8635       -41.4499       -1.91502      0.9684476
      4170.0000         0.8328        10.2612       147.2627          0.872        -41.978      -2.443119      0.9502373
      4170.5000         0.8244        10.7135       152.4067         0.8725       -41.6503      -2.115417      0.9615373
      4171.0000         0.8091        11.4953       153.5815         0.8573       -41.3722      -1.837318       0.971127
      4171.5000         0.7931        11.7583       149.3892         0.8313       -41.4894      -1.954517      0.9670856
      4172.0000         0.7785        11.6708        150.656         0.8097       -41.2704      -1.735519      0.9746373
      4172.5000         0.7667        11.4401       155.5977         0.7981       -41.2277      -1.692818      0.9761097
      4173.0000         0.7554        11.1008       156.8376         0.7852       -40.9607      -1.425819      0.9853166
      4173.5000          0.746         11.174       154.0586         0.7766       -41.0459      -1.511017      0.9823787
      4174.0000         0.7388        11.5043       148.6667         0.7685       -40.9128      -1.377918      0.9869683
      4174.5000         0.7343        11.6123       146.4924         0.7669       -40.6644      -1.129517      0.9955339
      4175.0000         0.7303        11.7282       148.7793         0.7658       -40.7491      -1.214218      0.9926132
      4175.5000         0.7252        12.0057       155.6226          0.767        -40.973      -1.438118      0.9848925
      4176.0000         0.7222        11.5558        158.198         0.7678        -40.685       -1.15012      0.9948235
      4176.5000         0.7227        11.2072       154.6572          0.761       -40.7482      -1.213318      0.9926442
      4177.0000         0.7232        11.4736       151.4702         0.7522        -40.851       -1.31612      0.9890993
