#------------------------------------------------------------------------------
# Created by    : vladimir.rabinovich
# Created on    : 09/19/2023 17:22:17
#------------------------------------------------------------------------------
~Version Information Section
VERS.           2.0     :   CWLS log ASCII Standard - VERSION 2.0
WRAP.           NO      :   One line per depth step
~Well Information Section
#MNEM       .UNIT                                         VALUE :DESCRIPTION
#------------------------------------------------------------------------------
STRT        .FT                                             996 :START DEPTH
STOP        .FT                                            8436 :STOP DEPTH
STEP        .FT                                             0.5 :STEP      
NULL        .                                           -999.25 :NULL      
COMP        .                                    TDC ENERGY LLC :COMPANY   
WELL        .                               OCS G03738 ST00BP00 :WELL      
FLD         .                              GALVESTON BLOCK 0255 :FIELD     
LOC         .                                                   :LOCATION  
CNTY        .                             GALVESTON LARGE BLOCK :LOCATION  
STAT        .                                             TEXAS :STATE     
CTRY        .                                     UNITED STATES :COUNTRY   
SRVC        .                                                   :SERVICE COMPANY
DATE        .                             9/13/2023 11:18:53 AM :LOG DATE  
API         .                                    42706400460000 :API NUMBER
UWI         .                                    42706400460000 :UNIQUE WELL ID
XCOORD      .                                   1080542.6436948 :SURFACE X 
YCOORD      .                                  10548065.2081286 :SURFACE Y 
LAT         .                                        29.0539695 :LATITUDE  
LON         .                                       -94.7527854 :LONGITUDE 
ELEV        .FT                                              94 :ELEVATION VALUE
ELEV_TYPE   .                                                KB :ELEVATION REFERENCE TYPE
~Curve Information Section
#MNEM       .UNIT                                      API CODE :CURVE DESCRIPTION
#------------------------------------------------------------------------------
DEPT        .FT                                                 :DEPTH     
CALI        .IN                                                 :          
CILD        .MMHO                                               :          
DT          .US/F                                               :          
GR          .GAPI                                               :          
GR_NORM     .GAPI                                               :GammaRay Normalized
ILD         .OHMM                                               :          
ILM         .OHMM                                               :          
RHOB        .G/C3                                               :          
SFL         .OHMM                                               :          
SP          .MV                                                 :          
SP_NORM     .MV                                                 :SP Normalized
VSH_GR      .V/V                                                :Volume of Shale from GR
VSH_SP      .V/V                                                :Volume of Shale from SP
~A        DEPTH           CALI           CILD             DT             GR        GR_NORM            ILD            ILM           RHOB            SFL             SP        SP_NORM         VSH_GR         VSH_SP
# ...
      2972.0000        13.0461       1788.234       144.5811        62.4473       74.54195         0.5515        -999.25          2.027         0.6919       -51.8262      -2.663494      0.8838712      0.9515728
      2972.5000        12.7779       1823.875       146.3252        61.1016       72.68777         0.5258        -999.25         2.0391         0.7025       -55.7383      -6.578232      0.8444207      0.8803958
      2973.0000        12.6207       1852.516       148.6143        59.9604       71.11687         0.5198        -999.25         2.0638         0.7172       -61.9824      -12.82497      0.8109972      0.7668188
      2973.5000        12.5052         1878.5       150.1123        58.5645       69.19316          0.519        -999.25         2.0559         0.7307       -62.6904      -13.53561      0.7700673      0.7538981
      2974.0000        12.6077       1906.781       150.9204        57.8354       68.19311         0.5187        -999.25         2.0449         0.6771       -58.4805      -9.328342      0.7487895      0.8303938
      2974.5000        12.8741       1922.945       151.7422        59.1182       69.97991         0.5185        -999.25         2.0417          0.626       -53.6406      -4.491081      0.7868066       0.918344
      2975.0000        13.1221       1920.516       152.6294        60.9551       72.53427         0.5189        -999.25         2.0336          0.594       -48.4131      0.7337799      0.8411547              1
      2975.5000         13.027       1904.281       153.5161        62.1357        74.1795           0.52        -999.25         2.0115         0.5637       -46.9919       2.152344      0.8761597              1
      2976.0000        12.7704        1891.57       154.4033        62.7783       75.07951         0.5216        -999.25         2.0325         0.5497       -46.9746       2.167004      0.8953088              1
      2976.5000        12.6569       1885.322       154.8633        60.3965       71.79014         0.5235        -999.25         2.0524         0.5914       -50.4961      -1.357132      0.8253221      0.9753249
      2977.0000        12.5723       1887.395       155.0486        57.1738       67.33596         0.5259        -999.25         2.0346         0.6421       -52.5288      -3.392467      0.7305524      0.9383188
      2977.5000        12.1676       1889.465       154.9846         55.645       65.22815         0.5272        -999.25          2.033         0.6762       -53.9189      -4.785206      0.6857053      0.9129962
      2978.0000        12.0863       1891.537       154.5312        56.1064       65.87717          0.528        -999.25         2.0445          0.695        -56.584      -7.452942      0.6995142      0.8644919
      2978.5000        12.1661       1893.607       152.5781        59.7441       70.92597         0.5276        -999.25         2.0376         0.7035       -58.0654      -8.936977      0.8069355      0.8375095
      2979.0000        12.2459       1886.156       151.3533        62.7529       75.10364         0.5274        -999.25         2.0346         0.6792       -56.4082      -7.282417      0.8958221      0.8675924
      2979.5000         12.234       1875.328       150.8862        64.7207       77.83931         0.5286        -999.25         2.0458         0.5834       -54.0303      -4.907154      0.9540279       0.910779
      2980.0000        12.0389       1866.918       151.0801        66.4141       80.19489         0.5299        -999.25         2.0506          0.555       -52.4697      -3.349194              1      0.9391056
      2980.5000        11.8027       1860.984       151.7495        66.5652       80.41407         0.5312        -999.25         2.0304         0.5509       -51.8599      -2.742031              1      0.9501449
      2981.0000         11.877       1865.574       152.0864        66.2678         80.012          0.529        -999.25         2.0468         0.5544       -51.7933      -2.678066              1      0.9513079
      2981.5000        12.0475       1871.168       152.0042        66.2051       79.93502          0.528        -999.25         2.0639           0.56       -51.7266      -2.614006      0.9986175      0.9524726
      2982.0000         12.114       1876.168       151.7358        67.0273       81.08382         0.5298        -999.25          2.077         0.5656       -51.3398      -2.229843              1      0.9594574
      2982.5000         12.203       1875.182       150.9224        67.8486       82.23137         0.5301        -999.25         2.0849         0.5712       -50.9204      -1.813076              1       0.967035
      2983.0000        12.3923       1869.656        149.876        68.6519       83.35397         0.5296        -999.25         2.0831         0.5612       -50.5814      -1.476719              1      0.9731506
      2983.5000        12.4973        1857.75        148.543        69.2966        84.2569         0.5311        -999.25         2.0913         0.5494       -50.4209      -1.318851              1      0.9760209
      2984.0000        12.5541       1840.094       147.3604        69.6661       84.77861         0.5345        -999.25         2.0985          0.536       -50.5348       -1.43539              1       0.973902
      2984.5000        12.5829       1821.344       145.8877        69.7676       84.92909         0.5397        -999.25          2.105          0.525       -50.7655      -1.668728              1      0.9696595
      2985.0000        12.5446       1795.578        144.209        69.7721       84.94521         0.5483        -999.25         2.0776         0.5244        -51.068      -1.973866              1      0.9641115
      2985.5000        12.3279       1773.398       143.4919        68.5088       83.20517          0.558        -999.25          2.037         0.5695       -51.0832      -1.991703              1      0.9637872
      2986.0000        11.8921       1752.477       143.1641        66.5107        80.4473         0.5667        -999.25         2.0182         0.7313       -51.1865      -2.097641              1      0.9618611
      2986.5000        12.1223       1731.961       142.5156        64.3535       77.46904         0.5734        -999.25         2.0167         0.8673       -51.6414      -2.555176      0.9461498      0.9535422
      2987.0000        12.6072       1710.805       141.4736        63.0854       75.72237         0.5776        -999.25         2.0337         0.9045       -51.8467      -2.763115      0.9089867      0.9497616
      2987.5000         12.998       1689.844       139.6289        62.4661        74.8744         0.5794        -999.25         2.0441          0.888       -50.9717      -1.890751      0.8909448      0.9656227
      2988.0000        12.2312       1674.445        137.292        62.8518       75.41855         0.5811        -999.25         2.0525         0.8001       -50.1279      -1.049587      0.9025223      0.9809166
      2988.5000        12.2495       1666.234        134.877        63.8364        76.7923         0.5829        -999.25         2.0631         0.6417       -49.4094     -0.3337288       0.931751      0.9939322
      2989.0000        12.4844       1694.172       133.0918        64.4541       77.65782         0.5849        -999.25         2.0805         0.5945       -49.5472     -0.4741631      0.9501664      0.9913788
      2989.5000        12.4873       1728.625       131.3262        65.0176       78.44826         0.5848        -999.25          2.095          0.582       -49.4963     -0.4258995      0.9669842      0.9922563
      2990.0000        12.4802         1759.5       129.6699        65.5779       79.23427         0.5825        -999.25         2.1053         0.5724       -49.2356     -0.1678391      0.9837078      0.9969484
      2990.5000        12.5006       1774.232       128.4463        66.1216       79.99729         0.5786        -999.25         2.0967         0.5644       -48.7407      0.3244247      0.9999424              1
