#------------------------------------------------------------------------------
# Created by    : vladimir.rabinovich
# Created on    : 09/19/2023 17:22:29
#------------------------------------------------------------------------------
~Version Information Section
VERS.           2.0     :   CWLS log ASCII Standard - VERSION 2.0
WRAP.           NO      :   One line per depth step
~Well Information Section
#MNEM       .UNIT                                         VALUE :DESCRIPTION
#------------------------------------------------------------------------------
STRT        .FT                                             272 :START DEPTH
STOP        .FT                                            9222 :STOP DEPTH
STEP        .FT                                             0.5 :STEP      
NULL        .                                           -999.25 :NULL      
COMP        .                   MCMORAN OFFSHORE EXPLORATION CO :COMPANY   
WELL        .                               OCS G03108 ST00BP00 :WELL      
FLD         .                       MATAGORDA ISLAND BLOCK 0700 :FIELD     
LOC         .                                                   :LOCATION  
CNTY        .                      MATAGORDA ISLAND LARGE BLOCK :LOCATION  
STAT        .                                             TEXAS :STATE     
CTRY        .                                     UNITED STATES :COUNTRY   
SRVC        .                                                   :SERVICE COMPANY
DATE        .                             9/13/2023 11:12:09 AM :LOG DATE  
API         .                                    42703400850000 :API NUMBER
UWI         .                                    42703400850000 :UNIQUE WELL ID
XCOORD      .                                  483045.974763742 :SURFACE X 
YCOORD      .                                  10146137.6323278 :SURFACE Y 
LAT         .                                         27.912878 :LATITUDE  
LON         .                                       -96.5835889 :LONGITUDE 
ELEV        .FT                                              85 :ELEVATION VALUE
ELEV_TYPE   .                                                KB :ELEVATION REFERENCE TYPE
~Curve Information Section
#MNEM       .UNIT                                      API CODE :CURVE DESCRIPTION
#------------------------------------------------------------------------------
DEPT        .FT                                                 :DEPTH     
CILD        .MMHO                                               :          
DT          .US/F                                               :          
GR          .GAPI                                               :          
GR_NORM     .GAPI                                               :GammaRay Normalized
ILD         .OHMM                                               :          
ILM         .OHMM                                               :          
SFL         .OHMM                                               :          
SP          .MV                                                 :          
SP_NORM     .MV                                                 :SP Normalized
VSH_GR      .V/V                                                :Volume of Shale from GR
VSH_SP      .V/V                                                :Volume of Shale from SP
~A        DEPTH           CILD             DT             GR        GR_NORM            ILD            ILM            SFL             SP        SP_NORM         VSH_GR         VSH_SP
# ...
      6234.5000       1061.322       106.3253        -999.25        -999.25         0.8953         0.8722         0.9557       -29.6632         0.5255        -999.25              1
      6235.0000       1068.307       107.0917        -999.25        -999.25         0.9096         0.8813          0.933       -29.8869         0.3018        -999.25              1
      6235.5000       1075.291       107.6616        -999.25        -999.25         0.9204         0.8878         0.9032       -29.9963         0.1924        -999.25              1
      6236.0000        1082.85       108.0306        -999.25        -999.25         0.9248         0.8923          0.868       -29.5393         0.6494        -999.25              1
      6236.5000       1090.551       108.1641        -999.25        -999.25         0.9275         0.8953         0.8397       -27.8245         2.3642        -999.25              1
      6237.0000       1098.426       108.1733        -999.25        -999.25         0.9271         0.8955          0.821       -28.6924         1.4963        -999.25              1
      6237.5000       1106.424       108.0386        -999.25        -999.25         0.9227         0.8947         0.8038       -30.6617         -0.473        -999.25              1
      6238.0000       1111.811       107.4607        -999.25        -999.25         0.9164          0.892         0.8081       -31.4285        -1.2398        -999.25              1
      6238.5000       1114.246       106.6016        -999.25        -999.25         0.9139         0.8898         0.8301       -31.4582        -1.2695        -999.25              1
      6239.0000       1116.813       105.9303        -999.25        -999.25         0.9063          0.888         0.8529       -31.4381        -1.2494        -999.25              1
      6239.5000       1121.467       106.7523        -999.25        -999.25         0.8998         0.8861          0.873       -31.4077         -1.219        -999.25              1
      6240.0000       1126.115       108.1925        -999.25        -999.25         0.8943         0.8843         0.8681       -31.3002        -1.1115        -999.25              1
      6240.5000       1131.895       109.4473        -999.25        -999.25         0.8897         0.8826         0.8281       -31.1129        -0.9242        -999.25              1
      6241.0000       1138.057       110.2911        -999.25        -999.25          0.883         0.8785         0.7971       -30.8275        -0.6388        -999.25              1
      6241.5000       1148.107       110.2865        -999.25        -999.25          0.875         0.8714         0.7761       -30.9175        -0.7288        -999.25              1
      6242.0000       1158.145       110.2689        -999.25        -999.25         0.8665         0.8603         0.7728       -30.9392        -0.7505        -999.25              1
      6242.5000       1163.609       110.1674        -999.25        -999.25         0.8552         0.8523           0.78       -30.6808        -0.4921        -999.25              1
      6243.0000       1167.814         109.76        -999.25        -999.25         0.8516         0.8516         0.7871       -30.4097         -0.221        -999.25              1
      6243.5000       1169.094        109.119        -999.25        -999.25          0.866         0.8563         0.7867       -30.7357         -0.547        -999.25              1
      6244.0000       1158.467        108.522        -999.25        -999.25         0.8776         0.8653         0.7904       -31.1984        -1.0097        -999.25              1
      6244.5000       1148.268       108.0735        -999.25        -999.25         0.8821         0.8746         0.8032       -31.0464        -0.8577        -999.25              1
      6245.0000        1138.02       107.7758        -999.25        -999.25          0.887           0.88         0.8255        -29.898         0.2907        -999.25              1
      6245.5000       1128.662       107.6946        -999.25        -999.25         0.8908         0.8855         0.8421        -28.251         1.9377        -999.25              1
      6246.0000       1120.059       107.7557        -999.25        -999.25          0.892         0.8882         0.8504       -26.5658         3.6229        -999.25              1
      6246.5000       1111.949       108.0649        -999.25        -999.25         0.8985         0.8911          0.851       -28.0192         2.1695        -999.25              1
      6247.0000       1104.494       108.0865        -999.25        -999.25         0.9045         0.8948         0.8404       -29.3346         0.8541        -999.25              1
      6247.5000       1097.578       107.6826        -999.25        -999.25         0.9081         0.8984         0.8379       -29.8857          0.303        -999.25              1
      6248.0000       1099.189       107.3195        -999.25        -999.25         0.9089         0.8967         0.8495       -30.1141         0.0746        -999.25              1
      6248.5000       1103.828       107.1227        -999.25        -999.25         0.9046         0.8943         0.8653       -30.2976        -0.1089        -999.25              1
      6249.0000       1115.473       107.1387        -999.25        -999.25         0.8917         0.8832         0.8705       -30.6469        -0.4582        -999.25              1
      6249.5000       1140.629       107.5676        -999.25        -999.25         0.8771         0.8715         0.8645       -31.4082        -1.2195        -999.25              1
      6250.0000       1170.494       108.5585        -999.25        -999.25          0.857         0.8521         0.8479       -32.5732        -2.3845        -999.25      0.9938968
      6250.5000        1208.32       109.9257        -999.25        -999.25         0.8377         0.8332         0.8224       -33.7958        -3.6071        -999.25      0.9744905
      6251.0000       1241.971       111.6167        -999.25        -999.25         0.8194         0.8117         0.7915       -33.8004        -3.6117        -999.25      0.9744174
      6251.5000       1274.432       113.4042        -999.25        -999.25         0.8039         0.7903         0.7619       -33.3572        -3.1685        -999.25      0.9814524
      6252.0000       1305.213       114.7838        -999.25        -999.25         0.7895         0.7816         0.7381       -32.4302        -2.2415        -999.25      0.9961666
      6252.5000       1335.549       115.6472        -999.25        -999.25         0.7803         0.7748         0.7247       -30.7412        -0.5525        -999.25              1
      6253.0000       1356.119       115.3234        -999.25        -999.25         0.7705         0.7695         0.7265       -28.8945         1.2942        -999.25              1
      6253.5000       1376.787       114.6726        -999.25        -999.25         0.7594         0.7616         0.7297       -27.3745         2.8142        -999.25              1
      6254.0000       1397.803       114.2839        -999.25        -999.25         0.7476         0.7515         0.7228       -27.4466         2.7421        -999.25              1
      6254.5000       1407.717       114.2795        -999.25        -999.25         0.7395         0.7404         0.7083       -27.5485         2.6402        -999.25              1
      6255.0000       1414.199       114.2931        -999.25        -999.25         0.7352         0.7291         0.7036       -28.1709         2.0178        -999.25              1
      6255.5000       1415.746       114.3264        -999.25        -999.25         0.7306         0.7264         0.7034       -29.9227          0.266        -999.25              1
      6256.0000       1401.215       114.3019        -999.25        -999.25         0.7301         0.7291         0.7034       -31.3182        -1.1295        -999.25              1
      6256.5000        1372.41       113.6168        -999.25        -999.25         0.7408         0.7466         0.6957       -31.8088        -1.6201        -999.25              1
