#------------------------------------------------------------------------------
# Created by    : vladimir.rabinovich
# Created on    : 09/19/2023 17:20:35
#------------------------------------------------------------------------------
~Version Information Section
VERS.           2.0     :   CWLS log ASCII Standard - VERSION 2.0
WRAP.           NO      :   One line per depth step
~Well Information Section
#MNEM       .UNIT                                         VALUE :DESCRIPTION
#------------------------------------------------------------------------------
STRT        .FT                                             501 :START DEPTH
STOP        .FT                                            8659 :STOP DEPTH
STEP        .FT                                             0.5 :STEP      
NULL        .                                           -999.25 :NULL      
COMP        .                                      SHELL OIL CO :COMPANY   
WELL        .                                OCS 00705 ST00BP00 :WELL      
FLD         .                                           WILDCAT :FIELD     
LOC         .                                                   :LOCATION  
CNTY        .                             GALVESTON LARGE BLOCK :LOCATION  
STAT        .                                             TEXAS :STATE     
CTRY        .                                     UNITED STATES :COUNTRY   
SRVC        .                                                   :SERVICE COMPANY
DATE        .                             9/13/2023 11:19:25 AM :LOG DATE  
API         .                                    42706000440000 :API NUMBER
UWI         .                                    42706000440000 :UNIQUE WELL ID
XCOORD      .                                  1104214.94625617 :SURFACE X 
YCOORD      .                                  10500066.5450575 :SURFACE Y 
LAT         .                                         28.922918 :LATITUDE  
LON         .                                        -94.676571 :LONGITUDE 
ELEV        .FT                                              41 :ELEVATION VALUE
ELEV_TYPE   .                                                KB :ELEVATION REFERENCE TYPE
~Curve Information Section
#MNEM       .UNIT                                      API CODE :CURVE DESCRIPTION
#------------------------------------------------------------------------------
DEPT        .FT                                                 :DEPTH     
ASN         .OHMM                                               :          
CILD        .MMHO                                               :          
DT          .US/F                                               :          
ILD         .OHMM                                               :          
LAT         .OHMM                                               :          
SP          .MV                                                 :          
SP_NORM     .MV                                                 :SP Normalized
VSH_SP      .V/V                                                :Volume of Shale from SP
~A        DEPTH            ASN           CILD             DT            ILD            LAT             SP        SP_NORM         VSH_SP
# ...
      2684.0000         0.8464        -999.25        -999.25          0.878         0.8075       -51.7926     -0.8755531              1
      2684.5000         0.8472        -999.25        -999.25         0.8777         0.8099       -52.1077      -1.201427      0.9944048
      2685.0000          0.848        -999.25        -999.25         0.8775         0.8124       -52.4227      -1.527199      0.9853556
      2685.5000         0.8489        -999.25        -999.25         0.8772         0.8148       -52.7378      -1.853077      0.9763034
      2686.0000         0.8498        -999.25        -999.25         0.8769         0.8173       -53.0529      -2.178947      0.9672515
      2686.5000         0.8506        -999.25        -999.25         0.8766         0.8197       -53.1732       -2.31002      0.9636105
      2687.0000         0.8515        -999.25        -999.25         0.8764         0.8217       -52.9137      -2.061298      0.9705195
      2687.5000         0.8523        -999.25        -999.25         0.8761         0.8226       -52.6542      -1.812572      0.9774286
      2688.0000         0.8532        -999.25        -999.25         0.8758         0.8234       -52.3945      -1.563648      0.9843431
      2688.5000          0.854        -999.25        -999.25         0.8756         0.8243       -52.2457      -1.425621      0.9881772
      2689.0000         0.8549        -999.25        -999.25         0.8753         0.8252       -52.1307      -1.321392      0.9910724
      2689.5000         0.8557        -999.25        -999.25          0.875         0.8261       -52.0157      -1.217171      0.9939675
      2690.0000         0.8566        -999.25        -999.25         0.8747          0.827       -51.9006      -1.112843      0.9968655
      2690.5000         0.8574        -999.25        -999.25         0.8745         0.8279       -51.7857      -1.008717      0.9997579
      2691.0000         0.8557        -999.25        -999.25         0.8742         0.8287       -51.6707     -0.9044914              1
      2691.5000         0.8538        -999.25        -999.25         0.8739         0.8296       -51.5557     -0.8002625              1
      2692.0000         0.8518        -999.25        -999.25         0.8736         0.8305       -51.4854     -0.7407417              1
      2692.5000         0.8499        -999.25        -999.25         0.8734         0.8257       -51.4166     -0.6827126              1
      2693.0000         0.8479        -999.25        -999.25         0.8731         0.8194       -51.3478     -0.6246872              1
      2693.5000         0.8459        -999.25        -999.25         0.8728         0.8131       -51.2789     -0.5665627              1
      2694.0000          0.844        -999.25        -999.25         0.8725         0.8068       -51.2101     -0.5085335              1
      2694.5000          0.842        -999.25        -999.25         0.8723         0.8004       -51.1412     -0.4504089              1
      2695.0000         0.8401        -999.25        -999.25         0.8731         0.7941       -51.0724     -0.3923836              1
      2695.5000         0.8381        -999.25        -999.25         0.8742         0.7878       -51.0036     -0.3343582              1
      2696.0000         0.8362        -999.25        -999.25         0.8753         0.7815       -50.8972     -0.2387352              1
      2696.5000         0.8355        -999.25        -999.25         0.8764         0.7752       -50.7787     -0.1310081              1
      2697.0000         0.8352        -999.25        -999.25         0.8776         0.7689       -50.8954     -0.2584801              1
      2697.5000         0.8349        -999.25        -999.25         0.8787         0.7626       -51.4338     -0.8076553              1
      2698.0000         0.8346        -999.25        -999.25         0.8798         0.7609       -51.9722      -1.356827      0.9900882
      2698.5000         0.8343        -999.25        -999.25         0.8809         0.7603       -52.5106      -1.906002      0.9748333
      2699.0000          0.834        -999.25        -999.25         0.8821         0.7596        -53.045      -2.451176      0.9596896
      2699.5000         0.8337        -999.25        -999.25         0.8832         0.7589       -53.5666      -2.983551      0.9449013
      2700.0000         0.8334        -999.25        -999.25         0.8843         0.7582       -53.3505      -2.778225      0.9506049
      2700.5000         0.8331        -999.25        -999.25         0.8854         0.7575       -53.0969        -2.5354        0.95735
      2701.0000         0.8328        -999.25        -999.25         0.8866         0.7568       -52.7209      -2.170174      0.9674952
      2701.5000         0.8324        -999.25        -999.25         0.8877         0.7561       -52.3448      -1.804848      0.9776431
      2702.0000         0.8343        -999.25        -999.25         0.8888         0.7613       -51.9688      -1.439621      0.9877883
      2702.5000         0.8363        -999.25        -999.25           0.89         0.7673       -51.5927      -1.074295      0.9979362
      2703.0000         0.8382        -999.25        -999.25         0.8911         0.7734       -51.2166     -0.7089691              1
      2703.5000         0.8402        -999.25        -999.25         0.8922         0.7794       -50.8051     -0.3082428              1
      2704.0000         0.8421        -999.25        -999.25         0.8933         0.7854       -50.3757      0.1103821              1
      2704.5000         0.8441        -999.25        -999.25         0.8945         0.7915       -49.9466      0.5287056              1
      2705.0000          0.846        -999.25        -999.25         0.8956         0.7975       -49.5173      0.9472351              1
      2705.5000          0.848        -999.25        -999.25         0.8967         0.8035        -49.088       1.365757              1
      2706.0000         0.8499        -999.25        -999.25         0.8978         0.8095       -48.9739       1.469086              1
      2706.5000         0.8519        -999.25        -999.25          0.899         0.8156        -48.973       1.459213              1
      2707.0000         0.8538        -999.25        -999.25         0.9001         0.8216       -48.9721       1.449337              1
      2707.5000         0.8558        -999.25        -999.25         0.9012         0.8276       -49.2295       1.181164              1
      2708.0000         0.8577        -999.25        -999.25         0.9023         0.8337       -49.5855      0.8143921              1
      2708.5000         0.8597        -999.25        -999.25          0.904         0.8366       -49.9414      0.4477158              1
      2709.0000         0.8617        -999.25        -999.25         0.9059         0.8348       -50.2974     0.08094025              1
      2709.5000         0.8624        -999.25        -999.25         0.9077          0.833       -50.6533     -0.2857361              1
      2710.0000          0.863        -999.25        -999.25         0.9096         0.8312       -51.0092     -0.6524086              1
      2710.5000         0.8636        -999.25        -999.25         0.9114         0.8293        -51.187     -0.8409805              1
      2711.0000         0.8643        -999.25        -999.25         0.9132         0.8275       -51.1011     -0.7658577              1
      2711.5000         0.8649        -999.25        -999.25         0.9151         0.8257       -51.0151     -0.6906281              1
      2712.0000         0.8656        -999.25        -999.25         0.9169         0.8239       -50.9293     -0.6156006              1
      2712.5000         0.8662        -999.25        -999.25         0.9188          0.822       -50.8434     -0.5404778              1
      2713.0000         0.8669        -999.25        -999.25         0.9206         0.8202       -50.7575     -0.4653511              1
