#------------------------------------------------------------------------------
# Created by    : vladimir.rabinovich
# Created on    : 09/19/2023 17:22:15
#------------------------------------------------------------------------------
~Version Information Section
VERS.           2.0     :   CWLS log ASCII Standard - VERSION 2.0
WRAP.           NO      :   One line per depth step
~Well Information Section
#MNEM       .UNIT                                         VALUE :DESCRIPTION
#------------------------------------------------------------------------------
STRT        .FT                                              41 :START DEPTH
STOP        .FT                                            7991 :STOP DEPTH
STEP        .FT                                             0.5 :STEP      
NULL        .                                           -999.25 :NULL      
COMP        .                           ENERGY DEVELOPMENT CORP :COMPANY   
WELL        .                               OCS G11200 ST00BP00 :WELL      
FLD         .                                           WILDCAT :FIELD     
LOC         .                                                   :LOCATION  
CNTY        .                    NORTH PADRE ISLAND LARGE BLOCK :LOCATION  
STAT        .                                             TEXAS :STATE     
CTRY        .                                     UNITED STATES :COUNTRY   
SRVC        .                                                   :SERVICE COMPANY
DATE        .                             9/13/2023 11:18:55 AM :LOG DATE  
API         .                                    42701400410000 :API NUMBER
UWI         .                                    42701400410000 :UNIQUE WELL ID
XCOORD      .                                   309944.09600436 :SURFACE X 
YCOORD      .                                  9740515.29665267 :SURFACE Y 
LAT         .                                          26.78454 :LATITUDE  
LON         .                                        -97.077486 :LONGITUDE 
ELEV        .FT                                              91 :ELEVATION VALUE
ELEV_TYPE   .                                                KB :ELEVATION REFERENCE TYPE
~Curve Information Section
#MNEM       .UNIT                                      API CODE :CURVE DESCRIPTION
#------------------------------------------------------------------------------
DEPT        .FT                                                 :DEPTH     
CALI        .IN                                                 :          
DRHO        .G/C3                                               :          
DT          .US/F                                               :          
GR          .GAPI                                               :          
GR_NORM     .GAPI                                               :GammaRay Normalized
ILD         .OHMM                                               :          
ILM         .OHMM                                               :          
NPHI        .%                                                  :          
RFOC        .OHMM                                               :          
RHOB        .G/C3                                               :          
SP          .MV                                                 :          
SP_NORM     .MV                                                 :SP Normalized
VSH_GR      .V/V                                                :Volume of Shale from GR
VSH_SP      .V/V                                                :Volume of Shale from SP
~A        DEPTH           CALI           DRHO             DT             GR        GR_NORM            ILD            ILM           NPHI           RFOC           RHOB             SP        SP_NORM         VSH_GR         VSH_SP
# ...
      3677.0000        12.2661         0.0327       117.8521        76.0614        72.1206         0.7338         0.7214        36.7418         0.8004         2.2451       -60.1384      -3.026737      0.8323532      0.9991645
      3677.5000         12.256         0.0358       120.5836        77.8125       74.81705         0.7347         0.7232        36.6682          0.806         2.2454       -59.9856      -2.885143      0.8897244              1
      3678.0000        12.2776         0.0366       120.6866        77.6831       74.61362         0.7385         0.7253        36.4351         0.8094         2.2516        -59.537       -2.44775      0.8853962              1
      3678.5000        12.3399         0.0306       119.0818        76.6202       72.97069         0.7428         0.7276        36.1749         0.8119         2.2643       -58.7921      -1.714058      0.8504401              1
      3679.0000        12.4429         0.0249       116.2412        75.6898       71.53205         0.7479         0.7306        36.7404         0.8131         2.2732       -58.0651     -0.9982681      0.8198309              1
      3679.5000        12.5163         0.0194       112.5219         75.422       71.11522         0.7532         0.7348        37.6644         0.8104         2.2772        -57.355     -0.2993736      0.8109621              1
      3680.0000        12.6092         0.0188       111.4918        76.3528       72.54671          0.759         0.7398        38.7017         0.8078         2.2784        -56.648      0.3964195      0.8414193              1
      3680.5000        12.7142         0.0245        112.329        78.8475       76.38988         0.7647         0.7433        39.5166         0.7944         2.2791        -56.323      0.7102089      0.9231889              1
      3681.0000        12.6149         0.0338       114.0629        80.9147       79.57377         0.7681         0.7525        40.1419         0.7791         2.2773       -56.4065      0.6155014      0.9909313              1
      3681.5000        12.6803         0.0454       116.3832        81.3071       80.17499         0.7708         0.7647        40.5126         0.7702         2.2719       -56.7099      0.3008957              1              1
      3682.0000        12.8483         0.0548       118.8964        79.0028       76.61774         0.7769         0.7821        40.0618         0.7792         2.2654       -57.2278     -0.2282104      0.9280369              1
      3682.5000        13.0182         0.0631       121.0641        74.3622        69.4577         0.7834         0.8036        38.1188         0.8175         2.2621       -57.9924      -1.004021      0.7756956              1
      3683.0000        13.0418         0.0692       119.3806        70.9635        64.2128          0.788         0.8262        36.2549         0.8859         2.2697       -59.1156      -2.138424      0.6641021              1
      3683.5000        12.0696         0.0535        116.199        68.5126       60.42947         0.7899         0.8426        34.5227         0.9359         2.2805       -60.4335      -3.467529      0.5836056      0.9853897
      3684.0000        11.9174         0.0404       113.3857        65.1177        55.1904         0.7917         0.8567        33.1454         0.9464         2.2881       -61.8438      -4.889038      0.4721361      0.9409676
      3684.5000        11.9215          0.037       111.2554        63.7508       53.07866         0.7901         0.8587        32.6669         0.9426         2.2939       -63.2054      -6.261845      0.4272056      0.8980674
      3685.0000        11.9497         0.0397       110.3031        63.8171       53.17703         0.7762         0.8423        32.3401         0.9556         2.3016       -64.4069      -7.474552      0.4292985      0.8601702
      3685.5000        11.9564         0.0502       109.1809        63.9518       53.38087         0.7465         0.8245         31.872         0.9853          2.309       -65.4913      -8.570164      0.4336356      0.8259324
      3686.0000         11.942         0.0563       107.4308        64.0112        53.4686         0.7116         0.7975        31.5835         0.9986          2.312       -66.4882      -9.578266      0.4355021      0.7944292
      3686.5000        11.8806         0.0568       105.0869        63.3494       52.44419         0.6769          0.763        32.3801         0.9892         2.3089       -67.3699      -10.47118      0.4137061      0.7665256
      3687.0000         11.748         0.0532        103.465        62.0814       50.48497         0.6449         0.7308        33.4107         0.9708          2.292       -68.1912      -11.30368      0.3720207      0.7405099
      3687.5000        11.6417         0.0412       105.0458        61.5182        49.6126         0.6187         0.7048        34.7872          0.924          2.262       -68.6201      -11.74379      0.3534596      0.7267565
      3688.0000        11.5843         0.0282       107.9611        64.3906       54.03819         0.5996          0.685        37.0441         0.8942         2.2518       -68.1635       -11.2984       0.447621      0.7406751
      3688.5000        11.5582         0.0407       112.0713        70.5963       63.60395          0.583         0.6657         37.899         0.8685         2.2496       -67.4216      -10.56771      0.6511479      0.7635092
      3689.0000          11.55         0.0692        116.016           73.9       68.69463         0.5672         0.6475        37.4245         0.8446         2.2498       -66.3951      -9.552418      0.7594602      0.7952369
      3689.5000        11.5418         0.0699       118.4631        73.2001       67.61147         0.5538         0.6367        36.5733         0.8189         2.2508       -66.1318       -9.30032      0.7364143       0.803115
      3690.0000        11.5354         0.0521       118.3362        71.7657       65.39565         0.5506         0.6475        35.2797         0.8057          2.254       -67.0106      -10.19033      0.6892691      0.7753023
      3690.5000        11.5786         0.0341        116.062        70.5408       63.50288         0.5574         0.6634         34.028         0.8305         2.2607       -68.5005      -11.69144      0.6489974      0.7283925
      3691.0000        11.6699         0.0236       113.5986         69.788       62.33813         0.5728         0.6797         32.437         0.8654         2.2725       -69.6643      -12.86644      0.6242157      0.6916736
      3691.5000        11.7582          0.023       111.3767        69.2513       61.50664         0.5908         0.7042        31.9466         0.8989         2.2864       -70.2219      -13.43525      0.6065242      0.6738983
      3692.0000        11.8259         0.0313       109.4517        68.8773       60.92603         0.6154         0.7284         32.175         0.9276         2.2978       -68.8282      -12.05276      0.5941707      0.7171012
      3692.5000        11.8604         0.0387       110.0958        68.3444       60.10037         0.6456         0.7476        33.1895         0.9301         2.3011       -67.3927      -10.62847      0.5766037      0.7616104
      3693.0000        11.8796         0.0388       110.7219        67.6105       58.96478         0.6912         0.7729         34.374         0.9122         2.2998        -66.121      -9.367973      0.5524421      0.8010008
      3693.5000        11.9046         0.0367        111.348        66.4614       57.18893         0.7419            0.8        35.2588         0.9028         2.2974       -65.1395      -8.397682       0.514658      0.8313224
      3694.0000        11.9231         0.0356       111.4034        65.0598       55.02367         0.7735         0.8253        34.9838         0.9056          2.294       -65.2716      -8.540985      0.4685887      0.8268442
      3694.5000        11.9377         0.0362       109.8394        64.0336       53.43733         0.7915         0.8353        33.6581         0.9292         2.2909       -65.5604      -8.840996      0.4348368      0.8174689
