#------------------------------------------------------------------------------
# Created by    : vladimir.rabinovich
# Created on    : 09/19/2023 17:20:31
#------------------------------------------------------------------------------
~Version Information Section
VERS.           2.0     :   CWLS log ASCII Standard - VERSION 2.0
WRAP.           NO      :   One line per depth step
~Well Information Section
#MNEM       .UNIT                                         VALUE :DESCRIPTION
#------------------------------------------------------------------------------
STRT        .FT                                            2310 :START DEPTH
STOP        .FT                                           12118 :STOP DEPTH
STEP        .FT                                             0.5 :STEP      
NULL        .                                           -999.25 :NULL      
COMP        .                                   FOREST OIL CORP :COMPANY   
WELL        .                               OCS G01793 ST00BP00 :WELL      
FLD         .                                           WILDCAT :FIELD     
LOC         .                                                   :LOCATION  
CNTY        .                             GALVESTON LARGE BLOCK :LOCATION  
STAT        .                                             TEXAS :STATE     
CTRY        .                                     UNITED STATES :COUNTRY   
SRVC        .                                                   :SERVICE COMPANY
DATE        .                             9/13/2023 11:19:24 AM :LOG DATE  
API         .                                    42706001380000 :API NUMBER
UWI         .                                    42706001380000 :UNIQUE WELL ID
XCOORD      .                                  1024149.02927821 :SURFACE X 
YCOORD      .                                  10425384.3690734 :SURFACE Y 
LAT         .                                         28.714212 :LATITUDE  
LON         .                                        -94.923031 :LONGITUDE 
ELEV        .FT                                              60 :ELEVATION VALUE
ELEV_TYPE   .                                                KB :ELEVATION REFERENCE TYPE
~Curve Information Section
#MNEM       .UNIT                                      API CODE :CURVE DESCRIPTION
#------------------------------------------------------------------------------
DEPT        .FT                                                 :DEPTH     
ASN         .OHMM                                               :          
CALI        .IN                                                 :          
CILD        .MMHO                                               :          
DT          .US/F                                               :          
ILD         .OHMM                                               :          
RHOB        .G/C3                                               :          
SP          .MV                                                 :          
SP_NORM     .MV                                                 :SP Normalized
VSH_SP      .V/V                                                :Volume of Shale from SP
~A        DEPTH            ASN           CALI           CILD             DT            ILD           RHOB             SP        SP_NORM         VSH_SP
# ...
      4907.0000         0.9986        11.8922       1079.848        118.551           1.09        -999.25        -62.929      -14.25255      0.7624575
      4907.5000         0.9711        11.8972       1106.373        118.939          1.077        -999.25       -59.3883      -9.298247      0.8450292
      4908.0000         0.9528        11.8989       1132.898       120.2433         1.0501        -999.25       -58.4368      -7.968818      0.8671864
      4908.5000         0.9345         11.899        1158.49        121.575         1.0149        -999.25       -57.4853      -6.639394      0.8893434
      4909.0000         0.9203        11.8991       1179.605       122.3204         0.9798        -999.25       -56.5331      -5.308992      0.9115168
      4909.5000         0.9098        11.8985       1200.709       122.4948         0.9446        -999.25       -55.6357      -4.055308      0.9324116
      4910.0000         0.8994        11.8916       1221.813       120.2147         0.9234        -999.25       -55.2705      -3.546703      0.9408883
      4910.5000         0.8889        11.8848       1242.916       121.8525         0.9041        -999.25       -55.7397      -4.206259      0.9298957
      4911.0000         0.8809        11.8779       1264.008       122.4449         0.8847        -999.25       -56.0087      -4.585536      0.9235744
      4911.5000         0.8736         11.871       1285.098       121.5153         0.8653        -999.25       -55.9913      -4.563848      0.9239359
      4912.0000         0.8662        11.8668       1251.219        120.598         0.8487        -999.25        -55.616      -4.041107      0.9326482
      4912.5000         0.8672        11.8651        1214.67        119.832         0.8485        -999.25       -55.2407      -3.518361      0.9413607
      4913.0000         0.8726        11.8633       1189.891       119.2228         0.8484        -999.25       -55.4207      -3.773037       0.937116
      4913.5000         0.8784        11.8616       1165.084       118.8021         0.8482        -999.25       -55.9531      -4.521075      0.9246488
      4914.0000         0.8901        11.8609        1143.27       120.1674         0.8494        -999.25       -56.4852      -5.268692      0.9121885
      4914.5000         0.9019        11.8656       1155.859       122.1923         0.8571        -999.25       -57.0176       -6.01673      0.8997211
      4915.0000         0.9137        11.8702       1168.449       123.2776         0.8648        -999.25       -57.5159      -6.717024      0.8880496
      4915.5000         0.9254        11.8749       1186.225       124.0486         0.8725        -999.25        -57.942      -7.316242      0.8780626
      4916.0000         0.9202        11.8795       1204.461       124.0299         0.8803        -999.25       -58.3679      -7.915177      0.8680804
      4916.5000         0.8903         11.884       1222.686       123.5541          0.888        -999.25       -56.9757      -5.968772      0.9005204
      4917.0000         0.8692        11.8885       1240.922       123.1969         0.8957        -999.25       -55.0514      -3.277426      0.9453762
      4917.5000          0.857        11.8929       1259.158       122.8553         0.9034        -999.25       -53.5145      -1.128442      0.9811926
      4918.0000         0.8483        11.8974       1276.348        122.514         0.9093        -999.25       -52.7327    -0.03659897        0.99939
      4918.5000         0.8594        11.9009       1292.217       122.1724         0.9142        -999.25       -52.2489       0.638044              1
      4919.0000         0.8783        11.9022       1272.186       122.1747          0.919        -999.25       -52.1996      0.7043899              1
      4919.5000         0.8977        11.9034       1235.363       127.8363         0.9238        -999.25       -52.4832      0.3046745              1
      4920.0000         0.9172        11.9047       1199.014       129.0933         0.9286        -999.25       -52.7668     -0.0950409       0.998416
      4920.5000         0.9366        11.9246       1175.031       129.9988         0.9331        -999.25       -53.5095      -1.137495      0.9810417
      4921.0000         0.9531        11.9463       1151.023       130.8257         0.9296        -999.25       -54.3596      -2.330312      0.9611614
      4921.5000         0.9612        11.9679       1128.213       129.9346         0.9261        -999.25       -55.2091      -3.522286      0.9412952
      4922.0000         0.9442        11.9958       1164.561       128.8406         0.9226        -999.25       -58.3604      -7.936785      0.8677202
      4922.5000         0.9272        12.0238       1199.113       121.6814         0.9078        -999.25       -61.7383      -12.66852       0.788858
      4923.0000         0.9054        12.0518       1233.693       120.7212         0.8802        -999.25        -59.024      -8.871172      0.8521472
      4923.5000         0.8832        12.0798       1270.514        119.954         0.8516        -999.25       -56.0317       -4.68463      0.9219228
      4924.0000         0.8611         12.106       1309.281       119.2806         0.8206        -999.25       -54.3027      -2.266706      0.9622216
      4924.5000         0.8477        12.1278       1344.457       118.8276         0.7896        -999.25       -53.5759      -1.251863      0.9791356
      4925.0000         0.8343        12.1495       1374.648       119.4679         0.7571        -999.25       -52.8491     -0.2370148      0.9960498
      4925.5000         0.8209        12.1712       1398.682       120.4617         0.7216        -999.25       -52.5958      0.1149292              1
      4926.0000         0.8092         12.193       1419.523       121.4562         0.7372        -999.25       -52.3578      0.4454521              1
      4926.5000         0.7982        12.2147       1368.814       120.9104         0.7678        -999.25       -52.1198       0.775975              1
      4927.0000         0.7875        12.2318       1302.699       117.1232         0.7985        -999.25       -51.7808         1.2479              1
      4927.5000         0.7781        12.2455       1239.725       114.7063         0.8301        -999.25       -51.4106       1.763506              1
      4928.0000         0.8147        12.2593       1187.572       113.2166         0.8667        -999.25        -52.347      0.4498688              1
      4928.5000         0.8417        12.2731       1145.639        112.234         0.9032        -999.25       -53.2836     -0.8640465      0.9855992
      4929.0000         0.8686        12.2868       1120.809       111.4524         0.9398        -999.25       -54.2751      -2.254823      0.9624196
      4929.5000         0.8969        12.3011        1095.33       110.7604         0.9764        -999.25       -55.6837      -4.229539      0.9295077
      4930.0000         0.9524        12.3204       1073.004       110.1064         1.0129        -999.25       -57.0922      -6.204115      0.8965981
      4930.5000         0.9983        12.3398       1090.443       111.2377         1.0198        -999.25        -58.706      -8.466111      0.8588982
      4931.0000         1.0109        12.3592       1107.895       117.7231         1.0026        -999.25        -60.035      -10.32938      0.8278436
      4931.5000         0.9919        12.3786       1131.578       120.4984         0.9854        -999.25       -60.8832      -11.51954      0.8080076
      4932.0000          0.959        12.3916       1155.313       122.2706         0.9682        -999.25       -60.1157      -10.44772      0.8258714
      4932.5000         0.9262        12.4025        1179.02       123.6995         0.9446        -999.25       -58.7598      -8.552132      0.8574645
      4933.0000         0.8924        12.4134       1202.729       125.6782         0.9167        -999.25       -57.9323      -7.396308      0.8767282
