#------------------------------------------------------------------------------
# Created by    : vladimir.rabinovich
# Created on    : 09/19/2023 17:21:40
#------------------------------------------------------------------------------
~Version Information Section
VERS.           2.0     :   CWLS log ASCII Standard - VERSION 2.0
WRAP.           NO      :   One line per depth step
~Well Information Section
#MNEM       .UNIT                                         VALUE :DESCRIPTION
#------------------------------------------------------------------------------
STRT        .FT                                             957 :START DEPTH
STOP        .FT                                           10053 :STOP DEPTH
STEP        .FT                                             0.5 :STEP      
NULL        .                                           -999.25 :NULL      
COMP        .                                    EXXON CO U S A :COMPANY   
WELL        .                               OCS G03237 ST00BP00 :WELL      
FLD         .                                           WILDCAT :FIELD     
LOC         .                                                   :LOCATION  
CNTY        .                           HIGH ISLAND LARGE BLOCK :LOCATION  
STAT        .                                             TEXAS :STATE     
CTRY        .                                     UNITED STATES :COUNTRY   
SRVC        .                                                   :SERVICE COMPANY
DATE        .                             9/13/2023 11:20:04 AM :LOG DATE  
API         .                                    42708400420000 :API NUMBER
UWI         .                                    42708400420000 :UNIQUE WELL ID
XCOORD      .                                  1163347.66403634 :SURFACE X 
YCOORD      .                                  10583934.5995257 :SURFACE Y 
LAT         .                                         29.155753 :LATITUDE  
LON         .                                        -94.495054 :LONGITUDE 
ELEV        .FT                                              94 :ELEVATION VALUE
ELEV_TYPE   .                                                KB :ELEVATION REFERENCE TYPE
~Curve Information Section
#MNEM       .UNIT                                      API CODE :CURVE DESCRIPTION
#------------------------------------------------------------------------------
DEPT        .FT                                                 :DEPTH     
CALI        .IN                                                 :          
DRHO        .G/C3                                               :          
DT          .US/F                                               :          
GR          .GAPI                                               :          
GR_1        .GAPI                                               :          
GR_NORM     .GAPI                                               :GammaRay Normalized
ILD         .OHMM                                               :          
NPHI        .%                                                  :          
RHOB        .G/C3                                               :          
SFL         .OHMM                                               :          
SP          .MV                                                 :          
SP_NORM     .MV                                                 :SP Normalized
VSH_GR      .V/V                                                :Volume of Shale from GR
VSH_SP      .V/V                                                :Volume of Shale from SP
~A        DEPTH           CALI           DRHO             DT             GR           GR_1        GR_NORM            ILD           NPHI           RHOB            SFL             SP        SP_NORM         VSH_GR         VSH_SP
# ...
      1065.0000        -999.25        -999.25        -999.25        -999.25         86.476       91.21385         0.9543        -999.25        -999.25         0.7682       -77.4017      -5.886551              1      0.8505173
      1065.5000        -999.25        -999.25        -999.25        -999.25        88.5811       91.70655         0.9521        -999.25        -999.25         0.8291       -77.2281      -5.712952              1      0.8571942
      1066.0000        -999.25        -999.25        -999.25        -999.25        90.1721       91.78181         0.9816        -999.25        -999.25         0.7875       -77.1339      -5.618752              1      0.8608173
      1066.5000        -999.25        -999.25        -999.25        -999.25        90.0299       90.44975          1.003        -999.25        -999.25         0.6649       -76.4481      -4.932945              1      0.8871944
      1067.0000        -999.25        -999.25        -999.25        -999.25        89.8165       89.05988         0.9859        -999.25        -999.25         0.6463       -75.6147      -4.099548              1      0.9192482
      1067.5000        -999.25        -999.25        -999.25        -999.25        90.6772       88.54216         0.9781        -999.25        -999.25         0.7035       -74.9617      -3.446548              1      0.9443635
      1068.0000        -999.25        -999.25        -999.25        -999.25        93.0242       89.23129         0.9842        -999.25        -999.25         0.8572       -74.9001      -3.384949              1      0.9467328
      1068.5000        -999.25        -999.25        -999.25        -999.25         92.219       87.36087         1.0056        -999.25        -999.25         0.9836       -74.5122      -2.997047              1       0.961652
      1069.0000        -999.25        -999.25        -999.25        -999.25        89.3156       83.78677         1.0349        -999.25        -999.25         1.0461       -73.9871      -2.471947              1      0.9818482
      1069.5000        -999.25        -999.25        -999.25        -999.25        86.5184       80.29892         1.0666        -999.25        -999.25          0.989       -73.4589      -1.943748              1              1
      1070.0000        -999.25        -999.25        -999.25        -999.25        83.5746       76.69202         1.1018        -999.25        -999.25          0.902       -73.1287      -1.613548      0.9296173              1
      1070.5000        -999.25        -999.25        -999.25        -999.25         80.551       74.11458         1.1445        -999.25        -999.25          0.729       -73.2542      -1.739052      0.8747783              1
      1071.0000        -999.25        -999.25        -999.25        -999.25        77.8329       71.90536         1.1425        -999.25        -999.25         0.6671       -73.4512       -1.93605      0.8277737              1
      1071.5000        -999.25        -999.25        -999.25        -999.25         76.504       70.82413         1.1231        -999.25        -999.25         0.7633       -74.3069      -2.791748      0.8047688      0.9695482
      1072.0000        -999.25        -999.25        -999.25        -999.25        76.6479        70.9388         1.1202        -999.25        -999.25         0.8739       -74.8527      -3.337547      0.8072084      0.9485559
      1072.5000        -999.25        -999.25        -999.25        -999.25        77.0969        71.3012         1.1436        -999.25        -999.25         0.9494       -75.0288      -3.513649      0.8149192      0.9417827
      1073.0000        -999.25        -999.25        -999.25        -999.25        77.2391       71.41449         1.1916        -999.25        -999.25           0.95       -76.8929      -5.377747      0.8173296      0.8700867
      1073.5000        -999.25        -999.25        -999.25        -999.25         74.744       69.38634          1.259        -999.25        -999.25         0.9018       -76.0699      -4.554749      0.7741776      0.9017404
      1074.0000        -999.25        -999.25        -999.25        -999.25          72.62       67.65954         1.3296        -999.25        -999.25         0.8315       -76.4329      -4.917747       0.737437      0.8877789
      1074.5000        -999.25        -999.25        -999.25        -999.25        70.6826       66.08421         1.3436        -999.25        -999.25         0.8618       -77.3236      -5.808449      0.7039193      0.8535212
      1075.0000        -999.25        -999.25        -999.25        -999.25        68.4336       64.25588         1.3973        -999.25        -999.25         0.9132       -78.1622      -6.647049      0.6650188      0.8212674
      1075.5000        -999.25        -999.25        -999.25        -999.25        65.6157       61.96563         1.4502        -999.25        -999.25         0.9839       -78.7316      -7.216446      0.6162901      0.7993675
      1076.0000        -999.25        -999.25        -999.25        -999.25        62.4233        59.3713         1.4862        -999.25        -999.25         0.9837       -78.7699      -7.254745      0.5610914      0.7978944
      1076.5000        -999.25        -999.25        -999.25        -999.25        61.2816       58.44207         1.5218        -999.25        -999.25         0.9592       -78.5057      -6.990547      0.5413207      0.8080559
      1077.0000        -999.25        -999.25        -999.25        -999.25        62.7234       59.61061         1.5625        -999.25        -999.25         0.9478       -78.5309      -7.015747      0.5661832      0.8070866
      1077.5000        -999.25        -999.25        -999.25        -999.25        66.4652       62.64669         1.6053        -999.25        -999.25         0.9472       -78.4568       -6.94165      0.6307808      0.8099365
      1078.0000        -999.25        -999.25        -999.25        -999.25        71.5874       66.80363         1.6277        -999.25        -999.25         0.9536       -78.0417       -6.52655      0.7192262      0.8259019
      1078.5000        -999.25        -999.25        -999.25        -999.25        76.9973       71.19417         1.6167        -999.25        -999.25         0.9734        -77.364      -5.848846      0.8126419      0.8519675
      1079.0000        -999.25        -999.25        -999.25        -999.25         82.745       75.85902         1.5787        -999.25        -999.25          0.991       -76.6217      -5.106544       0.911894      0.8805175
      1079.5000        -999.25        -999.25        -999.25        -999.25        86.4572       78.87106         1.5243        -999.25        -999.25         0.9972       -75.9891      -4.473946      0.9759799      0.9048482
      1080.0000        -999.25        -999.25        -999.25        -999.25        89.4813       81.32437         1.4818        -999.25        -999.25         1.0022       -75.8898      -4.374649              1      0.9086673
      1080.5000        -999.25        -999.25        -999.25        -999.25        90.7181       82.32646         1.4454        -999.25        -999.25         0.9656       -75.2451       -3.72995              1      0.9334635
      1081.0000        -999.25        -999.25        -999.25        -999.25        89.8678       81.63383         1.4101        -999.25        -999.25         0.9242         -74.73      -3.214851              1       0.953275
      1081.5000        -999.25        -999.25        -999.25        -999.25        89.9901       81.73097         1.3681        -999.25        -999.25         0.8747       -74.7382      -3.223045              1      0.9529598
      1082.0000        -999.25        -999.25        -999.25        -999.25        90.2522        81.9416         1.3304        -999.25        -999.25         0.9233       -74.7367       -3.22155              1      0.9530173
      1082.5000        -999.25        -999.25        -999.25        -999.25         91.519       82.96804          1.304        -999.25        -999.25          1.002       -74.2292       -2.71405              1      0.9725365
