#------------------------------------------------------------------------------
# Created by    : vladimir.rabinovich
# Created on    : 09/19/2023 17:22:42
#------------------------------------------------------------------------------
~Version Information Section
VERS.           2.0     :   CWLS log ASCII Standard - VERSION 2.0
WRAP.           NO      :   One line per depth step
~Well Information Section
#MNEM       .UNIT                                         VALUE :DESCRIPTION
#------------------------------------------------------------------------------
STRT        .FT                                              96 :START DEPTH
STOP        .FT                                            7107 :STOP DEPTH
STEP        .FT                                             0.5 :STEP      
NULL        .                                           -999.25 :NULL      
COMP        .                                  XTO OFFSHORE INC :COMPANY   
WELL        .                               OCS G23162 ST00BP00 :WELL      
FLD         .                                 BRAZOS BLOCK 0398 :FIELD     
LOC         .                                                   :LOCATION  
CNTY        .                                BRAZOS LARGE BLOCK :LOCATION  
STAT        .                                             TEXAS :STATE     
CTRY        .                                     UNITED STATES :COUNTRY   
SRVC        .                                                   :SERVICE COMPANY
DATE        .                             9/13/2023 11:18:28 AM :LOG DATE  
API         .                                    42704403370000 :API NUMBER
UWI         .                                    42704403370000 :UNIQUE WELL ID
XCOORD      .                                  864551.184430364 :SURFACE X 
YCOORD      .                                  10381025.1526549 :SURFACE Y 
LAT         .                                        28.5842785 :LATITUDE  
LON         .                                       -95.4179199 :LONGITUDE 
ELEV        .FT                                             100 :ELEVATION VALUE
ELEV_TYPE   .                                                KB :ELEVATION REFERENCE TYPE
~Curve Information Section
#MNEM       .UNIT                                      API CODE :CURVE DESCRIPTION
#------------------------------------------------------------------------------
DEPT        .FT                                                 :DEPTH     
DCAL        .IN                                                 :          
DPHI        .FRAC                                               :          
DT          .US/F                                               :          
GR          .GAPI                                               :          
GR_NORM     .GAPI                                               :GammaRay Normalized
HT01        .OHMM                                               :          
HT02        .OHMM                                               :          
HT03        .OHMM                                               :          
HT06        .OHMM                                               :          
HT09        .OHMM                                               :          
HT12        .OHMM                                               :          
NPHI        .FRAC                                               :          
RWA         .OHMM                                               :          
SP          .MV                                                 :          
TENS        .LB                                                 :          
VSH_GR      .V/V                                                :Volume of Shale from GR
~A        DEPTH           DCAL           DPHI             DT             GR        GR_NORM           HT01           HT02           HT03           HT06           HT09           HT12           NPHI            RWA             SP           TENS         VSH_GR
# ...
      7088.0000              0           0.25       174.5531        86.1437       71.30977         1.1254          1.192         1.2189         1.2148         1.2062          1.202          0.333         0.1401        -999.25       4285.156      0.8151014
      7088.5000              0           0.25        211.075        86.1437       71.30977         1.1192         1.1865         1.2092         1.2065         1.1985         1.1945          0.333         0.1302        -999.25        4430.87      0.8151014
      7089.0000              0           0.25       207.9922        86.1437       71.30977         1.1001         1.1654          1.184         1.1822          1.175         1.1712          0.333         0.0496        -999.25       4473.502      0.8151014
      7089.5000              0           0.25       176.5984        86.1437       71.30977         1.0762         1.1382         1.1534         1.1521         1.1457         1.1423          0.333              0        -999.25       4403.826      0.8151014
      7090.0000              0           0.25       228.9859        86.1437       71.30977         1.0578         1.1167         1.1294         1.1281         1.1224         1.1193          0.333              0        -999.25       4316.971      0.8151014
      7090.5000              0           0.25       251.8297        86.1437       71.30977          1.051         1.1079         1.1187         1.1169          1.112         1.1091          0.333              0        -999.25       4281.656      0.8151014
      7091.0000              0           0.25       235.5297        86.1437       71.30977         1.0567         1.1127         1.1222         1.1197         1.1153         1.1126          0.333              0        -999.25       4346.877      0.8151014
      7091.5000              0           0.25       210.2422        86.1437       71.30977         1.0699         1.1257         1.1342         1.1307         1.1267         1.1242          0.333              0        -999.25       4482.092      0.8151014
      7092.0000              0           0.25       124.5828        86.1437       71.30977         1.0832         1.1388         1.1466          1.142         1.1384          1.136          0.333              0        -999.25       4612.216      0.8151014
      7092.5000              0           0.25        91.4891        86.1437       71.30977          1.093         1.1482         1.1554         1.1495         1.1463          1.144          0.333              0        -999.25       4677.438      0.8151014
      7093.0000              0           0.25        91.4922        86.1437       71.30977         1.0979         1.1525         1.1592         1.1522         1.1491         1.1469          0.333              0        -999.25       4643.395      0.8151014
      7093.5000              0           0.25        91.0562        86.1437       71.30977         1.0996         1.1535         1.1597         1.1516         1.1488         1.1466          0.333              0        -999.25       4568.312      0.8151014
      7094.0000              0           0.25        90.9172        86.1437       71.30977         1.1006         1.1538         1.1597         1.1507          1.148         1.1459          0.333              0        -999.25       4489.728      0.8151014
      7094.5000              0           0.25        91.0938        86.1437       71.30977          1.102         1.1551         1.1608         1.1509         1.1483         1.1462          0.333              0        -999.25        4427.37      0.8151014
      7095.0000              0           0.25        91.1687        86.1437       71.30977         1.1041         1.1572         1.1629         1.1523         1.1497         1.1477          0.333              0        -999.25       4377.738      0.8151014
      7095.5000              0           0.25         91.025        86.1437       71.30977         1.1062         1.1595         1.1652         1.1541         1.1515         1.1495          0.333              0        -999.25        4356.74      0.8151014
      7096.0000              0           0.25        90.9547        86.1437       71.30977         1.1077         1.1612         1.1672         1.1556         1.1531         1.1511          0.333              0        -999.25       4362.148      0.8151014
      7096.5000              0           0.25        90.9156        86.1437       71.30977         1.1085         1.1623         1.1685         1.1566         1.1541         1.1522          0.333              0        -999.25       4363.421      0.8151014
      7097.0000              0           0.25        91.1141        86.1437       71.30977         1.1086         1.1627         1.1693         1.1571         1.1547         1.1528          0.333              0        -999.25       4447.731      0.8151014
      7097.5000              0           0.25        91.6109        86.1437       71.30977         1.1085         1.1627         1.1697         1.1573         1.1549         1.1531          0.333              0        -999.25        4537.45      0.8151014
      7098.0000              0           0.25        91.6937        86.1437       71.30977         1.1081         1.1625         1.1698         1.1573          1.155         1.1532          0.333              0        -999.25       4604.262      0.8151014
      7098.5000              0           0.25        91.4422        86.1437       71.30977         1.1075         1.1621         1.1698         1.1572         1.1549         1.1532          0.333              0        -999.25        4616.67      0.8151014
      7099.0000              0           0.25        91.3969        86.1437       71.30977          1.107         1.1617         1.1698          1.157         1.1548         1.1532          0.333              0        -999.25       4504.999      0.8151014
      7099.5000              0           0.25        95.2672        86.1437       71.30977         1.1065         1.1614         1.1698         1.1569         1.1547         1.1532          0.333              0        -999.25       4376.466      0.8151014
      7100.0000              0           0.25       132.5203        86.1437       71.30977         1.1061         1.1611         1.1699         1.1569         1.1548         1.1534          0.333              0        -999.25       4245.387      0.8151014
      7100.5000              0           0.25       125.2875        86.1437       71.30977         1.1058         1.1609         1.1701         1.1571         1.1549         1.1536          0.333              0        -999.25       4116.218      0.8151014
      7101.0000              0           0.25        93.4109        86.1437       71.30977         1.1056         1.1608         1.1704         1.1573         1.1552         1.1539          0.333              0        -999.25       3986.412      0.8151014
      7101.5000              0           0.25           92.2        86.1437       71.30977         1.1054         1.1607         1.1707         1.1576         1.1554         1.1543          0.333              0        -999.25       3857.242      0.8151014
      7102.0000              0           0.25           92.2        86.1437       71.30977         1.1052         1.1606         1.1709         1.1578         1.1557         1.1546          0.333              0        -999.25       3727.118      0.8151014
      7102.5000              0           0.25           92.2        86.1437       71.30977         1.1051         1.1606         1.1712          1.158         1.1558         1.1548          0.333              0        -999.25       3598.266      0.8151014
      7103.0000              0           0.25           92.2        86.1437       71.30977          1.105         1.1605         1.1714         1.1582          1.156          1.155          0.333              0        -999.25       3469.733      0.8151014
      7103.5000              0           0.25           92.2        86.1437       71.30977         1.1049         1.1605         1.1717         1.1584         1.1562         1.1553          0.333              0        -999.25       3340.245      0.8151014
