#------------------------------------------------------------------------------
# Created by    : vladimir.rabinovich
# Created on    : 09/19/2023 17:20:11
#------------------------------------------------------------------------------
~Version Information Section
VERS.           2.0     :   CWLS log ASCII Standard - VERSION 2.0
WRAP.           NO      :   One line per depth step
~Well Information Section
#MNEM       .UNIT                                         VALUE :DESCRIPTION
#------------------------------------------------------------------------------
STRT        .FT                                             984 :START DEPTH
STOP        .FT                                            6595 :STOP DEPTH
STEP        .FT                                             0.5 :STEP      
NULL        .                                           -999.25 :NULL      
COMP        .                   MCMORAN OFFSHORE EXPLORATION CO :COMPANY   
WELL        .                               OCS G03106 ST00BP00 :WELL      
FLD         .                                           WILDCAT :FIELD     
LOC         .                                                   :LOCATION  
CNTY        .                      MATAGORDA ISLAND LARGE BLOCK :LOCATION  
STAT        .                                             TEXAS :STATE     
CTRY        .                                     UNITED STATES :COUNTRY   
SRVC        .                                                   :SERVICE COMPANY
DATE        .                             9/13/2023 11:12:09 AM :LOG DATE  
API         .                                    42703400570000 :API NUMBER
UWI         .                                    42703400570000 :UNIQUE WELL ID
XCOORD      .                                  467986.403229072 :SURFACE X 
YCOORD      .                                  10153243.7887249 :SURFACE Y 
LAT         .                                         27.931172 :LATITUDE  
LON         .                                        -96.630795 :LONGITUDE 
ELEV        .FT                                              95 :ELEVATION VALUE
ELEV_TYPE   .                                                KB :ELEVATION REFERENCE TYPE
~Curve Information Section
#MNEM       .UNIT                                      API CODE :CURVE DESCRIPTION
#------------------------------------------------------------------------------
DEPT        .FT                                                 :DEPTH     
ASFL        .OHMM                                               :          
CILD        .MMHO                                               :          
DT          .US/F                                               :          
GR          .GAPI                                               :          
GR_NORM     .GAPI                                               :GammaRay Normalized
ILD         .OHMM                                               :          
SFL         .OHMM                                               :          
SP          .MV                                                 :          
SP_NORM     .MV                                                 :SP Normalized
VSH_GR      .V/V                                                :Volume of Shale from GR
VSH_SP      .V/V                                                :Volume of Shale from SP
~A        DEPTH           ASFL           CILD             DT             GR        GR_NORM            ILD            SFL             SP        SP_NORM         VSH_GR         VSH_SP
# ...
      1366.5000          0.536       1434.191       145.8748        49.6116       71.90594         0.7143         0.5964        -999.25        -999.25      0.8277859        -999.25
      1367.0000           0.54       1373.992       141.1011        46.3889       66.61906         0.7387         0.6476        -999.25        -999.25      0.7152992        -999.25
      1367.5000         0.5447       1313.793       134.1143        44.6732       63.80445         0.7634         0.7122        -999.25        -999.25      0.6554139        -999.25
      1368.0000         0.5496       1263.051       125.7893        43.0665       61.16866         0.7886         0.7836        -999.25        -999.25      0.5993331        -999.25
      1368.5000         0.5545       1227.734       122.8431        41.6282       58.80913         0.8136         0.8272        -999.25        -999.25      0.5491304        -999.25
      1369.0000         0.5594       1198.137       120.4901        41.2206       58.14045         0.8394          0.804        -999.25        -999.25      0.5349033        -999.25
      1369.5000         0.5823       1172.867       122.0502        40.9787       57.74361         0.8614         0.7636        -999.25        -999.25      0.5264599        -999.25
      1370.0000         0.6073       1152.721       125.5405        40.7368       57.34678         0.8838         0.7205        -999.25        -999.25      0.5180165        -999.25
      1370.5000         0.6307       1143.355       130.2708        40.1747       56.42467         0.8875         0.6905        -999.25        -999.25      0.4983972        -999.25
      1371.0000          0.654       1149.072       134.2278        39.1008       54.66291         0.8893         0.6675        -999.25        -999.25      0.4609131        -999.25
      1371.5000         0.6771       1163.379       137.7043        38.8204       54.20292         0.8785         0.6579        -999.25        -999.25      0.4511259        -999.25
      1372.0000         0.6993       1181.684       141.6387        38.7709       54.12172         0.8659         0.6618        -999.25        -999.25      0.4493983        -999.25
      1372.5000         0.7215       1206.656       146.8025         38.749       54.08595         0.8387         0.6755        -999.25        -999.25      0.4486371        -999.25
      1373.0000         0.7439       1240.057       153.9607        38.8741       54.29102         0.7976         0.6801        -999.25        -999.25      0.4530003        -999.25
      1373.5000         0.7625        1289.16       160.6707        38.9991       54.49607         0.7529         0.6618        -999.25        -999.25      0.4573632        -999.25
      1374.0000         0.7412       1358.609       165.3503        39.6913       55.63163         0.7059         0.6206        -999.25        -999.25      0.4815241        -999.25
      1374.5000         0.7227        1447.42       168.6299        40.4885       56.93944         0.6604          0.581        -999.25        -999.25      0.5093498        -999.25
      1375.0000         0.7056       1550.887       171.1267        41.4365        58.4948          0.617         0.5457        -999.25        -999.25      0.5424425        -999.25
      1375.5000         0.6886       1653.557       173.2622        42.3846          60.05          0.585          0.517        -999.25        -999.25      0.5755319        -999.25
      1376.0000         0.6748       1743.674       175.3508        43.3339       61.60749         0.5555         0.4988        -999.25        -999.25      0.6086701        -999.25
      1376.5000         0.6647       1837.914       177.0017        44.2899       63.17567         0.5336         0.4903        -999.25        -999.25      0.6420355        -999.25
      1377.0000         0.6547       1902.441       178.4558        45.2458       64.74381         0.5175         0.4909        -999.25        -999.25      0.6754003        -999.25
      1377.5000         0.6374       1942.033       179.6965        45.9507        65.9002         0.5101         0.4938        -999.25        -999.25      0.7000043        -999.25
      1378.0000         0.6148       1955.197       180.7512        46.5713        66.9183         0.5065         0.4964        -999.25        -999.25      0.7216659        -999.25
      1378.5000         0.5917        1964.32       181.6418        47.1918       67.93624         0.5059         0.4966        -999.25        -999.25      0.7433243        -999.25
      1379.0000         0.5674       1965.543       181.9683        47.7778       68.89756          0.505         0.4968        -999.25        -999.25      0.7637779        -999.25
      1379.5000         0.5453         1964.6       180.8684        48.2993       69.75307         0.5029          0.497        -999.25        -999.25      0.7819803        -999.25
      1380.0000         0.5269       1969.977       180.0994        48.8209       70.60893         0.5007         0.4971        -999.25        -999.25        0.80019        -999.25
      1380.5000         0.5159       1979.473       179.5542        49.2966       71.38916         0.4978         0.4926        -999.25        -999.25      0.8167906        -999.25
      1381.0000         0.5066       2004.313       179.3291        49.6885       72.03224         0.4949         0.4875        -999.25        -999.25      0.8304732        -999.25
      1381.5000         0.5045       2032.508       178.9263        50.0804       72.67499         0.4919         0.4807        -999.25        -999.25      0.8441487        -999.25
      1382.0000         0.5033       2050.699       178.2891        50.1778       72.83478         0.4894          0.473        -999.25        -999.25      0.8475485        -999.25
      1382.5000          0.502       2065.594       177.2473        50.2637       72.97569         0.4873         0.4628        -999.25        -999.25      0.8505467        -999.25
      1383.0000         0.5008       2061.152       176.0471        50.3497       73.11678         0.4883         0.4534        -999.25        -999.25      0.8535484        -999.25
      1383.5000         0.4996       2041.014       174.1404        50.7708        73.8076         0.4904         0.4529        -999.25        -999.25      0.8682469        -999.25
      1384.0000         0.4983       2010.988       171.9583        51.2823        74.6467         0.4948         0.4584        -999.25        -999.25      0.8860999        -999.25
      1384.5000         0.4968        1973.27        169.905          51.84       75.56161         0.5027         0.4703        -999.25        -999.25      0.9055663        -999.25
      1385.0000         0.4934       1922.371       168.2671        52.5922       76.79577         0.5134         0.4938        -999.25        -999.25      0.9318249        -999.25
      1385.5000           0.49        1866.43       166.9575        53.3443       78.02942         0.5273         0.5251        -999.25        -999.25      0.9580727        -999.25
      1386.0000         0.4867       1811.031       164.6123        54.0496       84.95368         0.5429         0.5502        -999.25        -999.25              1        -999.25
      1386.5000         0.4833       1764.865       160.2104        54.6805       86.11773         0.5585         0.5652        -999.25        -999.25              1        -999.25
      1387.0000         0.4799       1727.813       156.4019        55.3116       87.28233         0.5719         0.5618        -999.25        -999.25              1        -999.25
      1387.5000         0.4774       1694.963       152.7878        54.9601       86.63369         0.5858         0.5465        -999.25        -999.25              1        -999.25
      1388.0000          0.481       1665.371       149.2256        54.3437       85.49624         0.5989         0.5408        -999.25        -999.25              1        -999.25
      1388.5000         0.4874       1637.824       146.9763        53.2579       83.49255         0.6095         0.5388        -999.25        -999.25              1        -999.25
