#------------------------------------------------------------------------------
# Created by    : vladimir.rabinovich
# Created on    : 09/19/2023 17:22:52
#------------------------------------------------------------------------------
~Version Information Section
VERS.           2.0     :   CWLS log ASCII Standard - VERSION 2.0
WRAP.           NO      :   One line per depth step
~Well Information Section
#MNEM       .UNIT                                         VALUE :DESCRIPTION
#------------------------------------------------------------------------------
STRT        .FT                                            1126 :START DEPTH
STOP        .FT                                            9906 :STOP DEPTH
STEP        .FT                                             0.5 :STEP      
NULL        .                                           -999.25 :NULL      
COMP        .                                        EXXON CORP :COMPANY   
WELL        .                               OCS G06053 ST00BP00 :WELL      
FLD         .                                           WILDCAT :FIELD     
LOC         .                                                   :LOCATION  
CNTY        .                      MATAGORDA ISLAND LARGE BLOCK :LOCATION  
STAT        .                                             TEXAS :STATE     
CTRY        .                                     UNITED STATES :COUNTRY   
SRVC        .                                                   :SERVICE COMPANY
DATE        .                             9/13/2023 11:12:11 AM :LOG DATE  
API         .                                    42703402640000 :API NUMBER
UWI         .                                    42703402640000 :UNIQUE WELL ID
XCOORD      .                                  440255.018680432 :SURFACE X 
YCOORD      .                                  10152284.9344853 :SURFACE Y 
LAT         .                                         27.926249 :LATITUDE  
LON         .                                        -96.716438 :LONGITUDE 
ELEV        .FT                                              94 :ELEVATION VALUE
ELEV_TYPE   .                                                KB :ELEVATION REFERENCE TYPE
~Curve Information Section
#MNEM       .UNIT                                      API CODE :CURVE DESCRIPTION
#------------------------------------------------------------------------------
DEPT        .FT                                                 :DEPTH     
GR          .GAPI                                               :          
GR_NORM     .GAPI                                               :GammaRay Normalized
ILD         .OHMM                                               :          
SP          .MV                                                 :          
SP_NORM     .MV                                                 :SP Normalized
VSH_GR      .V/V                                                :Volume of Shale from GR
VSH_SP      .V/V                                                :Volume of Shale from SP
~A        DEPTH             GR        GR_NORM            ILD             SP        SP_NORM         VSH_GR         VSH_SP
# ...
      5782.5000        47.9036        55.3662         0.3978      -112.7698      -60.42518      0.4758767      0.1969571
      5783.0000        47.8759         55.308         0.3961      -112.6927      -60.35093      0.4746383      0.1979604
      5783.5000        48.4398       56.49285         0.3951      -111.7717      -59.43278      0.4998478      0.2103679
      5784.0000        49.0867       57.85211         0.3966      -110.6919      -58.35583      0.5287682      0.2249212
      5784.5000        50.2711       60.34077         0.4005      -108.8716      -56.53837      0.5817185      0.2494815
      5785.0000        51.3812       62.67329         0.4048      -110.9655      -58.63512      0.6313465       0.221147
      5785.5000        52.2725       64.54608         0.4118      -113.6667      -61.33918      0.6711932      0.1846057
      5786.0000        52.9604        65.9915         0.4188      -114.7572      -62.43252      0.7019469      0.1698308
      5786.5000          52.23        64.4568          0.425      -114.5204      -62.19857      0.6692936      0.1729923
      5787.0000        51.4244       62.76407         0.4312       -113.228      -60.90902      0.6332781      0.1904187
      5787.5000        50.9728       61.81517         0.4414      -113.3357      -61.01957      0.6130887      0.1889248
      5788.0000        50.8644       61.58741          0.453      -114.8815      -62.56821      0.6082429      0.1679971
      5788.5000        50.3926       60.59608         0.4678      -116.4127      -64.10226      0.5871508      0.1472667
      5789.0000        49.5786       58.88567          0.484      -116.5084      -64.20081       0.550759      0.1459351
      5789.5000        49.4175       58.54721          0.502      -114.5586      -62.25386      0.5435576      0.1722451
      5790.0000        49.9701       59.70831         0.5206      -111.7972      -59.49531       0.568262      0.2095228
      5790.5000        51.2913        62.4844         0.5408      -108.9373      -56.63826      0.6273276      0.2481317
      5791.0000        52.9778       66.02805         0.5621       -105.625       -53.3288      0.7027245       0.292854
      5791.5000        54.4576       69.13744         0.5871      -101.1382      -48.84485      0.7688816      0.3534479
      5792.0000        55.2917       70.89001          0.614       -90.6031       -38.3126      0.8061703      0.4957756
      5792.5000        55.2291       70.75851         0.6466       -75.7345      -23.44685      0.8033725      0.6966642
      5793.0000        53.2538         66.608         0.6817       -66.3303       -14.0455      0.7150639      0.8237095
      5793.5000        49.8637       59.48476         0.7167       -60.6106      -8.328644      0.5635056      0.9009643
      5794.0000        45.6298       50.58852         0.7515       -55.8137      -3.534595      0.3742237      0.9657487
      5794.5000        42.5485       44.11411         0.7734       -54.3344      -2.058144      0.2364703      0.9857008
      5795.0000        39.9659       38.68757         0.7868        -49.764       2.509411      0.1210121              1
      5795.5000        41.1818        41.2424         0.7863       -52.0016      0.2689629      0.1753702              1
      5796.0000        46.8433       53.13829         0.7857       -53.3525      -1.084789      0.4284743      0.9988542
      5796.5000        52.2713       64.54358         0.7852        -53.428      -1.163136        0.67114      0.9977955
      5797.0000        57.1059       74.70201         0.7809       -52.5817     -0.3196831      0.8872768              1
      5797.5000        61.6584       84.26768         0.7633       -49.7983       2.460865              1              1
      5798.0000        65.5933       92.53564         0.7462       -48.9857       3.270622              1              1
      5798.5000        68.1649       97.93908         0.7427       -49.0022        3.25127              1              1
      5799.0000        68.3838       98.39902         0.7417       -51.9834      0.2672234              1              1
      5799.5000        66.7849       95.03943         0.7516       -53.0385     -0.7907257              1              1
      5800.0000        65.4823       92.30241         0.7934       -53.4813      -1.236374              1      0.9968058
      5800.5000         66.566       94.57949         0.8523       -54.5715      -2.329422              1      0.9820349
      5801.0000        68.1912       97.99433         0.9687       -54.6509      -2.411671              1      0.9809234
      5801.5000        67.6311       96.81746         1.0534       -53.2866      -1.050217              1      0.9993214
      5802.0000        60.8948        82.6632         1.1258       -52.5119     -0.2783699              1              1
      5802.5000        54.2557       68.71318         1.1854       -52.5926     -0.3619156      0.7598549              1
      5803.0000        49.4697       58.65688         1.2196       -55.2783      -3.050465       0.545891       0.972291
      5803.5000        45.8389       51.02789          1.247       -56.5095      -4.284512      0.3835721      0.9556147
      5804.0000        43.3827       45.86692         1.2821       -56.9306      -4.708458      0.2737643      0.9498857
      5804.5000        41.6652       42.25813         1.3071       -55.9249      -3.705608      0.1969814      0.9634377
      5805.0000         42.067       43.10238         1.3202       -53.8128      -1.596359      0.2149442      0.9919411
      5805.5000        43.6794       46.49036         1.3044       -52.3865      -0.172905       0.287029              1
      5806.0000        45.0838       49.44127         1.2593       -52.3309     -0.1201515      0.3498142              1
      5806.5000         45.621          50.57         1.2064       -54.7503      -2.542404      0.3738299      0.9791567
      5807.0000        45.0959       49.46668         1.1756       -56.9545      -4.749447      0.3503549      0.9493318
      5807.5000        44.6836       48.60035         1.1607       -57.5272      -5.324997      0.3319224      0.9415541
      5808.0000        44.5804       48.38352         1.1598        -54.059      -1.859646       0.327309      0.9883832
      5808.5000        45.4608       50.23341         1.1589       -50.0281       2.168404      0.3666684              1
      5809.0000         47.838       55.22837          1.158       -49.8768       2.316856      0.4729441              1
      5809.5000         50.569        60.9667         1.1555       -52.7495     -0.5586929      0.5950362              1
      5810.0000        53.0398       66.15836         1.1493       -55.3704      -3.182442      0.7054969      0.9705076
      5810.5000        54.6406       69.52195         1.1431       -56.3326      -4.147488      0.7770628      0.9574664
      5811.0000        51.8773        63.7157         1.1421       -55.4206      -3.238338      0.6535255      0.9697522
      5811.5000        47.9984        55.5654          1.139       -55.1215      -2.942085      0.4801148      0.9737556
      5812.0000        45.3367       49.97265         1.1184       -54.2223      -2.045734      0.3611203      0.9858685
      5812.5000        44.3649       47.93071         1.0964       -53.7034      -1.529682      0.3176747      0.9928421
      5813.0000        44.0573       47.28439         1.0458       -53.8578      -1.686932      0.3039232      0.9907171
      5813.5000        44.2498       47.68886          1.001       -53.8041      -1.636078      0.3125289      0.9914044
      5814.0000        44.7081       48.65183         0.9608       -53.5702      -1.405029      0.3330177      0.9945266
      5814.5000        44.6838       48.60078         0.9317       -51.8393      0.3230247      0.3319315              1
      5815.0000        43.7086       46.55168         0.9054       -50.3455       1.813976      0.2883337              1
      5815.5000        43.0647       45.19874         0.8789        -49.912       2.244629      0.2595477              1
