#------------------------------------------------------------------------------
# Created by    : vladimir.rabinovich
# Created on    : 09/19/2023 17:19:38
#------------------------------------------------------------------------------
~Version Information Section
VERS.           2.0     :   CWLS log ASCII Standard - VERSION 2.0
WRAP.           NO      :   One line per depth step
~Well Information Section
#MNEM       .UNIT                                         VALUE :DESCRIPTION
#------------------------------------------------------------------------------
STRT        .FT                                            9400 :START DEPTH
STOP        .FT                                           17100 :STOP DEPTH
STEP        .FT                                             0.5 :STEP      
NULL        .                                           -999.25 :NULL      
COMP        .                                   FOREST OIL CORP :COMPANY   
WELL        .                               OCS G18937 ST00BP00 :WELL      
FLD         .                            HIGH ISLAND BLOCK 0116 :FIELD     
LOC         .                                                   :LOCATION  
CNTY        .                           HIGH ISLAND LARGE BLOCK :LOCATION  
STAT        .                                             TEXAS :STATE     
CTRY        .                                     UNITED STATES :COUNTRY   
SRVC        .                                                   :SERVICE COMPANY
DATE        .                             9/13/2023 11:19:48 AM :LOG DATE  
API         .                                    42708405250000 :API NUMBER
UWI         .                                    42708405250000 :UNIQUE WELL ID
XCOORD      .                                  1337259.97993026 :SURFACE X 
YCOORD      .                                  10628189.4209318 :SURFACE Y 
LAT         .                                         29.282461 :LATITUDE  
LON         .                                        -93.951246 :LONGITUDE 
ELEV        .FT                                              93 :ELEVATION VALUE
ELEV_TYPE   .                                                KB :ELEVATION REFERENCE TYPE
~Curve Information Section
#MNEM       .UNIT                                      API CODE :CURVE DESCRIPTION
#------------------------------------------------------------------------------
DEPT        .FT                                                 :DEPTH     
AHT10       .OHMM                                               :          
AHT20       .OHMM                                               :          
AHT30       .OHMM                                               :          
AHT60       .OHMM                                               :          
AHT90       .OHMM                                               :          
CALI        .IN                                                 :          
COND        .MMHO                                               :          
DTCO        .US/F                                               :          
GR          .GAPI                                               :          
GR_NORM     .GAPI                                               :GammaRay Normalized
HDRA        .G/CC                                               :          
NPOR        .FRAC                                               :          
RHOZ        .G/CC                                               :          
VSH_GR      .V/V                                                :Volume of Shale from GR
~A        DEPTH          AHT10          AHT20          AHT30          AHT60          AHT90           CALI           COND           DTCO             GR        GR_NORM           HDRA           NPOR           RHOZ         VSH_GR
# ...
     14008.0000          1.325          1.129          1.077          1.027          1.015          3.392       985.2217         97.014         74.172       80.47311          0.048          0.296          2.563              1
     14008.5000          1.258          1.065          1.023          0.975          0.963          3.369       1038.422         97.329         71.717       77.89639          0.005          0.291          2.524      0.9552422
     14009.0000          1.253          1.051          1.008          0.956          0.943          3.377       1060.445         95.198         73.152       84.05632          0.016          0.302          2.547              1
     14009.5000          1.273          1.055          1.008          0.951          0.938          3.361       1066.098         95.683         74.253       81.14473          0.027          0.297          2.563              1
     14010.0000          1.296          1.068          1.014          0.954           0.94          3.369        1063.83         94.295         77.543       79.84464           0.02          0.278          2.555      0.9966945
     14010.5000          1.284          1.061          1.003          0.941          0.927          3.369       1078.749         95.487         75.529       83.21613          0.006           0.29          2.537              1
     14011.0000           1.23          1.021          0.969          0.912          0.899          3.369       1112.347         94.726          75.45       84.38672         -0.004          0.292          2.536              1
     14011.5000          1.194          0.988          0.944          0.892          0.879          3.392       1137.656         96.905         74.261       82.00912          0.004          0.289          2.554              1
     14012.0000          1.208          0.991          0.948          0.895          0.881          3.369       1135.074         97.708         74.731        80.3108           0.01          0.297          2.559              1
     14012.5000          1.242          1.013          0.969          0.911          0.896          3.369       1116.071         96.992         74.927       85.04548          0.012          0.298          2.543              1
     14013.0000          1.247          1.022          0.977          0.918          0.902          3.369       1108.647          98.37         74.927       83.41309          0.013          0.292          2.537              1
     14013.5000          1.205          0.997          0.955          0.902          0.886          3.369       1128.668          97.39         74.927       84.83974          0.013          0.291          2.532              1
     14014.0000          1.152          0.958          0.919          0.873          0.858          3.392       1165.501         96.723         74.927       80.50707          0.013          0.285          2.538              1
     14014.5000          1.128          0.939            0.9          0.858          0.843          3.381        1186.24         96.839         74.927       80.28146          0.008          0.298          2.534              1
     14015.0000          1.122          0.935          0.893          0.852          0.837          3.381       1194.743         97.976         74.927       81.06124          0.002          0.302          2.523              1
     14015.5000          1.111          0.925          0.884           0.84          0.824          3.381       1213.592         95.774         74.927       78.59095              0          0.293          2.515      0.9700202
     14016.0000          1.118          0.927          0.887           0.84          0.825          3.369       1212.121         97.478         74.927       82.95171          0.003          0.287           2.52              1
     14016.5000          1.169           0.96          0.918          0.867          0.851          3.385       1175.088         94.887         74.927       85.19443          0.006          0.289          2.527              1
     14017.0000          1.248          1.013          0.965          0.907          0.889          3.392       1124.859         94.406         74.927       84.65684          0.007          0.302          2.533              1
     14017.5000          1.348          1.085          1.025          0.956          0.936          3.369       1068.376         91.887         74.927       81.11698          0.004          0.307          2.527              1
     14018.0000          1.427          1.136          1.067          0.992           0.97          3.381       1030.928         91.559         74.927       81.72807          0.003           0.28          2.533              1
     14018.5000          1.382          1.103          1.032          0.963          0.943          3.381       1060.445         91.009         74.927       78.52126          0.005          0.296          2.542      0.9685375
     14019.0000          1.253           1.02          0.963          0.905          0.888          3.377       1126.126         93.275         74.927        82.4033          0.006          0.311          2.547              1
     14019.5000           1.17          0.965          0.923           0.87          0.854          3.381        1170.96         94.095         74.927       79.44778          0.009          0.311          2.549      0.9882506
     14020.0000          1.183           0.97          0.929          0.876           0.86          3.392       1162.791          98.98         74.927       79.28092          0.009          0.311          2.545      0.9847004
     14020.5000          1.286          1.035          0.996          0.935          0.918          3.385       1089.325         91.317         74.927       85.31369          0.006          0.311          2.543              1
     14021.0000          1.484          1.162          1.109           1.03           1.01          3.392        990.099         89.146         74.927       81.82067          0.007          0.311          2.545              1
     14021.5000          1.722          1.321          1.238          1.137          1.114          3.369       897.6661         89.367         74.927       78.73619          0.009          0.311          2.547      0.9731104
     14022.0000          1.675          1.297          1.218          1.118          1.096          3.377       912.4088         87.587         74.927        79.0635          0.013          0.311          2.547      0.9800745
     14022.5000          1.353           1.09          1.042          0.967          0.951          3.377       1051.525         89.203         74.927        78.5683          0.005          0.311          2.533      0.9695383
     14023.0000          1.163          0.962          0.931          0.878          0.865          3.369       1156.069         94.971         74.927       79.60727         -0.004          0.311          2.523       0.991644
     14023.5000          1.169          0.967          0.934          0.886          0.874          3.381       1144.165         95.403         74.927       78.99931          -0.01          0.311          2.521      0.9787086
     14024.0000          1.236          1.011           0.97          0.917          0.904          3.381       1106.195         95.713         74.927       82.24976         -0.007          0.311          2.535              1
     14024.5000          1.271          1.036          0.992          0.933           0.92          3.369       1086.957         95.495         74.927       81.02119         -0.006          0.311          2.539              1
     14025.0000          1.225           1.01           0.97          0.914          0.901          3.392       1109.878         96.352         74.927       84.54974         -0.005          0.311          2.539              1
     14025.5000          1.124          0.939          0.907           0.86          0.849          3.392       1177.856         99.041         74.927       82.95871         -0.007          0.311          2.525              1
