#------------------------------------------------------------------------------
# Created by    : vladimir.rabinovich
# Created on    : 09/19/2023 17:20:09
#------------------------------------------------------------------------------
~Version Information Section
VERS.           2.0     :   CWLS log ASCII Standard - VERSION 2.0
WRAP.           NO      :   One line per depth step
~Well Information Section
#MNEM       .UNIT                                         VALUE :DESCRIPTION
#------------------------------------------------------------------------------
STRT        .FT                                             880 :START DEPTH
STOP        .FT                                           10998 :STOP DEPTH
STEP        .FT                                             0.5 :STEP      
NULL        .                                           -999.25 :NULL      
COMP        .                        HUGHES TEXAS PETROLEUM LTD :COMPANY   
WELL        .                                ST TR 00564-L NE/4 :WELL      
FLD         .                       MATAGORDA ISLAND BLOCK 0565 :FIELD     
LOC         .                                                   :LOCATION  
CNTY        .                      MATAGORDA ISLAND LARGE BLOCK :LOCATION  
STAT        .                                             TEXAS :STATE     
CTRY        .                                     UNITED STATES :COUNTRY   
SRVC        .                                                   :SERVICE COMPANY
DATE        .                             9/13/2023 11:12:01 AM :LOG DATE  
API         .                                    42703303560000 :API NUMBER
UWI         .                                    42703303560000 :UNIQUE WELL ID
XCOORD      .                                  580856.659723482 :SURFACE X 
YCOORD      .                                  10268633.8274002 :SURFACE Y 
LAT         .                                         28.256926 :LATITUDE  
LON         .                                       -96.2914173 :LONGITUDE 
ELEV        .FT                                              25 :ELEVATION VALUE
ELEV_TYPE   .                                                KB :ELEVATION REFERENCE TYPE
~Curve Information Section
#MNEM       .UNIT                                      API CODE :CURVE DESCRIPTION
#------------------------------------------------------------------------------
DEPT        .FT                                                 :DEPTH     
ASFL        .OHMM                                               :          
GR          .GAPI                                               :          
GR_NORM     .GAPI                                               :GammaRay Normalized
ILD         .OHMM                                               :          
SP          .MV                                                 :          
SP_NORM     .MV                                                 :SP Normalized
VSH_GR      .V/V                                                :Volume of Shale from GR
VSH_SP      .V/V                                                :Volume of Shale from SP
~A        DEPTH           ASFL             GR        GR_NORM            ILD             SP        SP_NORM         VSH_GR         VSH_SP
# ...
      7635.5000         0.7943        -999.25        -999.25          0.776       -43.5231     -0.3348122        -999.25              1
      7636.0000         0.8032        -999.25        -999.25         0.7741       -43.5991     -0.4258118        -999.25              1
      7636.5000         0.8226        -999.25        -999.25         0.7955       -43.6751     -0.5168114        -999.25              1
      7637.0000         0.8421        -999.25        -999.25         0.8168       -43.7511     -0.6078148        -999.25              1
      7637.5000         0.8615        -999.25        -999.25         0.8382       -43.8271     -0.6988144        -999.25              1
      7638.0000         0.8804        -999.25        -999.25         0.8596       -43.9072     -0.7939186        -999.25              1
      7638.5000         0.8988        -999.25        -999.25          0.881         -44.03     -0.9317169        -999.25              1
      7639.0000         0.9173        -999.25        -999.25          0.901       -44.1529      -1.069622        -999.25      0.9986076
      7639.5000         0.9357        -999.25        -999.25         0.9188       -44.2757       -1.20742        -999.25      0.9958516
      7640.0000           0.96        -999.25        -999.25         0.9365        -44.316      -1.262726        -999.25      0.9947455
      7640.5000         0.9851        -999.25        -999.25         0.9542       -44.2169      -1.178623        -999.25      0.9964275
      7641.0000         0.9888        -999.25        -999.25          0.972       -44.1179      -1.094627        -999.25      0.9981074
      7641.5000          0.976        -999.25        -999.25         0.9842       -44.0189      -1.010628        -999.25      0.9997874
      7642.0000         0.9632        -999.25        -999.25         0.9698       -43.9197     -0.9264259        -999.25              1
      7642.5000         0.9503        -999.25        -999.25         0.9555       -43.8632     -0.8849297        -999.25              1
      7643.0000         0.9375        -999.25        -999.25         0.9411       -43.8284     -0.8651276        -999.25              1
      7643.5000          0.925        -999.25        -999.25         0.9268       -43.7937     -0.8454323        -999.25              1
      7644.0000         0.9136        -999.25        -999.25         0.9184        -43.759     -0.8257294        -999.25              1
      7644.5000         0.9023        -999.25        -999.25         0.9164       -43.7242     -0.8059349        -999.25              1
      7645.0000         0.8926        -999.25        -999.25         0.9145       -43.7033     -0.8000336        -999.25              1
      7645.5000         0.9009        -999.25        -999.25         0.9126       -43.7364     -0.8481369        -999.25              1
      7646.0000         0.9092        -999.25        -999.25         0.9136       -43.7695     -0.8962364        -999.25              1
      7646.5000         0.9234        -999.25        -999.25         0.9221       -43.8026     -0.9443398        -999.25              1
      7647.0000         0.9381        -999.25        -999.25         0.9307       -43.8356     -0.9923401        -999.25              1
      7647.5000         0.9527        -999.25        -999.25         0.9392       -43.8687       -1.04044        -999.25      0.9991912
      7648.0000         0.9675        -999.25        -999.25         0.9477       -43.9025      -1.089241        -999.25      0.9982152
      7648.5000         0.9768        -999.25        -999.25         0.9481       -43.9561      -1.157845        -999.25      0.9968431
      7649.0000         0.9722        -999.25        -999.25         0.9358       -44.0096      -1.226345        -999.25      0.9954731
      7649.5000         0.9615        -999.25        -999.25         0.9235       -44.0632      -1.294949        -999.25       0.994101
      7650.0000         0.9458        -999.25        -999.25         0.9112       -44.1169      -1.363647        -999.25       0.992727
      7650.5000           0.93        -999.25        -999.25         0.8989       -44.1705      -1.432251        -999.25       0.991355
      7651.0000         0.9143        -999.25        -999.25         0.8866       -44.2124      -1.489147        -999.25       0.990217
      7651.5000         0.9005        -999.25        -999.25         0.8754       -44.1221      -1.413853        -999.25      0.9917229
      7652.0000         0.8905        -999.25        -999.25         0.8725        -44.032      -1.338753        -999.25      0.9932249
      7652.5000         0.8804        -999.25        -999.25         0.8697       -43.9418      -1.263554        -999.25      0.9947289
      7653.0000         0.8934        -999.25        -999.25         0.8668       -43.8517      -1.188454        -999.25      0.9962309
      7653.5000         0.9078        -999.25        -999.25          0.864       -43.7615      -1.113258        -999.25      0.9977348
      7654.0000         0.9222        -999.25        -999.25         0.8612       -43.6837      -1.050457        -999.25      0.9989908
      7654.5000         0.9325        -999.25        -999.25         0.8583       -43.6755      -1.057259        -999.25      0.9988548
      7655.0000         0.9379        -999.25        -999.25         0.8594       -43.6674      -1.064159        -999.25      0.9987168
      7655.5000         0.9292        -999.25        -999.25          0.864       -43.6592      -1.070961        -999.25      0.9985808
      7656.0000         0.9205        -999.25        -999.25         0.8686       -43.6511      -1.077862        -999.25      0.9984428
      7656.5000         0.9119        -999.25        -999.25         0.8733       -43.6776      -1.119366        -999.25      0.9976127
      7657.0000         0.9032        -999.25        -999.25         0.8779       -43.7753      -1.232063        -999.25      0.9953587
      7657.5000         0.8997        -999.25        -999.25         0.8825       -43.8729      -1.344662        -999.25      0.9931068
      7658.0000         0.8982        -999.25        -999.25          0.879       -43.9708      -1.457565        -999.25      0.9908487
      7658.5000         0.8967        -999.25        -999.25         0.8661       -44.0684      -1.570168        -999.25      0.9885967
      7659.0000          0.896        -999.25        -999.25         0.8531       -44.1661      -1.682869        -999.25      0.9863426
      7659.5000         0.8958        -999.25        -999.25         0.8401       -44.2637      -1.795467        -999.25      0.9840906
      7660.0000         0.8956        -999.25        -999.25         0.8271         -44.27      -1.816772        -999.25      0.9836646
      7660.5000         0.8885        -999.25        -999.25         0.8141       -44.2593      -1.821072        -999.25      0.9835786
      7661.0000         0.8793        -999.25        -999.25         0.7976       -44.2485      -1.825275        -999.25      0.9834945
      7661.5000           0.87        -999.25        -999.25         0.7659       -44.2379      -1.829674        -999.25      0.9834065
      7662.0000         0.8607        -999.25        -999.25         0.7341       -44.2271      -1.833878        -999.25      0.9833224
      7662.5000         0.8445        -999.25        -999.25         0.7024       -44.2164      -1.838177        -999.25      0.9832365
      7663.0000         0.8272        -999.25        -999.25         0.6707       -44.1926       -1.82938        -999.25      0.9834124
      7663.5000         0.8099        -999.25        -999.25         0.6477       -44.1605      -1.812279        -999.25      0.9837544
      7664.0000         0.7821        -999.25        -999.25         0.6267       -44.1285      -1.795284        -999.25      0.9840943
      7664.5000         0.7534        -999.25        -999.25         0.6056       -44.0964      -1.778183        -999.25      0.9844363
