#------------------------------------------------------------------------------
# Created by    : vladimir.rabinovich
# Created on    : 09/19/2023 17:20:40
#------------------------------------------------------------------------------
~Version Information Section
VERS.           2.0     :   CWLS log ASCII Standard - VERSION 2.0
WRAP.           NO      :   One line per depth step
~Well Information Section
#MNEM       .UNIT                                         VALUE :DESCRIPTION
#------------------------------------------------------------------------------
STRT        .FT                                             546 :START DEPTH
STOP        .FT                                            8737 :STOP DEPTH
STEP        .FT                                             0.5 :STEP      
NULL        .                                           -999.25 :NULL      
COMP        .                                      SHELL OIL CO :COMPANY   
WELL        .                                OCS 00702 ST00BP00 :WELL      
FLD         .                                           WILDCAT :FIELD     
LOC         .                                                   :LOCATION  
CNTY        .                             GALVESTON LARGE BLOCK :LOCATION  
STAT        .                                             TEXAS :STATE     
CTRY        .                                     UNITED STATES :COUNTRY   
SRVC        .                                                   :SERVICE COMPANY
DATE        .                             9/13/2023 11:19:42 AM :LOG DATE  
API         .                                    42706000140000 :API NUMBER
UWI         .                                    42706000140000 :UNIQUE WELL ID
XCOORD      .                                  1138683.88536091 :SURFACE X 
YCOORD      .                                  10533063.1188688 :SURFACE Y 
LAT         .                                         29.014964 :LATITUDE  
LON         .                                        -94.570199 :LONGITUDE 
ELEV        .FT                                              72 :ELEVATION VALUE
ELEV_TYPE   .                                                KB :ELEVATION REFERENCE TYPE
~Curve Information Section
#MNEM       .UNIT                                      API CODE :CURVE DESCRIPTION
#------------------------------------------------------------------------------
DEPT        .FT                                                 :DEPTH     
ASN         .OHMM                                               :          
CILD        .MMHO                                               :          
ILD         .OHMM                                               :          
SP          .MV                                                 :          
SP_NORM     .MV                                                 :SP Normalized
VSH_SP      .V/V                                                :Volume of Shale from SP
~A        DEPTH            ASN           CILD            ILD             SP        SP_NORM         VSH_SP
# ...
      5980.0000         0.4965       1531.199         0.7676       -45.5818      -1.896519              1
      5980.5000         0.4903       1538.385         0.7644       -45.1057      -1.421318              1
      5981.0000          0.484       1545.576         0.7613       -44.8765      -1.193012              1
      5981.5000         0.4807       1552.762         0.7676       -44.7131       -1.03051              1
      5982.0000         0.4787       1559.945         0.7742       -44.6183     -0.9366035              1
      5982.5000          0.477       1558.387         0.7823       -44.5235     -0.8426971              1
      5983.0000          0.476        1552.09         0.7908       -44.4287     -0.7487946              1
      5983.5000          0.475       1519.096         0.7992        -44.334     -0.6549911              1
      5984.0000         0.4752       1432.475         0.8077       -44.2391     -0.5609894              1
      5984.5000         0.4766        1372.15         0.8162       -44.1467     -0.4694824              1
      5985.0000         0.4883       1332.305         0.8261        -44.055     -0.3786774              1
      5985.5000         0.5013       1294.057         0.8421       -43.9633     -0.2878723              1
      5986.0000         0.5499       1260.297         0.8581       -44.1466     -0.4720688              1
      5986.5000         0.6162       1224.316         0.8741       -44.5101     -0.8364677              1
      5987.0000         0.6567       1184.381           0.89       -44.6974      -1.024658              1
      5987.5000         0.6789       1156.418         0.9031        -44.828      -1.156155              1
      5988.0000         0.6924       1134.797         0.9072       -44.8928      -1.221851              1
      5988.5000         0.6991       1119.926         0.9114       -44.8312      -1.161148              1
      5989.0000         0.6916       1108.398         0.9155       -44.7697      -1.100544              1
      5989.5000         0.6842       1099.881         0.9196       -44.7183      -1.050037              1
      5990.0000         0.6766       1094.318         0.9238        -44.684      -1.016632              1
      5990.5000          0.669        1102.18         0.9279       -44.7212      -1.054729              1
      5991.0000         0.6745       1110.031         0.9316       -45.0663      -1.400726              1
      5991.5000          0.685       1117.949         0.9277       -45.4111      -1.746422              1
      5992.0000         0.6966       1126.012         0.9238        -45.756      -2.092216              1
      5992.5000         0.7083       1134.063         0.9199       -46.0726      -2.409714              1
      5993.0000         0.7103       1142.125          0.916       -46.3608      -2.698811              1
      5993.5000         0.7034       1150.178         0.9122        -46.649      -2.987904              1
      5994.0000         0.6974        1158.24         0.9083       -47.0244      -3.364201      0.9886187
      5994.5000         0.6914        1165.67         0.9044       -47.5121      -3.852795      0.9733502
      5995.0000          0.691       1171.777         0.9005       -48.0232      -4.364792      0.9573503
      5995.5000         0.6906       1177.891         0.8966       -48.5337      -4.876186      0.9413692
      5996.0000         0.6901       1183.998         0.8922       -49.0441      -5.387486      0.9253911
      5996.5000         0.6832       1190.111         0.8871       -49.5585      -5.902779      0.9092882
      5997.0000         0.6763       1196.219          0.882       -50.1594      -6.504574      0.8904821
      5997.5000         0.6679       1212.057         0.8768       -50.5534      -6.899467      0.8781416
      5998.0000         0.6508        1227.98         0.8717       -49.7921      -6.139065      0.9019042
      5998.5000         0.6378       1243.662         0.8666       -49.0314      -5.379261      0.9256481
      5999.0000         0.6271       1259.053         0.8604       -48.2468      -4.595558      0.9501388
      5999.5000          0.616       1274.445         0.8527         -47.46       -3.80965      0.9746984
      6000.0000         0.5964       1266.295         0.8308         -46.32      -2.670547              1
      6000.5000         0.5875        1283.77         0.8221       -46.0799      -2.431343              1
      6001.0000         0.5789       1323.469         0.8137       -45.9839      -2.336239              1
      6001.5000         0.5701       1356.701         0.8053       -45.8879      -2.241138              1
      6002.0000         0.5613       1379.303         0.7969       -45.7928      -2.146931              1
      6002.5000         0.5525       1401.393         0.7902       -45.6985      -2.053528              1
      6003.0000         0.5449       1422.768         0.7849       -45.6041      -1.960022              1
      6003.5000         0.5392       1438.705         0.7809       -45.5029      -1.859718              1
      6004.0000         0.5305       1454.117         0.7779       -45.3802      -1.737915              1
      6004.5000         0.5196       1467.871         0.7766       -45.2575      -1.616108              1
      6005.0000          0.508        1438.26         0.7855       -45.1322      -1.491703              1
      6005.5000         0.5036       1394.883         0.7944       -44.9535        -1.3139              1
      6006.0000         0.5116        1356.01         0.8032       -44.7747      -1.135998              1
      6006.5000         0.5584       1306.172         0.8133       -44.7536      -1.115795              1
      6007.0000         0.5894        1269.75         0.8311       -44.9189      -1.281986              1
      6007.5000         0.6122       1230.209         0.8489       -45.0844      -1.448383              1
      6008.0000         0.6306        1197.02         0.8667       -45.3213       -1.68618              1
      6008.5000         0.6437       1171.029         0.8836       -45.5958      -1.961575              1
      6009.0000         0.6568        1150.77         0.9001       -45.8817      -2.248371              1
      6009.5000           0.67       1131.957         0.9166       -46.1821      -2.549664              1
      6010.0000         0.6784       1116.699           0.91       -46.4828      -2.851261              1
      6010.5000         0.6748       1118.539         0.9017       -46.4686      -2.837959              1
      6011.0000          0.666       1138.889         0.8904       -46.3475      -2.717754              1
      6011.5000         0.6579       1159.238         0.8791       -46.1688      -2.539948              1
      6012.0000         0.6501       1176.535         0.8679       -45.9901      -2.362144              1
      6012.5000         0.6423       1192.963         0.8566       -45.8113      -2.184238              1
      6013.0000         0.6348       1212.756         0.8441       -45.8135      -2.187336              1
      6013.5000         0.6274       1240.686         0.8312       -46.0332      -2.407932              1
      6014.0000         0.6238       1282.678         0.8182       -46.2529      -2.628525              1
      6014.5000          0.621       1326.588         0.8053       -46.4848       -2.86132              1
      6015.0000         0.6145        1361.07         0.7924       -46.9715      -3.348919      0.9890963
      6015.5000         0.6021       1388.732         0.7804       -47.4014      -3.779716      0.9756339
      6016.0000         0.5855       1425.688         0.7696       -47.1213      -3.500511       0.984359
      6016.5000         0.5421       1476.195         0.7588       -46.4698      -2.849903              1
      6017.0000         0.5137       1508.717          0.748       -45.8444      -2.225399              1
      6017.5000          0.494       1528.309         0.7424       -45.6228      -2.004696              1
