#------------------------------------------------------------------------------
# Created by    : vladimir.rabinovich
# Created on    : 09/19/2023 17:22:47
#------------------------------------------------------------------------------
~Version Information Section
VERS.           2.0     :   CWLS log ASCII Standard - VERSION 2.0
WRAP.           NO      :   One line per depth step
~Well Information Section
#MNEM       .UNIT                                         VALUE :DESCRIPTION
#------------------------------------------------------------------------------
STRT        .FT                                            4658 :START DEPTH
STOP        .FT                                           10852 :STOP DEPTH
STEP        .FT                                             0.5 :STEP      
NULL        .                                           -999.25 :NULL      
COMP        .                             WALTER OIL & GAS CORP :COMPANY   
WELL        .                               OCS G04721 ST00BP00 :WELL      
FLD         .                              GALVESTON BLOCK 0350 :FIELD     
LOC         .                                                   :LOCATION  
CNTY        .                             GALVESTON LARGE BLOCK :LOCATION  
STAT        .                                             TEXAS :STATE     
CTRY        .                                     UNITED STATES :COUNTRY   
SRVC        .                                                   :SERVICE COMPANY
DATE        .                             9/13/2023 11:19:36 AM :LOG DATE  
API         .                                    42706401870000 :API NUMBER
UWI         .                                    42706401870000 :UNIQUE WELL ID
XCOORD      .                                  1032064.33467067 :SURFACE X 
YCOORD      .                                   10428906.138822 :SURFACE Y 
LAT         .                                        28.7242451 :LATITUDE  
LON         .                                       -94.8985179 :LONGITUDE 
ELEV        .FT                                              92 :ELEVATION VALUE
ELEV_TYPE   .                                                KB :ELEVATION REFERENCE TYPE
~Curve Information Section
#MNEM       .UNIT                                      API CODE :CURVE DESCRIPTION
#------------------------------------------------------------------------------
DEPT        .FT                                                 :DEPTH     
DT          .US/F                                               :          
GR          .GAPI                                               :          
GR_1        .GAPI                                               :          
GR_NORM     .GAPI                                               :GammaRay Normalized
ILD         .OHMM                                               :          
ILM         .OHMM                                               :          
NPHI        .%                                                  :          
RFOC        .OHMM                                               :          
RHOB        .G/C3                                               :          
SP          .MV                                                 :          
SP_NORM     .MV                                                 :SP Normalized
VSH_GR      .V/V                                                :Volume of Shale from GR
VSH_SP      .V/V                                                :Volume of Shale from SP
~A        DEPTH             DT             GR           GR_1        GR_NORM            ILD            ILM           NPHI           RFOC           RHOB             SP        SP_NORM         VSH_GR         VSH_SP
# ...
     10434.0000         95.209        -999.25        69.8812       73.15234         0.6943           0.71        -999.25         0.8847        -999.25       -70.1855      -25.24878      0.8543052      0.6115572
     10434.5000        98.8912        -999.25        69.0972       72.10355         0.6876         0.7123        -999.25         0.8035        -999.25       -68.8356       -23.6739      0.8319904      0.6357862
     10435.0000       107.5962        -999.25        69.0315       72.01566         0.6808         0.7126        -999.25         0.7293        -999.25        -67.431      -22.03519      0.8301203       0.660997
     10435.5000       109.9755        -999.25        70.2379       73.62951         0.6748         0.7121        -999.25         0.7129        -999.25       -66.5182      -20.97027      0.8644577      0.6773805
     10436.0000       110.0652        -999.25        72.5118       76.67142          0.673         0.7108        -999.25          0.707        -999.25       -65.5658      -19.85913      0.9291793      0.6944749
     10436.5000       108.6725        -999.25        73.4779       77.96382         0.6733         0.7094        -999.25         0.7248        -999.25       -64.6356      -18.77389      0.9566771      0.7111709
     10437.0000       106.8389        -999.25        73.0667       77.41373         0.6755         0.7067        -999.25         0.7581        -999.25       -63.7303      -17.71771      0.9449731      0.7274198
     10437.5000       105.4287        -999.25        71.6473       75.51494         0.6782          0.702        -999.25         0.7772        -999.25       -63.4374        -17.376      0.9045731       0.732677
     10438.0000       104.3922        -999.25        71.4622       75.26732         0.6818         0.6974        -999.25         0.7799        -999.25       -63.2314      -17.13566      0.8993046      0.7363744
     10438.5000       104.0073        -999.25        71.8201       75.74609         0.6853         0.6972        -999.25         0.7801        -999.25       -63.0791      -16.95798      0.9094914       0.739108
     10439.0000       103.8411        -999.25        71.2572       74.99309         0.6875         0.6983        -999.25         0.7881        -999.25       -63.0162       -16.8846      0.8934699       0.740237
     10439.5000        103.012        -999.25        69.5616       72.72479         0.6896         0.6992        -999.25         0.7993        -999.25       -63.1522      -17.04326      0.8452083       0.737796
     10440.0000        100.675        -999.25        67.3793       69.80544         0.6906         0.7005        -999.25          0.805        -999.25       -63.4132      -17.34776      0.7830945      0.7331113
     10440.5000        98.8264        -999.25         66.363       68.44588         0.6918         0.7027        -999.25         0.7997        -999.25       -64.4907      -18.60485      0.7541677      0.7137716
     10441.0000         98.819        -999.25        66.5222       68.65885         0.6931         0.7046        -999.25         0.7899        -999.25         -65.92      -20.27236       0.758699      0.6881176
     10441.5000       100.0348        -999.25        67.0288       69.33656         0.6945         0.7055        -999.25         0.7828        -999.25       -66.8112       -21.3121      0.7731182      0.6721215
     10442.0000       102.3243        -999.25        67.2046       69.57172         0.6959         0.7064        -999.25         0.7766        -999.25       -66.0289      -20.39941      0.7781218      0.6861629
     10442.5000       104.9329        -999.25        67.1736       69.53027         0.6973         0.7086        -999.25         0.7735        -999.25        -63.708       -17.6917      0.7772397        0.72782
     10443.0000       106.0328        -999.25        67.2864       69.68115         0.6975         0.7109        -999.25         0.7717        -999.25       -62.6837      -16.49668        0.78045      0.7462049
     10443.5000       105.0674        -999.25        68.7888       71.69099         0.6973         0.7151        -999.25         0.7711        -999.25       -61.9567      -15.64851      0.8232125      0.7592537
     10444.0000        103.453        -999.25        69.4382       72.55972         0.6975         0.7196        -999.25         0.7794        -999.25       -61.9681      -15.66181      0.8416961       0.759049
     10444.5000       102.8812        -999.25        69.3263       72.41003          0.699         0.7246        -999.25         0.7899        -999.25       -62.1266      -15.84673      0.8385112      0.7562042
     10445.0000       103.9139        -999.25        67.4264       69.86844         0.7007         0.7289        -999.25         0.7924        -999.25       -62.2469      -15.98708      0.7844349       0.754045
     10445.5000        105.349        -999.25        65.8138       67.71118          0.703         0.7326        -999.25         0.7913        -999.25        -62.308      -16.05836      0.7385358      0.7529483
     10446.0000       105.8024        -999.25        64.9679        66.5796         0.7052         0.7355        -999.25         0.7903        -999.25       -62.2723      -16.01671      0.7144595       0.753589
     10446.5000       105.0001        -999.25        67.2616       69.64797         0.7071         0.7345        -999.25         0.7903        -999.25       -62.0645      -15.77428      0.7797441      0.7573188
     10447.0000       103.6299        -999.25        67.7968       70.36395          0.709         0.7296        -999.25         0.7949        -999.25       -61.6582      -15.30026      0.7949775      0.7646114
     10447.5000       101.6417        -999.25        68.7318       71.61474         0.7101         0.7227        -999.25          0.808        -999.25        -60.951       -14.4752      0.8215902      0.7773046
     10448.0000        99.8429        -999.25        69.8774       73.14726          0.711         0.7206        -999.25         0.8179        -999.25       -60.0741      -13.45215      0.8541971      0.7930439
     10448.5000        98.8181        -999.25        70.0195       73.33736         0.7125         0.7217        -999.25          0.824        -999.25       -58.8033      -11.96954      0.8582416      0.8158532
     10449.0000        98.8728        -999.25        69.7128       72.92707         0.7145         0.7243        -999.25         0.8236        -999.25       -58.0918      -11.13946      0.8495122      0.8286237
     10449.5000        99.4331        -999.25         69.127        72.1434         0.7166         0.7281        -999.25         0.8159        -999.25       -57.5251      -10.47831      0.8328384      0.8387952
     10450.0000         100.71        -999.25        68.2141       70.92219         0.7188         0.7334        -999.25         0.8062        -999.25       -57.0731       -9.95098      0.8068551       0.846908
     10450.5000       102.1575        -999.25        68.9424       71.89646         0.7209          0.742        -999.25         0.7978        -999.25       -56.9315      -9.785778      0.8275843      0.8494496
     10451.0000       103.6074        -999.25        70.2527       73.64931         0.7225         0.7482        -999.25         0.7913        -999.25       -56.9156      -9.767228       0.864879       0.849735
     10451.5000        104.822        -999.25        71.1432       74.84058         0.7241         0.7502        -999.25          0.785        -999.25       -57.0034       -9.86966      0.8902252      0.8481591
     10452.0000       105.0736        -999.25        71.1321       74.82573         0.7237         0.7471        -999.25         0.7816        -999.25       -57.2297      -10.13368      0.8899091      0.8440973
     10452.5000       104.2303        -999.25        69.7115       72.92534         0.7211         0.7419        -999.25         0.7857        -999.25       -57.7816      -10.77756      0.8494753      0.8341913
