#------------------------------------------------------------------------------
# Created by    : vladimir.rabinovich
# Created on    : 09/19/2023 17:20:33
#------------------------------------------------------------------------------
~Version Information Section
VERS.           2.0     :   CWLS log ASCII Standard - VERSION 2.0
WRAP.           NO      :   One line per depth step
~Well Information Section
#MNEM       .UNIT                                         VALUE :DESCRIPTION
#------------------------------------------------------------------------------
STRT        .FT                                             242 :START DEPTH
STOP        .FT                                            8116 :STOP DEPTH
STEP        .FT                                             0.5 :STEP      
NULL        .                                           -999.25 :NULL      
COMP        .                                       HUNT OIL CO :COMPANY   
WELL        .                                     ST TR 00005-L :WELL      
FLD         .                                           WILDCAT :FIELD     
LOC         .                                                   :LOCATION  
CNTY        .                           HIGH ISLAND LARGE BLOCK :LOCATION  
STAT        .                                             TEXAS :STATE     
CTRY        .                                     UNITED STATES :COUNTRY   
SRVC        .                                                   :SERVICE COMPANY
DATE        .                             9/13/2023 11:19:33 AM :LOG DATE  
API         .                                    42708000010000 :API NUMBER
UWI         .                                    42708000010000 :UNIQUE WELL ID
XCOORD      .                                  1328371.56215902 :SURFACE X 
YCOORD      .                                  10754892.1390607 :SURFACE Y 
LAT         .                                        29.6307718 :LATITUDE  
LON         .                                       -93.9824852 :LONGITUDE 
ELEV        .FT                                              11 :ELEVATION VALUE
ELEV_TYPE   .                                                KB :ELEVATION REFERENCE TYPE
~Curve Information Section
#MNEM       .UNIT                                      API CODE :CURVE DESCRIPTION
#------------------------------------------------------------------------------
DEPT        .FT                                                 :DEPTH     
ASN         .OHMM                                               :          
LAT         .OHMM                                               :          
LN          .OHMM                                               :          
SN          .OHMM                                               :          
SP          .MV                                                 :          
SP_NORM     .MV                                                 :SP Normalized
VSH_SP      .V/V                                                :Volume of Shale from SP
~A        DEPTH            ASN            LAT             LN             SN             SP        SP_NORM         VSH_SP
# ...
      4932.0000         0.4647         0.2844         0.3245         0.4024      -125.9128       -80.4873              0
      4932.5000          0.456         0.2921         0.3244         0.3882      -126.3149      -80.89365              0
      4933.0000         0.4467         0.2998         0.3243         0.3799       -126.767      -81.34999              0
      4933.5000         0.4363         0.3075         0.3202         0.3858      -126.9386      -81.52584              0
      4934.0000         0.4292         0.3151         0.3146         0.4015      -126.5626      -81.15408              0
      4934.5000         0.4322         0.3228         0.3091         0.4275      -124.4745      -79.07024              0
      4935.0000         0.4794         0.3305         0.3041         0.4535      -120.4269      -75.02689     0.01315019
      4935.5000         0.5167         0.3382         0.2991         0.4795      -118.4231      -73.02733     0.04017124
      4936.0000         0.5447         0.3459         0.2935         0.5061      -117.0935      -71.70198     0.05808134
      4936.5000         0.5634         0.3597         0.2878         0.5326      -115.6237      -70.23643     0.07788612
      4937.0000         0.5824         0.3776         0.2856         0.5536      -113.6376      -68.25458      0.1046679
      4937.5000         0.6029         0.3896           0.29         0.5714      -112.7218      -67.34302      0.1169863
      4938.0000         0.6212         0.3975         0.2944          0.586      -111.9797      -66.60516      0.1269573
      4938.5000         0.6094         0.3849         0.3002         0.5959      -112.9795      -67.60921       0.113389
      4939.0000         0.5157         0.3679         0.3061         0.5413      -113.8676      -68.50156      0.1013303
      4939.5000         0.4827         0.3549          0.312         0.4724      -114.6155      -69.25371     0.09116611
      4940.0000         0.4445         0.3419         0.3123         0.4368      -115.3634      -70.00586      0.0810019
      4940.5000         0.4087         0.3289         0.3122         0.4063      -116.1483        -70.795     0.07033786
      4941.0000         0.3911          0.316         0.3121         0.3873      -116.9718      -71.62275     0.05915204
      4941.5000         0.3826         0.3048          0.312         0.3797      -117.6085      -72.26369     0.05049061
      4942.0000         0.3777         0.2994         0.3119         0.3721      -118.0836      -72.74304     0.04401295
      4942.5000         0.3728         0.2941         0.3118         0.3641      -118.2709      -72.93459     0.04142452
      4943.0000         0.3685         0.2887         0.3117         0.3561      -118.4425      -73.11044     0.03904817
      4943.5000         0.3646         0.2843         0.3116         0.3481      -118.5365      -73.20868     0.03772055
      4944.0000         0.3609         0.2828         0.3106         0.3431      -118.6041      -73.28053     0.03674956
      4944.5000         0.3577         0.2814         0.3077         0.3382      -118.6719      -73.35258     0.03577598
      4945.0000         0.3549         0.2777         0.3047         0.3334      -118.7653      -73.45023     0.03445641
      4945.5000         0.3524         0.2748         0.3018         0.3288       -118.881      -73.57018     0.03283547
      4946.0000         0.3513         0.2853         0.2993         0.3254      -118.9967      -73.69012     0.03121464
      4946.5000          0.351         0.2958         0.2972         0.3221      -118.8931      -73.59077      0.0325572
      4947.0000         0.3557         0.3064         0.2952         0.3597      -118.7079      -73.40982     0.03500243
      4947.5000         0.3658         0.3218         0.2931         0.3996       -118.441      -73.14716     0.03855184
      4948.0000         0.3814         0.3396         0.2883         0.4396      -118.1394      -72.84981     0.04257017
      4948.5000         0.4609         0.3575         0.2834         0.4796       -117.838      -72.55266      0.0465857
      4949.0000         0.5405          0.376         0.2785         0.5287      -117.6697       -72.3886     0.04880266
      4949.5000           0.62         0.4097         0.2877         0.5884      -117.5325      -72.25565     0.05059928
      4950.0000         0.6996         0.4432         0.2974         0.6479      -117.6157      -72.34309     0.04941765
      4950.5000         0.7791         0.4669          0.306         0.7153      -117.6989      -72.43054     0.04823592
      4951.0000          0.797         0.4591         0.3142         0.7913       -117.922      -72.65789     0.04516364
      4951.5000         0.7237          0.435         0.3225         0.7082      -118.3287      -73.06883     0.03961037
      4952.0000         0.6503         0.4056         0.3264         0.5388      -118.7354      -73.47978       0.034057
      4952.5000          0.577          0.376         0.3289         0.4697      -119.0527      -73.80133     0.02971175
      4953.0000         0.5036         0.3514         0.3314         0.4297      -119.3228      -74.07568     0.02600428
      4953.5000         0.4303         0.3324         0.3298         0.3984      -119.5931      -74.35023     0.02229412
      4954.0000         0.3885         0.3134          0.328         0.3752      -119.6693      -74.43067     0.02120714
      4954.5000         0.3779         0.2943         0.3262         0.3548      -119.6458      -74.41142     0.02146726
      4955.0000         0.3695         0.2824         0.3244         0.3396      -119.4669      -74.23677     0.02382742
      4955.5000         0.3626         0.2734         0.3228         0.3244      -119.0939      -73.86802     0.02881055
      4956.0000         0.3564         0.2644         0.3212         0.3229      -118.7216      -73.49997      0.0337842
      4956.5000         0.3521         0.2554         0.3197         0.3218      -118.8564      -73.63901      0.0319053
      4957.0000         0.3482         0.2545         0.3182         0.3208      -118.9915      -73.77837     0.03002208
      4957.5000         0.3479         0.2566         0.3166         0.3199      -119.2614      -74.05251     0.02631749
      4958.0000         0.3476         0.2587         0.3168         0.3198      -119.5314      -74.32675     0.02261146
      4958.5000         0.3518          0.262         0.3174         0.3197      -119.8199      -74.61951     0.01865531
      4959.0000         0.3578         0.2676          0.318         0.3288      -120.1826      -74.98645     0.01369662
      4959.5000         0.3662         0.2732         0.3187         0.3382      -120.6875      -75.49559    0.006816349
      4960.0000         0.3757         0.2797         0.3193         0.3495      -121.1521      -75.96445   0.0004804457
      4960.5000         0.3852         0.2919         0.3228         0.3797      -121.5991      -76.41569              0
      4961.0000         0.3974         0.3042         0.3272           0.41      -122.1276      -76.94844              0
      4961.5000         0.4154         0.3164         0.3316         0.4415      -121.3468      -76.17189              0
      4962.0000         0.4424         0.3289          0.336         0.4754      -113.2649      -68.09423      0.1068347
      4962.5000         0.4721         0.3418         0.3404         0.5093      -103.5074      -58.34098      0.2386354
      4963.0000         0.5373         0.3547         0.3442         0.5356         -93.75      -48.58783      0.3704348
      4963.5000          0.569         0.3676          0.348         0.5542        -86.563      -41.40508       0.467499
      4964.0000         0.5944         0.3767         0.3518         0.5618       -85.4305      -40.27682      0.4827457
      4964.5000         0.6111         0.3842         0.3557         0.5585       -83.9406      -38.79116      0.5028221
      4965.0000         0.6069         0.3909         0.3596         0.5535       -81.2141      -36.06892      0.5396092
