#------------------------------------------------------------------------------
# Created by    : vladimir.rabinovich
# Created on    : 09/19/2023 17:20:30
#------------------------------------------------------------------------------
~Version Information Section
VERS.           2.0     :   CWLS log ASCII Standard - VERSION 2.0
WRAP.           NO      :   One line per depth step
~Well Information Section
#MNEM       .UNIT                                         VALUE :DESCRIPTION
#------------------------------------------------------------------------------
STRT        .FT                                             609 :START DEPTH
STOP        .FT                                           12866 :STOP DEPTH
STEP        .FT                                             0.5 :STEP      
NULL        .                                           -999.25 :NULL      
COMP        .                                        SUN OIL CO :COMPANY   
WELL        .                               OCS G01769 ST00BP00 :WELL      
FLD         .                                           WILDCAT :FIELD     
LOC         .                                                   :LOCATION  
CNTY        .                             GALVESTON LARGE BLOCK :LOCATION  
STAT        .                                             TEXAS :STATE     
CTRY        .                                     UNITED STATES :COUNTRY   
SRVC        .                                                   :SERVICE COMPANY
DATE        .                             9/13/2023 11:19:24 AM :LOG DATE  
API         .                                    42706001410000 :API NUMBER
UWI         .                                    42706001410000 :UNIQUE WELL ID
XCOORD      .                                  1110717.91749569 :SURFACE X 
YCOORD      .                                  10538856.4752018 :SURFACE Y 
LAT         .                                         29.029845 :LATITUDE  
LON         .                                        -94.657945 :LONGITUDE 
ELEV        .FT                                              65 :ELEVATION VALUE
ELEV_TYPE   .                                                KB :ELEVATION REFERENCE TYPE
~Curve Information Section
#MNEM       .UNIT                                      API CODE :CURVE DESCRIPTION
#------------------------------------------------------------------------------
DEPT        .FT                                                 :DEPTH     
ASN         .OHMM                                               :          
CALI        .IN                                                 :          
CILD        .MMHO                                               :          
DT          .US/F                                               :          
ILD         .OHMM                                               :          
SP          .MV                                                 :          
SP_NORM     .MV                                                 :SP Normalized
VSH_SP      .V/V                                                :Volume of Shale from SP
~A        DEPTH            ASN           CALI           CILD             DT            ILD             SP        SP_NORM         VSH_SP
# ...
      9577.0000         0.7025         9.8882       1991.172       117.6409         0.4935       -66.9237      -2.479256      0.9663805
      9577.5000         0.6982         9.7996       1975.279       118.9441         0.4793       -67.0243      -2.579857      0.9640942
      9578.0000         0.6939         9.9949       2022.586       119.0935         0.4659       -67.1472      -2.702759      0.9613009
      9578.5000         0.6874        10.0544       2083.711       119.0527         0.4564       -67.2701      -2.825661      0.9585077
      9579.0000         0.6712        10.0871       2144.938       119.9425         0.4469        -67.163      -2.718559      0.9609419
      9579.5000          0.655         9.7854       2206.066       120.7053         0.4375       -66.9977      -2.553261      0.9646986
      9580.0000          0.647         9.5471       2267.195       121.2792          0.428       -66.8322      -2.387756      0.9684601
      9580.5000         0.6395         9.4215        2328.32       120.7719         0.4214       -66.5387      -2.094254      0.9751306
      9581.0000          0.632         9.3317       2389.449       120.7213         0.4189        -66.132      -1.687561      0.9843736
      9581.5000         0.6257         9.2885       2442.852       121.2939         0.4164       -65.7252      -1.280754      0.9936192
      9582.0000         0.6208          9.278       2471.949       121.7151         0.4139       -65.3914     -0.9469604              1
      9582.5000         0.6159         9.2783       2494.883       122.0579         0.4114       -65.4084     -0.9639587              1
      9583.0000          0.611         9.2702       2516.133       122.4966         0.4089       -65.4255     -0.9810562              1
      9583.5000         0.6099         9.2557       2521.633       122.9205         0.4152       -65.4426     -0.9981537              1
      9584.0000         0.6116          9.227       2459.281       123.3728         0.4231       -65.4597      -1.015259      0.9996532
      9584.5000         0.6134         9.2291        2393.02       123.8795          0.431       -65.4769      -1.032455      0.9992624
      9585.0000          0.618         9.2877       2367.199       122.7404         0.4389        -65.524      -1.079559      0.9981918
      9585.5000         0.6248         9.4002       2329.301       120.5238         0.4468       -65.6233      -1.178856      0.9959351
      9586.0000         0.6317         9.5332       2260.445       119.2749         0.4547       -65.7223      -1.277855      0.9936851
      9586.5000         0.6385         9.7361       2207.633       118.8083         0.4664       -65.8215       -1.37706      0.9914305
      9587.0000         0.6454          9.868       2167.824        118.406         0.4914       -65.9208      -1.476357      0.9891737
      9587.5000         0.6524         9.6665       2132.664        119.302         0.5165       -66.0225      -1.578056      0.9868624
      9588.0000          0.675         9.4212       2097.453       116.6782         0.5415       -66.3424      -1.897957      0.9795919
      9588.5000         0.7111         9.2508       2059.703       111.8306         0.5665       -66.6624      -2.217957      0.9723192
      9589.0000          0.813         9.0502       2032.609       106.1239         0.5918       -66.9823      -2.537857      0.9650487
      9589.5000         0.8966          8.795       2019.875       102.0464         0.6196       -67.5657      -3.121254      0.9517897
      9590.0000          0.969         8.6579       2007.141        98.4426         0.6473       -68.3865      -3.942055      0.9331351
      9590.5000         1.0832         8.6087       1522.566        95.5548         0.6736       -70.1992      -5.754761      0.8919373
      9591.0000         1.2078         8.5862        1491.66        93.1532         0.6793       -73.6155      -9.171059      0.8142941
      9591.5000         1.3325         8.5865       1459.678        91.1984          0.685       -80.6449      -16.20045      0.6545351
      9592.0000         1.2749         8.5949       1424.859          90.29         0.6908       -88.8853      -24.44086      0.4672532
      9592.5000         1.1719         8.6111       1402.707        92.3164         0.6818        -96.786      -32.34156      0.2876918
      9593.0000         1.0689         8.6532       1459.336        96.0337         0.6706      -100.4534      -36.00896      0.2043419
      9593.5000         0.9659          8.795       1543.057        100.595         0.6478      -104.2438      -39.79935      0.1181965
      9594.0000         0.9208         9.0925       1638.514        109.698         0.6199       -103.973      -39.52856       0.124351
      9594.5000         0.8895         9.2573        1845.75       114.7432         0.5819      -102.9343      -38.48986      0.1479577
      9595.0000         0.8548         9.5233       2028.943       119.2947         0.5355      -101.1425      -36.69806      0.1886805
      9595.5000         0.8138         9.9023        2092.32       122.6515         0.4949       -99.3531      -34.90866      0.2293486
      9596.0000         0.6972        10.1569       2155.695       123.6067         0.4711       -97.5614      -33.11696      0.2700691
      9596.5000         0.6665         10.199       2218.977       124.5002         0.4473        -95.324      -30.87955      0.3209192
      9597.0000          0.648        10.1513       2282.355       123.7424         0.4235       -88.1765      -23.73206      0.4833624
      9597.5000         0.6441        10.1019        2345.73       122.3109         0.4037       -79.0992      -14.65475      0.6896647
      9598.0000         0.6402        10.0473        2389.77       121.9993         0.3853       -70.0417       -5.59726      0.8955168
      9598.5000         0.6364         9.9596       2375.441       121.5581         0.3668       -67.5756      -3.131157      0.9515646
      9599.0000         0.6353         9.9064       2364.313       120.9435         0.3484       -67.1915      -2.747055      0.9602942
      9599.5000         0.6363          9.849       2353.215       120.9225         0.3468       -66.8076      -2.363159      0.9690191
      9600.0000         0.6373         9.9516       2342.113       121.3036         0.3554        -66.423      -1.978554      0.9777601
      9600.5000         0.6383        10.0546       2331.012       122.2184          0.364       -66.0762       -1.63176      0.9856418
      9601.0000         0.6398         9.9303        2319.91       122.3943         0.3733       -66.0491       -1.60466      0.9862577
      9601.5000         0.6429         9.7833       2293.992       122.1385         0.3826        -66.022       -1.57756      0.9868736
      9602.0000         0.6461         9.8224       2257.902       120.3052         0.3919       -65.9949      -1.550461      0.9874895
      9602.5000         0.6493         9.9329        2227.73       119.1151         0.4013       -65.9679       -1.52346      0.9881032
      9603.0000         0.6524         9.9825       2197.996       118.5468         0.4106       -65.9408      -1.496361       0.988719
      9603.5000         0.6556        10.0962       2166.992       118.9064         0.4199       -65.9137      -1.469254      0.9893351
      9604.0000         0.6588        10.2046       2134.426       119.0448         0.4288       -65.8866      -1.442154      0.9899511
      9604.5000         0.6631        10.0746       2146.309       119.4739         0.4374       -65.8596      -1.415154      0.9905647
      9605.0000          0.668         9.9859        2123.52       120.3324         0.4459       -65.8629      -1.418457      0.9904896
      9605.5000         0.6729         9.9219       2093.492       118.9717         0.4545       -65.9302      -1.485756      0.9889601
      9606.0000         0.6778         9.9445       2066.109       117.7074         0.4631       -65.9973      -1.552856      0.9874351
