#------------------------------------------------------------------------------
# Created by    : vladimir.rabinovich
# Created on    : 09/19/2023 17:22:43
#------------------------------------------------------------------------------
~Version Information Section
VERS.           2.0     :   CWLS log ASCII Standard - VERSION 2.0
WRAP.           NO      :   One line per depth step
~Well Information Section
#MNEM       .UNIT                                         VALUE :DESCRIPTION
#------------------------------------------------------------------------------
STRT        .FT                                            3600 :START DEPTH
STOP        .FT                                            7940 :STOP DEPTH
STEP        .FT                                             0.5 :STEP      
NULL        .                                           -999.25 :NULL      
COMP        .                          SEAGULL ENERGY E & P INC :COMPANY   
WELL        .                               OCS G09015 ST00BP00 :WELL      
FLD         .                                 BRAZOS BLOCK 0431 :FIELD     
LOC         .                                                   :LOCATION  
CNTY        .                                BRAZOS LARGE BLOCK :LOCATION  
STAT        .                                             TEXAS :STATE     
CTRY        .                                     UNITED STATES :COUNTRY   
SRVC        .                                                   :SERVICE COMPANY
DATE        .                             9/13/2023 11:09:51 AM :LOG DATE  
API         .                                    42704402370000 :API NUMBER
UWI         .                                    42704402370000 :UNIQUE WELL ID
XCOORD      .                                  876086.487249857 :SURFACE X 
YCOORD      .                                  10366258.6106956 :SURFACE Y 
LAT         .                                        28.5443209 :LATITUDE  
LON         .                                       -95.3810825 :LONGITUDE 
ELEV        .FT                                              90 :ELEVATION VALUE
ELEV_TYPE   .                                                KB :ELEVATION REFERENCE TYPE
~Curve Information Section
#MNEM       .UNIT                                      API CODE :CURVE DESCRIPTION
#------------------------------------------------------------------------------
DEPT        .FT                                                 :DEPTH     
DCAL        .IN                                                 :          
DPHI        .%                                                  :          
GR          .GAPI                                               :          
GR_NORM     .GAPI                                               :GammaRay Normalized
ILD         .OHMM                                               :          
ILM         .OHMM                                               :          
NPHI        .%                                                  :          
SGRD        .OHMM                                               :          
SP          .MV                                                 :          
SP_NORM     .MV                                                 :SP Normalized
VSH_GR      .V/V                                                :Volume of Shale from GR
VSH_SP      .V/V                                                :Volume of Shale from SP
~A        DEPTH           DCAL           DPHI             GR        GR_NORM            ILD            ILM           NPHI           SGRD             SP        SP_NORM         VSH_GR         VSH_SP
# ...
      6777.5000         4.7918        22.0668        74.5045       76.18047         0.8925         0.8204        43.5253         0.8602       -44.1517       -3.74667      0.9187333      0.9240578
      6778.0000         4.8915        23.1273        75.5519        77.7024          0.855         0.8123        44.6675         0.8726       -43.8867       -3.48637      0.9511149      0.9353752
      6778.5000         5.1478        23.9635        79.6682       83.67282         0.8159         0.8082        45.3118         0.8885       -43.4731      -3.077469              1      0.9531536
      6779.0000         5.2193        24.5354        81.0897       85.73704         0.8063         0.8023        45.5389         0.8981       -42.9664      -2.575466              1      0.9749798
      6779.5000         5.2087        24.8412        80.8334       85.36917         0.8036         0.7971        45.8051          0.886       -42.5815      -2.195267              1      0.9915102
      6780.0000         5.1776        24.8349         79.788       83.85748         0.8036         0.7933        45.9972         0.8742       -41.9774      -1.595867              1              1
      6780.5000         5.1879        24.8286        78.0399        81.3272         0.8047         0.7895         46.093         0.8737       -41.8295       -1.45266              1              1
      6781.0000         5.2776        24.8198        76.4233        78.9875         0.8045         0.7857        46.1888         0.8731       -41.7432      -1.371059      0.9784575              1
      6781.5000         5.2401         24.682        75.3982       77.50526         0.8029         0.7819        46.2819         0.8726       -41.4465      -1.079056      0.9469203              1
      6782.0000         5.0543        24.1806        74.3795       76.03228         0.7995         0.7781        46.3337         0.8859        -40.944     -0.5812569      0.9155805              1
      6782.5000         4.7522        23.6451        73.5739       74.86816          0.796         0.7796        46.3818         0.8981       -40.3527    0.005344391       0.890812              1
      6783.0000         4.8361        23.3547        73.9249       75.38062         0.7926         0.7778        46.4099         0.8883       -40.3339     0.01944733      0.9017154              1
      6783.5000          5.036        23.3434        75.2731       77.33858         0.7892         0.7718        46.4822         0.8772       -40.6145     -0.2658501      0.9433742              1
      6784.0000         5.2416        23.5883        79.7489       83.83012         0.7856          0.765        46.6309         0.8736       -40.8896     -0.5456505              1              1
      6784.5000         5.3354        23.9683        84.3707       90.53331         0.7845         0.7617        46.8409         0.8678        -40.943     -0.6037483              1              1
      6785.0000         5.3079        23.8093        85.4164       92.05277         0.7878         0.7652        47.1802         0.8612       -40.7565     -0.4219475              1              1
      6785.5000         5.2563        23.3856        84.4449       90.64822         0.7849         0.7691        47.1609         0.8576       -40.4852     -0.1553421              1              1
      6786.0000         5.2528        22.7156        82.8973       88.40854         0.7837         0.7744         46.207         0.8607       -40.4481     -0.1229439              1              1
      6786.5000         5.2534        21.9362        81.4346       86.29195         0.7847         0.7765        45.3795         0.8755       -40.5544     -0.2339439              1              1
      6787.0000         5.3154        21.2081        80.8484       85.44589         0.7891         0.7771         44.653          0.882       -40.6743     -0.3585396              1              1
      6787.5000         5.3774        20.8417        82.1809       87.38107         0.7935          0.779        44.0082         0.8886       -40.7941     -0.4830399              1              1
      6788.0000         5.4394        20.6542        83.4823        89.2712         0.7955         0.7834        44.0978         0.8947       -40.6777     -0.3713379              1              1
      6788.5000         5.5239        20.9102        82.4167       87.73022         0.7971         0.7858         43.631         0.8933       -40.0883      0.2133675              1              1
      6789.0000         5.2792         21.442        80.4928       84.94508          0.797         0.7874        42.9998         0.8892       -39.7867      0.5102654              1              1
      6789.5000         5.2125        22.1725           78.6       82.20506         0.7985         0.7885        43.0193         0.8823       -39.7366      0.5556717              1              1
      6790.0000         5.0846        22.3572        76.4169        79.0442         0.8015         0.7876        43.4376         0.8779       -39.7746        0.51297      0.9796639              1
      6790.5000         5.1256        22.3981        74.9906       76.98038         0.7983          0.782        43.5693         0.8831       -39.9023      0.3805695      0.9357529              1
      6791.0000         5.2753        22.4391         74.877       76.81938         0.7947         0.7811        43.3046         0.8874       -40.0876      0.1905746      0.9323273              1
      6791.5000         5.4239        22.4416        74.3821       76.10567         0.7911         0.7827        42.5797         0.8895       -40.1034      0.1700745      0.9171419              1
      6792.0000         5.4737        22.3465         75.079       77.11953         0.7875         0.7865        42.5494         0.8909        -40.027      0.2417755      0.9387134              1
      6792.5000         5.2025        22.0896        76.8701       79.71948         0.7856         0.7908         42.519         0.8936       -39.9064      0.3576813      0.9940315              1
      6793.0000         4.9593        21.7068        77.3479       80.41573          0.792         0.7941        42.4888         0.8955       -39.7556      0.5037804              1              1
      6793.5000         4.9341        21.3091        78.5714       82.19292         0.7985         0.7973        42.9333         0.8971       -39.6048      0.6498833              1              1
      6794.0000          5.126        20.8721        79.4702       83.49944         0.8051         0.8006        43.0743         0.8998       -39.6234      0.6265831              1              1
      6794.5000         5.1524        20.7904        80.1683       84.51504         0.8117          0.805        42.5416         0.9024       -39.7295      0.5157852              1              1
      6795.0000         5.0613        20.9441        80.2974       84.70583         0.8183           0.81        42.0234         0.9051       -39.8966      0.3439903              1              1
      6795.5000         5.0696        20.8533        79.7594       83.92964          0.825         0.8128         41.748         0.9126       -40.1198      0.1160889              1              1
      6796.0000         5.1408        20.2598        80.9722       85.69131         0.8318         0.8154        41.6852         0.9201       -40.4289     -0.1977119              1              1
      6796.5000          5.218        19.6232         79.818       84.02192         0.8324         0.8186        41.7627          0.922       -40.6221      -0.395607              1              1
      6797.0000         5.1871        19.5555        80.1527       84.51073         0.8224         0.8199        41.9437         0.9146        -40.155     0.06679535              1              1
      6797.5000          5.159        19.7704        81.0607       85.83059         0.8165         0.8196         42.037          0.907       -39.9083      0.3087997              1              1
