#------------------------------------------------------------------------------
# Created by    : vladimir.rabinovich
# Created on    : 09/19/2023 17:22:46
#------------------------------------------------------------------------------
~Version Information Section
VERS.           2.0     :   CWLS log ASCII Standard - VERSION 2.0
WRAP.           NO      :   One line per depth step
~Well Information Section
#MNEM       .UNIT                                         VALUE :DESCRIPTION
#------------------------------------------------------------------------------
STRT        .FT                                             862 :START DEPTH
STOP        .FT                                           11792 :STOP DEPTH
STEP        .FT                                             0.5 :STEP      
NULL        .                                           -999.25 :NULL      
COMP        .                     FREEPORT-MCMORAN OIL & GAS CO :COMPANY   
WELL        .                               OCS G08155 ST00BP00 :WELL      
FLD         .                            HIGH ISLAND BLOCK 0262 :FIELD     
LOC         .                                                   :LOCATION  
CNTY        .                           HIGH ISLAND LARGE BLOCK :LOCATION  
STAT        .                                             TEXAS :STATE     
CTRY        .                                     UNITED STATES :COUNTRY   
SRVC        .                                                   :SERVICE COMPANY
DATE        .                             9/13/2023 11:19:59 AM :LOG DATE  
API         .                                    42708403380000 :API NUMBER
UWI         .                                    42708403380000 :UNIQUE WELL ID
XCOORD      .                                  1194111.75057656 :SURFACE X 
YCOORD      .                                  10524686.1808471 :SURFACE Y 
LAT         .                                         28.993839 :LATITUDE  
LON         .                                         -94.39647 :LONGITUDE 
ELEV        .FT                                              98 :ELEVATION VALUE
ELEV_TYPE   .                                                KB :ELEVATION REFERENCE TYPE
~Curve Information Section
#MNEM       .UNIT                                      API CODE :CURVE DESCRIPTION
#------------------------------------------------------------------------------
DEPT        .FT                                                 :DEPTH     
DT          .US/F                                               :          
GR          .GAPI                                               :          
GR_NORM     .GAPI                                               :GammaRay Normalized
ILD         .OHMM                                               :          
ILM         .OHMM                                               :          
SFL         .OHMM                                               :          
SP          .MV                                                 :          
SP_NORM     .MV                                                 :SP Normalized
VSH_GR      .V/V                                                :Volume of Shale from GR
VSH_SP      .V/V                                                :Volume of Shale from SP
~A        DEPTH             DT             GR        GR_NORM            ILD            ILM            SFL             SP        SP_NORM         VSH_GR         VSH_SP
# ...
      2356.5000        155.355        28.2532       48.38834         0.3669          0.441         0.4532       -95.4109        -15.103      0.3274115       0.257737
      2357.0000       156.5842        29.7281       50.35384         0.3684         0.4388         0.4422       -95.2654      -14.96147      0.3692307      0.2651857
      2357.5000       156.8494        30.7742       51.74396         0.3698         0.4381         0.4378       -95.1975      -14.89753      0.3988076      0.2685511
      2358.0000       156.0315         30.606       51.50463         0.3715          0.438         0.4335       -95.1296      -14.83359      0.3937156      0.2719164
      2358.5000       154.8362        30.7084       51.62842         0.3748         0.4378          0.431       -94.8916      -14.59956      0.3963493      0.2842339
      2359.0000       154.0276        31.5852       52.79135         0.3781         0.4381          0.429       -94.5315      -14.24342      0.4210926      0.3029781
      2359.5000       153.3682         31.894        53.1921         0.3804         0.4408         0.4324       -94.2191      -13.93497      0.4296193      0.3192119
      2360.0000       152.3528        30.2052       50.91232         0.3809         0.4436         0.4416       -94.3243      -14.04414      0.3811133      0.3134665
      2360.5000        154.052        26.5657       46.01495         0.3815         0.4464          0.456       -94.4634       -14.1872      0.2769139      0.3059367
      2361.0000       155.9033        24.8604       43.71304         0.3812         0.4476         0.4674       -94.7765      -14.50426      0.2279369      0.2892496
      2361.5000       156.3433        23.6993       42.14137         0.3792         0.4487         0.4656       -95.0897      -14.82142      0.1944971      0.2725569
      2362.0000       155.3242        23.4604       41.80717         0.3772         0.4493         0.4501       -95.3442      -15.07989      0.1873867      0.2589533
      2362.5000       153.8613         23.537       41.89634         0.3744         0.4491         0.4442       -95.5405      -15.28014      0.1892838      0.2484135
      2363.0000       153.1152         23.524       41.86528         0.3706         0.4489         0.4471       -95.7307       -15.4743       0.188623      0.2381945
      2363.5000       153.1023        23.3805        41.6591         0.3668         0.4483         0.4533       -95.8938      -15.64137      0.1842361      0.2294018
      2364.0000       154.9033        23.5915        41.9286          0.362         0.4474         0.4558       -96.0568      -15.80833      0.1899703       0.220614
      2364.5000       156.9607        25.6193       44.63603         0.3573         0.4465         0.4569       -96.2115        -15.967      0.2475751      0.2122634
      2365.0000       159.2324        27.9438       47.74159         0.3535         0.4448         0.4503       -96.3617      -16.12115      0.3136509      0.2041498
      2365.5000       160.4541        30.3533       50.96122         0.3517         0.4431         0.4437       -96.5118      -16.27522      0.3821537      0.1960409
      2366.0000       161.1711        32.6877       54.08006         0.3499         0.4414         0.4394       -96.4097      -16.17708       0.448512      0.2012064
      2366.5000       160.5146         35.065       57.25647         0.3488          0.439         0.4371       -96.2151      -15.98644      0.5160951      0.2112399
      2367.0000       158.5422        37.3461       60.30379          0.348         0.4366         0.4348       -95.7872       -15.5625      0.5809318      0.2335526
      2367.5000       156.1448        37.3636       60.31366         0.3472         0.4341         0.4346       -95.3671      -15.14637      0.5811418      0.2554542
      2368.0000       153.6255        34.3187       56.21417         0.3462         0.4309         0.4424       -95.1392      -14.92242      0.4939186      0.2672408
      2368.5000       152.2549        31.2385       52.06732          0.345         0.4277          0.456       -94.9115      -14.69868      0.4056877      0.2790166
      2369.0000       152.4253        28.1597       47.92234         0.3439         0.4246          0.461       -94.9506      -14.74175      0.3174967      0.2767498
      2369.5000       153.5156        25.0796       43.77561         0.3419         0.4212         0.4573       -95.1689      -14.96401      0.2292683       0.265052
      2370.0000       155.4683        23.3756       41.47543         0.3385         0.4178          0.442       -95.4641      -15.26318      0.1803284      0.2493065
      2370.5000       157.5554        22.2703       39.97865         0.3352         0.4144          0.428        -95.923      -15.72603      0.1484818      0.2249459
      2371.0000       158.8684        21.1906        38.5162         0.3318         0.4112         0.4182       -96.3821       -16.1891       0.117366      0.2005736
      2371.5000       159.5684        20.2909        37.2953         0.3285         0.4079         0.4149       -96.7646      -16.57556     0.09138935      0.1802336
      2372.0000       159.0933        20.7091       37.84285          0.325         0.4056         0.4155       -97.1433      -16.95822      0.1030394      0.1600936
      2372.5000       158.7778        21.8083       39.30422         0.3213         0.4049         0.4228       -97.4918      -17.31068      0.1341323      0.1415429
      2373.0000       159.0034         23.325       41.32581         0.3176         0.4042         0.4299       -97.7981      -17.62095      0.1771449      0.1252132
      2373.5000       159.5957        24.9065       43.43436         0.3165         0.4035         0.4371       -98.1041      -17.93091      0.2220078      0.1088996
      2374.0000       159.8252        26.1076       45.03247         0.3159          0.403         0.4433       -98.1963      -18.02706      0.2560099      0.1038389
      2374.5000       159.0391         26.024       44.90667         0.3155         0.4025         0.4445       -98.2805      -18.11523      0.2533334     0.09919819
      2375.0000       158.7007        24.9506       43.45268         0.3184          0.404         0.4458       -98.2273      -18.06599      0.2223974      0.1017898
      2375.5000       160.0903        24.4958       42.82877         0.3214          0.406         0.4433       -98.0659      -17.90855      0.2091228      0.1100761
      2376.0000        160.717        25.9549       44.77308         0.3245         0.4088         0.4406       -97.9038      -17.75042       0.250491       0.118399
      2376.5000       156.6846        27.6003       46.96738         0.3289         0.4125         0.4397        -97.739      -17.58958      0.2971782      0.1268644
      2377.0000       154.6072        29.0114       48.84727         0.3333         0.4163         0.4406       -97.5742      -17.42874       0.337176      0.1353294
      2377.5000       153.2861        29.4726       49.45252         0.3366         0.4201         0.4436       -97.5261       -17.3846      0.3500537      0.1376528
      2378.0000       152.5972        29.6565       49.68567          0.339          0.424         0.4491       -97.5728      -17.43526      0.3550142      0.1349861
      2378.5000       152.5205        29.3274       49.23044         0.3415          0.428         0.4541       -97.6227      -17.48913      0.3453285      0.1321512
      2379.0000       152.6724        28.9985       48.77548         0.3433         0.4309         0.4582        -97.819      -17.68938      0.3356485      0.1216113
      2379.5000       153.1714        27.6964        47.0146         0.3445         0.4337         0.4624       -98.0151      -17.88945       0.298183      0.1110816
      2380.0000       153.7219        26.5729       45.49339         0.3457         0.4364         0.4633       -98.1951      -18.07341      0.2658167      0.1013995
      2380.5000       154.6318        26.0586       44.78963         0.3469          0.439         0.4641        -98.358      -18.24027      0.2508432     0.09261724
