#------------------------------------------------------------------------------
# Created by    : vladimir.rabinovich
# Created on    : 09/19/2023 17:19:46
#------------------------------------------------------------------------------
~Version Information Section
VERS.           2.0     :   CWLS log ASCII Standard - VERSION 2.0
WRAP.           NO      :   One line per depth step
~Well Information Section
#MNEM       .UNIT                                         VALUE :DESCRIPTION
#------------------------------------------------------------------------------
STRT        .FT                                            3460 :START DEPTH
STOP        .FT                                           13634 :STOP DEPTH
STEP        .FT                                             0.5 :STEP      
NULL        .                                           -999.25 :NULL      
COMP        .                                SHELL OFFSHORE INC :COMPANY   
WELL        .                               OCS G06107 ST00BP00 :WELL      
FLD         .                                           WILDCAT :FIELD     
LOC         .                                                   :LOCATION  
CNTY        .                             GALVESTON LARGE BLOCK :LOCATION  
STAT        .                                             TEXAS :STATE     
CTRY        .                                     UNITED STATES :COUNTRY   
SRVC        .                                                   :SERVICE COMPANY
DATE        .                             9/13/2023 11:19:27 AM :LOG DATE  
API         .                                    42706401270000 :API NUMBER
UWI         .                                    42706401270000 :UNIQUE WELL ID
XCOORD      .                                  941908.785460496 :SURFACE X 
YCOORD      .                                  10441108.8632451 :SURFACE Y 
LAT         .                                         28.753553 :LATITUDE  
LON         .                                        -95.180411 :LONGITUDE 
ELEV        .FT                                              90 :ELEVATION VALUE
ELEV_TYPE   .                                                KB :ELEVATION REFERENCE TYPE
~Curve Information Section
#MNEM       .UNIT                                      API CODE :CURVE DESCRIPTION
#------------------------------------------------------------------------------
DEPT        .FT                                                 :DEPTH     
ASFL        .OHMM                                               :          
CALI        .IN                                                 :          
CILD        .MMHO                                               :          
DT          .US/F                                               :          
GR          .GAPI                                               :          
GR_1        .GAPI                                               :          
GR_NORM     .GAPI                                               :GammaRay Normalized
ILD         .OHMM                                               :          
ILM         .OHMM                                               :          
RHOB        .G/C3                                               :          
SP          .MV                                                 :          
VSH_GR      .V/V                                                :Volume of Shale from GR
~A        DEPTH           ASFL           CALI           CILD             DT             GR           GR_1        GR_NORM            ILD            ILM           RHOB             SP         VSH_GR
# ...
      8257.0000        -999.25        12.1675         2262.5       121.7139        -999.25        37.7435       78.52063         0.4548         0.4653         2.3268        -999.25       0.968524
      8257.5000        -999.25        12.1539       2293.488       121.7567        -999.25        36.8118       77.00714          0.449         0.4621         2.3326        -999.25      0.9363222
      8258.0000        -999.25        12.1358        2324.18       122.1235        -999.25        36.9881       77.29353         0.4437          0.459         2.3381        -999.25      0.9424154
      8258.5000        -999.25        12.1236       2352.195       122.8293        -999.25        38.6031       79.91699         0.4396         0.4559         2.3352        -999.25      0.9982339
      8259.0000        -999.25        12.1237        2370.27       123.9729        -999.25        40.2979       82.67006         0.4357          0.454         2.3274        -999.25              1
      8259.5000        -999.25         12.125       2383.613       125.4166        -999.25        40.5337       83.05311         0.4318         0.4548         2.3194        -999.25              1
      8260.0000        -999.25        12.1199       2394.078       127.3816        -999.25         39.226       80.92883         0.4279         0.4543         2.3166        -999.25              1
      8260.5000        -999.25          12.12       2403.336        128.594        -999.25        37.2545       77.72628         0.4271         0.4539         2.3138        -999.25       0.951623
      8261.0000        -999.25        12.1239       2396.586       129.0742        -999.25        36.5712       76.61629         0.4295         0.4534         2.3105        -999.25      0.9280063
      8261.5000        -999.25        12.1236       2370.418       128.8105        -999.25        36.6278       76.70824         0.4343         0.4557         2.3085        -999.25      0.9299626
      8262.0000        -999.25        12.1184       2327.281       127.3153        -999.25        37.1657       77.58202         0.4408         0.4593         2.3142        -999.25      0.9485535
      8262.5000        -999.25        12.1098       2276.863       125.2543        -999.25        36.4257       76.37995          0.449         0.4636          2.322        -999.25      0.9229777
      8263.0000        -999.25         12.101       2213.902       124.7882        -999.25        34.3591        73.0229         0.4606         0.4704         2.3309        -999.25      0.8515511
      8263.5000        -999.25        12.0932       2160.828       124.0468        -999.25        33.3351       71.35947         0.4747         0.4796         2.3349        -999.25       0.816159
      8264.0000        -999.25        12.0856       2119.266       121.6587        -999.25        34.5161       73.27792         0.4879         0.4914         2.3472        -999.25      0.8569771
      8264.5000        -999.25        12.0856       2086.902       117.5367        -999.25        36.2018       76.01624         0.4999         0.5065         2.3576        -999.25       0.915239
      8265.0000        -999.25        12.0825       2062.727       115.5927        -999.25        38.0781       79.06415         0.5074         0.5187         2.3667        -999.25      0.9800882
      8265.5000        -999.25         12.074       2053.117       115.4838        -999.25        38.7493       80.15447         0.5081         0.5259         2.3706        -999.25              1
      8266.0000        -999.25         12.055        2056.75       117.1974        -999.25        38.2646       79.36712         0.5042         0.5285         2.3616        -999.25      0.9865344
      8266.5000        -999.25        12.0357       2079.523       118.4603        -999.25        37.3677       77.91016         0.4989         0.5269         2.3512        -999.25      0.9555352
      8267.0000        -999.25        12.0226       2106.156       119.2965        -999.25        37.3234       77.83819         0.4951         0.5247         2.3465        -999.25       0.954004
      8267.5000        -999.25        12.0101       2126.793       120.1204        -999.25        37.8928       78.76315          0.495         0.5212         2.3418        -999.25      0.9736841
      8268.0000        -999.25        11.9888       2133.516       121.0635        -999.25         37.739       78.51331         0.4947         0.5172         2.3372        -999.25      0.9683684
      8268.5000        -999.25        11.9753       2125.512       120.3995        -999.25        35.6948       75.19265         0.4944         0.5153         2.3329        -999.25      0.8977159
      8269.0000        -999.25        11.9678       2103.574       119.0739        -999.25        34.4105       73.10639         0.4967         0.5182         2.3286        -999.25      0.8533275
      8269.5000        -999.25        11.9649       2051.684       117.5983        -999.25        33.2369       71.19995         0.4993          0.529         2.3286        -999.25      0.8127649
      8270.0000        -999.25        11.9708       2007.316       117.0658        -999.25        32.9647       70.75778         0.5034         0.5373         2.3297        -999.25      0.8033571
      8270.5000        -999.25        11.9795       1960.391       117.4792        -999.25        35.3834       74.68681         0.5137         0.5529         2.3317        -999.25      0.8869533
      8271.0000        -999.25        11.9806       1928.887       117.5697        -999.25        36.9662       77.25797         0.5265         0.5621         2.3383        -999.25      0.9416589
      8271.5000        -999.25        11.9806       1899.449       117.4919        -999.25        37.2422        77.7063         0.5409         0.5748          2.348        -999.25      0.9511979
      8272.0000        -999.25        11.9739       1878.703       117.0775        -999.25        36.0551       75.77792         0.5457         0.5906           2.36        -999.25      0.9101686
      8272.5000        -999.25        11.9716       1879.516       116.4904        -999.25        34.8474        73.8161         0.5462         0.5955         2.3695        -999.25      0.8684277
      8273.0000        -999.25        11.9658       1891.627       116.1826        -999.25         34.771       73.69199         0.5428         0.5927         2.3736        -999.25      0.8657871
      8273.5000        -999.25        11.9561       1948.193       116.3944        -999.25        34.9999       74.06383         0.5331         0.5778         2.3688        -999.25      0.8736985
      8274.0000        -999.25        11.9405       2001.512        117.495        -999.25        36.0307        75.7383         0.5225         0.5545         2.3581        -999.25      0.9093255
      8274.5000        -999.25         11.916       2054.879       118.8525        -999.25        36.2237       76.05181         0.5091         0.5364         2.3467        -999.25       0.915996
      8275.0000        -999.25        11.8955       2091.277       119.9027        -999.25        35.5475       74.95338         0.4946         0.5253         2.3361        -999.25       0.892625
      8275.5000        -999.25        11.9024       2123.742       120.7758        -999.25        35.5131       74.89748         0.4882         0.5126         2.3269        -999.25      0.8914358
      8276.0000        -999.25        11.9555       2150.574        120.955        -999.25        36.1632       75.95353         0.4836         0.4964          2.319        -999.25      0.9139049
      8276.5000        -999.25        12.0021       2158.949       120.5004        -999.25        37.5743       78.24576         0.4826         0.4926         2.3201        -999.25      0.9626757
      8277.0000        -999.25        12.0141       2153.082       119.5104        -999.25        36.8324       77.04059         0.4824         0.4882         2.3226        -999.25      0.9370338
