#------------------------------------------------------------------------------
# Created by    : vladimir.rabinovich
# Created on    : 09/19/2023 17:19:47
#------------------------------------------------------------------------------
~Version Information Section
VERS.           2.0     :   CWLS log ASCII Standard - VERSION 2.0
WRAP.           NO      :   One line per depth step
~Well Information Section
#MNEM       .UNIT                                         VALUE :DESCRIPTION
#------------------------------------------------------------------------------
STRT        .FT                                             970 :START DEPTH
STOP        .FT                                            9511 :STOP DEPTH
STEP        .FT                                             0.5 :STEP      
NULL        .                                           -999.25 :NULL      
COMP        .                                SHELL OFFSHORE INC :COMPANY   
WELL        .                               OCS G06097 ST00BP00 :WELL      
FLD         .                                           WILDCAT :FIELD     
LOC         .                                                   :LOCATION  
CNTY        .                             GALVESTON LARGE BLOCK :LOCATION  
STAT        .                                             TEXAS :STATE     
CTRY        .                                     UNITED STATES :COUNTRY   
SRVC        .                                                   :SERVICE COMPANY
DATE        .                             9/13/2023 11:19:27 AM :LOG DATE  
API         .                                    42706401130000 :API NUMBER
UWI         .                                    42706401130000 :UNIQUE WELL ID
XCOORD      .                                  1026820.46089783 :SURFACE X 
YCOORD      .                                  10482391.3243497 :SURFACE Y 
LAT         .                                         28.871086 :LATITUDE  
LON         .                                        -94.917566 :LONGITUDE 
ELEV        .FT                                             107 :ELEVATION VALUE
ELEV_TYPE   .                                                KB :ELEVATION REFERENCE TYPE
~Curve Information Section
#MNEM       .UNIT                                      API CODE :CURVE DESCRIPTION
#------------------------------------------------------------------------------
DEPT        .FT                                                 :DEPTH     
ASFL        .OHMM                                               :          
CALI        .IN                                                 :          
CILD        .MMHO                                               :          
DT          .US/F                                               :          
GR          .GAPI                                               :          
GR_NORM     .GAPI                                               :GammaRay Normalized
ILD         .OHMM                                               :          
ILM         .OHMM                                               :          
RHOB        .G/C3                                               :          
SP          .MV                                                 :          
SP_NORM     .MV                                                 :SP Normalized
VSH_GR      .V/V                                                :Volume of Shale from GR
VSH_SP      .V/V                                                :Volume of Shale from SP
~A        DEPTH           ASFL           CALI           CILD             DT             GR        GR_NORM            ILD            ILM           RHOB             SP        SP_NORM         VSH_GR         VSH_SP
# ...
      4960.0000         0.7859         9.5838       2120.895        90.5751        52.4137       65.74994         0.4495         0.5535         2.2494      -109.9055      -42.68347      0.6968072      0.3902361
      4960.5000         0.7834         9.6593       1988.105        96.6643        51.4849       63.29934         0.4502         0.5637         2.2645      -109.5735      -42.35271      0.6446669      0.3949613
      4961.0000         0.7809         9.7712       1939.533       110.2192        52.6514       66.37486         0.4509         0.5806         2.2788      -107.5454      -40.32584      0.7101035      0.4239165
      4961.5000         0.7866         9.9016       1858.617       123.4426        54.3572       70.87269         0.4516         0.5995         2.2944      -102.4479      -35.22957      0.8058019      0.4967205
      4962.0000         0.7926         9.9578       1830.422       123.3849        55.2701       73.27939         0.4523         0.6242          2.308      -102.6102       -35.3931      0.8570083      0.4943842
      4962.5000         0.8017         9.6776       1811.445       116.9114        53.8658       69.57468         0.4531         0.6565         2.3029      -104.3104      -37.09454      0.7781848       0.470078
      4963.0000         0.8228         9.4757       1800.164       109.8324        52.4627       65.87315         0.4538           0.68         2.2836      -106.1644      -38.94978      0.6994286      0.4435746
      4963.5000         0.8438         9.4964       1815.541       105.2631        51.0585       62.16872         0.4545         0.6867         2.2861      -107.1343      -39.92091      0.6206111      0.4297013
      4964.0000         0.8649         9.6313       1830.918       106.5818        51.7532       63.99994         0.4552         0.6691         2.2974      -107.8376      -40.62544      0.6595731      0.4196365
      4964.5000         0.8858         9.7437       1887.582       109.2421        53.4847       68.56556         0.4641         0.6433         2.2996      -107.8257      -40.61478       0.756714      0.4197889
      4965.0000         0.8894         9.7721       1971.277        110.939        55.2811       73.30236         0.4737         0.6265          2.284       -107.119      -39.90932       0.857497      0.4298669
      4965.5000         0.8588         9.6936        1990.07       110.2997        57.0579       77.98746         0.4833         0.6102         2.2614      -106.2551      -39.04664        0.95718      0.4421909
      4966.0000         0.8282         9.5865       1984.789       106.7828        57.9402       80.31342         0.4928         0.5972         2.2517      -105.0444      -37.83718              1      0.4594688
      4966.5000         0.8059         9.5487        1979.51       105.3158        57.3685       78.80462         0.5024         0.5854         2.2684      -102.9233      -35.71732      0.9745663      0.4897526
      4967.0000         0.7873         9.6655       1969.639       107.2751        56.4955       76.50117          0.512         0.5778         2.2824      -100.7017      -33.49695      0.9255568      0.5214722
      4967.5000         0.7716         9.8783        1951.67       112.1586        55.3473       73.47195         0.5236         0.5931         2.2955        -99.301      -32.09748      0.8611054      0.5414646
      4968.0000         0.7604        10.2395       1923.572       121.5386        54.1991        70.4427         0.5366         0.6226         2.3125        -99.662      -32.45972      0.7966531      0.5362898
      4968.5000         0.7511        10.6946        1858.99       129.4314        53.0595       67.43613         0.5496         0.6523         2.3281      -100.8291      -33.62805      0.7326835      0.5195993
      4969.0000         0.7538        10.9071       1718.207       134.7417         51.926       64.44566         0.5626         0.6813           2.35      -102.1005      -34.90068      0.6690565      0.5014188
      4969.5000         0.7807        11.0831       1592.863       139.6353        50.8954       61.72655         0.5756         0.7069         2.3495      -102.6096      -35.41101      0.6112031      0.4941284
      4970.0000          0.809        11.2099       1510.855       140.4741        49.8802       59.04808         0.5938         0.7318         2.3456      -102.7971      -35.59975      0.5542144      0.4914322
      4970.5000         0.8371        11.3775       1470.969       133.6917        48.8209       56.25329         0.6152          0.757         2.3589      -101.2262      -34.03008      0.4947509      0.5138559
      4971.0000         0.8644        11.5824       1444.932         112.46        47.7278       53.36936         0.6365          0.784         2.3811        -99.926      -32.73112      0.4333906      0.5324126
      4971.5000         0.8917        11.7132       1423.475        91.7709        47.4755       52.70295         0.6578         0.8156         2.3934       -99.1099      -31.91625      0.4192116      0.5440536
      4972.0000         0.9215        10.9633        1407.85        90.4985        48.3534       55.01732         0.6681          0.824         2.3843       -98.6438      -31.45139      0.4684536      0.5506945
      4972.5000         0.9516        10.3983       1397.408       101.2865        49.3257       57.58062         0.6767         0.8111          2.367       -98.4648      -31.27362       0.522992       0.553234
      4973.0000          0.966        10.1244       1389.203       110.2997        50.2981       60.14421         0.6854         0.7981         2.3532       -98.3911      -31.20115      0.5775364      0.5542693
      4973.5000         0.9802        10.0705       1389.887       118.8104         51.222       62.57988         0.6941         0.7867         2.3543       -98.3174      -31.12868      0.6293591      0.5553045
      4974.0000         0.9911         10.149       1393.742       120.3241        51.8801       64.31457         0.7028          0.781         2.3576       -98.1067      -30.91922      0.6662674      0.5582969
      4974.5000         0.9894        10.0743       1397.596       120.1029        52.3555       65.56735         0.7032         0.7805         2.3665       -97.7001      -30.51386      0.6929224      0.5640877
      4975.0000         0.9852         9.9777       1401.453       118.3733        52.8916       66.98024         0.7004         0.7818         2.3767       -96.8564      -29.67139      0.7229838      0.5761231
      4975.5000         0.9766         9.8865       1411.697       114.0552        53.4277       68.39315         0.6976         0.7821         2.3834       -95.5514      -28.36762      0.7530457      0.5947483
      4976.0000          0.968         9.8637       1435.377       112.7897        54.2432       70.54296         0.6948         0.7753         2.3855       -94.4675      -27.28496      0.7987864      0.6102149
      4976.5000         0.9512         9.9036       1470.721       114.8364        55.8093       74.67237          0.692         0.7601          2.368        -93.853      -26.67168      0.8866462      0.6189759
      4977.0000          0.931         10.059       1508.994       119.7324        57.4047       78.87902         0.6891         0.7391         2.3546        -93.496      -26.31593      0.9761494      0.6240582
      4977.5000         0.9106         9.9874       1541.336       123.3522        59.0406       83.19254         0.6861         0.7172         2.3373       -93.2484      -26.06956              1      0.6275778
      4978.0000           0.89         9.8863       1574.869       125.7339        60.6605       87.46381          0.683         0.6973         2.3329       -93.1929       -26.0153              1      0.6283529
      4978.5000         0.8696         9.7971       1609.865       123.3849        59.9614       85.61902           0.68         0.6803         2.3242       -93.1504      -25.97402              1      0.6289425
