#------------------------------------------------------------------------------
# Created by    : vladimir.rabinovich
# Created on    : 09/19/2023 17:20:38
#------------------------------------------------------------------------------
~Version Information Section
VERS.           2.0     :   CWLS log ASCII Standard - VERSION 2.0
WRAP.           NO      :   One line per depth step
~Well Information Section
#MNEM       .UNIT                                         VALUE :DESCRIPTION
#------------------------------------------------------------------------------
STRT        .FT                                             495 :START DEPTH
STOP        .FT                                            8683 :STOP DEPTH
STEP        .FT                                             0.5 :STEP      
NULL        .                                           -999.25 :NULL      
COMP        .                                      SHELL OIL CO :COMPANY   
WELL        .                                OCS 00706 ST00BP00 :WELL      
FLD         .                                           WILDCAT :FIELD     
LOC         .                                                   :LOCATION  
CNTY        .                             GALVESTON LARGE BLOCK :LOCATION  
STAT        .                                             TEXAS :STATE     
CTRY        .                                     UNITED STATES :COUNTRY   
SRVC        .                                                   :SERVICE COMPANY
DATE        .                             9/13/2023 11:19:25 AM :LOG DATE  
API         .                                    42706000290000 :API NUMBER
UWI         .                                    42706000290000 :UNIQUE WELL ID
XCOORD      .                                  1097630.70361638 :SURFACE X 
YCOORD      .                                  10500448.3193905 :SURFACE Y 
LAT         .                                          28.92371 :LATITUDE  
LON         .                                        -94.697168 :LONGITUDE 
ELEV        .FT                                              92 :ELEVATION VALUE
ELEV_TYPE   .                                                KB :ELEVATION REFERENCE TYPE
~Curve Information Section
#MNEM       .UNIT                                      API CODE :CURVE DESCRIPTION
#------------------------------------------------------------------------------
DEPT        .FT                                                 :DEPTH     
ASN         .OHMM                                               :          
CILD        .MMHO                                               :          
ILD         .OHMM                                               :          
SP          .MV                                                 :          
SP_NORM     .MV                                                 :SP Normalized
VSH_SP      .V/V                                                :Volume of Shale from SP
~A        DEPTH            ASN           CILD            ILD             SP        SP_NORM         VSH_SP
# ...
      4827.0000         0.7682       2088.316         0.7002       -53.9301      -10.54332      0.8508856
      4827.5000         0.7702       1994.328         0.7171       -57.7194      -14.33557      0.7916318
      4828.0000          0.781       1921.357         0.7334       -57.6885      -14.30762      0.7920685
      4828.5000         0.7935       1721.807         0.7467       -55.8986      -12.52067      0.8199896
      4829.0000         0.8412       1681.738         0.7599        -54.405      -11.03001      0.8432811
      4829.5000         0.8757       1632.652         0.7732       -54.5121      -11.14006      0.8415616
      4830.0000         0.8989       1588.559         0.7864       -55.6031      -12.23401      0.8244686
      4830.5000         0.9105       1551.943         0.7997       -56.9584      -13.59226       0.803246
      4831.0000         0.9186       1524.102          0.813         -57.95       -14.5868      0.7877062
      4831.5000          0.915       1500.109         0.8262       -57.7153      -14.35505      0.7913273
      4832.0000         0.9114       1480.646         0.8395       -56.6563        -13.299      0.8078281
      4832.5000         0.9077       1461.184         0.8528       -55.0506      -11.69625      0.8328711
      4833.0000         0.9041       1448.078          0.866       -51.2956      -7.944195       0.891497
      4833.5000         0.9005       1436.225          0.876       -49.9529      -6.604443      0.9124306
      4834.0000         0.8968       1424.381         0.8853       -49.0238      -5.678291      0.9269017
      4834.5000         0.8933       1417.465         0.8947       -47.9376      -4.595036      0.9438276
      4835.0000         0.8925       1414.027          0.904       -46.5701      -3.230484      0.9651487
      4835.5000         0.8917       1411.209         0.9133       -45.9139      -2.577232      0.9753557
      4836.0000         0.8914       1407.338         0.9202       -45.3002      -1.966484      0.9848987
      4836.5000         0.8986        1402.34         0.9231        -44.686      -1.355228      0.9944496
      4837.0000         0.9057       1394.242         0.9261       -44.9407      -1.612877      0.9904238
      4837.5000         0.9129       1377.111         0.9291       -45.4858      -2.160927      0.9818605
      4838.0000           0.92       1355.867          0.932       -45.9277      -2.605774      0.9749098
      4838.5000         0.9271       1326.311          0.935       -46.3697       -3.05072      0.9679575
      4839.0000         0.9342       1278.018          0.938       -46.8116      -3.495567      0.9610068
      4839.5000         0.9413       1236.756         0.9409        -46.709      -3.395916      0.9625638
      4840.0000         0.9473       1228.514         0.9439       -46.3603      -3.050159      0.9679663
      4840.5000          0.951       1220.273         0.9469       -46.0115      -2.704311      0.9733701
      4841.0000         0.9546       1212.037         0.9487       -45.6625      -2.358257      0.9787772
      4841.5000         0.9559       1207.543         0.9506       -45.3137      -2.012409      0.9841811
      4842.0000         0.9542       1211.938         0.9524        -44.965      -1.666653      0.9895836
      4842.5000         0.9526       1219.047         0.9543       -44.6445      -1.349102      0.9945453
      4843.0000         0.9509       1231.152         0.9561       -44.6335      -1.341049      0.9946711
      4843.5000         0.9492       1246.295          0.958       -44.6226      -1.333099      0.9947953
      4844.0000         0.9464       1262.326         0.9598       -44.6116      -1.325043      0.9949212
      4844.5000         0.9425       1275.246           0.96       -44.6006      -1.316994       0.995047
      4845.0000         0.9386       1283.367          0.953       -44.6393      -1.358643      0.9943962
      4845.5000         0.9347       1290.744          0.946       -44.7792      -1.501488      0.9921643
      4846.0000         0.9312       1299.525          0.939       -44.9191      -1.644337      0.9899322
      4846.5000         0.9344       1314.721          0.932       -44.9716      -1.699783      0.9890659
      4847.0000         0.9376       1329.918          0.925       -44.7042      -1.435333      0.9931979
      4847.5000         0.9409       1340.539         0.9188       -44.4365      -1.170578      0.9973347
      4848.0000         0.9441       1349.049         0.9151       -44.1691     -0.9061279              1
      4848.5000         0.9492        1351.75         0.9113       -43.9014     -0.6413765              1
      4849.0000         0.9544       1354.449         0.9075       -43.6339     -0.3768234              1
      4849.5000         0.9535        1357.15         0.9037       -43.2906    -0.03646851              1
      4850.0000         0.9376       1357.354         0.8999       -42.8705      0.3806839              1
      4850.5000         0.9135       1355.256         0.8962       -42.8862      0.3620338              1
      4851.0000         0.9236       1353.156         0.9067       -43.5231      -0.277813              1
      4851.5000         0.9564       1351.059         0.9183       -44.1936     -0.9512596              1
      4852.0000         0.9816       1339.055           0.93         -44.89      -1.650608      0.9898342
      4852.5000         0.9981       1326.211         0.9416       -45.5864      -2.349957      0.9789069
      4853.0000         1.0015       1313.875         0.9532       -46.7885      -3.555004      0.9600781
      4853.5000         1.0049       1303.736         0.9643       -50.5523      -7.321751      0.9012226
      4854.0000         1.0074       1293.598         0.9651       -51.0827      -7.855099      0.8928891
      4854.5000         1.0086       1284.314          0.966       -51.6132      -8.388546       0.884554
      4855.0000         1.0099       1284.012          0.965       -52.1497      -8.927994      0.8761251
      4855.5000         1.0107           1286         0.9587       -52.7932      -9.574444      0.8660243
      4856.0000         1.0091       1308.365         0.9525       -52.3708      -9.154991      0.8725783
      4856.5000         1.0075       1330.115         0.9462       -51.5261      -8.313236      0.8857307
      4857.0000          1.006       1346.873           0.94       -51.7968      -8.586884      0.8814549
      4857.5000         1.0011       1363.631         0.9337       -52.3079      -9.100933      0.8734229
      4858.0000         0.9954       1374.449         0.9275       -52.8191      -9.615082      0.8653893
      4858.5000         0.9715       1382.889         0.9212       -53.3302      -10.12913      0.8573574
      4859.0000         0.9547       1391.334         0.9147       -54.0658      -10.86768      0.8458176
      4859.5000         0.9416       1398.805         0.9077       -50.2711      -7.075924      0.9050637
      4860.0000         0.9297       1403.693         0.9007       -48.4835      -5.291271      0.9329489
      4860.5000         0.9181        1408.58         0.8937       -47.8549      -4.665619      0.9427247
      4861.0000         0.9096       1413.469         0.8867       -47.2257      -4.039368      0.9525099
      4861.5000         0.9026       1419.479         0.8797       -46.7843      -3.600918      0.9593607
      4862.0000         0.8957       1429.979         0.8727       -46.3975       -3.21706      0.9653584
      4862.5000         0.8933       1440.479         0.8657        -46.011      -2.833511      0.9713514
      4863.0000          0.891       1452.068         0.8587       -45.6616      -2.487057      0.9767647
      4863.5000         0.8886        1469.08         0.8514        -45.722      -2.550407      0.9757749
      4864.0000         0.8883       1489.752         0.8441       -46.7642      -3.595551      0.9594445
      4864.5000         0.8882       1513.898         0.8369       -47.8096      -4.643902       0.943064
