#------------------------------------------------------------------------------
# Created by    : vladimir.rabinovich
# Created on    : 09/19/2023 17:19:20
#------------------------------------------------------------------------------
~Version Information Section
VERS.           2.0     :   CWLS log ASCII Standard - VERSION 2.0
WRAP.           NO      :   One line per depth step
~Well Information Section
#MNEM       .UNIT                                         VALUE :DESCRIPTION
#------------------------------------------------------------------------------
STRT        .FT                                            4783 :START DEPTH
STOP        .FT                                            9473 :STOP DEPTH
STEP        .FT                                             0.5 :STEP      
NULL        .                                           -999.25 :NULL      
COMP        .                                   FOREST OIL CORP :COMPANY   
WELL        .                               OCS G20658 ST00BP00 :WELL      
FLD         .                            HIGH ISLAND BLOCK 0052 :FIELD     
LOC         .                                                   :LOCATION  
CNTY        .                           HIGH ISLAND LARGE BLOCK :LOCATION  
STAT        .                                             TEXAS :STATE     
CTRY        .                                     UNITED STATES :COUNTRY   
SRVC        .                                                   :SERVICE COMPANY
DATE        .                             9/13/2023 11:19:51 AM :LOG DATE  
API         .                                    42708405710000 :API NUMBER
UWI         .                                    42708405710000 :UNIQUE WELL ID
XCOORD      .                                  1254974.65209524 :SURFACE X 
YCOORD      .                                  10682885.5467737 :SURFACE Y 
LAT         .                                         29.430813 :LATITUDE  
LON         .                                        -94.211177 :LONGITUDE 
ELEV        .FT                                             108 :ELEVATION VALUE
ELEV_TYPE   .                                                KB :ELEVATION REFERENCE TYPE
~Curve Information Section
#MNEM       .UNIT                                      API CODE :CURVE DESCRIPTION
#------------------------------------------------------------------------------
DEPT        .FT                                                 :DEPTH     
A28H_COND   .MMHO                                               :          
A28H_UNC    .OHMM                                               :          
AHT10       .OHMM                                               :          
AHT20       .OHMM                                               :          
AHT30       .OHMM                                               :          
AHT60       .OHMM                                               :          
AHT90       .OHMM                                               :          
DCAL        .IN                                                 :          
DPHZ        .V/V                                                :          
DRHO        .G/CC                                               :          
DTCO        .US/F                                               :          
DTSM        .US/F                                               :          
GR          .GAPI                                               :          
GR_ARC_FIL  .GAPI                                               :          
GR_NORM     .GAPI                                               :GammaRay Normalized
GR1         .GAPI                                               :          
GRM1        .GAPI                                               :          
NPOR        .V/V                                                :          
P28H_UNC    .OHMM                                               :          
ROP5        .F/HR                                               :          
ROP5_RM     .F/HR                                               :          
SP          .MV                                                 :          
TENS        .LB                                                 :          
VSH_GR      .V/V                                                :Volume of Shale from GR
~A        DEPTH      A28H_COND       A28H_UNC          AHT10          AHT20          AHT30          AHT60          AHT90           DCAL           DPHZ           DRHO           DTCO           DTSM             GR     GR_ARC_FIL        GR_NORM            GR1           GRM1           NPOR       P28H_UNC           ROP5        ROP5_RM             SP           TENS         VSH_GR
# ...
      8479.0000        -999.25        -999.25         0.5936         0.5992         0.6011         0.6077         0.5972          0.869         0.2235         -0.005       122.5743          325.2        77.2508        -999.25       81.79333             74         86.079         0.4224        -999.25          38.04        -999.25         4.8994           2972              1
      8479.5000        -999.25        -999.25         0.6016         0.6036         0.6068         0.6126         0.6008         0.8921           0.22         -0.004       122.7723          324.6        77.9535        -999.25       85.68617           73.9         89.048         0.4254        -999.25         37.727        -999.25         5.0144           2990              1
      8480.0000        -999.25        -999.25         0.6156         0.6188         0.6215         0.6249         0.6156         0.8883         0.2142         -0.003       122.5743          323.6        79.2783        -999.25       83.44814           74.2         87.069         0.4278        -999.25         38.284        -999.25         4.9211           2990              1
      8480.5000        -999.25        -999.25           0.63         0.6338         0.6375         0.6383         0.6279         0.8767         0.2076         -0.003       122.3762          322.6        78.4057        -999.25       80.05762           76.3         91.026         0.4063        -999.25         38.352        -999.25         4.9736           3008              1
      8481.0000        -999.25        -999.25         0.6358         0.6417         0.6443         0.6445         0.6373          0.869         0.2046         -0.003       122.1782          321.8        77.2145        -999.25       80.93109           77.3         91.026         0.3915        -999.25         37.663        -999.25         4.5677           3026              1
      8481.5000        -999.25        -999.25          0.635         0.6401         0.6419         0.6422         0.6365         0.8883          0.207         -0.004       122.1782          321.8        76.1365        -999.25       82.19617           76.8         94.984         0.3903        -999.25         38.503        -999.25         4.2452           3044              1
      8482.0000        -999.25        -999.25         0.6289         0.6331         0.6363         0.6353         0.6321         0.9655         0.2136         -0.007       122.1782          322.8        75.8253        -999.25        79.7701           78.2         98.942         0.4022        -999.25         39.284        -999.25         4.0477           3044      0.9951084
      8482.5000        -999.25        -999.25         0.6221         0.6255         0.6292         0.6308         0.6259         1.0735         0.2166         -0.007       122.5743          323.8        76.6773        -999.25        82.5228           79.4         95.974         0.4158        -999.25         41.197        -999.25         3.9752           3062              1
      8483.0000        -999.25        -999.25         0.6215         0.6239         0.6272         0.6313         0.6244         1.0735         0.2166         -0.008       122.5743          325.4        78.0948        -999.25       80.50908           78.9         90.037         0.4224        -999.25         41.281        -999.25         4.8818           3080              1
      8483.5000        -999.25        -999.25         0.6214         0.6251         0.6288         0.6336         0.6259         0.9577         0.2154         -0.008       122.5743          325.6        79.8362        -999.25       82.38229           76.9         95.974         0.4242        -999.25         41.699        -999.25         5.7885           3044              1
      8484.0000        -999.25        -999.25         0.6214         0.6261         0.6295          0.633         0.6257         0.7879         0.2184         -0.007       122.5743          326.2        79.0924        -999.25       85.83986           74.8         95.974         0.4176        -999.25         50.862        -999.25          6.591           3026              1
      8484.5000        -999.25        -999.25         0.6228          0.626         0.6298         0.6313          0.625         0.7571         0.2172         -0.007       122.5743          325.2        76.5895        -999.25       82.20874           73.8         97.952          0.395        -999.25         51.439        -999.25         6.7476           2990              1
      8485.0000        -999.25        -999.25         0.6239         0.6264         0.6285         0.6276         0.6218         0.7879         0.2142         -0.006       122.5743          323.6        73.3452        -999.25       82.89475           74.4         93.995         0.3778        -999.25         50.672        -999.25         6.5501           2990              1
      8485.5000        -999.25        -999.25          0.638          0.641         0.6429         0.6403         0.6359         0.7532           0.21         -0.005       122.1782          321.4        71.5625        -999.25       85.11208           77.6        100.921         0.3636        -999.25         52.134        -999.25         6.4568           2990              1
      8486.0000        -999.25        -999.25         0.6536         0.6556         0.6591         0.6541          0.652         0.7378         0.2094         -0.004       122.1782       319.0099        70.7357        -999.25       82.06274           77.6         97.952         0.3766        -999.25         55.335        -999.25         6.1551           3008              1
      8486.5000        -999.25        -999.25         0.6405         0.6439         0.6465         0.6428         0.6383         0.7223         0.2112         -0.006       122.3762       317.0297        71.9446        -999.25       82.94331           76.2         93.005         0.3921        -999.25         55.049        -999.25         6.2493           3008              1
      8487.0000        -999.25        -999.25         0.6313         0.6332         0.6363         0.6342         0.6262         0.8072         0.2118         -0.009       122.5743       315.8416        74.6407        -999.25       82.86785           77.4         97.952         0.3962        -999.25         55.463        -999.25         6.0934           3026              1
      8487.5000        -999.25        -999.25         0.6338          0.637         0.6415         0.6391         0.6275         0.8651         0.2154         -0.007       122.7723       315.8416        79.4606        -999.25       83.85853           77.2         97.952         0.3861        -999.25         54.766        -999.25         6.0834           3026              1
      8488.0000        -999.25        -999.25         0.6343         0.6388         0.6434         0.6414         0.6308         0.9114         0.2208              0       123.1683       316.8317        83.0929        -999.25       82.67195           76.4         96.963         0.3867        -999.25         56.569        -999.25         5.9484           3044              1
      8488.5000        -999.25        -999.25          0.624         0.6261         0.6286         0.6281         0.6182          0.923         0.2244          0.005       123.5644       318.0198        85.3791        -999.25       80.86868           74.7         90.037         0.3904        -999.25         56.836        -999.25         5.7717           3062              1
      8489.0000        -999.25        -999.25         0.6157         0.6194           0.62         0.6187         0.6083         0.8999         0.2238           0.01       124.3564       319.4059        83.6845        -999.25        85.4227             73         90.037         0.3869        -999.25         56.485        -999.25         5.2825           3062              1
      8489.5000        -999.25        -999.25         0.6222         0.6275         0.6314         0.6299          0.617          0.923         0.2172          0.015       125.1485          321.6        81.1702        -999.25       80.29893           71.3         88.058         0.3821        -999.25         56.576        -999.25         4.7934           3044              1
