#------------------------------------------------------------------------------
# Created by    : vladimir.rabinovich
# Created on    : 09/19/2023 17:20:25
#------------------------------------------------------------------------------
~Version Information Section
VERS.           2.0     :   CWLS log ASCII Standard - VERSION 2.0
WRAP.           NO      :   One line per depth step
~Well Information Section
#MNEM       .UNIT                                         VALUE :DESCRIPTION
#------------------------------------------------------------------------------
STRT        .FT                                             396 :START DEPTH
STOP        .FT                                           11006 :STOP DEPTH
STEP        .FT                                             0.5 :STEP      
NULL        .                                           -999.25 :NULL      
COMP        .                                 CALIFORNIA CO THE :COMPANY   
WELL        .                                OCS 00507 ST00BP00 :WELL      
FLD         .                            HIGH ISLAND BLOCK 0052 :FIELD     
LOC         .                                                   :LOCATION  
CNTY        .                           HIGH ISLAND LARGE BLOCK :LOCATION  
STAT        .                                             TEXAS :STATE     
CTRY        .                                     UNITED STATES :COUNTRY   
SRVC        .                                                   :SERVICE COMPANY
DATE        .                             9/13/2023 11:19:15 AM :LOG DATE  
API         .                                    42708000170000 :API NUMBER
UWI         .                                    42708000170000 :UNIQUE WELL ID
XCOORD      .                                  1293108.02889945 :SURFACE X 
YCOORD      .                                   10685731.628563 :SURFACE Y 
LAT         .                                         29.439677 :LATITUDE  
LON         .                                        -94.091453 :LONGITUDE 
ELEV        .FT                                              70 :ELEVATION VALUE
ELEV_TYPE   .                                                KB :ELEVATION REFERENCE TYPE
~Curve Information Section
#MNEM       .UNIT                                      API CODE :CURVE DESCRIPTION
#------------------------------------------------------------------------------
DEPT        .FT                                                 :DEPTH     
ASN         .OHMM                                               :          
CILD        .MMHO                                               :          
ILM         .OHMM                                               :          
SP          .MV                                                 :          
SP_NORM     .MV                                                 :SP Normalized
VSH_SP      .V/V                                                :Volume of Shale from SP
~A        DEPTH            ASN           CILD            ILM             SP        SP_NORM         VSH_SP
# ...
      3930.0000           0.59       1683.447           0.48       -72.1213        -4.1968      0.9585509
      3930.5000         0.5921       1664.676         0.4824       -70.5659        -2.6414      0.9878981
      3931.0000         0.5941       1646.605         0.4848       -69.7729        -1.8484              1
      3931.5000         0.5956       1646.705         0.4872       -70.2649        -2.3404      0.9935774
      3932.0000          0.597       1659.869         0.4896       -70.7568        -2.8323      0.9842962
      3932.5000         0.5985       1710.793          0.492       -71.2488        -3.3243      0.9750132
      3933.0000         0.5999       1741.773         0.4946       -73.2412        -5.3167      0.9374207
      3933.5000         0.6013       1762.385         0.4981       -75.3582        -7.4337      0.8974773
      3934.0000         0.6027        1769.58         0.5016       -77.5914        -9.6669      0.8553415
      3934.5000          0.606        1750.25         0.5051       -80.2942       -12.3697      0.8043453
      3935.0000         0.6099       1730.922         0.5086       -82.9946       -15.0701      0.7533944
      3935.5000         0.6137       1711.604         0.5121       -85.8618       -17.9373      0.6992962
      3936.0000         0.6176       1679.777         0.5156       -89.2512       -21.3267      0.6353453
      3936.5000         0.6287       1623.574         0.5235       -92.6427       -24.7182      0.5713547
      3937.0000         0.6424       1548.447         0.5315       -95.6636       -27.7391      0.5143566
      3937.5000         0.6423       1467.779         0.5396       -95.5769       -27.6524      0.5159925
      3938.0000         0.6337       1432.844         0.5477       -93.3984       -25.4739      0.5570962
      3938.5000         0.6279       1397.799         0.5558       -90.8943       -22.9698      0.6043434
      3939.0000         0.6222       1362.031         0.5638       -88.3342       -20.4097      0.6526471
      3939.5000         0.6165       1367.352         0.5719       -85.7764       -17.8519      0.7009075
      3940.0000         0.6224        1380.42         0.5964       -83.3336       -15.4091      0.7469981
      3940.5000         0.6442       1398.949         0.6232       -81.0663       -13.1418      0.7897773
      3941.0000          0.666        1421.41         0.6501       -78.7991       -10.8746      0.8325547
      3941.5000         0.6914       1446.512         0.6769       -76.8381        -8.9136      0.8695547
      3942.0000         0.7394       1473.014         0.7041       -76.9448        -9.0203      0.8675415
      3942.5000         0.7873       1390.418         0.7315       -77.0516        -9.1271      0.8655264
      3943.0000         0.8164       1385.008         0.7589       -77.1583        -9.2338      0.8635132
      3943.5000         0.8395       1399.902         0.7847       -77.2651        -9.3406      0.8614981
      3944.0000         0.8473       1413.559          0.786       -77.3719        -9.4474       0.859483
      3944.5000         0.8347       1427.215         0.7872       -77.3772        -9.4527       0.859383
      3945.0000         0.8194       1439.125         0.7884        -77.337        -9.4125      0.8601415
      3945.5000         0.8041       1447.295         0.7896       -77.2969        -9.3724      0.8608981
      3946.0000         0.7888       1455.459         0.7909       -77.2567        -9.3322      0.8616566
      3946.5000         0.7724       1462.934         0.7921       -77.2166        -9.2921      0.8624132
      3947.0000         0.7519       1469.947         0.7864       -77.1764        -9.2519      0.8631717
      3947.5000         0.7314       1476.963         0.7755       -77.0104        -9.0859      0.8663037
      3948.0000         0.7109       1483.977         0.7645       -76.4927        -8.5682      0.8760717
      3948.5000          0.691       1497.678         0.7536       -75.9746        -8.0501      0.8858472
      3949.0000         0.6716       1512.615         0.7426       -75.4569        -7.5324      0.8956151
      3949.5000         0.6522       1527.553         0.7316       -74.9392        -7.0147       0.905383
      3950.0000         0.6328       1542.688         0.7188       -75.3396        -7.4151      0.8978283
      3950.5000         0.6163       1570.943         0.6996       -76.1611        -8.2366      0.8823283
      3951.0000         0.6008       1599.219         0.6805       -76.9833        -9.0588      0.8668151
      3951.5000         0.5852       1627.475         0.6613       -77.8053        -9.8808      0.8513057
      3952.0000         0.5715       1656.408         0.6422       -79.6426       -11.7181      0.8166396
      3952.5000         0.5592       1686.043         0.6231       -83.0232       -15.0987      0.7528547
      3953.0000         0.5468       1715.654         0.6039       -86.4059       -18.4814      0.6890302
      3953.5000         0.5324       1760.688         0.5848       -91.7411       -23.8166       0.588366
      3954.0000         0.5178       1754.992         0.5656       -97.5062       -29.5817      0.4795906
      3954.5000         0.5031       1690.686         0.5465      -103.8594       -35.9349      0.3597189
      3955.0000          0.488       1351.322         0.5276      -108.1942       -40.2697      0.2779302
      3955.5000         0.4728       1158.926          0.509      -111.4169       -43.4924      0.2171245
      3956.0000         0.4576       1036.314         0.4905      -114.1019       -46.1774      0.1664642
      3956.5000         0.4435       968.0645         0.4719      -115.4653       -47.5408      0.1407396
      3957.0000         0.4297       883.5625         0.4534        -116.83       -48.9055      0.1149906
      3957.5000         0.4159       797.3096         0.4299      -118.1945         -50.27     0.08924527
      3958.0000         0.4057       732.3008         0.4059      -118.7963       -50.8718     0.07789057
      3958.5000         0.3979       704.8135         0.3819      -119.1852       -51.2607     0.07055283
      3959.0000           0.39        698.877         0.3628      -119.5737       -51.6492     0.06322263
      3959.5000         0.3822       744.5674         0.3509      -119.6741       -51.7496     0.06132831
      3960.0000         0.3806       811.9404          0.339      -117.9465        -50.022     0.09392454
      3960.5000         0.3819       901.8301         0.3271      -115.9886       -48.0641      0.1308661
      3961.0000         0.3831       986.3311         0.3298      -113.0424       -45.1179      0.1864547
      3961.5000         0.3912       1056.771         0.3634      -110.0962       -42.1717      0.2420434
      3962.0000         0.4203       1101.803          0.397        -107.15       -39.2255      0.2976321
      3962.5000         0.4494       1146.814         0.4306      -102.5563       -34.6318      0.3843056
      3963.0000         0.4958       1183.982         0.4718       -97.4536       -29.5291       0.480583
      3963.5000         0.6162       1219.443         0.5667       -91.7104       -23.7859      0.5889453
      3964.0000         1.1769       1256.131         0.6617        -85.467       -17.5425      0.7067453
      3964.5000         1.3694       1300.135         0.7574       -82.6481       -14.7236       0.759932
      3965.0000         1.4002        1344.16         0.9144       -80.8799       -12.9554      0.7932943
      3965.5000         1.2861       1405.816         1.0588       -79.1117       -11.1872      0.8266566
      3966.0000         1.0834       1477.088         1.1029       -77.3435         -9.419      0.8600188
      3966.5000         1.0291       1543.541         1.0086       -76.1266        -8.2021      0.8829793
      3967.0000         0.9677       1596.459         0.8937       -75.4893        -7.5648      0.8950038
      3967.5000         0.9024       1643.594          0.785       -74.8525         -6.928      0.9070188
