#------------------------------------------------------------------------------
# Created by    : vladimir.rabinovich
# Created on    : 09/19/2023 17:21:45
#------------------------------------------------------------------------------
~Version Information Section
VERS.           2.0     :   CWLS log ASCII Standard - VERSION 2.0
WRAP.           NO      :   One line per depth step
~Well Information Section
#MNEM       .UNIT                                         VALUE :DESCRIPTION
#------------------------------------------------------------------------------
STRT        .FT                                            4296 :START DEPTH
STOP        .FT                                         10848.5 :STOP DEPTH
STEP        .FT                                             0.5 :STEP      
NULL        .                                           -999.25 :NULL      
COMP        .                                 CHEVRON U S A INC :COMPANY   
WELL        .                               OCS G07271 ST00BP00 :WELL      
FLD         .                                           WILDCAT :FIELD     
LOC         .                                                   :LOCATION  
CNTY        .                           HIGH ISLAND LARGE BLOCK :LOCATION  
STAT        .                                             TEXAS :STATE     
CTRY        .                                     UNITED STATES :COUNTRY   
SRVC        .                                                   :SERVICE COMPANY
DATE        .                             9/13/2023 11:19:59 AM :LOG DATE  
API         .                                    42708403180000 :API NUMBER
UWI         .                                    42708403180000 :UNIQUE WELL ID
XCOORD      .                                  1325118.04890174 :SURFACE X 
YCOORD      .                                  10672078.9744079 :SURFACE Y 
LAT         .                                          29.40291 :LATITUDE  
LON         .                                        -93.990507 :LONGITUDE 
ELEV        .FT                                              89 :ELEVATION VALUE
ELEV_TYPE   .                                                KB :ELEVATION REFERENCE TYPE
~Curve Information Section
#MNEM       .UNIT                                      API CODE :CURVE DESCRIPTION
#------------------------------------------------------------------------------
DEPT        .FT                                                 :DEPTH     
CALI        .IN                                                 :          
DRHO        .G/C3                                               :          
DTLN        .US/F                                               :          
GR          .GAPI                                               :          
GR_1        .GAPI                                               :          
GR_NORM     .GAPI                                               :GammaRay Normalized
ILD         .OHMM                                               :          
ILM         .OHMM                                               :          
NPHI        .%                                                  :          
RHOB        .G/C3                                               :          
SFL         .OHMM                                               :          
SP          .MV                                                 :          
SP_NORM     .MV                                                 :SP Normalized
VSH_GR      .V/V                                                :Volume of Shale from GR
VSH_SP      .V/V                                                :Volume of Shale from SP
~A        DEPTH           CALI           DRHO           DTLN             GR           GR_1        GR_NORM            ILD            ILM           NPHI           RHOB            SFL             SP        SP_NORM         VSH_GR         VSH_SP
# ...
      5809.0000        15.2338         0.0002       113.2719        44.1456        59.7004       78.19999         0.6565          0.601        43.7922         2.1721         0.5414       -28.8788      -2.463703      0.9617019      0.9648042
      5809.5000        15.1876        -0.0028       110.7301        43.4354        60.5751       79.34879          0.655           0.61        43.5789         2.1734         0.5597       -28.5199      -2.104803      0.9861445      0.9699314
      5810.0000        15.3871         -0.006       110.2312        42.2269        60.8147        79.6635         0.6623          0.628        42.9143         2.1856         0.5993       -28.1917      -1.776604      0.9928404      0.9746199
      5810.5000        15.5809        -0.0056       109.7795        40.8668        60.0016       78.59557         0.6797         0.6562         41.709         2.2046         0.6388       -27.9302      -1.515104      0.9701186      0.9783556
      5811.0000        15.7326        -0.0043       108.3575        40.5892        57.9404       75.88845         0.7051         0.6849         40.526         2.2179         0.6806        -27.756      -1.340904      0.9125202      0.9808442
      5811.5000        15.6964        -0.0021       106.9263        41.4493        54.9001       71.89542         0.7348         0.7074        39.0687          2.234         0.7242       -28.4619      -2.046804      0.8275622      0.9707599
      5812.0000        15.3684         0.0002       106.4724        42.6479        53.1431       69.58784         0.7646         0.7221        37.9013         2.2505         0.7862       -28.7277      -2.312603      0.7784646      0.9669628
      5812.5000        15.2326         0.0013       107.9919        43.7795        52.6309       68.91512         0.7866         0.7262        37.6856         2.2636          0.848       -28.9519      -2.536804      0.7641516        0.96376
      5813.0000        15.1265         0.0018       111.2623        44.7843        53.6191         70.213          0.802          0.722        38.4046         2.2672         0.8242       -29.4011      -2.986004      0.7917659      0.9573428
      5813.5000        15.0715        -0.0013       115.7191        45.6774        54.9908       72.01455         0.8034         0.7185        41.1827         2.2484         0.7521       -29.6473      -3.232204      0.8300968      0.9538257
      5814.0000        15.0848        -0.0043       118.5319        46.5592        54.3124       71.12356         0.7986         0.7119        42.8891         2.2213         0.6898       -29.6473      -3.232204      0.8111395      0.9538257
      5814.5000        15.1411         -0.003       114.7292        46.9427        51.9825       68.06353         0.7904          0.707        44.2678         2.2005         0.6531       -29.6033      -3.188204      0.7460325      0.9544542
      5815.0000         15.302        -0.0015       106.6565        46.0872        50.6697       66.33934          0.773          0.703        43.5518         2.1961         0.6551       -29.5877      -3.172604      0.7093477      0.9546771
      5815.5000        15.4132         0.0027       102.6947        43.2603        49.8452       65.25647         0.7403         0.7035         42.308         2.2286         0.6956       -29.5877      -3.172604      0.6863078      0.9546771
      5816.0000        15.4617         0.0075       103.5974         40.488        50.2985       65.85181         0.6962         0.6901        40.7188         2.2848         0.7434       -29.5956      -3.180504      0.6989748      0.9545642
      5816.5000        15.4407          0.008       107.5966        38.7751        50.2537       65.79298         0.6558         0.6666        41.7787         2.3093         0.7708       -29.6301      -3.215004      0.6977229      0.9540713
      5817.0000        15.3315         0.0077       112.6899        40.0557        49.6838       65.04449         0.6153         0.6288         43.027         2.2856         0.6876       -29.7672      -3.352104      0.6817976      0.9521128
      5817.5000        15.1985         0.0059        115.938        42.1846        49.3004       64.54094         0.5689         0.5947        43.8765          2.268         0.6052       -30.0483      -3.633204      0.6710838      0.9480971
      5818.0000        15.1913          0.003       113.7668        43.0454        50.6285       66.28523         0.5281         0.5683        45.0832         2.2653         0.5402       -30.5444      -4.129303      0.7081965      0.9410099
      5818.5000        15.3201        -0.0004       110.3223        42.0729        49.6587       65.01152         0.5021         0.5455        46.1802         2.2772         0.5279       -31.4545      -5.039404      0.6810962      0.9280085
      5819.0000        15.5687        -0.0047       109.0614        40.4482        46.6381       61.04436         0.4842         0.5356        46.3593         2.2928         0.5534       -33.3474      -6.932304      0.5966886      0.9009671
      5819.5000         15.925        -0.0085       109.2827        38.9167         44.743        58.5554          0.477         0.5336        46.0383         2.2975         0.6057       -35.5478      -9.132702      0.5437319      0.8695328
      5820.0000         16.113        -0.0114       110.7227        39.0024        44.7363        58.5466         0.4862         0.5375        45.3953         2.3044         0.6529       -37.5432      -11.12811      0.5435446      0.8410271
      5820.5000        16.2875        -0.0111       112.2982        39.6285        46.7706       61.21838         0.5067         0.5482        44.4724         2.3177         0.6764       -39.0024       -12.5873      0.6003911      0.8201814
      5821.0000        16.4449        -0.0074       112.9705        39.8135        48.0134       62.85064          0.542         0.5698        43.7082          2.336         0.6836        -39.076       -12.6609      0.6351201      0.8191299
      5821.5000        16.3333        -0.0033       112.9708        39.5769        49.0158       64.16717         0.5809         0.5943        43.1271         2.3424         0.6922       -37.7593       -11.3442      0.6631312      0.8379399
      5822.0000        15.7605         0.0001         112.33        38.7317        47.6097       62.32044         0.6153         0.6217        42.9697         2.3349         0.7087       -35.8552      -9.440105      0.6238391      0.8651413
      5822.5000         15.591        -0.0023       112.2056        37.9976        45.8602       60.02269         0.6427         0.6565         43.365         2.3222         0.7198       -33.9213      -7.506203      0.5749509      0.8927686
      5823.0000        15.4854        -0.0058        112.345        37.5325        47.1374       61.70013          0.669         0.6853        43.9891          2.307         0.7148       -32.5281      -6.113003       0.610641      0.9126714
      5823.5000        15.4427        -0.0108       112.4989        37.7411        48.0657       62.91933         0.6907         0.7079        43.9587         2.2951         0.7063       -31.9659      -5.550804      0.6365814      0.9207028
      5824.0000         15.457        -0.0146       112.9772        38.2516        47.9288       62.73952         0.7092         0.7222        42.7823         2.2855         0.7047        -31.722      -5.306904      0.6327558      0.9241871
      5824.5000         15.456        -0.0168       114.0776        38.7068        47.0356       61.56643         0.7239         0.7252        40.8922         2.2839         0.7082       -31.7173      -5.302204      0.6077963      0.9242542
      5825.0000        15.4233         -0.019       115.7688        39.0757        46.6757       61.09374         0.7357         0.7252        40.0509         2.2929         0.7106       -31.9846      -5.569504      0.5977391      0.9204357
      5825.5000        15.3899        -0.0161       117.3542        39.2756        46.7471       61.18752         0.7383         0.7207        39.7807         2.3046         0.7087       -32.4513      -6.036205      0.5997344      0.9137685
