#------------------------------------------------------------------------------
# Created by    : vladimir.rabinovich
# Created on    : 09/19/2023 17:19:55
#------------------------------------------------------------------------------
~Version Information Section
VERS.           2.0     :   CWLS log ASCII Standard - VERSION 2.0
WRAP.           NO      :   One line per depth step
~Well Information Section
#MNEM       .UNIT                                         VALUE :DESCRIPTION
#------------------------------------------------------------------------------
STRT        .FT                                            1601 :START DEPTH
STOP        .FT                                            6340 :STOP DEPTH
STEP        .FT                                             0.5 :STEP      
NULL        .                                           -999.25 :NULL      
COMP        .                 FAIRWAYS OFFSHORE EXPLORATION INC :COMPANY   
WELL        .                                ST TR 00629-L SE/4 :WELL      
FLD         .                                       BLOCK 630-L :FIELD     
LOC         .                                                   :LOCATION  
CNTY        .                      MATAGORDA ISLAND LARGE BLOCK :LOCATION  
STAT        .                                             TEXAS :STATE     
CTRY        .                                     UNITED STATES :COUNTRY   
SRVC        .                                                   :SERVICE COMPANY
DATE        .                             9/13/2023 11:19:05 AM :LOG DATE  
API         .                                    42703302840100 :API NUMBER
UWI         .                                    42703302840100 :UNIQUE WELL ID
XCOORD      .                                  449566.970470722 :SURFACE X 
YCOORD      .                                  10204940.3648147 :SURFACE Y 
LAT         .                                        28.0716107 :LATITUDE  
LON         .                                       -96.6925833 :LONGITUDE 
ELEV        .FT                                              82 :ELEVATION VALUE
ELEV_TYPE   .                                                KB :ELEVATION REFERENCE TYPE
~Curve Information Section
#MNEM       .UNIT                                      API CODE :CURVE DESCRIPTION
#------------------------------------------------------------------------------
DEPT        .FT                                                 :DEPTH     
ASFL        .OHMM                                               :          
CILD        .MMHO                                               :          
GR          .GAPI                                               :          
GR_NORM     .GAPI                                               :GammaRay Normalized
ILD         .OHMM                                               :          
SP          .MV                                                 :          
SP_NORM     .MV                                                 :SP Normalized
VSH_GR      .V/V                                                :Volume of Shale from GR
VSH_SP      .V/V                                                :Volume of Shale from SP
~A        DEPTH           ASFL           CILD             GR        GR_NORM            ILD             SP        SP_NORM         VSH_GR         VSH_SP
# ...
      4118.5000         0.9292       1112.852        63.7943       76.19189         1.0168       -43.4531     -0.4489479      0.9189763              1
      4119.0000         0.9294       1118.557        62.3566       74.56265         0.9914       -42.7848      0.2147522      0.8843117              1
      4119.5000         0.9373        1113.67        60.9803       73.00292         0.9768       -42.3816      0.6133537       0.851126              1
      4120.0000         0.9429       1108.775        60.2478       72.17178         0.9623       -41.9784       1.011955      0.8334422              1
      4120.5000         0.9348       1102.412        62.6198       74.85413         0.9511       -41.8248       1.160961      0.8905133              1
      4121.0000         0.9267       1096.057        73.9923       87.72264         0.9442       -41.6837       1.297462              1              1
      4121.5000         0.9156       1090.426         76.252       90.27789         0.9373        -41.506       1.470566              1              1
      4122.0000         0.8952       1094.258        77.5592       91.75516         0.9304        -41.328        1.64397              1              1
      4122.5000         0.8573       1098.086        76.3562       90.39155         0.9304       -41.1501       1.817268              1              1
      4123.0000         0.8376       1100.268        75.0575       88.91964         0.9309       -40.8508       2.111973              1              1
      4123.5000         0.8481       1093.531        73.8756       87.57991         0.9314       -40.4907       2.467476              1              1
      4124.0000         0.8589       1086.795        72.7471       86.30061         0.9319       -40.1304       2.823177              1              1
      4124.5000         0.8747       1074.381        71.6737       85.08368         0.9324       -39.9151       3.033882              1              1
      4125.0000         0.8904       1058.443        69.2446       82.33245         0.9348       -39.7132       3.231186              1              1
      4125.5000         0.9062       1042.506        66.1786       78.86042         0.9422       -39.9668       2.972984      0.9757536              1
      4126.0000         0.9209        1026.58        68.1284       81.06495         0.9497       -40.3635        2.57169              1              1
      4126.5000         0.9353       1014.082        69.7623       82.91194         0.9571       -40.7601        2.17049              1              1
      4127.0000         0.9492       1005.053        70.8915       84.18777         0.9647       -41.8465       1.079494              1              1
      4127.5000         0.9391       996.0166        71.8488       85.26904         0.9733       -43.2817      -0.360302              1              1
      4128.0000         0.9224       983.4258        72.3761       85.86368         0.9818       -45.0248      -2.107998              1      0.9812204
      4128.5000         0.9024       968.0645         71.877        85.2967         0.9915       -47.0175      -4.105301              1      0.9473678
      4129.0000         0.8868       952.6914        70.7021       83.96489          1.025       -49.8383      -6.930695              1      0.8994797
      4129.5000         0.9538       884.7715        68.9417       81.97046         1.0585       -54.2731      -11.37009              1      0.8242357
      4130.0000         1.0228       712.2031        63.6527       75.98258         1.1404       -55.7543      -12.85589       0.914523      0.7990527
      4130.5000         1.1044       593.4307        58.2446       69.85992         1.2723       -57.2355      -14.34169      0.7842535      0.7738698
      4131.0000          1.213       484.9565        34.7048         43.217         1.4338       -58.6968      -15.80758      0.2173829       0.749024
      4131.5000         1.7663       389.2319        33.6489       42.01987         2.0649       -60.0475      -17.16288      0.1919121      0.7260528
      4132.0000          1.845       325.6777        32.5992       40.82976         2.7817       -61.3996      -18.51958      0.1665907      0.7030579
      4132.5000         1.9237       293.8755        31.5911       39.68673         3.0005       -62.8348      -19.95938      0.1422708      0.6786546
      4133.0000         3.0449       266.0952        30.6909       38.66581         3.2228       -65.2161      -22.34528      0.1205491      0.6382157
      4133.5000         3.5919       239.7119        29.8665       37.73067         3.5227        -67.282      -24.41577      0.1006527      0.6031226
      4134.0000         4.9825       244.4258        29.3224       37.11277         3.6404       -69.0525      -26.19086     0.08750567      0.5730362
      4134.5000         5.4437       252.9771        28.8258       36.54861         3.7753        -70.222      -27.36497     0.07550243      0.5531362
      4135.0000         5.9443       262.7544        28.2339       35.87661         3.9289       -71.3922      -28.53976     0.06120446      0.5332244
      4135.5000         6.4266       272.5312        27.5064       35.05114         3.8111        -72.797      -29.94916     0.04364135      0.5093363
      4136.0000         7.0592       282.3022        26.5423        33.9579         3.6933       -74.3899      -31.54666     0.02038079        0.48226
      4136.5000         6.8113       292.0796        25.5677       32.85278         3.5989        -76.061      -33.22235              0      0.4538585
      4137.0000         6.6457       303.5977         24.788       31.96824          3.506       -77.5447      -34.71065              0       0.428633
      4137.5000         6.4498       315.8145        24.2036       31.30472         3.3624       -78.6316      -35.80215              0       0.410133
      4138.0000         6.2355       328.0435        23.7159       30.75064         3.2079       -79.7261      -36.90125              0      0.3915043
      4138.5000         6.0151       341.6152        23.2746       30.24907         2.9917       -81.1514      -38.33114              0      0.3672688
      4139.0000         5.7891       355.6035        23.0082       29.94545         2.7486       -82.3718      -39.55614              0       0.346506
      4139.5000         3.3614       370.7319        22.8638       29.77989         2.5036       -83.3082      -40.49714              0       0.330557
      4140.0000         2.0762       428.3652        22.9097        29.8297         2.3242       -83.8734      -41.06693              0      0.3208995
      4140.5000         2.0177       515.9492        22.9556       29.87952         2.1146       -84.4338      -41.63194              0      0.3113231
      4141.0000         1.7312       663.3604        23.5353       30.53345         1.9223       -84.6388      -41.84153              0      0.3077706
      4141.5000         1.4269       752.8564        24.6334       31.77407         1.7713       -81.7336      -38.94093              0      0.3569335
      4142.0000          1.501       824.4541        30.4141       38.31416         1.6531       -74.8654      -32.07733      0.1130671      0.4732656
      4142.5000         1.1316        919.541         39.527        48.6254          1.545       -67.8433      -25.05982      0.3324553      0.5922064
      4143.0000         1.0439       1034.781        44.1679       53.87553         1.4118       -63.8331      -21.05422      0.4441603       0.660098
      4143.5000          1.013        1296.92        47.9993       58.20952         1.0701        -58.842      -16.06772      0.5363727       0.744615
      4144.0000         0.9616       1338.064        52.1349       62.88779         0.9139       -48.8228      -6.053116      0.6359105       0.914354
      4144.5000         0.8913       1360.941        54.0841       65.09164         0.8393       -43.7845      -1.019413      0.6828009       0.999671
