#------------------------------------------------------------------------------
# Created by    : vladimir.rabinovich
# Created on    : 09/19/2023 17:19:46
#------------------------------------------------------------------------------
~Version Information Section
VERS.           2.0     :   CWLS log ASCII Standard - VERSION 2.0
WRAP.           NO      :   One line per depth step
~Well Information Section
#MNEM       .UNIT                                         VALUE :DESCRIPTION
#------------------------------------------------------------------------------
STRT        .FT                                             290 :START DEPTH
STOP        .FT                                         11377.5 :STOP DEPTH
STEP        .FT                                             0.5 :STEP      
NULL        .                                           -999.25 :NULL      
COMP        .                         SONAT EXPLORATION GOM INC :COMPANY   
WELL        .                               OCS G04571 ST00BP00 :WELL      
FLD         .                                           WILDCAT :FIELD     
LOC         .                                                   :LOCATION  
CNTY        .                           HIGH ISLAND LARGE BLOCK :LOCATION  
STAT        .                                             TEXAS :STATE     
CTRY        .                                     UNITED STATES :COUNTRY   
SRVC        .                                                   :SERVICE COMPANY
DATE        .                             9/13/2023 11:19:19 AM :LOG DATE  
API         .                                    42708401190000 :API NUMBER
UWI         .                                    42708401190000 :UNIQUE WELL ID
XCOORD      .                                  1324427.25220013 :SURFACE X 
YCOORD      .                                  10679041.7751219 :SURFACE Y 
LAT         .                                         29.422046 :LATITUDE  
LON         .                                        -93.992863 :LONGITUDE 
ELEV        .FT                                             116 :ELEVATION VALUE
ELEV_TYPE   .                                                KB :ELEVATION REFERENCE TYPE
~Curve Information Section
#MNEM       .UNIT                                      API CODE :CURVE DESCRIPTION
#------------------------------------------------------------------------------
DEPT        .FT                                                 :DEPTH     
ASFL        .OHMM                                               :          
CALI        .IN                                                 :          
CILD        .MMHO                                               :          
GR          .GAPI                                               :          
GR_NORM     .GAPI                                               :GammaRay Normalized
ILD         .OHMM                                               :          
RHOB        .G/C3                                               :          
SP          .MV                                                 :          
SP_NORM     .GAPI                                               :SP Normalized
VSH_GR      .V/V                                                :Volume of Shale from GR
VSH_SP      .V/V                                                :Volume of Shale from SP
~A        DEPTH           ASFL           CALI           CILD             GR        GR_NORM            ILD           RHOB             SP        SP_NORM         VSH_GR         VSH_SP
# ...
      3260.0000         0.6327        -999.25       1971.918        65.7476       76.79039         0.4973        -999.25       -53.3261      -19.26373      0.9317104      0.6147255
      3260.5000          0.652        -999.25       1940.152        64.5093       75.20383         0.4947        -999.25       -53.4561       -19.4663      0.8979537       0.610674
      3261.0000         0.6695        -999.25       1925.273        63.2359       73.57228         0.4921        -999.25       -54.7543      -21.48925        0.86324       0.570215
      3261.5000         0.6551        -999.25       1946.947        61.9117       71.87566         0.4895        -999.25       -56.4546      -24.13878      0.8271416      0.5172244
      3262.0000         0.6098        -999.25       2053.723        60.5876       70.17915         0.4869        -999.25       -56.7922      -24.66485      0.7910457       0.506703
      3262.5000         0.5644        -999.25       2255.285        58.9762       68.11454         0.4843        -999.25       -56.3187      -23.92701      0.7471179      0.5214598
      3263.0000          0.543        -999.25       2331.586        57.1819        65.8156         0.4817        -999.25       -55.8454      -23.18948      0.6982042      0.5362104
      3263.5000          0.523        -999.25       2399.887        57.1942       65.83135         0.4757        -999.25       -55.2421      -22.24937      0.6985394      0.5550125
      3264.0000         0.5126        -999.25       2452.102        58.4788       67.47726         0.4687        -999.25       -54.5944      -21.24008      0.7335587      0.5751984
      3264.5000         0.5129        -999.25       2487.055        59.4915       68.77477         0.4617        -999.25       -53.9466      -20.23064      0.7611652      0.5953872
      3265.0000         0.5152        -999.25       2511.648        60.4907         70.055         0.4547        -999.25       -53.2985      -19.22072      0.7884043      0.6155856
      3265.5000         0.5193        -999.25       2518.145        60.0028       69.42987         0.4476        -999.25       -52.4604      -17.91473      0.7751036      0.6417053
      3266.0000         0.5233        -999.25       2485.891        59.4112       68.67188         0.4406        -999.25       -53.4669      -19.48313      0.7589762      0.6103373
      3266.5000         0.5263        -999.25       2453.664        58.8196       67.91389         0.4336        -999.25       -54.5074      -21.10451      0.7428488      0.5779097
      3267.0000         0.5293        -999.25       2392.891         58.228       67.15591         0.4266        -999.25       -54.3997      -20.93669      0.7267214      0.5812662
      3267.5000         0.5323        -999.25        2293.91        56.6554       65.14101         0.4196        -999.25       -54.2913      -20.76777      0.6838514      0.5846445
      3268.0000         0.5353        -999.25       2187.633        54.2111       62.00926         0.4126        -999.25       -54.1785        -20.592      0.6172183        0.58816
      3268.5000         0.5382        -999.25       2175.203        51.6752       58.76014         0.4055        -999.25         -55.99      -23.41481      0.5480881      0.5317038
      3269.0000         0.5412        -999.25       2237.648        48.9763       55.30217         0.3992        -999.25       -58.9839      -28.08011      0.4745142      0.4383978
      3269.5000         0.5442        -999.25       2327.637        46.2206       51.77143         0.3948        -999.25       -60.6686      -30.70533      0.3993922      0.3858933
      3270.0000         0.5472        -999.25       2417.625        41.4208       45.62169         0.3903        -999.25       -61.4891      -31.98389      0.2685465      0.3603221
      3270.5000         0.5501        -999.25       2693.887        45.4717        50.8119         0.3859        -999.25       -61.4496      -31.92234      0.3789766      0.3615531
      3271.0000         0.5526        -999.25       2767.336        48.5475       54.75277         0.3814        -999.25       -60.5574      -30.53205      0.4628249       0.389359
      3271.5000         0.5543        -999.25       2747.539        51.6234       58.69377          0.377        -999.25       -59.6826      -29.16887       0.546676      0.4166225
      3272.0000         0.5559        -999.25       2727.113        52.9333       60.37208         0.3726        -999.25       -58.8078       -27.8057      0.5823846      0.4438859
      3272.5000         0.5576        -999.25       2700.832        49.2742       55.68386         0.3681        -999.25       -58.2224      -26.89349      0.4826353      0.4621302
      3273.0000         0.5592        -999.25       2694.512        46.4702       52.09122         0.3637        -999.25       -61.0214      -31.25509      0.4061963      0.3748982
      3273.5000         0.5608        -999.25       2713.535        43.6662        48.4986         0.3593        -999.25       -63.7953      -35.57758      0.3297575      0.2884484
      3274.0000         0.5625        -999.25       2732.574        40.8672       44.91238         0.3548        -999.25       -65.1483      -37.68592       0.253455      0.2462817
      3274.5000         0.5641        -999.25       2751.598        38.2412       41.54782         0.3504        -999.25       -66.0127      -39.03289      0.1818685      0.2193421
      3275.0000         0.5652        -999.25       2770.621        35.6152       38.18326         0.3462        -999.25       -66.1215      -39.20243      0.1102821      0.2159515
      3275.5000         0.5664        -999.25       2881.758        34.0797        36.2159         0.3426        -999.25       -65.6805      -38.51522     0.06842341      0.2296955
      3276.0000         0.5675        -999.25       2976.195        33.9123       36.00142         0.3389        -999.25       -62.6512      -33.79476     0.06385998      0.3241048
      3276.5000         0.5687        -999.25       3032.957         35.436       37.95366         0.3353        -999.25       -61.0875       -31.3581      0.1053971      0.3728381
      3277.0000         0.5629        -999.25       3088.992        36.9591       39.90513         0.3317        -999.25       -59.5603       -28.9783      0.1469177       0.420434
      3277.5000         0.5571        -999.25       3036.555        38.5909       41.99588          0.328        -999.25       -58.9097      -27.96449      0.1914017      0.4407102
      3278.0000          0.551        -999.25       2946.715        40.3321       44.22679         0.3244        -999.25       -58.7261      -27.67839      0.2388679      0.4464321
      3278.5000         0.5448        -999.25       2856.875        42.0745       46.45924         0.3208        -999.25       -58.5426      -27.39245      0.2863668      0.4521511
      3279.0000         0.5386        -999.25       2767.039        43.8157       48.69015         0.3171        -999.25       -59.2192      -28.44677       0.333833      0.4310645
      3279.5000         0.5324        -999.25       2686.742        45.5582       50.92273         0.3148        -999.25       -60.3604      -30.22507      0.3813348      0.3954985
      3280.0000         0.5263        -999.25       2609.195        46.9534       52.71033         0.3147        -999.25       -61.0748       -31.3383      0.4193687       0.373234
      3280.5000         0.5191        -999.25       2525.352        48.2206       54.33393         0.3146        -999.25       -61.5815      -32.12788      0.4539134      0.3574424
      3281.0000          0.512        -999.25       2434.266        49.4886       55.95856         0.3146        -999.25       -63.1763      -34.61301      0.4884799      0.3077398
      3281.5000         0.4879        -999.25       2520.957        48.5352       54.73701         0.3145        -999.25       -66.3518       -39.5613      0.4624896       0.208774
      3282.0000         0.4828        -999.25       2607.645        46.4554       52.07227         0.3144        -999.25       -68.6897      -43.20438      0.4057929      0.1359125
