#------------------------------------------------------------------------------
# Created by    : vladimir.rabinovich
# Created on    : 09/19/2023 17:20:40
#------------------------------------------------------------------------------
~Version Information Section
VERS.           2.0     :   CWLS log ASCII Standard - VERSION 2.0
WRAP.           NO      :   One line per depth step
~Well Information Section
#MNEM       .UNIT                                         VALUE :DESCRIPTION
#------------------------------------------------------------------------------
STRT        .FT                                             546 :START DEPTH
STOP        .FT                                            8737 :STOP DEPTH
STEP        .FT                                             0.5 :STEP      
NULL        .                                           -999.25 :NULL      
COMP        .                                      SHELL OIL CO :COMPANY   
WELL        .                                OCS 00702 ST00BP00 :WELL      
FLD         .                                           WILDCAT :FIELD     
LOC         .                                                   :LOCATION  
CNTY        .                             GALVESTON LARGE BLOCK :LOCATION  
STAT        .                                             TEXAS :STATE     
CTRY        .                                     UNITED STATES :COUNTRY   
SRVC        .                                                   :SERVICE COMPANY
DATE        .                             9/13/2023 11:19:42 AM :LOG DATE  
API         .                                    42706000140000 :API NUMBER
UWI         .                                    42706000140000 :UNIQUE WELL ID
XCOORD      .                                  1138683.88536091 :SURFACE X 
YCOORD      .                                  10533063.1188688 :SURFACE Y 
LAT         .                                         29.014964 :LATITUDE  
LON         .                                        -94.570199 :LONGITUDE 
ELEV        .FT                                              72 :ELEVATION VALUE
ELEV_TYPE   .                                                KB :ELEVATION REFERENCE TYPE
~Curve Information Section
#MNEM       .UNIT                                      API CODE :CURVE DESCRIPTION
#------------------------------------------------------------------------------
DEPT        .FT                                                 :DEPTH     
ASN         .OHMM                                               :          
CILD        .MMHO                                               :          
ILD         .OHMM                                               :          
SP          .MV                                                 :          
SP_NORM     .MV                                                 :SP Normalized
VSH_SP      .V/V                                                :Volume of Shale from SP
~A        DEPTH            ASN           CILD            ILD             SP        SP_NORM         VSH_SP
# ...
      6550.0000         0.8362       1210.014         0.9011       -43.5656     -0.9013977              1
      6550.5000         0.8494       1189.754         0.9136       -43.5543     -0.8909912              1
      6551.0000         0.8627       1170.572         0.9261       -43.6921       -1.02969              1
      6551.5000         0.8706       1159.885         0.9356       -43.8299      -1.168385              1
      6552.0000         0.8715       1149.197         0.9403       -43.9676       -1.30698              1
      6552.5000          0.867       1142.689         0.9451       -44.1118      -1.452076              1
      6553.0000         0.8625       1142.734         0.9499        -44.258      -1.599171              1
      6553.5000         0.8632       1142.781         0.9547       -44.4043      -1.746368              1
      6554.0000         0.8661       1142.828         0.9594       -44.5505      -1.893463              1
      6554.5000          0.869       1146.695         0.9642       -44.6885      -2.032356              1
      6555.0000         0.8668       1151.465          0.969       -44.7677      -2.112453              1
      6555.5000         0.8581        1156.24         0.9737       -44.8468      -2.192451              1
      6556.0000         0.8486       1161.016         0.9718       -44.9259      -2.272446              1
      6556.5000         0.8368       1165.787         0.9644       -44.8872      -2.234642              1
      6557.0000         0.8221        1174.74          0.957       -44.7309      -2.079235              1
      6557.5000         0.8045       1183.768         0.9496       -44.5744      -1.923634              1
      6558.0000         0.7979       1192.785         0.9422       -44.4181      -1.768227              1
      6558.5000         0.7915       1202.682         0.9289       -44.2617      -1.612724              1
      6559.0000         0.7853       1215.275          0.913       -43.8899      -1.241821              1
      6559.5000         0.7791       1235.871         0.8972       -43.4361     -0.7889137              1
      6560.0000         0.7706       1278.979         0.8813       -43.2682     -0.6219101              1
      6560.5000         0.7732       1382.045         0.8555       -43.1892      -0.543808              1
      6561.0000         0.7778       1479.049         0.8243       -43.9127      -1.268204              1
      6561.5000         0.7837       1575.963         0.7932       -44.7925      -2.148899              1
      6562.0000         0.7884       1672.967         0.7621       -45.9675      -3.324791      0.9898503
      6562.5000           0.79       1769.971          0.723       -47.3284      -4.686588      0.9472941
      6563.0000         0.7703       1866.975         0.6838       -49.5447      -6.903786      0.8780067
      6563.5000         0.7447       1963.891         0.6445       -52.0215      -9.381481      0.8005787
      6564.0000         0.6937       2138.289          0.619        -55.024      -12.38488      0.7067226
      6564.5000         0.6758       2238.859         0.5989       -56.7023      -14.06407      0.6542478
      6565.0000         0.6723       2306.262         0.5788       -58.0722      -15.43487      0.6114104
      6565.5000         0.6694       2341.523         0.5876       -59.4587      -16.82226      0.5680543
      6566.0000         0.6674       2297.391         0.6027       -60.9644      -18.32886      0.5209731
      6566.5000         0.6653       2249.426         0.6204       -63.0515      -20.41685      0.4557233
      6567.0000         0.6655       2207.074         0.6381       -62.8107      -20.17695      0.4632204
      6567.5000         0.6671       2124.293         0.6558        -61.734      -19.10115      0.4968392
      6568.0000         0.6687       2039.324         0.6735       -60.4276      -17.79564      0.5376362
      6568.5000         0.6722       2030.246         0.6913       -58.9676      -16.33654      0.5832331
      6569.0000         0.6516       2030.906          0.709       -58.0555      -15.42533      0.6117083
      6569.5000         0.6147       2030.354         0.7267       -57.1445      -14.51523      0.6401491
      6570.0000         0.5976       2029.803         0.7217        -55.876      -13.24762      0.6797618
      6570.5000         0.6234       2029.252         0.7133       -54.2043      -11.57682      0.7319744
      6571.0000          0.648       2028.699          0.705       -52.7092      -10.08262      0.7786682
      6571.5000         0.6696       2027.699         0.6891       -52.9428      -10.31711      0.7713403
      6572.0000         0.6883       2026.066         0.6637       -54.3513      -11.72651      0.7272967
      6572.5000         0.7017       2024.434         0.6383       -56.9351       -14.3112      0.6465249
      6573.0000         0.6847       2135.523         0.6128       -58.6647       -16.0417      0.5924469
      6573.5000         0.6668       2324.496         0.5913       -59.3841        -16.762      0.5699376
      6574.0000         0.6496       2371.703         0.5763       -59.3411      -16.71989      0.5712534
      6574.5000         0.6421       2447.578         0.5613       -59.2662      -16.64589      0.5735661
      6575.0000         0.6346        2502.59         0.5463       -59.1915      -16.57208      0.5758724
      6575.5000         0.6342       2538.789         0.5398         -59.17      -16.55148      0.5765164
      6576.0000         0.6441       2561.234         0.5507       -59.6246      -17.00697      0.5622821
      6576.5000         0.6539       2569.727         0.5616       -60.3809      -17.76417      0.5386198
      6577.0000         0.6637       2450.789         0.5726       -61.1382      -18.52236      0.5149262
      6577.5000         0.6735       2344.156         0.5849        -61.774      -19.15906      0.4950294
      6578.0000         0.6815       2237.344         0.6082       -62.3855      -19.77146      0.4758919
      6578.5000         0.6845       2135.348         0.6315       -62.9824      -20.36925      0.4572109
      6579.0000         0.6749         2034.6         0.6548       -63.5031      -20.89085      0.4409111
      6579.5000         0.6652       2002.904         0.6781       -62.6105      -19.99914      0.4687768
      6580.0000         0.6705       1713.268         0.7014       -51.2503      -8.639839       0.823755
      6580.5000         0.6855       1605.564         0.7248       -51.5184      -8.908833       0.815349
      6581.0000         0.7005       1553.764         0.7558       -51.7868      -9.178131      0.8069334
      6581.5000         0.7155       1501.963         0.7898       -51.9903      -9.382523      0.8005462
      6582.0000         0.7395       1457.518         0.8239       -51.1539       -8.54702      0.8266556
      6582.5000         0.7678       1340.764          0.858       -50.3165      -7.710518      0.8527963
      6583.0000         0.7976       1277.641         0.8873       -49.4789      -6.873814      0.8789433
      6583.5000         0.8282       1215.275         0.9074       -48.7383      -6.134109      0.9020591
      6584.0000         0.8404       1180.637         0.9275        -48.142        -5.5387      0.9206656
      6584.5000         0.8522       1151.348         0.9476       -47.5456      -4.943199       0.939275
      6585.0000         0.8557       1134.063         0.9677       -46.9487      -4.347195      0.9579002
      6585.5000         0.8544       1126.863         0.9878       -46.5605      -3.959892      0.9700034
      6586.0000         0.8523       1119.826         1.0023       -46.2634      -3.663689      0.9792597
      6586.5000         0.8595       1112.787         1.0058       -45.9661      -3.367279      0.9885225
      6587.0000         0.8686       1105.744         1.0093        -45.669      -3.071075      0.9977789
      6587.5000         0.8773       1097.039         1.0128       -45.5009      -2.903873              1
