#------------------------------------------------------------------------------
# Created by    : vladimir.rabinovich
# Created on    : 09/19/2023 17:20:28
#------------------------------------------------------------------------------
~Version Information Section
VERS.           2.0     :   CWLS log ASCII Standard - VERSION 2.0
WRAP.           NO      :   One line per depth step
~Well Information Section
#MNEM       .UNIT                                         VALUE :DESCRIPTION
#------------------------------------------------------------------------------
STRT        .FT                                            2653 :START DEPTH
STOP        .FT                                           10423 :STOP DEPTH
STEP        .FT                                             0.5 :STEP      
NULL        .                                           -999.25 :NULL      
COMP        .                                       MONSANTO CO :COMPANY   
WELL        .                                     ST TR 00150-L :WELL      
FLD         .                                           WILDCAT :FIELD     
LOC         .                                                   :LOCATION  
CNTY        .                             GALVESTON LARGE BLOCK :LOCATION  
STAT        .                                             TEXAS :STATE     
CTRY        .                                     UNITED STATES :COUNTRY   
SRVC        .                                                   :SERVICE COMPANY
DATE        .                             9/13/2023 11:19:24 AM :LOG DATE  
API         .                                    42706300340000 :API NUMBER
UWI         .                                    42706300340000 :UNIQUE WELL ID
XCOORD      .                                  1113316.22146511 :SURFACE X 
YCOORD      .                                  10612518.3672968 :SURFACE Y 
LAT         .                                         29.232517 :LATITUDE  
LON         .                                       -94.6530532 :LONGITUDE 
ELEV        .FT                                              81 :ELEVATION VALUE
ELEV_TYPE   .                                                KB :ELEVATION REFERENCE TYPE
~Curve Information Section
#MNEM       .UNIT                                      API CODE :CURVE DESCRIPTION
#------------------------------------------------------------------------------
DEPT        .FT                                                 :DEPTH     
ASN         .OHMM                                               :          
CILD        .MMHO                                               :          
ILD         .OHMM                                               :          
SP          .MV                                                 :          
SP_NORM     .MV                                                 :SP Normalized
VSH_SP      .V/V                                                :Volume of Shale from SP
~A        DEPTH            ASN           CILD            ILD             SP        SP_NORM         VSH_SP
# ...
      5237.0000         0.7774       1592.949         0.6184       -63.2667      -6.297005      0.8768138
      5237.5000          0.758       1556.703         0.6104       -62.5223      -5.552605      0.8941255
      5238.0000         0.7425       1520.432         0.6055       -61.9601      -4.990402      0.9071999
      5238.5000         0.7364       1462.369          0.608       -61.4932      -4.523502      0.9180581
      5239.0000         0.7794       1403.375         0.6105        -61.026      -4.056305      0.9289231
      5239.5000         0.8049       1359.006         0.6139       -60.4782      -3.508503      0.9416627
      5240.0000         0.8234       1334.195         0.6243       -59.8815      -2.911804      0.9555395
      5240.5000         0.8419       1309.385         0.6347       -59.3375      -2.367805      0.9681906
      5241.0000         0.8408         1284.6         0.6451       -59.0277      -2.058002      0.9753953
      5241.5000         0.8375       1263.672         0.6556        -58.718      -1.748302      0.9825976
      5242.0000         0.8343       1256.299         0.6664        -58.631      -1.661304      0.9846208
      5242.5000          0.831       1272.525         0.6755       -58.6104      -1.640705      0.9850999
      5243.0000         0.8278       1412.994         0.6755       -58.5898      -1.620106       0.985579
      5243.5000         0.8245       1580.457         0.6755       -58.5693      -1.599606      0.9860557
      5244.0000         0.8212       1696.582         0.6368       -59.5334      -2.563705      0.9636347
      5244.5000         0.8179       1796.266           0.55       -60.5453      -3.575603      0.9401022
      5245.0000         0.8146        2001.25         0.4759       -62.0401      -5.070404      0.9053394
      5245.5000         0.8415         2339.5         0.4211       -64.8082      -7.838501      0.8409651
      5246.0000         0.8869        2677.75         0.3681        -82.374       -25.4043       0.432458
      5246.5000         0.9376        3016.25         0.3542       -86.2987        -29.329       0.341186
      5247.0000         0.9938        3132.84         0.3416       -90.5345       -33.5648       0.242679
      5247.5000          1.052       3264.379         0.3482       -91.3126       -34.3429      0.2245836
      5248.0000         1.0766       3513.512         0.3548       -90.1691       -33.1994      0.2511767
      5248.5000         0.9402       3548.125         0.3614       -87.7971       -30.8274      0.3063395
      5249.0000         0.8587       3355.129         0.3734       -85.5015      -28.53181      0.3597254
      5249.5000          0.821       3286.414          0.391       -83.5957      -26.62601      0.4040464
      5250.0000         0.7903       3225.113         0.4087       -81.6962       -24.7265      0.4482209
      5250.5000         0.7637       3169.945         0.4264       -80.2247        -23.255      0.4824418
      5251.0000         0.7427       2532.145         0.4395        -78.885      -21.91531      0.5135975
      5251.5000         0.7218       2488.656         0.4378       -79.2449      -22.27521      0.5052277
      5252.0000         0.7253       2463.125         0.4077       -80.1915       -23.2218      0.4832139
      5252.5000          0.749        2639.48         0.3757       -83.2083       -26.2386      0.4130558
      5253.0000         0.7727       3025.945         0.3436       -86.0895       -29.1198      0.3460511
      5253.5000         0.8078       3114.289         0.3116       -88.7518       -31.7821      0.2841371
      5254.0000          0.847       3246.121           0.29       -91.4117        -34.442       0.222279
      5254.5000         0.8862        3468.75         0.2762        -94.074       -37.1043      0.1603651
      5255.0000         0.9124       3855.504         0.2625       -94.5215       -37.5518      0.1499581
      5255.5000         0.8416       4299.586         0.2671        -94.925      -37.95531      0.1405743
      5256.0000         0.7694       4535.563         0.2719       -95.1891      -38.21941      0.1344324
      5256.5000         0.7394       4631.172         0.2767       -95.4249       -38.4552      0.1289488
      5257.0000         0.7712       4626.023         0.2815       -95.6606       -38.6909      0.1234674
      5257.5000          0.803       4558.734         0.2863       -95.7976       -38.8279      0.1202813
      5258.0000         0.8343       4405.797         0.2911       -95.8309      -38.86121      0.1195068
      5258.5000         0.8656       4093.793          0.295         -95.85       -38.8803      0.1190627
      5259.0000          0.897       4025.227         0.2977       -95.7515      -38.78181      0.1213533
      5259.5000          0.902       3961.617         0.3005        -95.653       -38.6833      0.1236441
      5260.0000         0.8878       3904.586         0.3032       -95.5546      -38.58491      0.1259324
      5260.5000         0.7937       3846.082         0.3059       -95.4561       -38.4864      0.1282232
      5261.0000         0.7562       3864.879         0.3087       -95.0331       -38.0634      0.1380605
      5261.5000         0.7188       3910.477         0.3114       -94.4862       -37.5165       0.150779
      5262.0000         0.6948        3956.07         0.3165       -93.3568       -36.3871      0.1770442
      5262.5000         0.6766       3928.535         0.3273       -91.6283      -34.65861      0.2172417
      5263.0000         0.6583       3794.742         0.3408       -89.6622       -32.6925       0.262965
      5263.5000         0.6401       3718.863         0.3786       -86.3405       -29.3708      0.3402139
      5264.0000          0.628       3616.973         0.4164       -79.1754       -22.2057      0.5068441
      5264.5000         0.6177       3334.855         0.4542       -73.2601      -16.29041      0.6444092
      5265.0000         0.6074           2893          0.492       -69.5817      -12.61201      0.7299533
      5265.5000         0.6173           2451         0.5255       -65.3618      -8.392105      0.8280906
      5266.0000         0.6555           2009         0.5498       -64.8507      -7.881004      0.8399767
      5266.5000         0.6937       1726.275         0.5741       -64.8114      -7.841705      0.8408906
      5267.0000         0.7224       1682.055         0.5857       -64.7721      -7.802406      0.8418045
      5267.5000         0.7442       1649.809         0.5927       -63.1965      -6.226803      0.8784465
      5268.0000          0.766       1671.576         0.5997       -61.1124      -4.142704      0.9269139
      5268.5000         0.7878       1701.295         0.6046       -61.8967      -4.927006      0.9086743
      5269.0000         0.8249       1739.479         0.6058       -65.7875      -8.817802      0.8181906
      5269.5000         0.8564       1777.688         0.6069       -71.9635       -14.9938      0.6745627
      5270.0000         0.8667       1815.873         0.6081       -74.5643       -17.5946      0.6140789
      5270.5000         0.8464       1807.641         0.6053       -73.8434       -16.8737      0.6308441
      5271.0000         0.8154       1790.707         0.6023       -71.6018       -14.6321      0.6829743
      5271.5000         0.7857        1781.23         0.5994       -69.2125      -12.24281      0.7385394
      5272.0000         0.7561        1777.33         0.5965       -66.5453      -9.575607      0.8005673
      5272.5000         0.7345       1773.428         0.5936       -63.6591      -6.689404      0.8676883
      5273.0000         0.7176       1782.461         0.5906       -62.1951      -5.225403      0.9017348
      5273.5000         0.7015       1801.197         0.5882       -61.4975      -4.527805       0.917958
      5274.0000         0.6953       1819.934         0.5875       -60.8141      -3.844402      0.9338511
      5274.5000         0.6891       1838.672         0.5868       -60.3469      -3.377205      0.9447162
