#------------------------------------------------------------------------------
# Created by    : vladimir.rabinovich
# Created on    : 09/19/2023 17:21:32
#------------------------------------------------------------------------------
~Version Information Section
VERS.           2.0     :   CWLS log ASCII Standard - VERSION 2.0
WRAP.           NO      :   One line per depth step
~Well Information Section
#MNEM       .UNIT                                         VALUE :DESCRIPTION
#------------------------------------------------------------------------------
STRT        .FT                                            4185 :START DEPTH
STOP        .FT                                            8075 :STOP DEPTH
STEP        .FT                                             0.5 :STEP      
NULL        .                                           -999.25 :NULL      
COMP        .                                         HESS CORP :COMPANY   
WELL        .                               OCS G07236 ST00BP00 :WELL      
FLD         .                              GALVESTON BLOCK 0210 :FIELD     
LOC         .                                                   :LOCATION  
CNTY        .                             GALVESTON LARGE BLOCK :LOCATION  
STAT        .                                             TEXAS :STATE     
CTRY        .                                     UNITED STATES :COUNTRY   
SRVC        .                                                   :SERVICE COMPANY
DATE        .                             9/13/2023 11:19:34 AM :LOG DATE  
API         .                                    42706402930000 :API NUMBER
UWI         .                                    42706402930000 :UNIQUE WELL ID
XCOORD      .                                   1127714.7472722 :SURFACE X 
YCOORD      .                                  10563055.4663979 :SURFACE Y 
LAT         .                                         29.097041 :LATITUDE  
LON         .                                        -94.605794 :LONGITUDE 
ELEV        .FT                                              89 :ELEVATION VALUE
ELEV_TYPE   .                                                KB :ELEVATION REFERENCE TYPE
~Curve Information Section
#MNEM       .UNIT                                      API CODE :CURVE DESCRIPTION
#------------------------------------------------------------------------------
DEPT        .FT                                                 :DEPTH     
CALI        .IN                                                 :          
DRHO        .G/CC                                               :          
DT          .US/F                                               :          
ILD         .OHMM                                               :          
ILM         .OHMM                                               :          
NPHI        .%                                                  :          
RFOC        .OHMM                                               :          
RHOB        .G/CC                                               :          
SP          .MV                                                 :          
SP_NORM     .MV                                                 :SP Normalized
VSH_SP      .V/V                                                :Volume of Shale from SP
~A        DEPTH           CALI           DRHO             DT            ILD            ILM           NPHI           RFOC           RHOB             SP        SP_NORM         VSH_SP
# ...
      7537.5000        12.3663         0.0054       114.0549         0.7023         0.7068        39.6237         0.8815         2.3374       -41.5542       1.871567              1
      7538.0000        12.3783         0.0061       113.4133         0.7115         0.7218         39.028          0.893         2.3484       -39.9351       3.484451              1
      7538.5000        12.3882         0.0067       112.7808         0.7159          0.729        38.2246         0.9095         2.3579       -39.7551       3.658237              1
      7539.0000        12.3968         0.0072       112.1799         0.7168         0.7235        37.3839         0.9255         2.3659       -39.7822       3.624924              1
      7539.5000         12.399         0.0064       111.5092         0.7127         0.7126        37.0646         0.9303         2.3723       -39.8093        3.59161              1
      7540.0000        12.3825         0.0054       110.8235         0.6968          0.698        38.6034         0.9194         2.3784        -39.769       3.625694              1
      7540.5000         12.364         0.0053       110.7754         0.6809         0.6787        40.3377         0.8922         2.3737       -39.6992       3.689281              1
      7541.0000        12.3712         0.0063       111.3951         0.6646         0.6584        41.6505         0.8623         2.3626       -39.7527       3.629566              1
      7541.5000        12.4009         0.0073       113.7723         0.6511         0.6397        42.6328         0.8511         2.3509       -39.9659       3.410152              1
      7542.0000        12.4405         0.0072       116.1807         0.6301         0.6233         43.545         0.8476         2.3382       -40.4654       2.904438              1
      7542.5000        12.4783         0.0071       118.3479         0.6112         0.6073        44.6618         0.8494         2.3277       -40.8563       2.507328              1
      7543.0000        12.4814         0.0071       119.1564         0.6009         0.5965         45.375         0.8518         2.3243       -40.7844       2.573013              1
      7543.5000        12.4589         0.0065       118.8336         0.5957         0.5921         44.556         0.8476         2.3258       -40.3774       2.973801              1
      7544.0000        12.4271         0.0056       118.3083         0.5972          0.591        43.0877         0.8416         2.3275       -39.8246       3.520386              1
      7544.5000        12.3811         0.0052       117.8411         0.5993         0.5919        42.4399         0.8372          2.329       -40.7094       2.629372              1
      7545.0000        12.3332         0.0049       117.6854          0.595         0.5945        42.0374         0.8329         2.3292       -42.2835       1.049057              1
      7545.5000        12.2962         0.0048        117.787         0.5898          0.598        41.5743         0.8283         2.3279       -42.6661       0.660244              1
      7546.0000        12.2704         0.0046       117.9918         0.5889            0.6        40.8455         0.8326         2.3272       -42.5345      0.7856293              1
      7546.5000        12.2525         0.0044       118.1318         0.5893         0.6014        40.2448         0.8433         2.3287       -42.1519       1.162014              1
      7547.0000         12.242         0.0041       117.9276         0.5899         0.5984         39.861         0.8584         2.3292       -41.4746       1.833099              1
      7547.5000        12.2344          0.004        117.228         0.5888         0.5924        39.3531         0.8728         2.3263         -41.16       2.141487              1
      7548.0000         12.233         0.0039       115.7347         0.5917         0.5904        38.8239         0.8794         2.3239       -42.0588       1.236473              1
      7548.5000        12.2305         0.0038       114.3867         0.5968         0.5958        38.4412         0.8848         2.3237       -42.4806      0.8084602              1
      7549.0000        12.2271         0.0037       112.7976         0.5978         0.5955        38.1752         0.8839         2.3241       -42.1879       1.094944              1
      7549.5000        12.2193         0.0038       112.0121         0.5955         0.5952        37.9824         0.8779         2.3235       -41.9954       1.281231              1
      7550.0000        12.2087         0.0038       111.8369         0.5943         0.5979        37.6102         0.8739         2.3226        -42.022       1.248417              1
      7550.5000        12.1849          0.004       112.0011         0.6062         0.6069        37.3193         0.8756         2.3213       -42.0939       1.170303              1
      7551.0000        12.1592         0.0043       112.3575         0.6241         0.6299        38.2347         0.8817         2.3203       -42.4492      0.8087883              1
      7551.5000        12.1339         0.0045       112.9596         0.6429         0.6632        39.3795         0.8891         2.3192        -43.036      0.2157745              1
      7552.0000        12.1271         0.0045       113.8074         0.6789         0.6953        38.1212         0.9051         2.3199       -43.1151      0.1304588              1
      7552.5000        12.1214         0.0042       112.7483         0.7262         0.7238        35.9405         0.9394         2.3363       -43.0582      0.1811485              1
      7553.0000        12.1096         0.0034        110.213         0.7885         0.7469        35.4435         0.9684         2.3512        -42.774       0.459137              1
      7553.5000        12.1016          0.003       107.7424         0.8425         0.7647        35.4937         0.9703         2.3646       -42.4357      0.7912216              1
      7554.0000        12.0959         0.0043       105.2615          0.876         0.7781        35.3665          0.989         2.3858       -42.1092       1.111507              1
      7554.5000        12.0898         0.0036       100.6652         0.8467         0.7717        34.2886         1.0856         2.4156       -40.1367       3.077793              1
      7555.0000         12.083         0.0023        98.2413         0.7805          0.728        33.4879         1.1607         2.4087       -40.1085       3.099777              1
      7555.5000        12.0762         0.0018        98.3949         0.7155         0.6595        34.5375         1.1626         2.3751       -41.2383       1.963764              1
      7556.0000        12.0703         0.0028        99.3949         0.6656         0.5932        36.9515         1.0418         2.3265       -44.9362      -1.740349      0.9767954
      7556.5000         12.075         0.0047       103.9316         0.6243         0.5599        39.3967         0.8507         2.2883       -54.3555      -11.16586      0.8511218
      7557.0000        12.0816         0.0053       109.7075         0.5963         0.5367        40.9147         0.8103         2.2922       -55.0669      -11.88348      0.8415536
      7557.5000        12.0876         0.0052        113.158          0.568         0.5223        41.6746         0.8172         2.3048       -50.5036      -7.326393      0.9023148
      7558.0000        12.0848          0.005       114.1796         0.5266         0.5128        41.4685         0.8212         2.3162       -47.7617      -4.590706      0.9387906
      7558.5000        12.0741         0.0048       114.1615         0.4794         0.4953         40.291         0.8168         2.3162        -47.874      -4.709221      0.9372104
      7559.0000        12.0634         0.0044       113.9849         0.4437         0.4553        38.8181         0.8063          2.305       -51.2072      -8.048634      0.8926849
      7559.5000        12.0564         0.0034       113.7208          0.411         0.4075        37.8334         0.7894         2.2836       -58.6902      -15.53785      0.7928287
