#------------------------------------------------------------------------------
# Created by    : vladimir.rabinovich
# Created on    : 09/19/2023 17:22:54
#------------------------------------------------------------------------------
~Version Information Section
VERS.           2.0     :   CWLS log ASCII Standard - VERSION 2.0
WRAP.           NO      :   One line per depth step
~Well Information Section
#MNEM       .UNIT                                         VALUE :DESCRIPTION
#------------------------------------------------------------------------------
STRT        .FT                                             410 :START DEPTH
STOP        .FT                                            7624 :STOP DEPTH
STEP        .FT                                             0.5 :STEP      
NULL        .                                           -999.25 :NULL      
COMP        .                                      SHELL OIL CO :COMPANY   
WELL        .                                     ST TR 00249-L :WELL      
FLD         .                                           WILDCAT :FIELD     
LOC         .                                                   :LOCATION  
CNTY        .                             GALVESTON LARGE BLOCK :LOCATION  
STAT        .                                             TEXAS :STATE     
CTRY        .                                     UNITED STATES :COUNTRY   
SRVC        .                                                   :SERVICE COMPANY
DATE        .                             9/13/2023 11:19:42 AM :LOG DATE  
API         .                                    42706000200000 :API NUMBER
UWI         .                                    42706000200000 :UNIQUE WELL ID
XCOORD      .                                  981084.037319939 :SURFACE X 
YCOORD      .                                  10535303.7769946 :SURFACE Y 
LAT         .                                         29.014458 :LATITUDE  
LON         .                                       -95.0633058 :LONGITUDE 
ELEV        .FT                                              11 :ELEVATION VALUE
ELEV_TYPE   .                                                KB :ELEVATION REFERENCE TYPE
~Curve Information Section
#MNEM       .UNIT                                      API CODE :CURVE DESCRIPTION
#------------------------------------------------------------------------------
DEPT        .FT                                                 :DEPTH     
LAT         .OHMM                                               :          
SN          .OHMM                                               :          
SP          .MV                                                 :          
SP_NORM     .MV                                                 :SP Normalized
VSH_SP      .V/V                                                :Volume of Shale from SP
~A        DEPTH            LAT             SN             SP        SP_NORM         VSH_SP
# ...
      3754.0000         0.4114         0.8634       -88.7495      -1.005951      0.9999196
      3754.5000         0.4181          0.855       -89.0206      -1.283211      0.9961728
      3755.0000         0.4318         0.8467       -89.2916      -1.560371      0.9924274
      3755.5000         0.4454         0.8387       -89.7963      -2.071228      0.9855239
      3756.0000         0.4591         0.8308       -90.5132      -2.794289      0.9757528
      3756.5000         0.4909         0.8229       -91.2301      -3.517349      0.9659818
      3757.0000         0.5461         0.8151       -91.9465      -4.239906      0.9562175
      3757.5000         0.6012         0.8072       -92.6635      -4.963058      0.9464452
      3758.0000         0.6564         0.7994       -93.3925      -5.698219      0.9365106
      3758.5000         0.7116         0.7916       -94.1218      -6.433678      0.9265719
      3759.0000         0.7668         0.7837       -94.8513      -7.169342      0.9166305
      3759.5000         0.8219         0.7759       -94.7106      -7.034798      0.9184487
      3760.0000         0.8767         0.7681       -93.9769      -6.307251      0.9282804
      3760.5000         0.9314          0.761       -92.6046      -4.941109      0.9467418
      3761.0000         0.9861          0.756       -90.5966       -2.93927      0.9737936
      3761.5000         1.0347         0.7511       -89.0156      -1.364426      0.9950753
      3762.0000          1.053         0.7462       -88.5317     -0.8866882              1
      3762.5000         1.0712         0.7413       -88.5751     -0.9362488              1
      3763.0000         1.0872         0.7367       -88.6183     -0.9856033              1
      3763.5000         1.0871         0.7321       -88.9723      -1.345757      0.9953276
      3764.0000         1.0869         0.7273       -89.3822      -1.761818      0.9897051
      3764.5000         1.0868         0.7199       -97.6483      -10.03407      0.8779179
      3765.0000         1.0867         0.7125      -105.3451      -17.73704      0.7738238
      3765.5000         1.0693         0.7035      -110.1152      -22.51329      0.7092798
      3766.0000          1.044         0.6901      -112.7999      -25.20415      0.6729169
      3766.5000         1.0186         0.6768      -115.0369      -27.44731      0.6426039
      3767.0000         0.9922         0.6923      -116.9316      -29.34817      0.6169167
      3767.5000          0.953         0.7223      -119.9933      -32.41602      0.5754591
      3768.0000          0.915         0.7524      -129.8647      -42.29359      0.4419785
      3768.5000         0.8765         0.7757      -138.3765      -50.81154      0.3268711
      3769.0000         0.8294          0.798      -144.1731       -56.6143      0.2484555
      3769.5000         0.7824         0.8043      -147.0168      -59.46416      0.2099438
      3770.0000         0.7353         0.8029      -149.8628      -62.31631      0.1714013
      3770.5000         0.6883         0.8015      -152.4768      -64.93648      0.1359935
      3771.0000         0.6413         0.8001      -154.8074      -67.27324      0.1044157
      3771.5000         0.5942         0.7988      -157.1379      -69.60989     0.07283938
      3772.0000         0.5647          0.778      -158.7319      -71.21005     0.05121551
      3772.5000         0.5418         0.7548       -160.167      -72.65131       0.031739
      3773.0000         0.5189         0.7315      -160.9644      -73.45486     0.02088021
      3773.5000          0.496         0.7083      -160.8193      -73.31593     0.02275776
      3774.0000         0.4737          0.685      -160.6116      -73.11439     0.02548125
      3774.5000         0.4554         0.6618      -160.3079      -72.81685     0.02950204
      3775.0000         0.4372         0.6485      -160.0037      -72.51879     0.03352985
      3775.5000          0.419         0.6364      -160.2961      -72.81735     0.02949524
      3776.0000         0.4008         0.6242      -161.0173      -73.54472       0.019666
      3776.5000         0.3826          0.612      -161.7388      -74.27237    0.009832846
      3777.0000         0.3736         0.6057      -162.4595      -74.99924  0.00001030999
      3777.5000         0.3685         0.5999      -162.3909      -74.93679   0.0008541829
      3778.0000         0.3634          0.615      -161.6897      -74.24174     0.01024669
      3778.5000         0.3583           0.65      -160.9885       -73.5467      0.0196392
      3779.0000         0.3532          0.685      -160.4194      -72.98376     0.02724642
      3779.5000         0.3484         0.6954      -159.8572      -72.42771     0.03476065
      3780.0000         0.3495         0.6828      -160.7449      -73.32159     0.02268126
      3780.5000         0.3506         0.6701      -161.7273      -74.31013    0.009322502
      3781.0000         0.3516         0.6575        -162.71        -75.299              0
      3781.5000         0.3527         0.6465      -163.6921      -76.28725              0
      3782.0000         0.3537         0.6465      -163.5327      -76.13401              0
      3782.5000         0.3539         0.6466      -162.9011      -75.50856              0
      3783.0000         0.3507         0.6467      -161.6978      -74.31143    0.009304974
      3783.5000         0.3475         0.6376      -160.2498      -72.86959     0.02878931
      3784.0000         0.3443         0.6103      -158.8018      -71.42775     0.04827365
      3784.5000         0.3411          0.583      -158.0847       -70.7168     0.05788102
      3785.0000         0.3379         0.5557      -157.4539      -70.09216     0.06632212
      3785.5000         0.3347         0.5284      -157.4741      -70.11852     0.06596591
      3786.0000         0.3309         0.5205      -157.5774      -70.22797     0.06448684
      3786.5000          0.326         0.5192      -157.6804      -70.33714     0.06301158
      3787.0000         0.3211         0.5179      -157.7739      -70.43679     0.06166499
      3787.5000         0.3161         0.5166       -157.729      -70.39806     0.06218843
      3788.0000         0.3112         0.5154      -157.6843       -70.3595      0.0627094
      3788.5000         0.3063         0.5301      -157.6394      -70.32077     0.06323283
      3789.0000         0.3109         0.5578       -156.542      -69.22953     0.07797932
      3789.5000          0.325         0.5854      -154.1504      -66.84409       0.110215
      3790.0000          0.339         0.6131      -151.7588      -64.45865      0.1424507
      3790.5000         0.3532         0.6552      -149.3672       -62.0732      0.1746864
      3791.0000         0.3696         0.7019      -147.0364      -59.74857      0.2061005
      3791.5000         0.3859         0.7486      -144.8757      -57.59402       0.235216
      3792.0000         0.4023         0.7843      -145.3804      -58.10487      0.2283125
      3792.5000         0.4186         0.7652      -148.6709      -61.40154       0.183763
      3793.0000         0.4187         0.7461      -151.9636      -64.70039       0.139184
      3793.5000         0.3936          0.727      -155.0361      -67.77905     0.09758037
      3794.0000         0.3685         0.7079      -157.9714      -70.72051     0.05783091
      3794.5000         0.3435         0.6888      -160.9045      -73.65976     0.01811136
      3795.0000         0.3202         0.6697      -163.8398      -76.60122              0
      3795.5000         0.3052         0.6617      -163.0718      -75.83938              0
      3796.0000         0.2901          0.654      -160.9907      -73.76445     0.01669662
      3796.5000         0.2751         0.6463      -158.7439       -71.5238     0.04697573
      3797.0000           0.26         0.6356      -156.4973      -69.28336     0.07725195
      3797.5000          0.271           0.62      -154.8728      -67.66502     0.09912141
