#------------------------------------------------------------------------------
# Created by    : vladimir.rabinovich
# Created on    : 09/19/2023 17:22:29
#------------------------------------------------------------------------------
~Version Information Section
VERS.           2.0     :   CWLS log ASCII Standard - VERSION 2.0
WRAP.           NO      :   One line per depth step
~Well Information Section
#MNEM       .UNIT                                         VALUE :DESCRIPTION
#------------------------------------------------------------------------------
STRT        .FT                                            1202 :START DEPTH
STOP        .FT                                           11047 :STOP DEPTH
STEP        .FT                                             0.5 :STEP      
NULL        .                                           -999.25 :NULL      
COMP        .                                 MESA PETROLEUM CO :COMPANY   
WELL        .                               OCS G03305 ST00BP00 :WELL      
FLD         .                                           WILDCAT :FIELD     
LOC         .                                                   :LOCATION  
CNTY        .                      MATAGORDA ISLAND LARGE BLOCK :LOCATION  
STAT        .                                             TEXAS :STATE     
CTRY        .                                     UNITED STATES :COUNTRY   
SRVC        .                                                   :SERVICE COMPANY
DATE        .                             9/13/2023 11:12:09 AM :LOG DATE  
API         .                                    42703400870000 :API NUMBER
UWI         .                                    42703400870000 :UNIQUE WELL ID
XCOORD      .                                  540264.325087739 :SURFACE X 
YCOORD      .                                   10226560.637492 :SURFACE Y 
LAT         .                                         28.138272 :LATITUDE  
LON         .                                        -96.413655 :LONGITUDE 
ELEV        .FT                                              80 :ELEVATION VALUE
ELEV_TYPE   .                                                KB :ELEVATION REFERENCE TYPE
~Curve Information Section
#MNEM       .UNIT                                      API CODE :CURVE DESCRIPTION
#------------------------------------------------------------------------------
DEPT        .FT                                                 :DEPTH     
CILD        .MMHO                                               :          
DPHI        .%                                                  :          
GR          .GAPI                                               :          
GR_NORM     .GAPI                                               :GammaRay Normalized
ILD         .OHMM                                               :          
ILM         .OHMM                                               :          
SFL         .OHMM                                               :          
SP          .MV                                                 :          
SP_NORM     .MV                                                 :SP Normalized
VSH_GR      .V/V                                                :Volume of Shale from GR
VSH_SP      .V/V                                                :Volume of Shale from SP
~A        DEPTH           CILD           DPHI             GR        GR_NORM            ILD            ILM            SFL             SP        SP_NORM         VSH_GR         VSH_SP
# ...
      1854.5000       1027.838        -999.25        43.7883       58.53106          1.119        -999.25         0.9906      -145.1565      -8.414673       0.543214      0.7443216
      1855.0000       1081.354        -999.25        44.6821       59.85424         1.0621        -999.25         1.0373      -145.2949      -8.559921      0.5713668      0.7393131
      1855.5000       1095.242        -999.25        46.3026       62.25322         1.0077        -999.25         1.0453      -145.9958       -9.26767      0.6224089      0.7149079
      1856.0000       1109.039        -999.25        48.3074       65.22108         0.9482        -999.25         0.9553      -146.1506      -9.429306      0.6855548      0.7093343
      1856.5000       1150.279        -999.25        50.7233       68.79757         0.9073        -999.25         0.8594      -145.9177      -9.203247      0.7616504      0.7171294
      1857.0000       1197.836        -999.25        53.0738       72.27722          0.877        -999.25         0.8477       -145.479      -8.771393      0.8356856      0.7320209
      1857.5000       1255.996        -999.25        54.9128       74.99965         0.8476        -999.25         0.8309      -145.1401      -8.439346      0.8936096      0.7434708
      1858.0000       1313.924        -999.25        55.6635       76.11098         0.8223        -999.25         0.8264      -144.5034      -7.809479      0.9172548      0.7651904
      1858.5000       1358.936        -999.25        56.4449       77.26779         0.7989        -999.25         0.8315      -144.1687      -7.481628      0.9418679      0.7764956
      1859.0000       1411.102        -999.25        57.2886       78.51678         0.7785        -999.25         0.8291      -144.3652      -7.684982      0.9684421      0.7694834
      1859.5000       1464.961        -999.25        58.3517       80.09058         0.7587        -999.25         0.7698      -144.3813      -7.707916              1      0.7686926
      1860.0000       1504.146        -999.25        58.8657       80.85149         0.7396        -999.25          0.665       -143.249      -6.582458              1      0.8075014
      1860.5000       1545.068        -999.25        58.5283       80.35203         0.7211        -999.25         0.6387      -142.9402      -6.280502              1      0.8179137
      1861.0000       1585.547        -999.25        58.0608       79.65992         0.7032        -999.25         0.6526      -142.9631      -6.310257      0.9927642      0.8168877
      1861.5000       1622.818        -999.25        57.7328       79.17436         0.6874        -999.25         0.6747       -142.824      -6.177994      0.9824333      0.8214485
      1862.0000       1638.047        -999.25        57.6929        79.1153         0.6725        -999.25         0.6695      -142.6628      -6.023636      0.9811767      0.8267712
      1862.5000       1646.422        -999.25        57.4251       78.71885         0.6726        -999.25         0.6619      -142.3928      -5.760483      0.9727415      0.8358454
      1863.0000       1642.768        -999.25        56.8732       77.90183         0.6728        -999.25         0.6532      -141.9187      -5.293228      0.9553581      0.8519577
      1863.5000       1630.953        -999.25        56.2595       76.99329         0.6824        -999.25         0.6448      -141.4175      -4.798859      0.9360275      0.8690048
      1864.0000       1603.789        -999.25        55.5822       75.99064         0.6938        -999.25         0.6342      -141.4158      -4.804016      0.9146944       0.868827
      1864.5000       1566.793        -999.25        54.5695       74.49144         0.7083        -999.25          0.631      -141.4502      -4.845261      0.8827966      0.8674048
      1865.0000       1523.109        -999.25        52.1974       70.97982         0.7258        -999.25         0.6355      -141.8877      -5.289597      0.8080813      0.8520828
      1865.5000       1483.566        -999.25        49.2195       66.57136         0.7385        -999.25         0.6898      -142.7732      -6.181946      0.7142842      0.8213122
      1866.0000       1452.291        -999.25        46.4542       62.47764         0.7474        -999.25         0.7278      -143.7363      -7.151886      0.6271838       0.787866
      1866.5000       1428.617        -999.25         44.259       59.22788         0.7564        -999.25         0.7538      -144.6509      -8.073334        0.55804       0.756092
      1867.0000       1417.141        -999.25        43.8524       58.62597         0.7655        -999.25         0.7736      -145.2207      -8.649979      0.5452334      0.7362076
      1867.5000       1410.766        -999.25        43.4457       58.02388         0.7666        -999.25         0.7709      -145.7043      -9.140427       0.532423      0.7192956
      1868.0000       1434.572        -999.25        43.0392        57.4221         0.7555        -999.25         0.7493      -146.1504      -9.593369      0.5196192      0.7036769
      1868.5000       1495.449        -999.25        43.4689       58.05823         0.7341        -999.25         0.7079      -146.1428      -9.592621      0.5331538      0.7037027
      1869.0000       1580.313        -999.25        44.8506       60.10369         0.7075        -999.25         0.6591       -145.147      -8.603668      0.5766743      0.7378045
      1869.5000       1656.303        -999.25        46.8264       63.02865         0.6818        -999.25         0.6219      -143.8757      -7.339203      0.6389074      0.7814068
      1870.0000       1677.365        -999.25        49.0587       66.33331         0.6601        -999.25         0.6078      -143.1223      -6.592651      0.7092194      0.8071499
      1870.5000       1693.746        -999.25        51.6156       70.11852         0.6396        -999.25         0.6016       -142.738      -6.215195      0.7897558      0.8201657
      1871.0000        1756.75        -999.25        53.2686       72.56561         0.6249        -999.25         0.5949      -142.3115      -5.795532      0.8418216      0.8346368
      1871.5000       1826.596        -999.25        55.2117       75.44215          0.612        -999.25          0.588      -141.6785      -5.169373      0.9030244      0.8562285
      1872.0000       1840.816        -999.25        56.9286       77.98384         0.6084        -999.25         0.5839      -140.7974       -4.29512       0.957103      0.8863752
      1872.5000       1842.645        -999.25        57.9859       79.54906         0.6069        -999.25          0.584      -140.1721      -3.676666      0.9904054      0.9077011
      1873.0000       1855.662        -999.25        58.6284        80.5002         0.6069        -999.25         0.5875      -139.4622      -2.973618              1      0.9319443
      1873.5000       1830.455        -999.25        58.3176        80.0401         0.6126        -999.25         0.5947      -139.0706      -2.588852              1       0.945212
      1874.0000       1805.928        -999.25        57.7799       79.24408         0.6184        -999.25         0.6019      -139.0515      -2.576599      0.9839166      0.9456345
      1874.5000       1793.467        -999.25        57.2251       78.42278         0.6243        -999.25         0.6056      -139.0259      -2.557846      0.9664422      0.9462812
      1875.0000       1781.006        -999.25        56.6703       77.60145         0.6315        -999.25         0.6094      -138.9321      -2.470886       0.948967      0.9492798
      1875.5000       1767.674        -999.25        56.2922       77.04172         0.6391        -999.25         0.6133      -138.7009      -2.246536      0.9370578       0.957016
      1876.0000       1751.605        -999.25        56.0112       76.62573         0.6468        -999.25         0.6174       -138.387      -1.939468      0.9282071      0.9676045
      1876.5000       1737.393        -999.25        55.7158       76.18841         0.6524        -999.25         0.6208      -138.1755      -1.734833      0.9189023      0.9746609
