#------------------------------------------------------------------------------
# Created by    : vladimir.rabinovich
# Created on    : 09/19/2023 17:20:58
#------------------------------------------------------------------------------
~Version Information Section
VERS.           2.0     :   CWLS log ASCII Standard - VERSION 2.0
WRAP.           NO      :   One line per depth step
~Well Information Section
#MNEM       .UNIT                                         VALUE :DESCRIPTION
#------------------------------------------------------------------------------
STRT        .FT                                             521 :START DEPTH
STOP        .FT                                           11050 :STOP DEPTH
STEP        .FT                                             0.5 :STEP      
NULL        .                                           -999.25 :NULL      
COMP        .                                      SHELL OIL CO :COMPANY   
WELL        .                                     ST TR 00335-L :WELL      
FLD         .                                           WILDCAT :FIELD     
LOC         .                                                   :LOCATION  
CNTY        .                                BRAZOS LARGE BLOCK :LOCATION  
STAT        .                                             TEXAS :STATE     
CTRY        .                                     UNITED STATES :COUNTRY   
SRVC        .                                                   :SERVICE COMPANY
DATE        .                             9/13/2023 11:18:52 AM :LOG DATE  
API         .                                    42704000130000 :API NUMBER
UWI         .                                    42704000130000 :UNIQUE WELL ID
XCOORD      .                                  903482.990868916 :SURFACE X 
YCOORD      .                                   10450808.276789 :SURFACE Y 
LAT         .                                        28.7782296 :LATITUDE  
LON         .                                       -95.3008656 :LONGITUDE 
ELEV        .FT                                              81 :ELEVATION VALUE
ELEV_TYPE   .                                                DF :ELEVATION REFERENCE TYPE
~Curve Information Section
#MNEM       .UNIT                                      API CODE :CURVE DESCRIPTION
#------------------------------------------------------------------------------
DEPT        .FT                                                 :DEPTH     
ASN         .OHMM                                               :          
CILD        .MMHO                                               :          
ILD         .OHMM                                               :          
SP          .MV                                                 :          
SP_NORM     .MV                                                 :SP Normalized
VSH_SP      .V/V                                                :Volume of Shale from SP
~A        DEPTH            ASN           CILD            ILD             SP        SP_NORM         VSH_SP
# ...
      4701.0000         0.8633       1413.959         0.7746       -45.0524      -1.361153      0.9926295
      4701.5000         0.8966       1347.902         0.7883       -45.4527      -1.765976      0.9843678
      4702.0000         0.9504       1285.789         0.8081       -45.4314      -1.749195      0.9847103
      4702.5000         0.9847       1234.385         0.7942        -45.147      -1.469315      0.9904221
      4703.0000         0.9546       1188.285         0.7601       -44.8627      -1.189537      0.9961319
      4703.5000         0.9103       1166.039         0.7365        -44.578     -0.9093552              1
      4704.0000         0.8779       1254.877         0.7128       -44.2936     -0.6294785              1
      4704.5000          0.851       1307.498         0.6892       -43.9564     -0.2968025              1
      4705.0000         0.8256       1364.695         0.6656       -43.5745     0.08057785              1
      4705.5000         0.8049       1427.832          0.642       -43.1924      0.4581566              1
      4706.0000         0.7843       1476.559         0.6417       -42.8107      0.8353386              1
      4706.5000         0.7738       1514.504         0.6418       -42.4289       1.212616              1
      4707.0000         0.7657       1538.916         0.6419       -42.0471       1.589897              1
      4707.5000         0.7662       1548.188          0.642       -41.6653       1.967178              1
      4708.0000         0.7685       1552.516         0.6436        -41.358       2.269955              1
      4708.5000         0.7708       1546.279         0.6671       -41.1647       2.458736              1
      4709.0000         0.7731        1527.33         0.6905       -40.9715       2.647415              1
      4709.5000         0.7771       1508.383         0.7139       -40.9366       2.677792              1
      4710.0000         0.7826       1489.436         0.7373       -41.2473       2.362572              1
      4710.5000         0.7882       1466.605         0.7396       -41.6732       1.932152              1
      4711.0000         0.7938       1443.094         0.7397       -42.0992       1.501629              1
      4711.5000         0.7982       1419.582         0.7356         -42.42       1.176311              1
      4712.0000         0.8021        1396.07         0.7235       -42.4664       1.125389              1
      4712.5000          0.806       1372.654         0.7114       -42.5129       1.074368              1
      4713.0000         0.8094       1356.859         0.6993       -42.5594        1.02335              1
      4713.5000         0.8043       1341.063         0.6872       -42.6262      0.9520264              1
      4714.0000         0.7991       1325.705         0.6757        -42.874       0.699707              1
      4714.5000         0.7934       1394.342         0.6663       -43.1219      0.4472885              1
      4715.0000          0.786       1489.654         0.6568       -43.3698      0.1948624              1
      4715.5000         0.7786       1576.398         0.6473       -44.1783     -0.6181564              1
      4716.0000         0.7712       1654.625         0.6378       -45.0101      -1.454479      0.9907249
      4716.5000         0.7638       1709.535         0.6283       -45.8424      -2.291298       0.973647
      4717.0000         0.7566       1764.395         0.6231       -46.6918      -3.145218        0.95622
      4717.5000         0.7494       1876.551         0.6378       -47.5711      -4.029037      0.9381829
      4718.0000          0.742       1909.846         0.6525       -48.4498      -4.912258       0.920158
      4718.5000         0.7388       1833.908         0.6672       -49.2706      -5.737579      0.9033147
      4719.0000          0.742       1757.922         0.6818       -49.3384      -5.809902      0.9018387
      4719.5000          0.771       1681.934         0.6965       -49.1806       -5.65662       0.904967
      4720.0000         0.8398       1605.996         0.7133       -49.0228      -5.503342      0.9080951
      4720.5000         0.9385       1530.008         0.7668       -48.8649      -5.349964      0.9112252
      4721.0000         0.9824       1454.021         0.8202        -48.707      -5.196587      0.9143554
      4721.5000         1.0503       1378.082         0.8737       -48.6624      -5.156506      0.9151734
      4722.0000         1.1614       1302.096         0.9272         -48.86      -5.358627      0.9110484
      4722.5000         1.2418       1226.156         0.9806       -49.0577      -5.560848      0.9069214
      4723.0000         1.3069        1150.17         1.0246       -50.6552      -7.162868      0.8742272
      4723.5000         1.3499       1074.184         1.0344       -52.7024      -9.214588      0.8323553
      4724.0000         1.4021       998.2451         0.9786       -54.6935      -11.21021      0.7916284
      4724.5000         1.3053       998.3896         0.9229       -56.6822      -13.20343      0.7509504
      4725.0000         1.2665       1139.168         0.8672        -58.213      -14.73875      0.7196174
      4725.5000         1.2257       1280.045         0.8144       -57.9523      -14.48257      0.7248455
      4726.0000         1.1824        1420.92         0.7623       -53.8605      -10.39529      0.8082593
      4726.5000         1.1478       1561.697         0.7103       -52.0118      -8.551113      0.8458956
      4727.0000         1.0903       1702.574         0.6582       -50.6296      -7.173435      0.8740115
      4727.5000         1.0273       1858.881         0.6061       -49.2487      -5.797054      0.9021009
      4728.0000         0.9529       1923.477          0.597       -47.8665      -4.419376      0.9302168
      4728.5000         0.8828       1884.826         0.5992       -46.4903      -3.047695      0.9582103
      4729.0000         0.8348       1785.035         0.6416       -45.2505      -1.812416      0.9834201
      4729.5000         0.8014       1685.244          0.684       -44.0108     -0.5772362              1
      4730.0000         0.7894       1585.355         0.7264       -42.7699      0.6591415              1
      4730.5000         0.8117       1485.564         0.7688       -41.8943       1.530224              1
      4731.0000         0.8403       1385.676         0.8112       -42.1932       1.226803              1
      4731.5000         0.8842       1285.885         0.8536       -42.8539      0.5615768              1
      4732.0000         0.9406       1186.096         0.8934       -43.5146     -0.1036415              1
      4732.5000          1.025       1087.092         0.9228        -44.554      -1.147564      0.9969885
      4733.0000         1.0702       1081.725         0.9523       -45.7706      -2.368683      0.9720677
      4733.5000         1.0492       1090.418         0.9797       -46.9872      -3.589806      0.9471468
      4734.0000         1.0101       1123.592         0.9361       -48.2037      -4.810825       0.922228
      4734.5000         0.9695       1230.393         0.8924       -49.4776      -6.089245      0.8961378
      4735.0000         0.9402       1306.477         0.8487       -50.9377      -7.553864      0.8662477
      4735.5000         0.9199       1359.949         0.8232        -51.171      -7.791687      0.8613942
      4736.0000         0.9075       1400.402         0.7992       -51.3399      -7.965107       0.857855
      4736.5000          0.899       1413.922         0.7753       -51.2818      -7.911526      0.8589485
      4737.0000         0.9061       1400.109         0.7612       -50.2393       -6.87355      0.8801316
      4737.5000         0.9152       1379.885          0.784       -49.1926      -5.831371      0.9014006
      4738.0000          0.934        1353.67         0.8067       -48.0613       -4.70459      0.9243961
      4738.5000         0.9527       1327.457         0.8295       -46.9299      -3.577713      0.9473936
