#------------------------------------------------------------------------------
# Created by    : vladimir.rabinovich
# Created on    : 09/19/2023 17:20:38
#------------------------------------------------------------------------------
~Version Information Section
VERS.           2.0     :   CWLS log ASCII Standard - VERSION 2.0
WRAP.           NO      :   One line per depth step
~Well Information Section
#MNEM       .UNIT                                         VALUE :DESCRIPTION
#------------------------------------------------------------------------------
STRT        .FT                                             495 :START DEPTH
STOP        .FT                                            8683 :STOP DEPTH
STEP        .FT                                             0.5 :STEP      
NULL        .                                           -999.25 :NULL      
COMP        .                                      SHELL OIL CO :COMPANY   
WELL        .                                OCS 00706 ST00BP00 :WELL      
FLD         .                                           WILDCAT :FIELD     
LOC         .                                                   :LOCATION  
CNTY        .                             GALVESTON LARGE BLOCK :LOCATION  
STAT        .                                             TEXAS :STATE     
CTRY        .                                     UNITED STATES :COUNTRY   
SRVC        .                                                   :SERVICE COMPANY
DATE        .                             9/13/2023 11:19:25 AM :LOG DATE  
API         .                                    42706000290000 :API NUMBER
UWI         .                                    42706000290000 :UNIQUE WELL ID
XCOORD      .                                  1097630.70361638 :SURFACE X 
YCOORD      .                                  10500448.3193905 :SURFACE Y 
LAT         .                                          28.92371 :LATITUDE  
LON         .                                        -94.697168 :LONGITUDE 
ELEV        .FT                                              92 :ELEVATION VALUE
ELEV_TYPE   .                                                KB :ELEVATION REFERENCE TYPE
~Curve Information Section
#MNEM       .UNIT                                      API CODE :CURVE DESCRIPTION
#------------------------------------------------------------------------------
DEPT        .FT                                                 :DEPTH     
ASN         .OHMM                                               :          
CILD        .MMHO                                               :          
ILD         .OHMM                                               :          
SP          .MV                                                 :          
SP_NORM     .MV                                                 :SP Normalized
VSH_SP      .V/V                                                :Volume of Shale from SP
~A        DEPTH            ASN           CILD            ILD             SP        SP_NORM         VSH_SP
# ...
      5929.0000         0.8192        3503.34         0.4719        -59.243      -21.42123      0.6538775
      5929.5000         0.8804       3729.109         0.4525       -63.6851      -25.86499      0.5785595
      5930.0000         1.0062       3895.012         0.4487       -86.0553      -48.23685      0.1993755
      5930.5000         1.0271       3987.566         0.4545        -96.618       -58.8012     0.02031856
      5931.0000          1.051       3961.332         0.4634      -102.7146      -64.89948              0
      5931.5000         1.0877       3920.512         0.4816      -105.8079      -67.99443              0
      5932.0000         1.0868       3876.051         0.4998      -106.4462      -68.63439              0
      5932.5000         1.0803       3769.574          0.518      -107.9944      -70.18425              0
      5933.0000         1.0737       3695.402         0.5362       -108.579      -70.77052              0
      5933.5000         1.0672       3564.082         0.5548      -109.1641      -71.35728              0
      5934.0000         1.0798       3369.914         0.5774      -109.5182      -71.71304              0
      5934.5000         1.1185       2918.547         0.6001      -109.3722       -71.5687              0
      5935.0000         1.1976        2598.02         0.6228      -108.6501      -70.84826              0
      5935.5000         1.4453       2538.414         0.6263      -107.8075      -70.00732              0
      5936.0000         1.3863       2468.586         0.6207      -106.5935      -68.79498              0
      5936.5000         1.2168        2487.02         0.6136       -104.665      -66.86814              0
      5937.0000         1.0475       2815.668         0.5964      -101.3844       -63.5892              0
      5937.5000         0.9057       3191.016         0.5793       -95.9694      -58.17586      0.0309176
      5938.0000         0.8814       3612.758         0.5621       -93.7385      -55.94662     0.06870127
      5938.5000          0.855       3652.215          0.545       -92.9918      -55.20158     0.08132908
      5939.0000         0.8218       3598.402         0.5278       -94.2097      -56.42115     0.06065854
      5939.5000          0.762       3474.457         0.5106       -97.8365      -60.04961              0
      5940.0000         0.7401       3333.047          0.505       -99.4976      -61.71236              0
      5940.5000         0.7202       3196.109         0.5116       -96.1842      -58.40062     0.02710808
      5941.0000         0.7027       2859.559         0.5615       -81.3218      -43.53989      0.2789849
      5941.5000         0.8561       2179.176         0.6159       -67.8992      -30.11895      0.5064585
      5942.0000         0.9087       1875.176         0.6715       -66.0486      -28.27001      0.5377965
      5942.5000         0.9733       1745.438         0.7305       -65.0864      -27.30947      0.5540767
      5943.0000          0.999        1644.84         0.7895       -65.2478      -27.47253       0.551313
      5943.5000         1.0216       1576.811         0.8488       -59.0568       -21.2832       0.656217
      5944.0000         1.0345       1434.959         0.9084       -56.6785      -18.90656       0.696499
      5944.5000         1.0474       1350.777         0.9681       -56.1077      -18.33741      0.7061455
      5945.0000         1.0565       1284.371         1.0187        -54.744      -16.97538      0.7292309
      5945.5000         1.0629       1150.287         1.0512       -50.6515      -12.88454      0.7985672
      5946.0000         1.0692       1061.598         1.0838       -49.7541       -11.9888      0.8137491
      5946.5000         1.0756       1071.846         1.1014       -49.1707      -11.40706      0.8236092
      5947.0000         1.0806       1082.094         1.0877       -48.6398      -10.87782      0.8325793
      5947.5000         1.0787       1103.588         1.0741       -48.1396      -10.37928      0.8410292
      5948.0000         1.0767       1133.434         1.0593       -47.6575      -9.898842      0.8491722
      5948.5000         1.0697       1163.279         1.0402       -47.1759      -9.418903      0.8573067
      5949.0000         1.0452       1194.969         1.0211       -46.3925      -8.637165      0.8705565
      5949.5000         1.0207       1241.359          1.002       -45.3899      -7.636223      0.8875216
      5950.0000         0.9832       1283.188         0.9828        -44.212      -6.459988      0.9074578
      5950.5000          0.953       1308.664         0.9637       -43.1152      -5.364845      0.9260195
      5951.0000         0.9457       1334.143         0.9446       -42.4013      -4.652607      0.9380914
      5951.5000         0.9462         1367.5         0.9255       -41.3412       -3.59417       0.956031
      5952.0000         0.9464        1398.42         0.9077         -42.06      -4.314629      0.9438199
      5952.5000         0.9434       1420.881         0.8954       -43.1666       -5.42289      0.9250358
      5953.0000         0.9405       1432.852         0.8831       -44.2722      -6.530151      0.9062686
      5953.5000         0.9375       1445.076         0.8708       -47.4377      -9.697308       0.852588
      5954.0000         0.9346       1460.811         0.8585       -49.3295      -11.59077      0.8204954
      5954.5000         0.9315       1476.545         0.8462       -48.7033      -10.96623      0.8310808
      5955.0000         0.9259       1534.105         0.8339        -47.784       -10.0486       0.846634
      5955.5000         0.9203       1565.707         0.8216       -45.9147      -8.180954      0.8782889
      5956.0000         0.9244       1579.391         0.8093       -44.0454      -6.313313      0.9099439
      5956.5000         0.9375       1590.637         0.8002       -42.8215      -5.091076      0.9306597
      5957.0000         0.9506       1599.107          0.792       -42.1586      -4.429836      0.9418672
      5957.5000         0.9638       1608.598         0.7838       -44.4618      -6.734699      0.9028017
      5958.0000          0.977       1620.438         0.7756        -46.765      -9.039558      0.8637363
      5958.5000         0.9595       1632.277         0.7674       -50.6877      -12.96392      0.7972217
      5959.0000         0.9191       1644.117         0.7592        -52.123      -14.40088      0.7728664
      5959.5000         0.9007       1697.947         0.7511       -55.4453      -17.72484      0.7165281
      5960.0000         0.8952       1761.588         0.7423       -58.0882       -20.3694       0.671705
      5960.5000         0.8898       1805.566         0.7323        -45.483      -7.765865      0.8853243
      5961.0000         0.8852       1959.971         0.7223       -46.9778      -9.262321      0.8599607
      5961.5000         0.8806        2025.25         0.7124       -47.1599      -9.446087       0.856846
      5962.0000         0.8652       2063.469         0.7024       -48.6234      -10.91125      0.8320128
      5962.5000         0.8487       2101.719         0.6927       -51.1654      -13.45491      0.7888998
      5963.0000         0.8232       2139.938          0.683       -53.1947      -15.48587      0.7544768
      5963.5000         0.8168           2046         0.6733       -54.8076      -17.10043      0.7271114
      5964.0000         0.8401       1908.375         0.6821       -58.9516      -21.24609      0.6568459
      5964.5000         0.8634       1783.357         0.6987       -62.7274      -25.02355      0.5928212
      5965.0000         0.8891       1702.863         0.7154       -63.8451      -26.14291      0.5738489
      5965.5000         0.9158       1642.119          0.732       -65.4229      -27.72237      0.5470785
      5966.0000         0.9436       1593.885         0.7599       -61.9056      -24.20673      0.6066656
      5966.5000         0.9683       1368.598         0.7887       -55.4277       -17.7305      0.7164323
