#------------------------------------------------------------------------------
# Created by    : vladimir.rabinovich
# Created on    : 09/19/2023 17:22:30
#------------------------------------------------------------------------------
~Version Information Section
VERS.           2.0     :   CWLS log ASCII Standard - VERSION 2.0
WRAP.           NO      :   One line per depth step
~Well Information Section
#MNEM       .UNIT                                         VALUE :DESCRIPTION
#------------------------------------------------------------------------------
STRT        .FT                                             456 :START DEPTH
STOP        .FT                                           11667 :STOP DEPTH
STEP        .FT                                             0.5 :STEP      
NULL        .                                           -999.25 :NULL      
COMP        .                              PATRICK PETROLEUM CO :COMPANY   
WELL        .                                     ST TR 00693-L :WELL      
FLD         .                                           WILDCAT :FIELD     
LOC         .                                                   :LOCATION  
CNTY        .                      MATAGORDA ISLAND LARGE BLOCK :LOCATION  
STAT        .                                             TEXAS :STATE     
CTRY        .                                     UNITED STATES :COUNTRY   
SRVC        .                                                   :SERVICE COMPANY
DATE        .                             9/13/2023 11:12:01 AM :LOG DATE  
API         .                                    42703302660000 :API NUMBER
UWI         .                                    42703302660000 :UNIQUE WELL ID
XCOORD      .                                  384413.417453263 :SURFACE X 
YCOORD      .                                  10143960.4717662 :SURFACE Y 
LAT         .                                        27.8986234 :LATITUDE  
LON         .                                       -96.8882217 :LONGITUDE 
ELEV        .FT                                              92 :ELEVATION VALUE
ELEV_TYPE   .                                                KB :ELEVATION REFERENCE TYPE
~Curve Information Section
#MNEM       .UNIT                                      API CODE :CURVE DESCRIPTION
#------------------------------------------------------------------------------
DEPT        .FT                                                 :DEPTH     
CILD        .MMHO                                               :          
DPHI        .%                                                  :          
DT          .US/F                                               :          
GR          .GAPI                                               :          
GR_NORM     .GAPI                                               :GammaRay Normalized
ILD         .OHMM                                               :          
SN          .OHMM                                               :          
SP          .MV                                                 :          
SP_NORM     .MV                                                 :SP Normalized
VSH_GR      .V/V                                                :Volume of Shale from GR
VSH_SP      .V/V                                                :Volume of Shale from SP
~A        DEPTH           CILD           DPHI             DT             GR        GR_NORM            ILD             SN             SP        SP_NORM         VSH_GR         VSH_SP
# ...
      7903.5000           2084        -999.25          131.7        75.5556       78.03788         0.3405         0.5894       -11.1188     -0.4067059      0.9582528              1
      7904.0000         2051.2        -999.25         131.33        75.5923        78.0785         0.3485         0.6028       -11.6832     -0.9940233       0.959117              1
      7904.5000       2017.333        -999.25         131.29         75.303       77.77232         0.3619         0.6148       -11.3366     -0.6703405      0.9526024              1
      7905.0000         1980.4        -999.25         131.73        74.9192       77.36559         0.3772         0.6202       -10.6931    -0.04975796      0.9439488              1
      7905.5000         1918.4        -999.25          132.3        74.8384       77.28123         0.3878         0.6228        -11.604     -0.9835749      0.9421538              1
      7906.0000       1864.364        -999.25         133.12        74.4353       76.85398         0.3903         0.6205       -11.4311     -0.8335924      0.9330634              1
      7906.5000         1824.4        -999.25         133.96        73.7778       76.15608         0.3919         0.6156       -10.6931     -0.1185093      0.9182145              1
      7907.0000         1798.4        -999.25       134.4909        73.2222        75.5666         0.3953         0.6119       -11.0693     -0.5176268      0.9056723              1
      7907.5000         1784.4        -999.25          134.8        72.8283       75.14914         0.3964         0.6113       -11.2475     -0.7187452      0.8967902              1
      7908.0000       1780.727        -999.25       135.0885        73.5983       75.96987         0.3942         0.6113       -12.3042      -1.798362      0.9142526      0.9854843
      7908.5000         1800.8        -999.25       135.4165        74.6845       77.12699         0.3871         0.6113       -13.2178      -2.734879      0.9388722      0.9684567
      7909.0000           1830        -999.25       135.8709        75.8267       78.34367         0.3834         0.6113       -13.3861      -2.926096       0.964759      0.9649801
      7909.5000           1852        -999.25       136.0588        75.3333       77.82036         0.3821         0.6113       -13.5644      -3.127314      0.9536247      0.9613216
      7910.0000           1856        -999.25       135.6293        74.5814       77.02204         0.3829         0.6119       -12.7426      -2.328431      0.9366392      0.9758467
      7910.5000         1854.8        -999.25       135.2113          73.85       76.24554         0.3878         0.6171       -12.2772      -1.885948       0.920118      0.9838918
      7911.0000         1835.2        -999.25       134.7265           73.2       75.55563         0.3956         0.6199       -11.7822      -1.413865       0.905439      0.9924752
      7911.5000         1798.4        -999.25       134.1097          73.72       76.11041         0.4034         0.6255       -12.3267      -1.981283      0.9172428      0.9821585
      7912.0000       1766.545        -999.25       133.3289        74.5818        77.0288         0.4113         0.6351       -12.7723        -2.4498       0.936783        0.97364
      7912.5000         1726.4        -999.25       132.0546          75.69       78.20931         0.4177         0.6376       -12.1485      -1.848918      0.9619003      0.9845651
      7913.0000         1698.4        -999.25       130.2807           76.9       79.49813         0.4247         0.6376       -11.0099     -0.7332344      0.9893219              1
      7913.5000         1688.4        -999.25        128.901          75.84       78.37205         0.4285         0.6364        -10.396      -0.142252      0.9653627              1
      7914.0000       1694.182        -999.25       127.4257          74.71       77.17151          0.423         0.6205       -12.1782      -1.947369      0.9398193      0.9827751
      7914.5000         1715.6        -999.25       125.9802          73.95       76.36457         0.4111         0.6133       -11.4852      -1.277287      0.9226505      0.9949584
      7915.0000         1763.2        -999.25       124.8911           73.3       75.67467         0.4006         0.6096       -10.5743     -0.3893032      0.9079716              1
      7915.5000         1812.8        -999.25       124.1584          73.22       75.59114         0.3908         0.6048       -10.7624     -0.6003208      0.9061945              1
      7916.0000       1845.455        -999.25       125.3366           73.3       75.67783         0.3818         0.6014       -11.9532      -1.814038       0.908039      0.9851993
      7916.5000           1872        -999.25       126.6634          73.23       75.60495         0.3756         0.5978       -12.3564      -2.240155      0.9064883      0.9774517
      7917.0000         1894.4        -999.25       127.4455          73.94       76.36185         0.3713         0.5973       -12.5743      -2.480973      0.9225925      0.9730732
      7917.5000           1910        -999.25       128.1638          75.26       77.76768         0.3679         0.5973       -11.0891       -1.01869      0.9525038      0.9996602
      7918.0000       1917.588        -999.25       128.1611        75.4006       77.91883         0.3695         0.5973       -11.8614      -1.813908      0.9557198      0.9852017
      7918.5000       1925.463        -999.25       127.5434        75.3184       77.83297         0.3744         0.5973       -13.1881      -3.163525      0.9538929      0.9606632
      7919.0000         1920.8        -999.25         126.77        75.4794       78.00583         0.3801         0.5973       -14.3465      -4.344843      0.9575709      0.9391847
      7919.5000       1915.376        -999.25       127.1617        75.3657       77.88645         0.3858         0.5973       -14.8218       -4.84306      0.9550309      0.9301262
      7920.0000       1901.854        -999.25        128.717        75.3593       77.88122         0.3874         0.5973       -14.6715      -4.715677      0.9549195      0.9324422
      7920.5000         1886.4        -999.25       131.8713        75.9697       78.53217         0.3842         0.5973       -13.8614      -3.928493      0.9687697      0.9467546
      7921.0000           1876        -999.25       136.2871        76.5657       79.16779         0.3747         0.5951       -13.1881      -3.278111      0.9822933      0.9585798
      7921.5000         1905.2        -999.25       140.3928        77.1717       79.81406         0.3616         0.5865       -13.2079      -3.320828      0.9960437      0.9578031
      7922.0000           1942        -999.25         142.48        77.6768       80.35298         0.3523         0.5804       -13.0693      -3.205146              1      0.9599065
      7922.5000         1980.4        -999.25         143.78        77.9798       80.67689         0.3444         0.5751       -13.1584      -3.317163              1      0.9578698
      7923.0000       1999.273        -999.25         144.46        77.8788       80.57103         0.3371         0.5681       -13.4654       -3.64708              1      0.9518713
      7923.5000         2015.6        -999.25         144.76        77.5859       80.26102         0.3316         0.5642       -12.8515      -3.056097              1      0.9626164
      7924.0000         2057.2        -999.25         145.04        77.6667       80.34856         0.3257         0.5629       -12.5941      -2.821615              1      0.9668797
      7924.5000         2107.6        -999.25         145.51        77.7778       80.46833         0.3185          0.566       -12.5743      -2.824732              1       0.966823
      7925.0000         2144.4        -999.25         146.18        77.1212        79.7714         0.3155         0.5681       -12.8713       -3.14465      0.9951362      0.9610063
      7925.5000           2164        -999.25         146.83         76.101       78.68765         0.3157         0.5655       -15.0594      -5.355667      0.9720777      0.9208061
