#------------------------------------------------------------------------------
# Created by    : vladimir.rabinovich
# Created on    : 09/19/2023 17:19:58
#------------------------------------------------------------------------------
~Version Information Section
VERS.           2.0     :   CWLS log ASCII Standard - VERSION 2.0
WRAP.           NO      :   One line per depth step
~Well Information Section
#MNEM       .UNIT                                         VALUE :DESCRIPTION
#------------------------------------------------------------------------------
STRT        .FT                                             782 :START DEPTH
STOP        .FT                                            8251 :STOP DEPTH
STEP        .FT                                             0.5 :STEP      
NULL        .                                           -999.25 :NULL      
COMP        .                                     TALOS ERT LLC :COMPANY   
WELL        .                               OCS G06037 ST00BP00 :WELL      
FLD         .                       MATAGORDA ISLAND BLOCK 0619 :FIELD     
LOC         .                                                   :LOCATION  
CNTY        .                      MATAGORDA ISLAND LARGE BLOCK :LOCATION  
STAT        .                                             TEXAS :STATE     
CTRY        .                                     UNITED STATES :COUNTRY   
SRVC        .                                                   :SERVICE COMPANY
DATE        .                             9/13/2023 11:18:52 AM :LOG DATE  
API         .                                    42703402240000 :API NUMBER
UWI         .                                    42703402240000 :UNIQUE WELL ID
XCOORD      .                                  606760.800591327 :SURFACE X 
YCOORD      .                                  10227689.0556145 :SURFACE Y 
LAT         .                                        28.1463556 :LATITUDE  
LON         .                                       -96.2076889 :LONGITUDE 
ELEV        .FT                                              77 :ELEVATION VALUE
ELEV_TYPE   .                                                KB :ELEVATION REFERENCE TYPE
~Curve Information Section
#MNEM       .UNIT                                      API CODE :CURVE DESCRIPTION
#------------------------------------------------------------------------------
DEPT        .FT                                                 :DEPTH     
ASFL        .OHMM                                               :          
CALI        .IN                                                 :          
CILD        .MMHO                                               :          
DRHO        .G/C3                                               :          
DT          .US/F                                               :          
GR          .GAPI                                               :          
GR_NORM     .GAPI                                               :GammaRay Normalized
ILD         .OHMM                                               :          
ILM         .OHMM                                               :          
NPHI        .%                                                  :          
RHOB        .G/C3                                               :          
SFL         .OHMM                                               :          
SP          .MV                                                 :          
SP_NORM     .MV                                                 :SP Normalized
VSH_GR      .V/V                                                :Volume of Shale from GR
VSH_SP      .V/V                                                :Volume of Shale from SP
~A        DEPTH           ASFL           CALI           CILD           DRHO             DT             GR        GR_NORM            ILD            ILM           NPHI           RHOB            SFL             SP        SP_NORM         VSH_GR         VSH_SP
# ...
      3278.0000         0.4406        22.5963        2976.18         0.0497       129.8999        25.9048       32.11069         0.3234         0.3616        51.1718         1.5067         0.4213       -74.2782      -20.38598              0       0.124477
      3278.5000         0.4399        22.5984       2901.543         0.0333       129.4844        25.3032       31.43059         0.3363         0.3778         52.708         1.4624         0.4179       -73.5046      -19.61238              0       0.161315
      3279.0000         0.4418        22.6004       2826.066         0.0367        127.245        26.3962       32.66833         0.3493         0.3922         52.217         1.5159         0.4221       -72.8088      -18.91658              0      0.1944484
      3279.5000         0.4455        22.5988       2718.938         0.0528       124.5167        27.5274       33.94928         0.3627         0.4034        51.0027         1.6245         0.4325       -72.1871      -18.29489     0.02019752       0.224053
      3280.0000         0.4529         22.594       2607.801         0.0793       122.5569        28.3759        34.9103         0.3779         0.4149        49.9204         1.7299         0.4469       -71.6412      -17.74898     0.04064471      0.2500485
      3280.5000         0.4645        22.5947       2479.328         0.1011       121.4088        28.8282       35.42293         0.3946          0.425        50.2717         1.8148         0.4649       -71.1372      -17.24498     0.05155174      0.2740484
      3281.0000         0.4761        22.5984       2333.719         0.1366       120.6385        29.5826       36.27745         0.4085         0.4317        50.9525         1.8715         0.4787       -70.9056      -17.01339     0.06973307      0.2850769
      3281.5000         0.4815        22.6098       2274.113         0.1643       120.6218        30.3958       37.19852         0.4232         0.4289        52.1016         1.9214         0.4891       -70.8188      -16.92659     0.08933014      0.2892102
      3282.0000         0.4863        22.6172       2230.754         0.1815         121.67        31.0296       37.91656         0.4377         0.4274        53.0769         1.9377         0.4955       -70.8365      -16.94429      0.1046077      0.2883673
      3282.5000         0.4856        22.6194           2221         0.1636       126.9532        31.0992       37.99606         0.4438         0.4265        55.5494         1.9056         0.5007       -70.8821      -16.98989      0.1062992      0.2861958
      3283.0000         0.4831        22.6217       2235.074         0.1428       130.8582        30.3228       37.11813         0.4454         0.4259        58.2623         1.8574         0.4937       -71.1228      -17.23059     0.08761986       0.274734
      3283.5000         0.4804         22.622       2256.188         0.1221       132.9426        29.5331       36.22514         0.4436         0.4278        -999.25         1.8031         0.4797        -71.252      -17.35978     0.06862007      0.2685817
      3284.0000         0.4776         22.617       2277.297         0.0941       133.4858        28.6461       35.22204         0.4391         0.4324        -999.25         1.7449         0.4696       -71.5951      -17.70288     0.04727741      0.2522436
      3284.5000         0.4736        22.6135       2302.691         0.0659       131.9775        27.9597       34.44596         0.4318         0.4392        58.7075         1.6329         0.4676       -71.9869      -18.09468     0.03076513      0.2335864
      3285.0000         0.4696        22.6111       2343.477         0.0504       129.6545        27.4744       33.89747         0.4236         0.4348        59.5938         1.5284         0.4706       -72.2957      -18.40348     0.01909516      0.2188817
      3285.5000         0.4655        22.6085       2375.176         0.0314       126.7067        27.1082       33.48377         0.4153         0.4252        63.4081         1.4565          0.477       -72.6371      -18.74488     0.01029303      0.2026245
      3286.0000         0.4605        22.6055       2378.371          0.016       123.8832        26.8595       33.20306         0.4066         0.4141        67.0099         1.4028         0.4839       -73.0229      -19.13069    0.004320348       0.184253
      3286.5000         0.4555        22.5995       2370.688         0.0035       126.1378        26.8739        33.2201         0.4011          0.411        70.5507         1.3545         0.4682       -73.2614      -19.36918    0.004682906      0.1728961
      3287.0000         0.4505        22.5935       2363.008        -0.0058       132.1045        27.3897       33.80458         0.3967          0.411        68.0999         1.3178         0.4522       -73.4655      -19.57328     0.01711882      0.1631769
      3287.5000         0.4483        22.5887       2372.797        -0.0127       136.5291        28.2883        34.8223         0.4043         0.4129        65.6504         1.2559         0.4387       -73.6876      -19.79538     0.03877234      0.1526008
      3288.0000         0.4474        22.5851       2401.793        -0.0145       133.5059        28.6023       35.17841         0.4113         0.4161        65.4382         1.2424          0.433       -73.8535      -19.96128     0.04634914      0.1447007
      3288.5000         0.4465        22.5849       2435.273        -0.0023       127.0997        27.9158       34.40222          0.414         0.4179        66.4731          1.284         0.4526       -73.9414      -20.04918     0.02983442      0.1405151
      3289.0000         0.4468        22.5858       2456.355         0.0151       121.9996        27.0842        33.4618         0.4112         0.4192        64.8717         1.3746         0.4673       -73.9825      -20.09028    0.009825605       0.138558
      3289.5000         0.4536         22.588       2472.117         0.0281       121.6115        26.2535       32.52242         0.4062          0.416        61.9444         1.4369          0.475       -73.8623      -19.97008              0      0.1442818
      3290.0000         0.4604        22.5902       2487.871         0.0366       123.0836        26.4181       32.70945         0.4037         0.4118         60.515         1.4415         0.4727       -73.7976      -19.90538              0      0.1473627
      3290.5000         0.4586        22.5926       2505.367         0.0224       125.3236        26.8914       33.24584         0.4018          0.406        61.5475         1.4182         0.4633       -73.7815      -19.88929    0.005230599      0.1481292
      3291.0000         0.4549        22.5954       2523.309         0.0123       128.2617         27.544       33.98515         0.4004         0.4011        61.9846         1.3765          0.451       -73.8798      -19.98758     0.02096063      0.1434484
      3291.5000         0.4508        22.5928       2541.238         0.0026       131.5308        28.0465       34.55459         0.3972          0.397         60.057         1.3142         0.4416       -73.9825      -20.09028     0.03307643       0.138558
      3292.0000         0.4426        22.5873       2565.605        -0.0071       136.0278        27.7058       34.16975         0.3912         0.3937        57.8863         1.2773         0.4344       -74.1417      -20.24949     0.02488822      0.1309769
      3292.5000         0.4345        22.5878       2590.766        -0.0163       137.9824        26.4795       32.78265         0.3924         0.3923        55.6235          1.227         0.4305       -74.3002      -20.40799              0      0.1234293
      3293.0000         0.4336        22.5918        2619.59        -0.0233       135.9302        25.6281       31.81983         0.3933         0.3916        59.1771         1.2189           0.43       -74.3768      -20.48458              0      0.1197817
      3293.5000         0.4331        22.5835       2651.063        -0.0207       130.3711        25.3358       31.48977         0.3925         0.3921        62.7126         1.2262         0.4314       -74.4565      -20.56428              0      0.1159866
