#------------------------------------------------------------------------------
# Created by    : vladimir.rabinovich
# Created on    : 09/19/2023 17:20:38
#------------------------------------------------------------------------------
~Version Information Section
VERS.           2.0     :   CWLS log ASCII Standard - VERSION 2.0
WRAP.           NO      :   One line per depth step
~Well Information Section
#MNEM       .UNIT                                         VALUE :DESCRIPTION
#------------------------------------------------------------------------------
STRT        .FT                                             540 :START DEPTH
STOP        .FT                                            8409 :STOP DEPTH
STEP        .FT                                             0.5 :STEP      
NULL        .                                           -999.25 :NULL      
COMP        .                                      SHELL OIL CO :COMPANY   
WELL        .                                OCS 00706 ST00BP00 :WELL      
FLD         .                                           WILDCAT :FIELD     
LOC         .                                                   :LOCATION  
CNTY        .                             GALVESTON LARGE BLOCK :LOCATION  
STAT        .                                             TEXAS :STATE     
CTRY        .                                     UNITED STATES :COUNTRY   
SRVC        .                                                   :SERVICE COMPANY
DATE        .                             9/13/2023 11:19:25 AM :LOG DATE  
API         .                                    42706000280000 :API NUMBER
UWI         .                                    42706000280000 :UNIQUE WELL ID
XCOORD      .                                  1100625.96198943 :SURFACE X 
YCOORD      .                                  10499283.7203345 :SURFACE Y 
LAT         .                                         28.920625 :LATITUDE  
LON         .                                        -94.687754 :LONGITUDE 
ELEV        .FT                                              78 :ELEVATION VALUE
ELEV_TYPE   .                                                KB :ELEVATION REFERENCE TYPE
~Curve Information Section
#MNEM       .UNIT                                      API CODE :CURVE DESCRIPTION
#------------------------------------------------------------------------------
DEPT        .FT                                                 :DEPTH     
ASN         .OHMM                                               :          
DT          .US/F                                               :          
ILD         .OHMM                                               :          
LAT         .OHMM                                               :          
LN          .OHMM                                               :          
SP          .MV                                                 :          
SP_NORM     .MV                                                 :SP Normalized
VSH_SP      .V/V                                                :Volume of Shale from SP
~A        DEPTH            ASN             DT            ILD            LAT             LN             SP        SP_NORM         VSH_SP
# ...
      5260.0000         1.2696       115.1046         0.7026        -999.25        -999.25       -62.3069      -23.28251      0.6223304
      5260.5000         1.2522       115.5686         0.7017        -999.25        -999.25       -63.3908      -24.36641      0.6039591
      5261.0000         1.2348       110.6997         0.7008        -999.25        -999.25       -62.8533      -23.82891      0.6130694
      5261.5000         1.2171        112.913         0.7123        -999.25        -999.25       -61.7832      -22.75881      0.6312066
      5262.0000         1.1989        114.432         0.7327        -999.25        -999.25        -60.616      -21.59161      0.6509897
      5262.5000         1.2116       124.4082         0.7531        -999.25        -999.25       -59.6525      -20.62811      0.6673202
      5263.0000         1.2392       124.2576         0.7735        -999.25        -999.25       -59.3395      -20.31511      0.6726252
      5263.5000         1.2581       120.2287         0.7939        -999.25        -999.25       -59.9686      -20.94421      0.6619626
      5264.0000         1.2624       116.1998         0.8143        -999.25        -999.25       -60.5528      -21.52841      0.6520609
      5264.5000         1.2435       112.1708         0.8347        -999.25        -999.25       -53.8438      -14.81941      0.7657728
      5265.0000         1.2264       109.5581         0.8551        -999.25        -999.25        -51.039      -12.01461      0.8133117
      5265.5000         1.2112       113.3751         0.8718        -999.25        -999.25       -48.0922       -9.06781      0.8632575
      5266.0000         1.2083       118.6572         0.8828        -999.25        -999.25       -45.9177      -6.893311      0.9001134
      5266.5000         1.2155       115.6318         0.8939        -999.25        -999.25       -45.2273      -6.202908      0.9118151
      5267.0000         1.2228       114.7894         0.9034        -999.25        -999.25       -44.8029      -5.778507      0.9190084
      5267.5000         1.2088       120.7061         0.8828        -999.25        -999.25       -44.2751       -5.25071      0.9279541
      5268.0000         1.1915         121.14         0.8622        -999.25        -999.25       -43.6926      -4.668209       0.937827
      5268.5000         1.1741       121.1193         0.8416        -999.25        -999.25       -43.1268      -4.102409      0.9474168
      5269.0000         1.1529       123.3193          0.821        -999.25        -999.25       -42.6253       -3.60091      0.9559168
      5269.5000         1.1317       126.2271         0.8066        -999.25        -999.25       -42.1244       -3.10001      0.9644066
      5270.0000         1.1258       123.8093         0.7939        -999.25        -999.25       -41.6559      -2.631508      0.9723473
      5270.5000           1.12       123.9859         0.7812        -999.25        -999.25       -41.2454      -2.221008       0.979305
      5271.0000         1.1204       127.0137         0.7685        -999.25        -999.25       -40.8157      -1.791309       0.986588
      5271.5000         1.1208       122.7635         0.7731        -999.25        -999.25       -40.5045       -1.48011      0.9918625
      5272.0000         1.1308       116.8479         0.7784        -999.25        -999.25       -41.3361       -2.31171      0.9777676
      5272.5000         1.1468       116.4505         0.7837        -999.25        -999.25       -42.1677      -3.143311      0.9636727
      5273.0000         1.1628       120.6875          0.789        -999.25        -999.25       -43.2726      -4.248207      0.9449456
      5273.5000         1.1782       119.0011         0.7921        -999.25        -999.25       -44.3932      -5.368809      0.9259524
      5274.0000         1.1773       119.9765          0.794        -999.25        -999.25       -45.4128      -6.388409       0.908671
      5274.5000          1.164       126.3383         0.7959        -999.25        -999.25       -46.3226       -7.29821      0.8932507
      5275.0000         1.1509       119.6121         0.7977        -999.25        -999.25       -46.4391      -7.414707      0.8912761
      5275.5000         1.1378       115.9865         0.7996        -999.25        -999.25       -45.5859      -6.561508      0.9057372
      5276.0000         1.1351       118.1264         0.7954        -999.25        -999.25       -44.7566      -5.732208      0.9197931
      5276.5000         1.1361       126.3546         0.7901        -999.25        -999.25       -43.9539      -4.929508      0.9333982
      5277.0000         1.1372       124.9823         0.7848        -999.25        -999.25       -43.2183      -4.193909      0.9458659
      5277.5000         1.1383       104.4459         0.7804        -999.25        -999.25       -43.4227      -4.398308      0.9424016
      5278.0000         1.1753       103.4626         0.7931        -999.25        -999.25       -44.1115      -5.087109      0.9307269
      5278.5000         1.2396        119.817         0.8057        -999.25        -999.25       -44.8593      -5.834908      0.9180524
      5279.0000         1.2774       120.3136         0.8183        -999.25        -999.25       -45.7745      -6.750111      0.9025405
      5279.5000         1.2874        117.259         0.8309        -999.25        -999.25       -46.8629      -7.838509       0.884093
      5280.0000         1.2974       113.7378         0.8436        -999.25        -999.25       -47.9525      -8.928108      0.8656253
      5280.5000         1.2847       113.2067         0.8562        -999.25        -999.25       -48.9792      -9.954807      0.8482236
      5281.0000         1.2715       117.0974         0.8688        -999.25        -999.25       -49.6211      -10.59671      0.8373439
      5281.5000         1.2603       117.5405          0.875        -999.25        -999.25       -49.0419      -10.01751      0.8471609
      5282.0000         1.2491       115.0121         0.8794        -999.25        -999.25       -48.4251      -9.400707      0.8576151
      5282.5000         1.2379       112.8024         0.8672        -999.25        -999.25       -48.7493      -9.724907      0.8521202
      5283.0000         1.2266       113.0174          0.855        -999.25        -999.25       -49.0073       -9.98291      0.8477473
      5283.5000         1.2135       111.9517         0.8428        -999.25        -999.25        -49.235      -10.21061       0.843888
      5284.0000         1.2004       109.4312         0.8306        -999.25        -999.25       -49.1174      -10.09301      0.8458812
      5284.5000         1.1769       111.1274         0.8185        -999.25        -999.25       -48.3058       -9.28141      0.8596371
      5285.0000         1.1568       116.9019         0.8067        -999.25        -999.25       -46.6277       -7.60331      0.8880795
      5285.5000         1.1419       123.5758         0.7949        -999.25        -999.25       -45.1987      -6.174309      0.9122999
      5286.0000         1.1283       127.8766         0.7831        -999.25        -999.25       -44.1314       -5.10701      0.9303896
      5286.5000         1.1107       128.7618         0.7713        -999.25        -999.25       -43.2449      -4.220509      0.9454151
      5287.0000         1.0864       128.7653         0.7595        -999.25        -999.25       -42.7119      -3.687508       0.954449
      5287.5000         1.0593       128.4867         0.7477        -999.25        -999.25       -42.2847      -3.260307      0.9616897
      5288.0000         1.0394       127.4917          0.736        -999.25        -999.25       -41.8254       -2.80101      0.9694744
      5288.5000         1.0351       126.8043         0.7262        -999.25        -999.25       -41.0554       -2.03101      0.9825253
      5289.0000         1.0338       127.0196         0.7182        -999.25        -999.25       -40.2937       -1.26931      0.9954354
