#------------------------------------------------------------------------------
# Created by    : vladimir.rabinovich
# Created on    : 09/19/2023 17:19:36
#------------------------------------------------------------------------------
~Version Information Section
VERS.           2.0     :   CWLS log ASCII Standard - VERSION 2.0
WRAP.           NO      :   One line per depth step
~Well Information Section
#MNEM       .UNIT                                         VALUE :DESCRIPTION
#------------------------------------------------------------------------------
STRT        .FT                                            4496 :START DEPTH
STOP        .FT                                            7801 :STOP DEPTH
STEP        .FT                                             0.5 :STEP      
NULL        .                                           -999.25 :NULL      
COMP        .                             HELIS WM G CO LLC THE :COMPANY   
WELL        .                               OCS G12508 ST00BP00 :WELL      
FLD         .                              GALVESTON BLOCK 0395 :FIELD     
LOC         .                                                   :LOCATION  
CNTY        .                             GALVESTON LARGE BLOCK :LOCATION  
STAT        .                                             TEXAS :STATE     
CTRY        .                                     UNITED STATES :COUNTRY   
SRVC        .                                                   :SERVICE COMPANY
DATE        .                             9/13/2023 11:19:03 AM :LOG DATE  
API         .                                    42706404300000 :API NUMBER
UWI         .                                    42706404300000 :UNIQUE WELL ID
XCOORD      .                                  908236.382466376 :SURFACE X 
YCOORD      .                                  10386259.9403327 :SURFACE Y 
LAT         .                                         28.601028 :LATITUDE  
LON         .                                        -95.282181 :LONGITUDE 
ELEV        .FT                                             103 :ELEVATION VALUE
ELEV_TYPE   .                                                KB :ELEVATION REFERENCE TYPE
~Curve Information Section
#MNEM       .UNIT                                      API CODE :CURVE DESCRIPTION
#------------------------------------------------------------------------------
DEPT        .FT                                                 :DEPTH     
AHT10       .OHMM                                               :          
AHT20       .OHMM                                               :          
AHT30       .OHMM                                               :          
AHT60       .OHMM                                               :          
AHT90       .OHMM                                               :          
CPCHM       .MMHO                                               :          
DCAL        .IN                                                 :          
DPHZ        .FRAC                                               :          
GR          .GAPI                                               :          
GR_NORM     .GAPI                                               :GammaRay Normalized
GRAM        .GAPI                                               :          
HDRA        .G/CC                                               :          
NPOR        .FRAC                                               :          
RACHM       .OHMM                                               :          
ROPS        .F/HR                                               :          
RPCHM       .OHMM                                               :          
RWA         .OHMM                                               :          
SP          .MV                                                 :          
SP_NORM     .MV                                                 :SP Normalized
TENS        .LB/F                                               :          
VSH_GR      .V/V                                                :Volume of Shale from GR
VSH_SP      .V/V                                                :Volume of Shale from SP
~A        DEPTH          AHT10          AHT20          AHT30          AHT60          AHT90          CPCHM           DCAL           DPHZ             GR        GR_NORM           GRAM           HDRA           NPOR          RACHM           ROPS          RPCHM            RWA             SP        SP_NORM           TENS         VSH_GR         VSH_SP
# ...
      7124.0000         0.9034          0.951         0.9907         1.0035         0.9885       1230.125         0.0578         0.1545        68.1859       75.71039         74.205         0.0519         0.3315          0.923         91.941          0.802         0.0288       -20.8125     -0.7474564           3208      0.9087316      0.9893221
      7124.5000         0.8935         0.9371         0.9669         0.9765         0.9702       1237.734        -0.0023         0.1645        68.1859        75.7072         73.231         0.0394         0.3301          0.919         91.941          0.811         0.0323       -19.0625       1.693243           3196      0.9086638              1
      7125.0000         0.8731         0.9085         0.9531          0.962         0.9588       1228.775         0.0578         0.1695        63.5928       69.12071         72.532         0.0344         0.3041          0.914         91.941           0.83          0.034        -19.625      0.8964451           3209      0.7685258              1
      7125.5000         0.8522         0.9105         0.9381         0.9512         0.9439       1207.377         0.0097         0.1711         64.014       69.72121         70.135          0.036         0.3391          0.914        115.644          0.807         0.0342        -21.125      -1.212856           3190      0.7813023      0.9826735
      7126.0000         0.8118         0.8527         0.8738         0.8955         0.9013       1219.263         0.0097         0.1651        64.6459       70.62371         71.112         0.0426         0.4048          0.906        115.644          0.802         0.0303            -20      0.3528465           3219      0.8005045              1
      7126.5000         0.7733         0.8055         0.8259         0.8394         0.8379        1235.74         0.0578         0.1612        71.6214       80.61849         71.365         0.0466         0.4273          0.911        115.644          0.806         0.0267        -19.625      0.8685459           3277              1              1
      7127.0000          0.782         0.8067         0.8251         0.8392         0.8321       1236.565         0.2983         0.1587        75.4124       86.04895         71.542         0.0459         0.4024          0.907        115.644          0.806         0.0256        -21.375      -1.590755           3200              1       0.977275
      7127.5000         0.8022         0.8276         0.8445         0.8533          0.847       1237.389          0.154         0.1563        77.9397       89.66811         70.263         0.0424          0.442          0.907        137.925          0.808         0.0253          -20.5     -0.3750526           3201              1      0.9946421
      7128.0000         0.8385         0.8777         0.8935         0.9051         0.8916       1238.213          0.154          0.152        78.9283       91.08188         69.335         0.0403         0.3953          0.905        137.925          0.811          0.025       -21.9375      -2.396853           3222              1      0.9657592
      7128.5000         0.9015         0.9497         0.9663         0.9649         0.9585       1239.037         0.2983         0.1479        74.5055       84.73948         70.306         0.0401         0.3463          0.911        137.925          0.806         0.0254       -22.4375      -3.106154           3209              1      0.9556264
      7129.0000         0.8858         0.9416         0.9637         0.9524         0.9467       1239.473         0.0338         0.1454        68.6085       76.28411         70.824         0.0411         0.3444          0.911        137.925          0.813         0.0242       -21.4375      -1.715452           3205      0.9209386      0.9754936
      7129.5000         0.8472         0.9001         0.9179         0.9202          0.909       1232.307        -0.0143         0.1551        68.1009       75.55337         67.997         0.0368         0.3718          0.912        131.372           0.82         0.0267       -21.1875      -1.374752           3239      0.9053908      0.9803607
      7130.0000         0.8248         0.8669         0.8821         0.8898         0.8745       1225.141         0.7191         0.1593        69.9964       78.26701         66.661         0.0367         0.3451          0.912        131.372          0.814         0.0272         -22.25      -2.871553           3234      0.9631278      0.9589778
      7130.5000         0.8025         0.8361          0.852         0.8584         0.8478       1217.975         0.0819         0.1571        73.1555       82.79174         68.213         0.0408         0.3314          0.907        131.372          0.812         0.0256          -22.5      -3.230851           3279              1       0.953845
      7131.0000         0.7868         0.8221         0.8347         0.8428         0.8338       1213.307        -0.0143         0.1591        71.2551        80.0647         72.247         0.0384         0.3777          0.901        131.372          0.803         0.0258        -20.375     -0.2651516           3256              1      0.9962121
      7131.5000         0.7943         0.8273         0.8405         0.8459         0.8388       1221.911         0.0338         0.1631        69.9915       78.25037         72.473         0.0354         0.4022          0.894        127.173          0.793         0.0274        -21.375      -1.674452           3215      0.9627739      0.9760792
      7132.0000          0.809         0.8478          0.857         0.8647         0.8555       1230.516        -0.0383         0.1648         72.072       81.22914         71.648         0.0365         0.3685          0.897        127.173          0.778         0.0286       -21.8125       -2.29625           3215              1      0.9671964
      7132.5000         0.8205         0.8562         0.8694         0.8791         0.8668        1239.12         0.0699         0.1557        71.1088       79.84541         71.169         0.0479         0.3783          0.907        127.173          0.808         0.0257       -22.9375      -3.880551           3212      0.9967108      0.9445636
      7133.0000         0.8422         0.8817         0.8994         0.9059         0.8903       1235.767         0.2021          0.157         70.477       78.93664         69.125         0.0523         0.4071          0.921        127.173          0.822         0.0268       -18.4375       2.410149           3218      0.9773753              1
      7133.5000         0.8299         0.8694         0.8856         0.8967         0.8811       1228.355         0.0819         0.1653        68.6201       76.27197         69.669          0.049         0.4129          0.937        118.873          0.845         0.0296        -21.375      -1.711649           3275      0.9206801      0.9755479
      7134.0000         0.8233         0.8632         0.8704         0.8845         0.8716       1220.943         0.2021         0.1706        70.9884       79.66325         70.516         0.0459         0.4275          0.941        118.873           0.86         0.0314            -20      0.2040501           3250       0.992835              1
      7134.5000         0.8352         0.8666         0.8843         0.8951         0.8839       1213.531         0.1179         0.1636         73.937       83.88626         72.247         0.0467         0.3913          0.934        118.873          0.859         0.0291        -19.875      0.3697495           3282              1              1
      7135.0000         0.8415          0.876         0.8971         0.9053         0.8967       1197.256         0.2742         0.1571        71.3155       80.12566         71.417         0.0445         0.3556          0.936        118.873          0.826          0.027       -20.3125     -0.2520485           3307              1      0.9963993
      7135.5000         0.8273         0.8636         0.8797         0.8893         0.8817       1165.156         0.1179         0.1495        71.7367       80.72618         69.472         0.0423         0.3516          0.943        141.276          0.847         0.0239          -19.5      0.8761509           3212              1              1
