#------------------------------------------------------------------------------
# Created by    : vladimir.rabinovich
# Created on    : 09/19/2023 17:20:01
#------------------------------------------------------------------------------
~Version Information Section
VERS.           2.0     :   CWLS log ASCII Standard - VERSION 2.0
WRAP.           NO      :   One line per depth step
~Well Information Section
#MNEM       .UNIT                                         VALUE :DESCRIPTION
#------------------------------------------------------------------------------
STRT        .FT                                            3530 :START DEPTH
STOP        .FT                                           11780 :STOP DEPTH
STEP        .FT                                             0.5 :STEP      
NULL        .                                           -999.25 :NULL      
COMP        .                                        TEXACO INC :COMPANY   
WELL        .                                     ST TR 00820-L :WELL      
FLD         .                                           WILDCAT :FIELD     
LOC         .                                                   :LOCATION  
CNTY        .                        MUSTANG ISLAND LARGE BLOCK :LOCATION  
STAT        .                                             TEXAS :STATE     
CTRY        .                                     UNITED STATES :COUNTRY   
SRVC        .                                                   :SERVICE COMPANY
DATE        .                             9/13/2023 11:18:55 AM :LOG DATE  
API         .                                    42702302010000 :API NUMBER
UWI         .                                    42702302010000 :UNIQUE WELL ID
XCOORD      .                                  295719.314319733 :SURFACE X 
YCOORD      .                                  9994218.17259751 :SURFACE Y 
LAT         .                                        27.4796405 :LATITUDE  
LON         .                                       -97.1466422 :LONGITUDE 
ELEV        .FT                                              78 :ELEVATION VALUE
ELEV_TYPE   .                                                KB :ELEVATION REFERENCE TYPE
~Curve Information Section
#MNEM       .UNIT                                      API CODE :CURVE DESCRIPTION
#------------------------------------------------------------------------------
DEPT        .FT                                                 :DEPTH     
ASFL        .OHMM                                               :          
CILD        .MMHO                                               :          
GR          .GAPI                                               :          
GR_NORM     .GAPI                                               :GammaRay Normalized
ILD         .OHMM                                               :          
SP          .MV                                                 :          
SP_NORM     .MV                                                 :SP Normalized
VSH_GR      .V/V                                                :Volume of Shale from GR
VSH_SP      .V/V                                                :Volume of Shale from SP
~A        DEPTH           ASFL           CILD             GR        GR_NORM            ILD             SP        SP_NORM         VSH_GR         VSH_SP
# ...
      5729.5000         0.8205       982.6621         67.962       77.67977         0.8765       -40.1795      -1.356911      0.9506334      0.9939507
      5730.0000         0.8826       945.5693        67.0642       76.14026         0.9118       -40.0173      -1.207352      0.9178779      0.9964856
      5730.5000         0.9162       912.1641        66.2264       74.70338         0.9472        -39.855      -1.057693      0.8873059      0.9990221
      5731.0000         0.9454       933.8096        66.9047        75.8595         0.9825       -39.6928     -0.9081345      0.9119043              1
      5731.5000         0.9495       972.1768        67.5828       77.01526         0.9772       -39.5306     -0.7585793      0.9364949              1
      5732.0000         0.9285       1016.178        68.2616       78.17224         0.9652       -39.3694     -0.6100159      0.9611115              1
      5732.5000         0.9046       1085.707        68.9397         79.328         0.9332       -39.2084     -0.4616585      0.9857022              1
      5733.0000         0.8808       1152.738        69.6179       80.48394         0.8988       -39.0475     -0.3134003              1              1
      5733.5000          0.857       1214.135        69.1558       79.68964         0.8644       -38.8865     -0.1650429      0.9933965              1
      5734.0000         0.8128       1258.773        68.6642       78.84486           0.83       -38.7256    -0.01678467      0.9754225              1
      5734.5000         0.7711        1294.15        68.1732       78.00111         0.7956       -38.5646      0.1315727      0.9574705              1
      5735.0000         0.7411       1317.279        67.6823       77.15752         0.7612       -38.5417      0.1418343      0.9395216              1
      5735.5000         0.7251       1340.406        67.1913       76.31378         0.7413       -38.5506      0.1202927      0.9215698              1
      5736.0000         0.7126       1353.992        67.3478       76.57746         0.7223       -38.5595     0.09874725      0.9271801              1
      5736.5000         0.7017       1325.609        67.9099       77.53482         0.7033       -38.5684     0.07720566      0.9475494              1
      5737.0000         0.6997        1286.85         68.472       78.49221         0.6844       -38.5414     0.09156418      0.9679193              1
      5737.5000         0.7243       1248.092        69.0343       79.44993         0.7026       -38.4326      0.1877289      0.9882963              1
      5738.0000         0.7496       1209.383        69.3586        80.0006         0.7299       -38.3239      0.2837868              1              1
      5738.5000          0.775       1180.326        69.4995       80.23758         0.7573       -38.2152      0.3820038              1              1
      5739.0000         0.8005       1159.549        68.7974       79.03279         0.7847       -38.1064      0.4970207      0.9794211              1
      5739.5000         0.8259       1138.773        67.5613        76.9147         0.8121       -38.0361      0.5735359      0.9343554              1
      5740.0000         0.8329       1117.975        68.2928       78.16179         0.8378       -37.9894      0.6264534      0.9608891              1
      5740.5000         0.8388       1097.197        69.0428       79.44055         0.8631       -37.9428      0.6792717      0.9880968              1
      5741.0000         0.8448       1076.422        69.9978       81.06992         0.8883       -37.8961      0.7321892              1              1
      5741.5000         0.8507       1055.646         71.046       82.85865         0.9135       -37.8495      0.7850075              1              1
      5742.0000         0.8567       1034.186        72.0944       84.64776         0.9388       -37.8029      0.8378258              1              1
      5742.5000         0.8621       1012.601        73.1426       86.43653         0.9642       -37.9258      0.7211418              1              1
      5743.0000         0.8676       991.0166        73.5807       87.18184          0.991       -38.1056      0.5475616              1              1
      5743.5000          0.873       969.4326        69.9303       80.93451         1.0179       -38.7437    -0.08432007              1              1
      5744.0000         0.8784        947.873        68.1615       77.90532         1.0447       -39.5103     -0.8447037      0.9554323              1
      5744.5000          0.896        924.916         66.394       74.87836         1.0715       -40.2768      -1.604984      0.8910289       0.989746
      5745.0000         0.9161       901.0049        64.6571       71.90372         1.1028       -41.0439      -2.365868      0.8277386      0.9768497
      5745.5000         0.9361       877.0928        63.1204       69.27151         1.1455       -42.4653      -3.781052      0.7717344      0.9528635
      5746.0000         0.9903       853.1807        61.5836       66.63912         1.1882       -44.3679      -5.677433       0.715726      0.9207215
      5746.5000         1.0758       829.2695        59.7621        63.5198         1.2309       -46.1796      -7.482914      0.6493574      0.8901201
      5747.0000         1.2514       803.6182        57.2262       59.17863         1.2733       -47.1824      -8.479496      0.5569921      0.8732289
      5747.5000         1.3353       777.7217        58.3284       61.05974         1.3017       -48.1853      -9.476177      0.5970157       0.856336
      5748.0000         1.3819       751.8018        60.1377       64.15022         1.3244       -49.1182      -10.40286      0.6627705      0.8406295
      5748.5000          1.331       734.3389        61.9494        67.2448          1.286       -49.8681      -11.14654      0.7286127      0.8280247
      5749.0000         1.2536       728.8818        63.7194       70.26807         1.2231       -50.5168      -11.78902      0.7929376      0.8171352
      5749.5000         1.1304        742.957        65.0168       72.48306         1.1602       -49.9847      -11.25071       0.840065      0.8262592
      5750.0000         1.0728       760.9395        66.3142       74.69803         1.0973       -49.4532      -10.71299      0.8871921       0.835373
      5750.5000         1.0223       808.5186        67.6117       76.91317         1.0344       -48.8334      -10.08697      0.9343228      0.8459836
      5751.0000         0.8943       856.1455        68.9103        79.1302          0.973       -48.1466      -9.393951      0.9814935      0.8577296
      5751.5000          0.873       906.3213        70.2078       81.34534         0.9271       -47.4598      -8.700935              1      0.8694757
      5752.0000         0.8437       971.0498        71.5051       83.56014         0.8813       -46.7731      -8.008018              1        0.88122
      5752.5000         0.8127       1034.797        72.6743       85.55585         0.8354        -46.087      -7.315701              1      0.8929542
      5753.0000         0.7874       1080.219        73.1787       86.41456         0.7895       -45.4002      -6.622681              1      0.9047003
      5753.5000         0.7807       1119.959        72.7485       85.67477          0.753       -44.7134      -5.929665              1      0.9164464
      5754.0000         0.7854       1159.697        70.7405       82.23648         0.7891       -44.0273      -5.237347              1      0.9281806
      5754.5000         0.7923       1199.484        68.7299       78.79372         0.8253       -43.3405      -4.544327      0.9743345      0.9399267
      5755.0000         0.8175       1198.799        66.7413       75.38862         0.8614       -43.4492      -4.646809      0.9018855      0.9381897
      5755.5000         0.8427       1168.492        65.7778       73.73676         0.8976       -44.2531      -5.444492      0.8667395      0.9246696
