#------------------------------------------------------------------------------
# Created by    : vladimir.rabinovich
# Created on    : 09/19/2023 17:22:40
#------------------------------------------------------------------------------
~Version Information Section
VERS.           2.0     :   CWLS log ASCII Standard - VERSION 2.0
WRAP.           NO      :   One line per depth step
~Well Information Section
#MNEM       .UNIT                                         VALUE :DESCRIPTION
#------------------------------------------------------------------------------
STRT        .FT                                            3744 :START DEPTH
STOP        .FT                                            9989 :STOP DEPTH
STEP        .FT                                             0.5 :STEP      
NULL        .                                           -999.25 :NULL      
COMP        .                          SEAGULL ENERGY E & P INC :COMPANY   
WELL        .                               OCS G07243 ST00BP00 :WELL      
FLD         .                                           WILDCAT :FIELD     
LOC         .                                                   :LOCATION  
CNTY        .                             GALVESTON LARGE BLOCK :LOCATION  
STAT        .                                             TEXAS :STATE     
CTRY        .                                     UNITED STATES :COUNTRY   
SRVC        .                                                   :SERVICE COMPANY
DATE        .                             9/13/2023 11:19:34 AM :LOG DATE  
API         .                                    42706403030000 :API NUMBER
UWI         .                                    42706403030000 :UNIQUE WELL ID
XCOORD      .                                   1005609.3052046 :SURFACE X 
YCOORD      .                                  10500547.7567395 :SURFACE Y 
LAT         .                                          28.92005 :LATITUDE  
LON         .                                        -94.984771 :LONGITUDE 
ELEV        .FT                                              96 :ELEVATION VALUE
ELEV_TYPE   .                                                KB :ELEVATION REFERENCE TYPE
~Curve Information Section
#MNEM       .UNIT                                      API CODE :CURVE DESCRIPTION
#------------------------------------------------------------------------------
DEPT        .FT                                                 :DEPTH     
DCAL        .IN                                                 :          
DPHI        .%                                                  :          
GR          .GAPI                                               :          
GR_NORM     .GAPI                                               :GammaRay Normalized
ILD         .OHMM                                               :          
ILM         .OHMM                                               :          
NPHI        .%                                                  :          
SFL         .OHMM                                               :          
SP          .MV                                                 :          
SP_NORM     .MV                                                 :SP Normalized
VSH_GR      .V/V                                                :Volume of Shale from GR
VSH_SP      .V/V                                                :Volume of Shale from SP
~A        DEPTH           DCAL           DPHI             GR        GR_NORM            ILD            ILM           NPHI            SFL             SP        SP_NORM         VSH_GR         VSH_SP
# ...
      8746.0000         6.3715         28.745        46.9622       58.99465         0.3558         0.3891         35.634         0.5254       -71.9213      -42.49534      0.5530777      0.3018045
      8746.5000         6.3875        29.5168        45.7776       57.26687         0.3578          0.383        35.1439          0.503       -72.0649       -42.6781      0.5163164      0.2986534
      8747.0000         6.4052        29.9993        43.6248        54.1262         0.3626         0.3885        34.8864         0.4854       -72.2389      -42.89955      0.4494936      0.2948353
      8747.5000         6.4271        29.3213        42.0748        51.8652         0.3668          0.402         33.342         0.5299       -72.4846      -43.21226      0.4013872      0.2894439
      8748.0000         6.4572        20.8677           41.7       51.31916         0.3711         0.4222        28.0594         0.7234       -72.8077      -43.62348      0.3897694      0.2823538
      8748.5000         6.4992        12.1824        41.9357       51.66402         0.3755         0.4476        19.5929         1.5964       -73.1831      -44.10126      0.3971069      0.2741162
      8749.0000         6.5322         6.1561         42.178       52.01852         0.3804         0.4686        23.6362         1.6957       -73.5518      -44.57052      0.4046494      0.2660255
      8749.5000         6.5078         6.7291        42.2482       52.12188         0.3854         0.4831        31.6584         1.2582       -73.6942      -44.75175      0.4068484      0.2629009
      8750.0000         6.4617        15.2728        42.4933       52.48046         0.3898         0.4598        37.2791         0.7912        -73.413      -44.39386      0.4144779      0.2690713
      8750.5000          6.441         30.448        43.2284        53.5541         0.3946         0.4342          38.85         0.5259       -72.7841      -43.59345      0.4373212      0.2828716
      8751.0000         6.4382         31.124        43.1077       53.37888         0.3997         0.4124        34.2659         0.4788       -71.5585      -42.03359      0.4335931      0.3097656
      8751.5000         6.4416        29.5498         42.278       52.16899         0.3727         0.3965        30.7151          0.518       -70.0085      -40.06086       0.407851      0.3437783
      8752.0000         6.4472        26.9713        41.1818       50.57022         0.3562         0.3854        30.6218         0.5719       -69.6353      -39.58588      0.3738346      0.3519676
      8752.5000         6.4549        23.3529        39.6516       48.33811         0.3449         0.3762        32.0881         0.6005       -70.6708      -40.90379      0.3263428       0.329245
      8753.0000         6.4645        23.8293        38.2242       46.25602         0.3362          0.366         33.371         0.5906       -71.7247      -42.24512      0.2820429      0.3061187
      8753.5000         6.4638        27.8083         36.607       43.89694         0.3296          0.356        34.1524         0.5657       -72.4034      -43.10891      0.2318498      0.2912256
      8754.0000         6.4588        33.0426        36.4091       43.60906         0.3277         0.3459        34.5729         0.5283       -72.7563      -43.55806      0.2257247      0.2834817
      8754.5000         6.4538        32.9959        37.7639       45.58702         0.3281         0.3381        34.8486         0.4589       -72.9456      -43.79899       0.267809      0.2793277
      8755.0000         6.4502        31.5393        38.5105       46.67745         0.3306          0.339        35.0892         0.4496       -72.8405      -43.66523      0.2910096       0.281634
      8755.5000         6.4478        30.3337        38.8449       47.16634         0.3369         0.3567        35.2817          0.525       -72.4331      -43.14671      0.3014115      0.2905739
      8756.0000         6.4508        29.5547        40.3138       49.31083         0.3456         0.4094         34.649          0.611       -71.2999      -41.70446      0.3470388      0.3154404
      8756.5000         6.4512        28.1752        45.3423       56.64982         0.3564          0.474        33.5609         0.6872       -69.1287      -38.94112      0.5031877      0.3630842
      8757.0000         6.4486        25.2973        49.7535       63.08799         0.3696         0.5297        32.7408         0.7632       -67.0999        -36.359      0.6401701      0.4076034
      8757.5000         6.4454        20.4557        53.4524       68.48671         0.3885         0.5582        31.9674         0.8211       -65.4298      -34.23343      0.7550364      0.4442512
      8758.0000         6.4581        17.4876        56.7661        73.3233         0.4088         0.5824          31.19         0.8501       -64.3073      -32.80479      0.8579426       0.468883
      8758.5000         6.4826        18.9121        58.9268       76.47733         0.4291         0.5708         32.262         0.8026       -63.7383      -32.08061      0.9250495      0.4813688
      8759.0000         6.5178        19.0694        59.0957       76.72471         0.4427         0.5475        33.6108         0.7461       -64.0045      -32.41941      0.9303129      0.4755274
      8759.5000         6.5396        18.8714        56.3756       72.75616         0.4481         0.5219        34.2961         0.6741       -65.0974      -33.81037      0.8458757      0.4515454
      8760.0000         6.5174        19.7249        51.9064       66.23518         0.4375         0.5076        34.5941         0.6281       -66.7595      -35.92577      0.7071314      0.4150729
      8760.5000         6.4988        24.3959        46.8461       58.85159         0.4183         0.4954        34.7578         0.6031       -68.5271      -38.17544      0.5500338      0.3762855
      8761.0000         6.4778         27.335        43.4138       53.84375         0.3994         0.4713        34.6614          0.588       -69.8779      -39.89464      0.4434839      0.3466441
      8761.5000         6.4477        28.9446         42.274       52.18134         0.3829         0.4349        34.1645          0.599       -70.9491      -41.25798      0.4081135      0.3231382
      8762.0000         6.4335        29.6971        43.6116        54.1342         0.3689         0.4067        33.5102         0.5938       -71.8765      -42.43832      0.4496639      0.3027876
      8762.5000         6.4271        29.8931        45.6879       57.16507         0.3618         0.3857        33.0027         0.5417       -72.6903      -43.47406      0.5141503      0.2849299
      8763.0000         6.4275        29.6255        46.7185       58.66992         0.3499         0.3655        33.7766         0.4909       -71.2947      -41.69785      0.5461686      0.3155544
      8763.5000         6.4278        28.9156        47.1495       59.29979         0.3489         0.3563         34.847          0.459       -69.4163      -39.30715      0.5595701      0.3567733
      8764.0000         6.4281        27.5604        48.6323       61.46456         0.3565         0.3595        35.1552         0.4845       -67.2344      -36.53019      0.6056289       0.404652
      8764.5000         6.4285         26.012          50.64       64.39529         0.3664         0.3805        34.6763         0.5648        -64.641       -33.2295       0.667985      0.4615604
      8765.0000         6.4429         27.533        52.8746       67.65717         0.3787         0.4094         34.376         0.5941       -62.5409      -30.55665      0.7373865      0.5076441
      8765.5000         6.4895        24.5569        55.0063       70.76886         0.3971         0.4467        34.5343         0.6128       -60.3485      -27.76632      0.8035927      0.5557532
      8766.0000         6.7887        23.0954        56.3479       72.72757          0.424         0.4878        34.5659         0.6333       -58.1324      -24.94583      0.8452674      0.6043823
