#------------------------------------------------------------------------------
# Created by    : vladimir.rabinovich
# Created on    : 09/19/2023 17:21:23
#------------------------------------------------------------------------------
~Version Information Section
VERS.           2.0     :   CWLS log ASCII Standard - VERSION 2.0
WRAP.           NO      :   One line per depth step
~Well Information Section
#MNEM       .UNIT                                         VALUE :DESCRIPTION
#------------------------------------------------------------------------------
STRT        .FT                                            1005 :START DEPTH
STOP        .FT                                            8973 :STOP DEPTH
STEP        .FT                                             0.5 :STEP      
NULL        .                                           -999.25 :NULL      
COMP        .                            MARITECH RESOURCES INC :COMPANY   
WELL        .                               OCS G06113 ST00BP00 :WELL      
FLD         .                              GALVESTON BLOCK 0343 :FIELD     
LOC         .                                                   :LOCATION  
CNTY        .                             GALVESTON LARGE BLOCK :LOCATION  
STAT        .                                             TEXAS :STATE     
CTRY        .                                     UNITED STATES :COUNTRY   
SRVC        .                                                   :SERVICE COMPANY
DATE        .                             9/13/2023 11:19:36 AM :LOG DATE  
API         .                                    42706402140000 :API NUMBER
UWI         .                                    42706402140000 :UNIQUE WELL ID
XCOORD      .                                  914498.553138379 :SURFACE X 
YCOORD      .                                  10427492.1426863 :SURFACE Y 
LAT         .                                         28.714711 :LATITUDE  
LON         .                                        -95.265111 :LONGITUDE 
ELEV        .FT                                              84 :ELEVATION VALUE
ELEV_TYPE   .                                                KB :ELEVATION REFERENCE TYPE
~Curve Information Section
#MNEM       .UNIT                                      API CODE :CURVE DESCRIPTION
#------------------------------------------------------------------------------
DEPT        .FT                                                 :DEPTH     
CALI        .IN                                                 :          
DPHI        .%                                                  :          
DRHO        .G/C3                                               :          
DT          .US/F                                               :          
GR          .GAPI                                               :          
ILD         .OHMM                                               :          
ILM         .OHMM                                               :          
NPHI        .%                                                  :          
SGRD        .OHMM                                               :          
SP          .MV                                                 :          
SP_NORM     .MV                                                 :SP Normalized
VSH_SP      .V/V                                                :Volume of Shale from SP
~A        DEPTH           CALI           DPHI           DRHO             DT             GR            ILD            ILM           NPHI           SGRD             SP        SP_NORM         VSH_SP
# ...
      7380.5000        10.0207        19.2309          0.027       114.3899        84.9921          0.836         0.8514        37.6392         0.9176       -84.0608       1.201569              1
      7381.0000        10.0486        19.1542         0.0326       113.1927        78.3779         0.8382          0.867        37.3693         0.9329        -83.963        1.29805              1
      7381.5000        10.0746        18.8439         0.0369        112.269        75.8112         0.8495         0.8879        36.9749         0.9331       -83.9598       1.299927              1
      7382.0000        10.0961        18.6501         0.0389       112.2119        73.9092         0.8635         0.8981        36.3232         0.9316       -84.0067       1.251709              1
      7382.5000        10.1142        18.7656         0.0408       113.0428        73.4691         0.8734         0.8966        36.0428         0.9433       -84.1129       1.144188              1
      7383.0000        10.1411        18.8429         0.0407        113.035        77.1936          0.876         0.8923        35.7772         0.9581       -84.1523        1.10347              1
      7383.5000        10.1682        18.9467         0.0403       113.0847        76.8148         0.8731         0.8882        35.6843         0.9545       -84.1516       1.102844              1
      7384.0000        10.1954        19.1779         0.0383       113.8575        76.9716         0.8712         0.8864        36.0846         0.9322        -84.113       1.140129              1
      7384.5000        10.2236        19.3104         0.0365       115.1145        76.6204         0.8701         0.8846        36.3507         0.9092       -84.0045       1.247307              1
      7385.0000        10.2444        19.0581         0.0373       116.4482        77.3561         0.8699         0.8825        36.2134         0.8943       -84.0132       1.237289              1
      7385.5000        10.2521        18.6724         0.0387       115.8643        78.1797         0.8738         0.8869        35.5381         0.8933       -84.2588      0.9903717              1
      7386.0000        10.2602        18.2575         0.0396        113.785        79.7681         0.8801         0.8938        34.7001         0.9128       -84.4691      0.7787476              1
      7386.5000        10.2703        17.7996         0.0404       112.2694        81.0765         0.8916         0.9038         34.051         0.9503       -84.5198      0.7267303              1
      7387.0000          10.28        17.3305         0.0412       111.5134        81.6337         0.9031         0.9179        33.7836         0.9821       -84.4127      0.8325043              1
      7387.5000        10.2841        17.0767         0.0406       110.2777        79.0103         0.9142         0.9306        34.1249         1.0033        -84.129       1.114883              1
      7388.0000        10.2882        17.1594         0.0395       109.5123        77.7344         0.9189         0.9397        34.7215         1.0145        -84.011        1.23156              1
      7388.5000        10.2831        17.0414         0.0386       110.4038        79.4769         0.9227         0.9441         35.087         1.0178       -83.9707       1.270538              1
      7389.0000        10.2766        17.0408         0.0369       111.4778         81.532         0.9204          0.942        35.1276         1.0182       -84.1793       1.060623              1
      7389.5000        10.2712        17.3974         0.0337        111.399        84.0186         0.9178         0.9367        35.1482         1.0133       -84.4337      0.8049011              1
      7390.0000        10.2668         17.853           0.03       111.4359        85.7173         0.9144         0.9292        35.5294         1.0005       -84.4031      0.8341827              1
      7390.5000        10.2633        18.2119         0.0254       113.9275        86.5996         0.9125         0.9313           36.1         0.9821       -84.1431       1.092865              1
      7391.0000        10.2911        18.3618         0.0204       116.2217        86.6328         0.9129         0.9363        36.5195         0.9572       -84.0049       1.229744              1
      7391.5000        10.3519        18.1278          0.017       114.1525         84.834         0.9178         0.9466        36.7982           0.95       -83.9951        1.23822              1
      7392.0000        10.4056        17.7458          0.014       111.1536        82.7533         0.9252         0.9577        36.7621         0.9929       -84.2219       1.010101              1
      7392.5000        10.4455        17.3152         0.0113       110.9648        82.4603         0.9331         0.9739        35.6361         1.0175       -84.5442      0.6864853              1
      7393.0000        10.4701        16.8584         0.0102        110.825        81.6261         0.9412         0.9865        34.6228         1.0314        -84.647      0.5823593              1
      7393.5000        10.4806        16.4357         0.0108       109.8303        82.0966         0.9437         0.9937        34.3183         1.0348       -84.7046      0.5234451              1
      7394.0000          10.49        16.0619         0.0146       109.2184        83.6924         0.9459         0.9941        34.1316         1.0352       -84.8121      0.4146118              1
      7394.5000        10.4978        15.7102         0.0227       108.9347        85.1501         0.9483         0.9877        34.0214         1.0286       -85.0953      0.1300964              1
      7395.0000        10.5038        15.3495         0.0293        108.959        87.6519          0.947         0.9817          34.08         1.0227       -85.3682     -0.1441269              1
      7395.5000        10.5019        15.1693         0.0343       109.4867         88.121         0.9386         0.9788        34.4689         1.0189       -85.5249     -0.3021469              1
      7396.0000        10.4995        15.1601         0.0378       110.5538         87.505         0.9253          0.979        34.8882         1.0073       -85.2577    -0.03626251              1
      7396.5000        10.4965        15.2104         0.0362       111.6158        88.4309         0.9121         0.9746        35.2624         0.9916       -85.0662      0.1539154              1
      7397.0000        10.4933        15.3515         0.0343       112.1405        88.7784         0.9008          0.971        35.6409         0.9828        -85.077      0.1417923              1
      7397.5000        10.4896        15.6803         0.0321       111.9907        87.3949         0.9066         0.9681        35.9553          0.984       -85.1764     0.04107666              1
      7398.0000        10.4854        16.1692         0.0311       111.5209        87.0547         0.9144         0.9638        35.8615         0.9894        -85.322     -0.1058426              1
      7398.5000        10.4795        16.7822         0.0274       110.7725        85.6294         0.9232         0.9612        35.5234         0.9855       -85.2972    -0.08236694              1
      7399.0000        10.4583        17.3817         0.0211       109.7075        81.9561         0.9298         0.9616        35.0153         0.9895       -85.2224   -0.008880615              1
      7399.5000        10.4367        17.7876         0.0165       109.7203        77.2188         0.9396         0.9633        34.7625         0.9988        -85.089      0.1231995              1
      7400.0000        10.3793         17.834         0.0132       110.3958        77.3269         0.9511         0.9657        34.6603         1.0079       -85.0286      0.1822739              1
      7400.5000        10.3617        17.5394         0.0121        110.184        76.9734         0.9622         0.9673        34.5599          1.012       -85.0392      0.1703568              1
