#------------------------------------------------------------------------------
# Created by    : vladimir.rabinovich
# Created on    : 09/19/2023 17:20:36
#------------------------------------------------------------------------------
~Version Information Section
VERS.           2.0     :   CWLS log ASCII Standard - VERSION 2.0
WRAP.           NO      :   One line per depth step
~Well Information Section
#MNEM       .UNIT                                         VALUE :DESCRIPTION
#------------------------------------------------------------------------------
STRT        .FT                                             504 :START DEPTH
STOP        .FT                                            9762 :STOP DEPTH
STEP        .FT                                             0.5 :STEP      
NULL        .                                           -999.25 :NULL      
COMP        .                                      SHELL OIL CO :COMPANY   
WELL        .                                OCS 00703 ST00BP00 :WELL      
FLD         .                                           WILDCAT :FIELD     
LOC         .                                                   :LOCATION  
CNTY        .                             GALVESTON LARGE BLOCK :LOCATION  
STAT        .                                             TEXAS :STATE     
CTRY        .                                     UNITED STATES :COUNTRY   
SRVC        .                                                   :SERVICE COMPANY
DATE        .                             9/13/2023 11:19:25 AM :LOG DATE  
API         .                                    42706000420000 :API NUMBER
UWI         .                                    42706000420000 :UNIQUE WELL ID
XCOORD      .                                  1132503.99790541 :SURFACE X 
YCOORD      .                                  10523078.0194322 :SURFACE Y 
LAT         .                                         28.987276 :LATITUDE  
LON         .                                        -94.589113 :LONGITUDE 
ELEV        .FT                                              83 :ELEVATION VALUE
ELEV_TYPE   .                                                KB :ELEVATION REFERENCE TYPE
~Curve Information Section
#MNEM       .UNIT                                      API CODE :CURVE DESCRIPTION
#------------------------------------------------------------------------------
DEPT        .FT                                                 :DEPTH     
ASN         .OHMM                                               :          
CILD        .MMHO                                               :          
DT          .US/F                                               :          
ILD         .OHMM                                               :          
LAT         .OHMM                                               :          
LN          .OHMM                                               :          
SP          .MV                                                 :          
SP_NORM     .MV                                                 :SP Normalized
VSH_SP      .V/V                                                :Volume of Shale from SP
~A        DEPTH            ASN           CILD             DT            ILD            LAT             LN             SP        SP_NORM         VSH_SP
# ...
      1113.5000         0.9336        -999.25        -999.25        -999.25         1.3481         1.0371        -51.601      -1.881508              1
      1114.0000         0.9278        -999.25        -999.25        -999.25          1.345         1.0338       -52.4189      -2.700455      0.9749838
      1114.5000         0.9206        -999.25        -999.25        -999.25         1.3282         1.0305        -53.247       -3.52961      0.9453711
      1115.0000         0.9168        -999.25        -999.25        -999.25         1.2615         1.0271       -53.8087      -4.092358      0.9252729
      1115.5000         0.9153        -999.25        -999.25        -999.25         1.1569         1.0238       -53.4185      -3.703205      0.9391713
      1116.0000         0.9137        -999.25        -999.25        -999.25          1.069         1.0237       -53.0283       -3.31406      0.9530693
      1116.5000         0.9126        -999.25        -999.25        -999.25         1.0272         1.0247       -52.6381      -2.924908      0.9669676
      1117.0000         0.9121        -999.25        -999.25        -999.25         1.0037         1.0257       -52.2139      -2.501762      0.9820799
      1117.5000         0.9128        -999.25        -999.25        -999.25         0.9949         1.0279       -51.7681      -2.057011      0.9979639
      1118.0000          0.914        -999.25        -999.25        -999.25         0.9887         1.0311       -51.3223      -1.612263              1
      1118.5000         0.9164        -999.25        -999.25        -999.25         0.9825         1.0343       -50.8954      -1.186413              1
      1119.0000          0.919        -999.25        -999.25        -999.25         0.9764          1.038       -50.5616     -0.8536644              1
      1119.5000         0.9215        -999.25        -999.25        -999.25         0.9702         1.0438       -50.2276     -0.5207138              1
      1120.0000         0.9241        -999.25        -999.25        -999.25          0.964         1.0496       -49.8943     -0.1884613              1
      1120.5000         0.9266        -999.25        -999.25        -999.25         0.9578         1.0588       -50.1996     -0.4948158              1
      1121.0000         0.9301        -999.25        -999.25        -999.25         0.9473         1.0707       -50.5049     -0.8011665              1
      1121.5000         0.9345        -999.25        -999.25        -999.25         0.9345         1.0826       -50.8103      -1.107616              1
      1122.0000         0.9435        -999.25        -999.25        -999.25         0.9179         1.0945       -51.1156      -1.413967              1
      1122.5000         0.9551        -999.25        -999.25        -999.25         0.8905         1.1136       -51.4209      -1.720318              1
      1123.0000         0.9691        -999.25        -999.25        -999.25         0.8539           1.17       -51.7378      -2.038269      0.9986333
      1123.5000         0.9876        -999.25        -999.25        -999.25         0.8106         1.2394       -52.0966      -2.398121      0.9857814
      1124.0000         1.0095        -999.25        -999.25        -999.25         0.7558         1.3044       -52.4555      -2.758072       0.972926
      1124.5000         1.0394        -999.25        -999.25        -999.25         0.6805         1.3253       -52.9361      -3.239723      0.9557242
      1125.0000         1.0539        -999.25        -999.25        -999.25         0.6008         1.3291       -53.5221      -3.826771      0.9347582
      1125.5000         1.0367        -999.25        -999.25        -999.25         0.5407         1.3275       -54.1899      -4.495621      0.9108707
      1126.0000         1.0155        -999.25        -999.25        -999.25         0.4992         1.3259       -54.9127      -5.219475      0.8850188
      1126.5000         0.9952        -999.25        -999.25        -999.25         0.4884         1.3221       -55.5331      -5.840923      0.8628241
      1127.0000          0.981        -999.25        -999.25        -999.25         0.4775         1.3177       -55.8702      -6.179077      0.8507472
      1127.5000         0.9667        -999.25        -999.25        -999.25         0.4743         1.3133       -56.1091      -6.419025      0.8421777
      1128.0000         0.9543        -999.25        -999.25        -999.25         0.4829         1.3088       -56.3522      -6.663177      0.8334579
      1128.5000         0.9436        -999.25        -999.25        -999.25         0.4915         1.3044       -56.6114      -6.923428      0.8241633
      1129.0000         0.9358        -999.25        -999.25        -999.25         0.5001         1.2908       -56.8705      -7.183578      0.8148722
      1129.5000         0.9327        -999.25        -999.25        -999.25         0.5087         1.2771       -57.1424      -7.456528       0.805124
      1130.0000         0.9346        -999.25        -999.25        -999.25         0.5183         1.2634       -57.5199      -7.835079      0.7916043
      1130.5000         0.9412        -999.25        -999.25        -999.25         0.5413         1.2482       -57.6676      -7.983829      0.7862918
      1131.0000         0.9478        -999.25        -999.25        -999.25         0.5643         1.2306        -56.884      -7.201279        0.81424
      1131.5000         0.9544        -999.25        -999.25        -999.25         0.5873         1.2117       -56.1005      -6.418831      0.8421846
      1132.0000          0.963        -999.25        -999.25        -999.25         0.6219         1.1928        -55.322       -5.64138      0.8699507
      1132.5000         0.9716        -999.25        -999.25        -999.25         0.6656         1.1849        -54.735      -5.055435      0.8908773
      1133.0000         0.9792        -999.25        -999.25        -999.25         0.7235          1.181       -54.1481      -4.469585      0.9118005
      1133.5000         0.9864        -999.25        -999.25        -999.25          0.787         1.1771        -53.658      -3.980537      0.9292665
      1134.0000          0.991        -999.25        -999.25        -999.25         0.8343         1.1732       -53.2302      -3.553787      0.9445076
      1134.5000         0.9952        -999.25        -999.25        -999.25         0.8816         1.1722       -52.9277      -3.252335      0.9552737
      1135.0000         1.0002        -999.25        -999.25        -999.25         0.9237         1.1761       -52.6842      -3.009888      0.9639326
      1135.5000         1.0088        -999.25        -999.25        -999.25         0.9508           1.18       -52.9407      -3.267437      0.9547344
      1136.0000          1.001        -999.25        -999.25        -999.25          0.978         1.1838       -53.5374      -3.865189      0.9333861
      1136.5000         0.9873        -999.25        -999.25        -999.25         1.0034         1.1863        -54.134      -4.462837      0.9120415
      1137.0000         0.9723        -999.25        -999.25        -999.25         1.0184         1.1878       -54.7307      -5.060593      0.8906931
      1137.5000          0.954        -999.25        -999.25        -999.25         1.0334         1.1892       -55.2875      -5.618439        0.87077
      1138.0000         0.9357        -999.25        -999.25        -999.25         1.0484         1.1907       -55.8071      -6.139091      0.8521753
      1138.5000          0.921        -999.25        -999.25        -999.25         1.0517         1.1921       -56.3267       -6.65974      0.8335807
      1139.0000         0.9072        -999.25        -999.25        -999.25         1.0477         1.1901       -56.8439      -7.177994      0.8150716
      1139.5000         0.8941        -999.25        -999.25        -999.25         1.0437          1.188       -57.3589      -7.694042      0.7966413
