#------------------------------------------------------------------------------
# Created by    : vladimir.rabinovich
# Created on    : 09/19/2023 17:19:40
#------------------------------------------------------------------------------
~Version Information Section
VERS.           2.0     :   CWLS log ASCII Standard - VERSION 2.0
WRAP.           NO      :   One line per depth step
~Well Information Section
#MNEM       .UNIT                                         VALUE :DESCRIPTION
#------------------------------------------------------------------------------
STRT        .FT                                             305 :START DEPTH
STOP        .FT                                          9892.5 :STOP DEPTH
STEP        .FT                                             0.5 :STEP      
NULL        .                                           -999.25 :NULL      
COMP        .                         ATLANTIC RICHFIELD CO THE :COMPANY   
WELL        .                               OCS G07247 ST00BP00 :WELL      
FLD         .                                           WILDCAT :FIELD     
LOC         .                                                   :LOCATION  
CNTY        .                             GALVESTON LARGE BLOCK :LOCATION  
STAT        .                                             TEXAS :STATE     
CTRY        .                                     UNITED STATES :COUNTRY   
SRVC        .                                                   :SERVICE COMPANY
DATE        .                             9/13/2023 11:19:27 AM :LOG DATE  
API         .                                    42706401220000 :API NUMBER
UWI         .                                    42706401220000 :UNIQUE WELL ID
XCOORD      .                                  995038.545578968 :SURFACE X 
YCOORD      .                                  10445559.0196594 :SURFACE Y 
LAT         .                                         28.768363 :LATITUDE  
LON         .                                        -95.014888 :LONGITUDE 
ELEV        .FT                                              98 :ELEVATION VALUE
ELEV_TYPE   .                                                KB :ELEVATION REFERENCE TYPE
~Curve Information Section
#MNEM       .UNIT                                      API CODE :CURVE DESCRIPTION
#------------------------------------------------------------------------------
DEPT        .FT                                                 :DEPTH     
ALL         .OHMM                                               :          
CILD        .MMHO                                               :          
GR          .GAPI                                               :          
GR_NORM     .GAPI                                               :GammaRay Normalized
ILD         .OHMM                                               :          
SP          .MV                                                 :          
VSH_GR      .V/V                                                :Volume of Shale from GR
~A        DEPTH            ALL           CILD             GR        GR_NORM            ILD             SP         VSH_GR
# ...
      1645.0000         1.0996       995.8115        33.7658       39.15522         0.9897        29.6832      0.1309621
      1645.5000         1.0981       996.7979        33.4647       38.69063         0.9858        29.6812      0.1210773
      1646.0000         1.0966       997.7842        33.3912       38.57679         0.9819        29.6793      0.1186551
      1646.5000         1.0952       998.7705        33.3507       38.51381         0.9819        29.6772      0.1173151
      1647.0000         1.0951       999.4922        33.6765       39.01532         0.9841        29.6796      0.1279855
      1647.5000          1.095       999.2627         34.139        39.7275         0.9862        29.6835      0.1431383
      1648.0000          1.095       999.0342        34.6017       40.43999         0.9884        29.6875      0.1582976
      1648.5000         1.0949       998.8047        35.1495       41.28363         0.9906        29.6914      0.1762475
      1649.0000         1.0955       998.5762         35.721        42.1638         0.9927        29.6953      0.1949745
      1649.5000          1.098       987.0771        36.2925       43.04395         0.9968        29.7333      0.2137011
      1650.0000         1.1005       974.5166         37.363       44.69311         1.0092        29.8105      0.2487896
      1650.5000         1.1031       965.3994        39.0789       47.33689         1.0215        30.0158      0.3050402
      1651.0000         1.1067       957.6992        40.9058       50.15173         1.0339        30.4924      0.3649304
      1651.5000         1.1126        950.001        41.4442       50.98087         1.0462        30.9689      0.3825717
      1652.0000         1.1185       945.9043        41.2471       50.67655         1.0615        31.2251      0.3760968
      1652.5000         1.1244       942.0889        40.6785       49.79973         1.0846        31.4799       0.357441
      1653.0000         1.1307       938.2734        40.1113       48.92505         1.1077        31.7347      0.3388309
      1653.5000         1.1373       926.6572        40.1276        48.9496         1.1308        31.9895      0.3393532
      1654.0000         1.1438       912.7695        40.3872        49.3491         1.1542        32.2443      0.3478532
      1654.5000         1.1526       898.8818        40.9805       50.26285         1.1798        32.4991      0.3672946
      1655.0000          1.165       877.6436        41.4337        50.9607         1.2054        32.6699      0.3821427
      1655.5000         1.1774       850.5723        42.0068       51.84333          1.231        32.7789      0.4009219
      1656.0000         1.1941       823.4961        42.6483       52.83136         1.2565         32.888      0.4219438
      1656.5000         1.2139       794.5664        43.2897       53.81925         1.2826        32.9971      0.4429627
      1657.0000         1.2343       765.3574        44.3028       55.37995         1.3088        33.0949      0.4761691
      1657.5000         1.2554       735.4004        46.2261       58.34335          1.335        33.0845      0.5392201
      1658.0000         1.2725       704.1992        48.1489       61.30599         1.3612         33.074      0.6022552
      1658.5000         1.2881       680.6533        50.0723       64.26953         1.3829        33.0635      0.6653092
      1659.0000         1.3002        676.458        49.6058       63.55005         1.4037        33.0531      0.6500011
      1659.5000          1.304       679.8662        48.0298       61.12072         1.4226        33.0427      0.5983133
      1660.0000         1.3079       683.2754        46.4545       58.69249         1.4149        32.7552      0.5466487
      1660.5000         1.3082       686.6846        45.3507       56.99087         1.4031        32.3046       0.510444
      1661.0000         1.3072       690.0928        45.0714       56.55986         1.3874        31.8048      0.5012735
      1661.5000         1.3062       695.8682        45.0339       56.50151         1.3716        31.2495      0.5000322
      1662.0000         1.3052       702.1104        45.0422       56.51372         1.3559        30.7173      0.5002919
      1662.5000          1.304       708.3525        45.3722       57.02173         1.3401        30.2075      0.5111006
      1663.0000         1.3027       714.5947        45.7021       57.52956         1.3243        29.6976      0.5219055
      1663.5000         1.3014       720.8369         46.098       58.13909         1.3104        29.4941      0.5348742
      1664.0000         1.3001       727.8975        46.7851        59.1974         1.3015        29.3923      0.5573915
      1664.5000         1.2988       737.6123        47.4723       60.25586         1.2925        29.2904       0.579912
      1665.0000         1.2974       746.9072        48.1466       61.29446         1.2835        29.1944      0.6020098
      1665.5000         1.2946       753.2646        48.7787       62.26801         1.2745        29.2441      0.6227235
      1666.0000         1.2908       759.6221        49.4107        63.2414         1.2655        29.2938      0.6434341
      1666.5000          1.287       765.9795        50.0827       64.27642         1.2566        29.3434      0.6654558
      1667.0000         1.2838       772.3369        51.2134       66.01838         1.2587        29.3931      0.7025187
      1667.5000         1.2822        768.627        52.3445       67.76092         1.2669        29.4641       0.739594
      1668.0000         1.2805       763.5098        53.0641       68.86932         1.2751        29.5422      0.7631771
      1668.5000         1.2788       754.8076        52.8594       68.55328         1.2833        29.6204      0.7564529
      1669.0000         1.2972       742.6152        51.5025       66.46162         1.2917         29.702      0.7119493
      1669.5000         1.3096       730.4189        50.0806       64.26977         1.3003        29.8601      0.6653142
      1670.0000         1.3199       718.8076        48.6586        62.0778         1.3089        30.0183      0.6186765
      1670.5000         1.3302       712.4717        47.2366        59.8858         1.3175        30.1764      0.5720382
      1671.0000         1.3395       706.1367        46.1507       58.21177         1.3261        30.1724      0.5364205
      1671.5000         1.3432       699.8008        45.3516       56.97972         1.3347        30.1093      0.5102068
      1672.0000         1.3469        698.207        45.3203       56.93091         1.3397        30.0723      0.5091683
      1672.5000         1.3507       698.3389        46.3704       58.54863         1.3439        30.0762      0.5435878
      1673.0000         1.3544       698.4717        47.4201       60.16574         1.3482        30.0802      0.5779944
      1673.5000         1.3582       698.6035         48.327       61.56278         1.3524        30.0841      0.6077188
      1674.0000         1.3603       698.7354        48.7991       62.28976         1.3566         30.088      0.6231865
      1674.5000         1.3616       690.9365        49.2714       63.01703         1.3608        30.0919      0.6386603
      1675.0000         1.3629       681.7002        49.7435       63.74401         1.3669        30.1361       0.654128
      1675.5000         1.3641       672.4629        50.2001        64.4471         1.3735        30.2586      0.6690872
      1676.0000         1.3654       663.5654        50.5466       64.98051         1.3801        30.3811      0.6804365
      1676.5000         1.3663       654.7266        50.8932       65.51408         1.3868        30.5033       0.691789
      1677.0000         1.3667       645.8867        51.2397        66.0475         1.3992        30.6138      0.7031383
      1677.5000          1.367       637.0479        51.5863       66.58107         1.4299        30.7245      0.7144908
      1678.0000         1.3674       628.2051        51.7553       66.84093         1.4606        30.8351      0.7200199
