#------------------------------------------------------------------------------
# Created by    : vladimir.rabinovich
# Created on    : 09/19/2023 17:22:56
#------------------------------------------------------------------------------
~Version Information Section
VERS.           2.0     :   CWLS log ASCII Standard - VERSION 2.0
WRAP.           NO      :   One line per depth step
~Well Information Section
#MNEM       .UNIT                                         VALUE :DESCRIPTION
#------------------------------------------------------------------------------
STRT        .FT                                             671 :START DEPTH
STOP        .FT                                           10000 :STOP DEPTH
STEP        .FT                                             0.5 :STEP      
NULL        .                                           -999.25 :NULL      
COMP        .                                    MOBIL OIL CORP :COMPANY   
WELL        .                                     ST TR 00565-L :WELL      
FLD         .                                           WILDCAT :FIELD     
LOC         .                                                   :LOCATION  
CNTY        .                      MATAGORDA ISLAND LARGE BLOCK :LOCATION  
STAT        .                                             TEXAS :STATE     
CTRY        .                                     UNITED STATES :COUNTRY   
SRVC        .                                                   :SERVICE COMPANY
DATE        .                             9/13/2023 11:12:05 AM :LOG DATE  
API         .                                    42703000150000 :API NUMBER
UWI         .                                    42703000150000 :UNIQUE WELL ID
XCOORD      .                                  584511.465629887 :SURFACE X 
YCOORD      .                                  10263641.5286434 :SURFACE Y 
LAT         .                                         28.243485 :LATITUDE  
LON         .                                       -96.2796592 :LONGITUDE 
ELEV        .FT                                              11 :ELEVATION VALUE
ELEV_TYPE   .                                                KB :ELEVATION REFERENCE TYPE
~Curve Information Section
#MNEM       .UNIT                                      API CODE :CURVE DESCRIPTION
#------------------------------------------------------------------------------
DEPT        .FT                                                 :DEPTH     
SP          .MV                                                 :          
SP_NORM     .MV                                                 :SP Normalized
VSH_SP      .V/V                                                :Volume of Shale from SP
~A        DEPTH             SP        SP_NORM         VSH_SP
# ...
      9317.0000        14.5551        -3.8645      0.9189348
      9317.5000        14.6971        -4.0127      0.9124913
      9318.0000        14.7331         -4.055      0.9106522
      9318.5000        14.7042        -4.0323      0.9116392
      9319.0000        14.6753        -4.0097      0.9126217
      9319.5000        14.4032        -3.7438      0.9241826
      9320.0000        14.0636        -3.4104      0.9386783
      9320.5000        13.7239         -3.077      0.9531739
      9321.0000        13.3842        -2.7435      0.9676739
      9321.5000         13.035        -2.4006      0.9825826
      9322.0000        12.6827        -2.0545      0.9976304
      9322.5000        12.3311        -1.7092              1
      9323.0000        11.9796        -1.3639              1
      9323.5000         11.602        -0.9926              1
      9324.0000        11.2191        -0.6159              1
      9324.5000        10.8813        -0.2844              1
      9325.0000        10.6501        -0.0594              1
      9325.5000        10.4188         0.1657              1
      9326.0000        10.2288         0.3494              1
      9326.5000        10.0977         0.4743              1
      9327.0000          10.22         0.3457              1
      9327.5000        10.3485          0.211              1
      9328.0000        10.6746        -0.1214              1
      9328.5000        11.1448        -0.5978              1
      9329.0000         11.638        -1.0973              1
      9329.5000        12.1971        -1.6626              1
      9330.0000        12.7562        -2.2279      0.9900913
      9330.5000        13.6714        -3.1494      0.9500261
      9331.0000        14.5491        -4.0333      0.9115956
      9331.5000        15.3686        -4.8591      0.8756913
      9332.0000        15.9798        -5.4765      0.8488478
      9332.5000         16.532         -6.035      0.8245652
      9333.0000        17.0757        -6.5849      0.8006565
      9333.5000        17.5422        -7.0577         0.7801
      9334.0000        18.0086        -7.5303      0.7595522
      9334.5000        18.5217        -8.0496      0.7369739
      9335.0000        18.9253        -8.4595      0.7191522
      9335.5000        19.1792        -8.7196      0.7078435
      9336.0000        19.4229        -8.9696      0.6969739
      9336.5000        19.4936        -9.0465      0.6936304
      9337.0000        19.5644        -9.1236      0.6902782
      9337.5000        19.6181        -9.1835      0.6876739
      9338.0000        19.3102        -8.8819      0.7007869
      9338.5000        19.0027        -8.5806       0.713887
      9339.0000        18.6948         -8.279          0.727
      9339.5000        17.6049        -7.1953      0.7741174
      9340.0000        16.5986        -6.1952         0.8176
      9340.5000        15.9239        -5.5268      0.8466609
      9341.0000        15.3724        -4.9815      0.8703696
      9341.5000         15.027        -4.6424      0.8851131
      9342.0000        14.7333        -4.3549       0.897613
      9342.5000        14.5719        -4.1998      0.9043565
      9343.0000        14.5667        -4.2008       0.904313
      9343.5000        15.1013        -4.7417      0.8807957
      9344.0000        15.6367        -5.2833      0.8572478
      9344.5000        17.2083        -6.8611      0.7886478
      9345.0000        18.9912        -8.6503      0.7108565
      9345.5000        21.2352       -10.9005      0.6130217
      9346.0000        22.0654        -11.737      0.5766522
      9346.5000        22.4744       -12.1522         0.5586
      9347.0000        22.8495       -12.5336      0.5420174
      9347.5000        23.0118       -12.7021      0.5346913
      9348.0000        23.1742       -12.8708      0.5273565
      9348.5000        23.1555       -12.8583         0.5279
      9349.0000        23.1266       -12.8356       0.528887
      9349.5000        23.0798       -12.7951      0.5306478
      9350.0000        22.8815        -12.603          0.539
      9350.5000        22.6835       -12.4113      0.5473348
      9351.0000        22.4855       -12.2195       0.555674
      9351.5000        22.2875       -12.0278      0.5640087
      9352.0000         21.864       -11.6105      0.5821522
      9352.5000        21.3746       -11.1274      0.6031565
      9353.0000        20.8852       -10.6442      0.6241652
      9353.5000        20.2472       -10.0125      0.6516305
      9354.0000        19.5733        -9.3448      0.6806608
      9354.5000        18.9537        -8.7314      0.7073305
      9355.0000        18.5455        -8.3295      0.7248043
      9355.5000        18.1372        -7.9274       0.742287
      9356.0000         17.729        -7.5255      0.7597609
      9356.5000        17.4173          -7.22      0.7730435
      9357.0000        17.2408        -7.0498      0.7804435
      9357.5000        17.0642        -6.8794      0.7878522
      9358.0000        16.8877        -6.7092      0.7952522
      9358.5000        16.7422        -6.5699      0.8013087
      9359.0000        16.5995        -6.4334      0.8072435
      9359.5000        16.4567        -6.2969      0.8131782
      9360.0000        16.3141        -6.1605      0.8191087
      9360.5000        16.1712        -6.0239      0.8250479
      9361.0000        16.0286        -5.8875      0.8309783
      9361.5000        15.8904        -5.7556       0.836713
      9362.0000        15.7525        -5.6239      0.8424391
      9362.5000        15.6147        -5.4924      0.8481565
      9363.0000         15.477        -5.3609      0.8538739
      9363.5000        15.3391        -5.2292         0.8596
      9364.0000        15.2013        -5.0977      0.8653174
      9364.5000        15.0634         -4.966      0.8710435
      9365.0000        14.9256        -4.8345      0.8767609
      9365.5000        14.7668        -4.6819      0.8833957
      9366.0000        14.6022        -4.5236      0.8902783
      9366.5000        14.4375        -4.3651      0.8971696
      9367.0000        14.2137        -4.1476      0.9066261
      9367.5000        13.9824        -3.9225      0.9164131
      9368.0000        13.7044        -3.6508      0.9282261
      9368.5000         13.403        -3.3556      0.9410608
      9369.0000        13.1139        -3.0727      0.9533609
      9369.5000        12.8248        -2.7899      0.9656565
      9370.0000         12.631        -2.6023      0.9738131
      9370.5000        12.4527        -2.4303      0.9812913
      9371.0000        12.3782         -2.362      0.9842609
      9371.5000        12.3036        -2.2937      0.9872304
      9372.0000         12.229        -2.2253      0.9902043
      9372.5000        12.1474          -2.15      0.9934782
      9373.0000        12.0657        -2.0745      0.9967608
      9373.5000        11.9608        -1.9758              1
      9374.0000         11.828        -1.8493              1
      9374.5000        11.4657        -1.4932              1
      9375.0000        11.0996        -1.1334              1
      9375.5000        10.7312        -0.7712              1
      9376.0000        10.4333        -0.4796              1
      9376.5000        10.4161        -0.4686              1
      9377.0000        10.6386        -0.6974              1
      9377.5000        10.9097        -0.9747              1
      9378.0000        11.1804        -1.2516              1
      9378.5000        11.4368        -1.5143              1
      9379.0000         11.598        -1.6817              1
      9379.5000         11.759         -1.849              1
      9380.0000        11.9203        -2.0165      0.9992826
      9380.5000        12.0918        -2.1943      0.9915522
      9381.0000        12.2825        -2.3912      0.9829913
      9381.5000        12.4728        -2.5878      0.9744435
      9382.0000        12.6519        -2.7731       0.966387
      9382.5000        12.7729        -2.9003      0.9608565
