#------------------------------------------------------------------------------
# Created by    : vladimir.rabinovich
# Created on    : 09/19/2023 17:20:57
#------------------------------------------------------------------------------
~Version Information Section
VERS.           2.0     :   CWLS log ASCII Standard - VERSION 2.0
WRAP.           NO      :   One line per depth step
~Well Information Section
#MNEM       .UNIT                                         VALUE :DESCRIPTION
#------------------------------------------------------------------------------
STRT        .FT                                             727 :START DEPTH
STOP        .FT                                            8206 :STOP DEPTH
STEP        .FT                                             0.5 :STEP      
NULL        .                                           -999.25 :NULL      
COMP        .                              PHOENIX RESOURCES CO :COMPANY   
WELL        .                                          BLK 335L :WELL      
FLD         .                                 BRAZOS BLOCK 0309 :FIELD     
LOC         .                                                   :LOCATION  
CNTY        .                                BRAZOS LARGE BLOCK :LOCATION  
STAT        .                                             TEXAS :STATE     
CTRY        .                                     UNITED STATES :COUNTRY   
SRVC        .                                                   :SERVICE COMPANY
DATE        .                             9/13/2023 11:18:52 AM :LOG DATE  
API         .                                    42704300210000 :API NUMBER
UWI         .                                    42704300210000 :UNIQUE WELL ID
XCOORD      .                                  898426.347293712 :SURFACE X 
YCOORD      .                                  10460523.5569112 :SURFACE Y 
LAT         .                                        28.8046676 :LATITUDE  
LON         .                                       -95.3172337 :LONGITUDE 
ELEV        .FT                                              70 :ELEVATION VALUE
ELEV_TYPE   .                                                DF :ELEVATION REFERENCE TYPE
~Curve Information Section
#MNEM       .UNIT                                      API CODE :CURVE DESCRIPTION
#------------------------------------------------------------------------------
DEPT        .FT                                                 :DEPTH     
ASN         .OHMM                                               :          
CALI        .IN                                                 :          
DT          .US/F                                               :          
ILD         .OHMM                                               :          
SP          .MV                                                 :          
SP_NORM     .MV                                                 :SP Normalized
VSH_SP      .V/V                                                :Volume of Shale from SP
~A        DEPTH            ASN           CALI             DT            ILD             SP        SP_NORM         VSH_SP
# ...
      3708.5000         0.7601        11.5832        129.187         0.5646       -53.6071      -3.205761      0.9719591
      3709.0000         0.7778        11.6682       127.1888         0.5444       -58.7027       -8.31641      0.8531067
      3709.5000          0.794        11.7785       124.0138         0.5241       -63.8032      -13.43196      0.7341405
      3710.0000          0.804        11.9295       123.7487         0.5057       -68.4023      -18.04611      0.6268347
      3710.5000          0.776        11.7052       126.2963         0.5167       -71.8727      -21.53157      0.5457775
      3711.0000         0.7327        11.4093       127.9482         0.5278       -72.3494      -22.02332      0.5343415
      3711.5000         0.7149        11.3698       127.3635         0.5389       -70.3339      -20.02287      0.5808636
      3712.0000         0.7068        11.4492       126.4952          0.556       -68.5679      -18.27192      0.6215833
      3712.5000         0.7077        11.5383       126.6069         0.5899       -65.6088      -15.32787      0.6900495
      3713.0000         0.7182        11.5537       128.0063         0.6238       -60.1625      -9.896614      0.8163578
      3713.5000         0.7286        11.5646       130.8074         0.6577       -57.3948      -7.143967      0.8803729
      3714.0000         0.7391        11.6082       133.3965         0.6916       -56.6403      -6.404518      0.8975694
      3714.5000         0.7495        11.7133       136.0833          0.725       -55.5497      -5.328972       0.922582
      3715.0000           0.76        11.8493        138.655         0.7571       -54.0146      -3.808918      0.9579321
      3715.5000         0.7704         11.719       137.1921         0.7892       -52.3962       -2.20557      0.9952193
      3716.0000         0.7816        11.4996       134.2202         0.7933       -51.4551      -1.279522              1
      3716.5000         0.7942        11.3396       130.8235         0.7824        -51.457      -1.296474              1
      3717.0000         0.8069         11.307       127.6893         0.7714       -51.9893      -1.843822              1
      3717.5000         0.8196        11.3307       124.8673         0.7605       -53.7281      -3.597675      0.9628448
      3718.0000          0.819        11.3517       122.9854         0.7496       -57.5196      -7.404228      0.8743203
      3718.5000         0.8115         11.348       124.8661         0.7398       -59.5113      -9.410976      0.8276517
      3719.0000         0.8015        11.3056       126.6587         0.7304        -57.606      -7.520729      0.8716109
      3719.5000         0.7826        11.2654       130.3923         0.7209       -53.8245       -3.75428      0.9592028
      3720.0000         0.7637        11.3188       132.2976         0.7114       -50.9655     -0.9103317              1
      3720.5000         0.7448        11.4092        134.313         0.7019       -49.5153      0.5248184              1
      3721.0000         0.7285        11.5256       136.6433         0.6924        -49.455      0.5700645              1
      3721.5000         0.7194        11.5971       138.1899          0.683       -49.4057      0.6043167              1
      3722.0000         0.7355        11.4878        136.606         0.6737       -48.2796       1.715366              1
      3722.5000         0.7517        11.4101       132.5427           0.67        -49.355      0.6249161              1
      3723.0000         0.7632        11.4053       128.2344         0.6662       -52.4684      -2.503536      0.9882898
      3723.5000          0.755        11.5638       129.0432         0.6625       -54.0436      -4.093784      0.9513074
      3724.0000         0.7363        11.7846       131.3152         0.6588       -53.1106      -3.175838      0.9726549
      3724.5000         0.7175        11.9476       137.8596         0.6551       -48.9833      0.9364128              1
      3725.0000         0.6988        11.8966       141.7991         0.6514       -46.4453       3.459358              1
      3725.5000         0.6829        12.0165       144.1677         0.6477       -45.3357       4.553909              1
      3726.0000         0.6689        12.2319       146.1794          0.644       -44.7457       5.128857              1
      3726.5000         0.6549        12.4294       147.5154         0.6424       -44.2325        5.62701              1
      3727.0000         0.6537        12.7228       148.1375         0.6414       -43.9028       5.941654              1
      3727.5000         0.6577        12.8063       148.4937         0.6403       -43.7185       6.110909              1
      3728.0000         0.6619        12.7988       148.7488         0.6392       -43.9256       5.888756              1
      3728.5000          0.666         12.726       148.8579         0.6381       -44.3989       5.400406              1
      3729.0000         0.6701        12.6261       148.0117         0.6428       -44.8701       4.914154              1
      3729.5000         0.6743        12.3825        145.762         0.6598       -44.8046       4.964603              1
      3730.0000         0.6862         12.033       144.4712         0.6769       -43.9395       5.814651              1
      3730.5000         0.7023        11.6679       142.2278         0.6939       -43.6317       6.107403              1
      3731.0000         0.7183         11.537        138.593          0.711       -43.9531        5.77095              1
      3731.5000         0.7343        11.5274       135.0166          0.728        -45.976       3.732998              1
      3732.0000         0.7504        11.5192       131.2954          0.745       -48.2448       1.449146              1
      3732.5000         0.7704        11.5167       126.9312         0.7617       -50.6715     -0.9926033              1
      3733.0000         0.7914        11.5502       125.6948         0.7727       -53.9529      -4.289055      0.9467661
      3733.5000         0.8123        11.6444       128.1216         0.7838        -59.629      -9.980206      0.8144138
      3734.0000         0.8333         11.671       128.5852         0.7949         -66.54      -16.90626      0.6533428
      3734.5000         0.8542        11.7225       127.3375          0.806       -70.9539      -21.33521       0.550344
      3735.0000         0.8704        11.8244       124.3173         0.8173       -67.8145      -18.21086      0.6230033
      3735.5000         0.8867          12.05       121.6824         0.8285       -61.5704      -11.98181      0.7678649
      3736.0000         0.9029        12.1462       119.4178         0.8398       -56.7341      -7.160561      0.8799869
      3736.5000          0.916        12.0634       119.1603         0.8414        -54.818       -5.25951      0.9241974
      3737.0000         0.9259        11.8487         121.12         0.8418       -54.6395      -5.096062      0.9279985
      3737.5000         0.9358        11.5171       120.2715         0.8421       -56.7267      -7.198311       0.879109
      3738.0000         0.9327        11.4575       118.9354         0.8425       -60.1514      -10.63807      0.7991148
      3738.5000         0.9173        11.4683       119.1215         0.8428       -62.5793      -13.08101       0.742302
      3739.0000         0.8947        11.4818       119.8607         0.8358       -64.2943      -14.81106      0.7020683
      3739.5000         0.8721        11.4602       121.3418         0.8165       -63.3624      -13.89421      0.7233903
      3740.0000         0.8553        11.4256       122.8853         0.7971       -61.8637      -12.41057      0.7578937
      3740.5000         0.8432        11.5078       124.3743         0.7777       -60.9811      -11.54301      0.7780694
      3741.0000         0.8347        11.6572       125.4192         0.7583       -61.8942      -12.47117      0.7564844
      3741.5000         0.8429        11.8306        126.562         0.7405       -61.3586      -11.95062      0.7685903
