#------------------------------------------------------------------------------
# Created by    : vladimir.rabinovich
# Created on    : 09/19/2023 17:22:56
#------------------------------------------------------------------------------
~Version Information Section
VERS.           2.0     :   CWLS log ASCII Standard - VERSION 2.0
WRAP.           NO      :   One line per depth step
~Well Information Section
#MNEM       .UNIT                                         VALUE :DESCRIPTION
#------------------------------------------------------------------------------
STRT        .FT                                             890 :START DEPTH
STOP        .FT                                            9495 :STOP DEPTH
STEP        .FT                                             0.5 :STEP      
NULL        .                                           -999.25 :NULL      
COMP        .                                   MARATHON OIL CO :COMPANY   
WELL        .                               OCS G04138 ST00BP00 :WELL      
FLD         .                                           WILDCAT :FIELD     
LOC         .                                                   :LOCATION  
CNTY        .                      MATAGORDA ISLAND LARGE BLOCK :LOCATION  
STAT        .                                             TEXAS :STATE     
CTRY        .                                     UNITED STATES :COUNTRY   
SRVC        .                                                   :SERVICE COMPANY
DATE        .                             9/13/2023 11:12:11 AM :LOG DATE  
API         .                                    42703402070000 :API NUMBER
UWI         .                                    42703402070000 :UNIQUE WELL ID
XCOORD      .                                  590883.400226114 :SURFACE X 
YCOORD      .                                  10259990.6406746 :SURFACE Y 
LAT         .                                         28.233929 :LATITUDE  
LON         .                                        -96.259589 :LONGITUDE 
ELEV        .FT                                              90 :ELEVATION VALUE
ELEV_TYPE   .                                                KB :ELEVATION REFERENCE TYPE
~Curve Information Section
#MNEM       .UNIT                                      API CODE :CURVE DESCRIPTION
#------------------------------------------------------------------------------
DEPT        .FT                                                 :DEPTH     
SP          .MV                                                 :          
SP_NORM     .MV                                                 :SP Normalized
VSH_SP      .V/V                                                :Volume of Shale from SP
~A        DEPTH             SP        SP_NORM         VSH_SP
# ...
      9404.0000        12.2406     -0.1924067              1
      9404.5000        12.1032    -0.05500698              1
      9405.0000        11.9647     0.08349323              1
      9405.5000        11.8262      0.2219934              1
      9406.0000        11.8706      0.1775932              1
      9406.5000        11.9828     0.06539345              1
      9407.0000        12.3492     -0.3010073              1
      9407.5000        12.7156      -0.667407              1
      9408.0000        12.9589     -0.9107075              1
      9408.5000        13.0612      -1.013007      0.9997044
      9409.0000        13.1637      -1.115507      0.9973748
      9409.5000        13.1878      -1.139607      0.9968271
      9410.0000        13.1885      -1.140307      0.9968112
      9410.5000        13.1891      -1.140907      0.9967976
      9411.0000         13.264      -1.215807      0.9950953
      9411.5000        13.4175      -1.369307      0.9916067
      9412.0000         13.571      -1.522807       0.988118
      9412.5000        13.7251      -1.676907      0.9846157
      9413.0000        13.8811      -1.832907      0.9810703
      9413.5000         14.037      -1.988807      0.9775271
      9414.0000         14.193      -2.144807      0.9739817
      9414.5000         14.279      -2.230807      0.9720271
      9415.0000        14.2428      -2.194607      0.9728498
      9415.5000        14.2065      -2.158307      0.9736748
      9416.0000        14.1702      -2.122007      0.9744998
      9416.5000        14.1349      -2.086707      0.9753021
      9417.0000        14.1066      -2.058407      0.9759453
      9417.5000        14.0782      -2.030007      0.9765908
      9418.0000        14.0499      -2.001707      0.9772339
      9418.5000        14.0404      -1.992207      0.9774498
      9419.0000        14.3572      -2.309007      0.9702498
      9419.5000         14.674      -2.625807      0.9630498
      9420.0000         14.962      -2.913807      0.9565044
      9420.5000        15.2478      -3.199607      0.9500089
      9421.0000        15.4779      -3.429707      0.9447794
      9421.5000        15.6706      -3.622407      0.9403998
      9422.0000        15.8241      -3.775907      0.9369112
      9422.5000        15.9197      -3.871507      0.9347385
      9423.0000        15.7518      -3.703607      0.9385544
      9423.5000        15.5839      -3.535707      0.9423703
      9424.0000        15.2849      -3.236707      0.9491658
      9424.5000        14.9632      -2.915007      0.9564771
      9425.0000        14.6409      -2.592707      0.9638021
      9425.5000        14.2873      -2.239107      0.9718385
      9426.0000        13.9313      -1.883107      0.9799294
      9426.5000         13.643      -1.594807      0.9864817
      9427.0000        13.4534      -1.405207      0.9907908
      9427.5000        13.2637      -1.215507      0.9951021
      9428.0000        13.0883      -1.040107      0.9990885
      9428.5000         13.031     -0.9828072              1
      9429.0000        12.9736     -0.9254074              1
      9429.5000        12.9699     -0.9217072              1
      9430.0000         13.047      -0.998807              1
      9430.5000        13.1239      -1.075707      0.9982794
      9431.0000        13.2109      -1.162707      0.9963021
      9431.5000        13.3201      -1.271907      0.9938203
      9432.0000        13.4292      -1.381007      0.9913408
      9432.5000        13.4817      -1.433507      0.9901476
      9433.0000         13.457      -1.408807      0.9907089
      9433.5000        13.4323      -1.384107      0.9912703
      9434.0000        13.3736      -1.325407      0.9926044
      9434.5000        13.2463      -1.198107      0.9954976
      9435.0000         13.119      -1.070807      0.9983907
      9435.5000        12.9918     -0.9436073              1
      9436.0000         12.887     -0.8388071              1
      9436.5000        12.7942      -0.746007              1
      9437.0000        12.7158     -0.6676073              1
      9437.5000          12.73     -0.6818066              1
      9438.0000        12.7442     -0.6960068              1
      9438.5000        12.7796     -0.7314072              1
      9439.0000         12.882      -0.833807              1
      9439.5000        12.9845      -0.936307              1
      9440.0000        13.0868      -1.038607      0.9991226
      9440.5000         13.119      -1.070807      0.9983907
      9441.0000        13.1303      -1.082107       0.998134
      9441.5000        13.1417      -1.093507      0.9978749
      9442.0000        13.1503      -1.102107      0.9976794
      9442.5000         13.136      -1.087807      0.9980044
      9443.0000        13.1216      -1.073407      0.9983317
      9443.5000        13.1072      -1.059007       0.998659
      9444.0000        13.0928      -1.044607      0.9989862
      9444.5000        13.0784      -1.030207      0.9993135
      9445.0000        13.0774      -1.029207      0.9993362
      9445.5000         13.078      -1.029807      0.9993226
      9446.0000        13.0787      -1.030507      0.9993067
      9446.5000        13.0793      -1.031107       0.999293
      9447.0000         13.085      -1.036807      0.9991634
      9447.5000         13.097      -1.048807      0.9988908
      9448.0000        13.1089      -1.060707      0.9986203
      9448.5000        13.1208      -1.072607      0.9983498
      9449.0000        13.2631      -1.214907      0.9951158
      9449.5000        13.4093      -1.361107       0.991793
      9450.0000        13.5554      -1.507207      0.9884726
      9450.5000        13.7018      -1.653607      0.9851453
      9451.0000        13.8654      -1.817207      0.9814271
      9451.5000        14.0312      -1.983007      0.9776589
      9452.0000        14.1966      -2.148407      0.9738998
      9452.5000        14.3624      -2.314207      0.9701316
      9453.0000        14.4721      -2.423907      0.9676385
      9453.5000        14.5746      -2.526407      0.9653089
      9454.0000        14.6769      -2.628707      0.9629839
      9454.5000        14.7369      -2.688707      0.9616203
      9455.0000        14.7375      -2.689307      0.9616067
      9455.5000        14.7382      -2.690007      0.9615908
      9456.0000        14.7389      -2.690707      0.9615749
      9456.5000        14.6576      -2.609407      0.9634225
      9457.0000        14.5485      -2.500307      0.9659021
      9457.5000        14.4394      -2.391207      0.9683816
      9458.0000        14.3304      -2.282207      0.9708589
      9458.5000        14.2323      -2.184107      0.9730885
      9459.0000         14.233      -2.184807      0.9730726
      9459.5000        14.2336      -2.185407      0.9730589
      9460.0000        14.2343      -2.186107       0.973043
      9460.5000        14.2706      -2.222407       0.972218
      9461.0000        14.3282      -2.280007      0.9709089
      9461.5000        14.3857      -2.337507      0.9696021
      9462.0000        14.4433      -2.395107       0.968293
      9462.5000        14.5008      -2.452607      0.9669862
      9463.0000        14.4778      -2.429607      0.9675089
      9463.5000         14.435      -2.386807      0.9684817
      9464.0000        14.3922      -2.344007      0.9694543
      9464.5000        14.3494      -2.301207      0.9704271
      9465.0000        14.3065      -2.258307      0.9714021
      9465.5000        14.2349      -2.186707      0.9730294
      9466.0000        14.1184      -2.070207      0.9756771
      9466.5000        14.0018      -1.953607      0.9783271
      9467.0000        13.8852      -1.837007      0.9809771
      9467.5000        13.8038      -1.755607      0.9828271
      9468.0000        13.7368      -1.688607      0.9843498
      9468.5000        13.6699      -1.621707      0.9858703
      9469.0000        13.6264      -1.578207      0.9868589
      9469.5000        13.6609      -1.612707      0.9860749
