#------------------------------------------------------------------------------
# Created by    : vladimir.rabinovich
# Created on    : 09/19/2023 17:22:18
#------------------------------------------------------------------------------
~Version Information Section
VERS.           2.0     :   CWLS log ASCII Standard - VERSION 2.0
WRAP.           NO      :   One line per depth step
~Well Information Section
#MNEM       .UNIT                                         VALUE :DESCRIPTION
#------------------------------------------------------------------------------
STRT        .FT                                            4012 :START DEPTH
STOP        .FT                                            9352 :STOP DEPTH
STEP        .FT                                             0.5 :STEP      
NULL        .                                           -999.25 :NULL      
COMP        .                                   KERR-MCGEE CORP :COMPANY   
WELL        .                                ST TR 00007-L SE/4 :WELL      
FLD         .                                           WILDCAT :FIELD     
LOC         .                                                   :LOCATION  
CNTY        .                           HIGH ISLAND LARGE BLOCK :LOCATION  
STAT        .                                             TEXAS :STATE     
CTRY        .                                     UNITED STATES :COUNTRY   
SRVC        .                                                   :SERVICE COMPANY
DATE        .                             9/13/2023 11:19:15 AM :LOG DATE  
API         .                                    42708302700000 :API NUMBER
UWI         .                                    42708302700000 :UNIQUE WELL ID
XCOORD      .                                   1285759.2062487 :SURFACE X 
YCOORD      .                                  10728779.4927599 :SURFACE Y 
LAT         .                                        29.5578886 :LATITUDE  
LON         .                                       -94.1158411 :LONGITUDE 
ELEV        .FT                                             125 :ELEVATION VALUE
ELEV_TYPE   .                                                KB :ELEVATION REFERENCE TYPE
~Curve Information Section
#MNEM       .UNIT                                      API CODE :CURVE DESCRIPTION
#------------------------------------------------------------------------------
DEPT        .FT                                                 :DEPTH     
CALI        .IN                                                 :          
CILD        .MMHO                                               :          
DPHI        .%                                                  :          
ILD         .OHMM                                               :          
ILM         .OHMM                                               :          
SFL         .OHMM                                               :          
SP          .MV                                                 :          
SP_NORM     .MV                                                 :SP Normalized
VSH_SP      .V/V                                                :Volume of Shale from SP
~A        DEPTH           CALI           CILD           DPHI            ILD            ILM            SFL             SP        SP_NORM         VSH_SP
      4012.0000        15.8521        -0.3145        45.7903         0.5367         0.6378          0.698      -104.3486       -10.4188        0.85116
      4012.5000        16.0733        21.4199        43.6475         0.4301         0.5226         0.6899       -100.301        -6.8777      0.9017472
      4013.0000        16.0989       192.9033         40.774         0.4633         0.5459         0.6668       -99.0632        -6.1463      0.9121957
      4013.5000        16.1763       790.0752        37.4691         0.4885         0.5743          0.668       -98.6218        -6.2114      0.9112657
      4014.0000        16.2538         1595.6        37.2039         0.4967         0.6023         0.6893       -96.3285        -4.4246      0.9367914
      4014.5000        16.3108       2267.492        38.8174         0.4933         0.6172         0.7076       -93.1033        -1.7059        0.97563
      4015.0000         16.315       2262.777        38.9868         0.4856         0.6137         0.7182       -91.6874        -0.7964      0.9886228
      4015.5000        16.3112       2162.629        38.1782         0.4754         0.6031         0.7005       -91.0475         -0.663      0.9905286
      4016.0000        16.3069       1997.576        36.8026         0.4653         0.5869         0.6759       -91.2257        -1.3477      0.9807472
      4016.5000         16.304       1960.805        36.7808         0.4562         0.5755         0.6522        -91.665        -2.2935      0.9672357
      4017.0000        16.3048        2013.09          38.69         0.4536         0.5702         0.6328        -91.761        -2.8959        0.95863
      4017.5000        16.3117       2069.254        43.6843          0.459         0.5633         0.6164       -91.3204        -2.9618      0.9576886
      4018.0000        16.3143       2121.707        48.2102         0.4748         0.5609          0.616       -89.8198        -1.9677        0.97189
      4018.5000        16.3152       2150.672        49.8016         0.4961         0.5607          0.623       -87.5841        -0.2384      0.9965943
      4019.0000        16.2994       2164.074        50.0681         0.5062         0.5609         0.6397       -86.0526         0.7866              1
      4019.5000        16.2857       2126.984        50.1488         0.5118         0.5668         0.6617       -85.4738         0.8589              1
      4020.0000        16.2781       2066.945        50.1938         0.5169         0.5735         0.6776       -85.8104         0.0158              1
      4020.5000        16.2708       1994.926        50.1122         0.5217         0.5792         0.6824       -86.7278        -1.4081      0.9798843
      4021.0000        16.2639       1937.412        50.0369          0.519          0.585         0.6869       -87.5865        -2.5388      0.9637314
      4021.5000        16.2482       1906.336        49.9917         0.5076         0.5896         0.6894       -87.7783        -2.7509      0.9607014
      4022.0000        16.2388       1891.873        50.3095         0.4964         0.5935          0.692       -88.0386        -3.0314      0.9566943
      4022.5000        16.2328       1884.459        50.6653         0.4867         0.5954         0.6994       -88.7528        -3.7659      0.9462014
      4023.0000        16.2259       1907.859        51.0682         0.4877         0.5976         0.7071       -90.0609        -5.0943      0.9272243
      4023.5000        16.2153       1943.598         51.071         0.4886         0.6035         0.7246       -91.8945        -6.9482        0.90074
      4024.0000        16.2056        1978.43        51.0627         0.4911         0.6103          0.744        -94.679        -9.7529      0.8606728
      4024.5000        16.1959       2008.893        51.1735         0.4947         0.6209         0.7662      -100.9768        -16.071      0.7704143
      4025.0000        16.2109       2024.492         51.591         0.5025         0.6316         0.7839      -107.2069       -22.3214      0.6811228
      4025.5000        16.2317       1979.215        51.8344          0.515         0.6432         0.7946      -110.1656       -25.3003      0.6385671
      4026.0000         16.243       1940.186        51.9778         0.5329          0.652         0.8064       -111.814        -26.969      0.6147286
      4026.5000        16.2439       1907.883        51.9834         0.5561         0.6557          0.819      -112.2576       -27.4329      0.6081014
      4027.0000        16.2448       1881.385        51.8419         0.5727           0.65         0.8262      -111.4918       -26.6873      0.6187528
      4027.5000        16.2614       1856.703         51.699         0.5803         0.6481         0.8135      -109.1677       -24.3835      0.6516643
      4028.0000        16.2812        1821.92        51.5441         0.5912         0.6472         0.7897       -107.093       -22.3291      0.6810129
      4028.5000        16.3011       1786.205        51.5152         0.6056         0.6481         0.7614      -104.3777        -19.634      0.7195143
      4029.0000        16.3173        1743.15        51.8555         0.6402           0.66         0.7505      -101.2893       -16.5659      0.7633443
      4029.5000        16.3334       1696.291        52.1696         0.6785         0.7198         0.7478       -97.4379       -12.7348      0.8180743
      4030.0000        16.3353       1622.453        52.4009         0.7188         0.7768         0.7573       -93.3176        -8.6348      0.8766457
      4030.5000        16.3361       1537.178        52.4349         0.7573          0.822         0.7784       -90.1082        -5.4456      0.9222057
      4031.0000         16.337       1453.916         52.459          0.788         0.8554         0.8118       -87.9498        -3.3075        0.95275
      4031.5000        16.3379       1379.539        52.2549         0.8006         0.8434         0.8459       -85.8837        -1.2617      0.9819757
      4032.0000        16.3387       1312.281        51.9012          0.787         0.8249         0.8803       -83.7921         0.8097              1
      4032.5000        16.3288        1228.43          51.57         0.7876         0.8259         0.9148       -82.5427         2.0388              1
      4033.0000        16.3183       1103.242        51.6042         0.7909         0.8355         0.9522       -81.8239         2.7373              1
      4033.5000        16.3148       1021.698         52.035          0.794         0.8361         0.9866       -81.6335         2.9075              1
      4034.0000         16.312       966.5176        52.3913         0.7972         0.8721         1.0053       -82.2509         2.2698              1
      4034.5000        16.3099        928.666        52.4061         0.7972         0.8774         1.0085       -84.2317         0.2687              1
      4035.0000         16.308       913.0908        51.6536         0.7961         0.8397         0.9971       -86.1573        -1.6772        0.97604
      4035.5000        16.3061       944.0322        50.0718         0.7876         0.7943         0.9612       -87.9572        -3.4973      0.9500386
      4036.0000        16.2987       1011.536        49.2257         0.7767         0.7551         0.9263       -89.5535        -5.1139      0.9269443
      4036.5000        16.2913       1099.068        48.5125         0.7475         0.7084         0.8832       -90.9287        -6.5094      0.9070086
      4037.0000         16.287       1201.184        47.8151         0.7101         0.6676         0.8411        -91.454        -7.0549      0.8992157
      4037.5000        16.2958       1298.389        47.5078         0.6696          0.641         0.7976       -91.7009        -7.3221      0.8953986
      4038.0000        16.3045       1370.898        47.2996         0.6322         0.6262         0.7684       -91.6539        -7.2954        0.89578
