#------------------------------------------------------------------------------
# Created by    : vladimir.rabinovich
# Created on    : 09/19/2023 17:20:11
#------------------------------------------------------------------------------
~Version Information Section
VERS.           2.0     :   CWLS log ASCII Standard - VERSION 2.0
WRAP.           NO      :   One line per depth step
~Well Information Section
#MNEM       .UNIT                                         VALUE :DESCRIPTION
#------------------------------------------------------------------------------
STRT        .FT                                             984 :START DEPTH
STOP        .FT                                            6595 :STOP DEPTH
STEP        .FT                                             0.5 :STEP      
NULL        .                                           -999.25 :NULL      
COMP        .                   MCMORAN OFFSHORE EXPLORATION CO :COMPANY   
WELL        .                               OCS G03106 ST00BP00 :WELL      
FLD         .                                           WILDCAT :FIELD     
LOC         .                                                   :LOCATION  
CNTY        .                      MATAGORDA ISLAND LARGE BLOCK :LOCATION  
STAT        .                                             TEXAS :STATE     
CTRY        .                                     UNITED STATES :COUNTRY   
SRVC        .                                                   :SERVICE COMPANY
DATE        .                             9/13/2023 11:12:09 AM :LOG DATE  
API         .                                    42703400570000 :API NUMBER
UWI         .                                    42703400570000 :UNIQUE WELL ID
XCOORD      .                                  467986.403229072 :SURFACE X 
YCOORD      .                                  10153243.7887249 :SURFACE Y 
LAT         .                                         27.931172 :LATITUDE  
LON         .                                        -96.630795 :LONGITUDE 
ELEV        .FT                                              95 :ELEVATION VALUE
ELEV_TYPE   .                                                KB :ELEVATION REFERENCE TYPE
~Curve Information Section
#MNEM       .UNIT                                      API CODE :CURVE DESCRIPTION
#------------------------------------------------------------------------------
DEPT        .FT                                                 :DEPTH     
ASFL        .OHMM                                               :          
CILD        .MMHO                                               :          
DT          .US/F                                               :          
GR          .GAPI                                               :          
GR_NORM     .GAPI                                               :GammaRay Normalized
ILD         .OHMM                                               :          
SFL         .OHMM                                               :          
SP          .MV                                                 :          
SP_NORM     .MV                                                 :SP Normalized
VSH_GR      .V/V                                                :Volume of Shale from GR
VSH_SP      .V/V                                                :Volume of Shale from SP
~A        DEPTH           ASFL           CILD             DT             GR        GR_NORM            ILD            SFL             SP        SP_NORM         VSH_GR         VSH_SP
# ...
      3976.5000         0.9834       2684.633       119.4663        -999.25        -999.25         0.2475         0.6209       -78.8434         -41.39        -999.25     0.01564104
      3977.0000         1.0201       2694.414       129.1104        -999.25        -999.25         0.2429         0.6081       -78.9412       -41.4856        -999.25     0.01318976
      3977.5000         0.9664       2730.148        133.165        -999.25        -999.25         0.2402         0.6205       -78.9995       -41.5417        -999.25     0.01175132
      3978.0000         0.8981        2765.91        133.511        -999.25        -999.25         0.2374         0.6462        -79.058        -41.598        -999.25      0.0103077
      3978.5000         0.8293       2801.648        134.522        -999.25        -999.25         0.2347         0.6846       -78.7736       -41.3114        -999.25     0.01765637
      3979.0000         0.7831       2847.055       138.2471        -999.25        -999.25         0.2319         0.7249         -78.48       -41.0156        -999.25     0.02524107
      3979.5000         0.7361       2893.594       144.7266        -999.25        -999.25         0.2292         0.7672       -78.1865       -40.7199        -999.25     0.03282312
      3980.0000         0.6845       2945.289       119.4663        -999.25        -999.25         0.2264         0.7976       -77.8928        -40.424        -999.25     0.04041026
      3980.5000         0.6519       3010.398        89.1763        -999.25        -999.25          0.224         0.8182       -77.1167       -39.6457        -999.25     0.06036671
      3981.0000         0.6403       3052.992        92.9016        -999.25        -999.25         0.2219         0.8041       -75.7748       -38.3016        -999.25     0.09483074
      3981.5000         0.6872       3026.629       104.0369        -999.25        -999.25         0.2198           0.79       -74.5997       -37.1243        -999.25       0.125018
      3982.0000         0.7364       3000.262        103.993        -999.25        -999.25         0.2177         0.7566       -73.9288       -36.4512        -999.25       0.142277
      3982.5000         0.7763       2976.563       102.8761        -999.25        -999.25         0.2156         0.7381       -74.3915       -36.9117        -999.25      0.1304692
      3983.0000         0.8148       2960.035       100.9983        -999.25        -999.25         0.2135         0.7706       -74.7816       -37.2996        -999.25      0.1205231
      3983.5000          0.833       2943.523        99.2601        -999.25        -999.25         0.2115         0.8514       -75.1718       -37.6876        -999.25      0.1105744
      3984.0000         0.8512       2913.594        97.4603        -999.25        -999.25         0.2094         1.0152       -75.5621       -38.0757        -999.25      0.1006231
      3984.5000         0.8582        2870.41        95.6411        -999.25        -999.25         0.2299         1.2702       -74.7896        -37.301        -999.25      0.1204872
      3985.0000         0.8168       2814.523        94.1929        -999.25        -999.25         0.2557          1.546       -73.4221       -35.9313        -999.25      0.1556077
      3985.5000         0.7743       2725.191        92.9004        -999.25        -999.25         0.2815         1.7796       -72.0547       -34.5617        -999.25      0.1907257
      3986.0000         0.7743       2460.996        91.6224        -999.25        -999.25         0.3073         1.8401       -69.7764       -32.2812        -999.25         0.2492
      3986.5000         0.8648       2150.832        90.1921        -999.25        -999.25         0.3639          1.755       -60.2433       -22.7459        -999.25      0.4936949
      3987.0000         0.9299       1840.666        87.7993        -999.25        -999.25         0.4347         1.6838       -55.9871       -18.4875        -999.25      0.6028847
      3987.5000         0.9891       1530.498        84.4413        -999.25        -999.25         0.5055         1.6504       -55.1276       -17.6258        -999.25      0.6249795
      3988.0000         1.0677       1373.443        84.2842        -999.25        -999.25         0.5797         1.5557       -54.2717       -16.7677        -999.25      0.6469821
      3988.5000         1.3024       1151.275        89.5616        -999.25        -999.25         0.6626         1.2582       -52.7357       -15.2295        -999.25      0.6864231
      3989.0000         1.8896       1047.047        92.0923        -999.25        -999.25         0.7455         1.1995       -50.8445       -13.3361        -999.25      0.7349718
      3989.5000         1.8283       977.2012        92.2384        -999.25        -999.25         0.8284         1.3949       -49.7487       -12.2381        -999.25      0.7631257
      3990.0000         1.7058       915.1484        91.2292        -999.25        -999.25         0.8981         1.5692       -48.7744       -11.2616        -999.25      0.7881641
      3990.5000         1.5835       863.2314        90.9556        -999.25        -999.25         0.9614          1.508       -47.8819       -10.3669        -999.25      0.8111051
      3991.0000         1.4611       851.3066        95.2305        -999.25        -999.25         1.0247         1.1542       -47.0367        -9.5195        -999.25      0.8328333
      3991.5000         1.3387       874.2812        99.7699        -999.25        -999.25          1.022         1.1127       -46.3914         -8.872        -999.25      0.8494359
      3992.0000         1.2164        897.082        99.7046        -999.25        -999.25         0.9884         1.4528       -47.2147        -9.6931        -999.25      0.8283821
      3992.5000          1.192       915.6787        83.4025        -999.25        -999.25         0.9547         1.8401       -48.4094       -10.8856        -999.25      0.7978051
      3993.0000          1.709       934.2744        75.4929        -999.25        -999.25          0.921         2.0749       -50.1998       -12.6738        -999.25      0.7519538
      3993.5000          1.628       952.8584        72.3306        -999.25        -999.25         0.8873         1.9649       -58.2727       -20.7445        -999.25      0.5450128
      3994.0000         1.2484       971.0107        71.5388        -999.25        -999.25         0.8284         1.5157       -60.2897       -22.7593        -999.25      0.4933513
      3994.5000         1.2287       987.5107        74.0748        -999.25        -999.25         0.7661         1.1868       -61.0217       -23.4892        -999.25      0.4746359
      3995.0000         1.6972       1159.168        81.3538        -999.25        -999.25         0.7038         0.9624       -61.3742       -23.8394        -999.25      0.4656564
      3995.5000         2.3216       1340.295        91.8676        -999.25        -999.25         0.6414          0.752       -61.7759        -24.239        -999.25      0.4554102
      3996.0000         0.9576       1455.324       102.3813        -999.25        -999.25         0.6509         0.6538       -62.3934       -24.8542        -999.25      0.4396359
      3996.5000         0.9274       1580.023       111.8491        -999.25        -999.25          0.572         0.6054        -63.259       -25.7177        -999.25      0.4174949
      3997.0000         0.8695       1713.502       113.3229        -999.25        -999.25         0.5101         0.5818       -64.3999       -26.8564        -999.25      0.3882974
      3997.5000         0.7838       1821.527       112.5691        -999.25        -999.25         0.4595         0.6789       -64.1088       -26.5631        -999.25      0.3958179
      3998.0000         0.7237       1923.436       112.0216        -999.25        -999.25          0.409         0.8443       -59.7794       -22.2315        -999.25      0.5068846
      3998.5000         0.6558       2012.225       112.3927        -999.25        -999.25           0.36         0.9634       -55.4499       -17.8998        -999.25      0.6179538
