#------------------------------------------------------------------------------
# Created by    : vladimir.rabinovich
# Created on    : 09/19/2023 17:19:44
#------------------------------------------------------------------------------
~Version Information Section
VERS.           2.0     :   CWLS log ASCII Standard - VERSION 2.0
WRAP.           NO      :   One line per depth step
~Well Information Section
#MNEM       .UNIT                                         VALUE :DESCRIPTION
#------------------------------------------------------------------------------
STRT        .FT                                             490 :START DEPTH
STOP        .FT                                           13420 :STOP DEPTH
STEP        .FT                                             0.5 :STEP      
NULL        .                                           -999.25 :NULL      
COMP        .                                 MESA PETROLEUM CO :COMPANY   
WELL        .                                     ST TR 00012-L :WELL      
FLD         .                                           WILDCAT :FIELD     
LOC         .                                                   :LOCATION  
CNTY        .                           HIGH ISLAND LARGE BLOCK :LOCATION  
STAT        .                                             TEXAS :STATE     
CTRY        .                                     UNITED STATES :COUNTRY   
SRVC        .                                                   :SERVICE COMPANY
DATE        .                             9/13/2023 11:19:15 AM :LOG DATE  
API         .                                    42708302120000 :API NUMBER
UWI         .                                    42708302120000 :UNIQUE WELL ID
XCOORD      .                                  1361115.25412243 :SURFACE X 
YCOORD      .                                  10723579.9964947 :SURFACE Y 
LAT         .                                        29.5453665 :LATITUDE  
LON         .                                       -93.8786547 :LONGITUDE 
ELEV        .FT                                              80 :ELEVATION VALUE
ELEV_TYPE   .                                                KB :ELEVATION REFERENCE TYPE
~Curve Information Section
#MNEM       .UNIT                                      API CODE :CURVE DESCRIPTION
#------------------------------------------------------------------------------
DEPT        .FT                                                 :DEPTH     
ASFL        .OHMM                                               :          
CILD        .MMHO                                               :          
GR          .GAPI                                               :          
GR_NORM     .GAPI                                               :GammaRay Normalized
ILD         .OHMM                                               :          
SP          .MV                                                 :          
SP_NORM     .MV                                                 :SP Normalized
VSH_GR      .V/V                                                :Volume of Shale from GR
~A        DEPTH           ASFL           CILD             GR        GR_NORM            ILD             SP        SP_NORM         VSH_GR
# ...
      4797.0000         0.7521       2239.402        56.3629        79.7575         0.5671      -143.2693      -4.138504      0.9948404
      4797.5000         0.7635       2245.586        55.3544       77.88513         0.5654      -143.9966      -4.864807      0.9550028
      4798.0000         0.7763       2260.266         54.217       75.77341         0.5634      -144.9749      -5.842102      0.9100725
      4798.5000         0.7886       2274.938        53.7771       74.95668         0.5572      -146.1814      -7.047592      0.8926953
      4799.0000          0.789       2289.605        53.8753       75.13898          0.551      -147.1956      -8.060791      0.8965741
      4799.5000         0.7851       2304.277        54.0712       75.50272         0.5453      -149.0239      -9.888092      0.9043133
      4800.0000         0.7812        2341.82         54.267       75.86622         0.5397      -150.6292      -11.49239      0.9120472
      4800.5000         0.7774       2382.254        54.5005       76.29974         0.5315      -152.5613      -13.42348      0.9212711
      4801.0000          0.764       2410.809         55.007       77.24014         0.5229      -154.0679      -14.92909      0.9412795
      4801.5000         0.7524       2443.355        55.5137       78.18088         0.5193      -155.5486      -16.40878      0.9612952
      4802.0000         0.7421       2478.793        55.8876       78.87506         0.5177      -156.4114      -17.27058      0.9760651
      4802.5000         0.7338       2495.434        56.2467       79.54176         0.5233      -155.9338      -16.79199      0.9902501
      4803.0000         0.7262        2510.77        56.5549       80.11398         0.5311      -155.0974      -15.95457              1
      4803.5000         0.7211       2516.387         56.857       80.67487         0.5388      -153.7708      -14.62697              1
      4804.0000         0.7161       2505.109        57.2762       81.45315         0.5465      -152.2888      -13.14398              1
      4804.5000         0.7105       2493.816        57.3287       81.55063         0.5581      -151.0989      -11.95308              1
      4805.0000         0.7041       2404.688        56.8998       80.75433         0.5697      -150.0454      -10.89856              1
      4805.5000         0.6982       2244.129        56.1619       79.38435         0.5802       -148.627      -9.479172      0.9869012
      4806.0000         0.6939       2155.719        55.1965       77.59195         0.5893      -143.9529      -4.804062      0.9487649
      4806.5000         0.6886       2103.996        54.3261       75.97596         0.5963      -138.6758      0.4740448      0.9143821
      4807.0000         0.6831       2079.297        53.7056       74.82395         0.5956      -133.6455       5.505341      0.8898713
      4807.5000         0.6778       2107.156        53.4366        74.3245         0.5948      -132.1746       6.977234      0.8792447
      4808.0000         0.6725       2138.648        53.3874       74.23316         0.5934      -130.4473       8.705551      0.8773013
      4808.5000         0.6674       2160.395        53.3788       74.21719         0.5872      -128.9702       10.18365      0.8769616
      4809.0000         0.6625       2160.813         53.473        74.3921         0.5809      -127.3551       11.79974      0.8806829
      4809.5000         0.6553        2157.48        53.8425       75.07809         0.5737      -126.8494       12.30645      0.8952786
      4810.0000         0.6489       2145.152        55.0325       77.28749         0.5661        -126.24       12.91686       0.942287
      4810.5000         0.6427        2157.41        55.5966       78.33479         0.5625      -125.3806       13.77725      0.9645699
      4811.0000         0.6361       2176.242        56.1203       79.30711         0.5596      -125.5736       13.58526      0.9852576
      4811.5000         0.6325       2195.355        56.6243       80.24281         0.5584      -126.0482       13.11166              1
      4812.0000          0.635       2201.641        57.0364       81.00793          0.559      -126.7338       12.42706              1
      4812.5000         0.6375       2203.586        57.3643        81.6167         0.5589      -127.4298       11.73206              1
      4813.0000          0.641       2204.316        58.0168       82.82816         0.5578      -128.3433       10.81956              1
      4813.5000         0.6462        2202.18        58.4373       83.60886         0.5568      -129.7668       9.397064              1
      4814.0000         0.6522       2200.105        57.8652        82.5467          0.556      -131.4016       7.763275              1
      4814.5000          0.662       2203.383         57.213       81.33584         0.5552      -133.5125       5.653381              1
      4815.0000         0.6731        2206.66         56.591         80.181         0.5544      -136.2322       2.934677              1
      4815.5000         0.6839       2211.695        56.0472       79.17136         0.5558      -139.5488     -0.3809204      0.9823694
      4816.0000         0.6927       2217.594        55.4715       78.10255         0.5578      -142.6335      -3.464615      0.9596288
      4816.5000         0.7056        2225.43        54.6756       76.62485         0.5597      -144.4829      -5.313019      0.9281883
      4817.0000         0.7218       2237.527        53.9969       75.36475         0.5614      -146.2703      -7.099411      0.9013777
      4817.5000         0.7388       2244.809        53.3712       74.20309         0.5632      -147.9822      -8.810303      0.8766616
      4818.0000         0.7516       2253.391        52.8604       73.25473         0.5649      -149.9548      -10.78191      0.8564836
      4818.5000         0.7611       2262.953        52.5069       72.59843         0.5665      -152.0249      -12.85101      0.8425197
      4819.0000         0.7663       2268.832         52.374       72.35166         0.5682      -152.8496       -13.6747      0.8372694
      4819.5000         0.7638       2260.316        52.4716       72.53285         0.5698      -151.4602       -12.2843      0.8411245
      4820.0000         0.7613       2219.441        52.8176       73.17525         0.5726      -149.4839      -10.30701      0.8547927
      4820.5000         0.7568       2039.104         53.238       73.95576         0.5774      -145.1021      -5.924194      0.8713992
      4821.0000         0.7502       2038.115        53.5697       74.57161         0.5823      -136.6567       2.522217      0.8845024
      4821.5000         0.7414       2036.379        53.9014       75.18748         0.5871      -136.5632       2.616699      0.8976059
      4822.0000         0.7248       2032.994        54.2558       75.84544         0.5916      -137.4885       1.692413      0.9116052
      4822.5000         0.7264       2029.605        54.6103       76.50362          0.596      -139.2727    -0.09078979      0.9256089
      4823.0000         0.7373       2022.629        55.0535       77.32648         0.6003      -140.9297      -1.746796      0.9431167
      4823.5000         0.7511       2011.584        55.5072       78.16879         0.6033      -144.9243      -5.740387      0.9610382
      4824.0000          0.773       2000.525        55.9265       78.94728         0.6055      -148.9856      -9.800674      0.9776017
      4824.5000         0.7957       1981.068        56.5213       80.05161          0.605      -150.0188      -10.83289              1
      4825.0000         0.8139       1961.525        57.1772       81.26936         0.5993      -150.8184      -11.63148              1
      4825.5000         0.8332       1948.141        57.8899       82.59258         0.5936      -151.1609      -11.97298              1
      4826.0000         0.8443       1933.252        58.3356       83.42006         0.5899      -151.0864      -11.89748              1
