#------------------------------------------------------------------------------
# Created by    : vladimir.rabinovich
# Created on    : 09/19/2023 17:21:23
#------------------------------------------------------------------------------
~Version Information Section
VERS.           2.0     :   CWLS log ASCII Standard - VERSION 2.0
WRAP.           NO      :   One line per depth step
~Well Information Section
#MNEM       .UNIT                                         VALUE :DESCRIPTION
#------------------------------------------------------------------------------
STRT        .FT                                            1005 :START DEPTH
STOP        .FT                                            8973 :STOP DEPTH
STEP        .FT                                             0.5 :STEP      
NULL        .                                           -999.25 :NULL      
COMP        .                            MARITECH RESOURCES INC :COMPANY   
WELL        .                               OCS G06113 ST00BP00 :WELL      
FLD         .                              GALVESTON BLOCK 0343 :FIELD     
LOC         .                                                   :LOCATION  
CNTY        .                             GALVESTON LARGE BLOCK :LOCATION  
STAT        .                                             TEXAS :STATE     
CTRY        .                                     UNITED STATES :COUNTRY   
SRVC        .                                                   :SERVICE COMPANY
DATE        .                             9/13/2023 11:19:36 AM :LOG DATE  
API         .                                    42706402140000 :API NUMBER
UWI         .                                    42706402140000 :UNIQUE WELL ID
XCOORD      .                                  914498.553138379 :SURFACE X 
YCOORD      .                                  10427492.1426863 :SURFACE Y 
LAT         .                                         28.714711 :LATITUDE  
LON         .                                        -95.265111 :LONGITUDE 
ELEV        .FT                                              84 :ELEVATION VALUE
ELEV_TYPE   .                                                KB :ELEVATION REFERENCE TYPE
~Curve Information Section
#MNEM       .UNIT                                      API CODE :CURVE DESCRIPTION
#------------------------------------------------------------------------------
DEPT        .FT                                                 :DEPTH     
CALI        .IN                                                 :          
DPHI        .%                                                  :          
DRHO        .G/C3                                               :          
DT          .US/F                                               :          
GR          .GAPI                                               :          
ILD         .OHMM                                               :          
ILM         .OHMM                                               :          
NPHI        .%                                                  :          
SGRD        .OHMM                                               :          
SP          .MV                                                 :          
SP_NORM     .MV                                                 :SP Normalized
VSH_SP      .V/V                                                :Volume of Shale from SP
~A        DEPTH           CALI           DPHI           DRHO             DT             GR            ILD            ILM           NPHI           SGRD             SP        SP_NORM         VSH_SP
# ...
      5269.0000        -999.25        -999.25        -999.25        -999.25        -999.25         0.3015         0.3149        -999.25         0.3844      -117.3958      -16.94717      0.2406108
      5269.5000        -999.25        -999.25        -999.25        -999.25        -999.25         0.2868         0.3194        -999.25         0.3819      -116.8234       -16.3276      0.2701144
      5270.0000        -999.25        -999.25        -999.25        -999.25        -999.25         0.2693         0.3102        -999.25         0.3901      -116.6743      -16.13132      0.2794611
      5270.5000        -999.25        -999.25        -999.25        -999.25        -999.25         0.2518         0.2989        -999.25         0.3981      -116.8055      -16.21533      0.2754604
      5271.0000        -999.25        -999.25        -999.25        -999.25        -999.25         0.2381         0.2907        -999.25         0.3863      -116.9943      -16.35696      0.2687164
      5271.5000        -999.25        -999.25        -999.25        -999.25        -999.25         0.2391          0.285        -999.25         0.3636       -117.066      -16.38148      0.2675487
      5272.0000        -999.25        -999.25        -999.25        -999.25        -999.25         0.2565         0.2815        -999.25         0.3513      -116.4132       -15.6815      0.3008811
      5272.5000        -999.25        -999.25        -999.25        -999.25        -999.25         0.2835         0.2985        -999.25         0.3423      -114.8313      -14.05241      0.3784565
      5273.0000        -999.25        -999.25        -999.25        -999.25        -999.25         0.3252         0.3282        -999.25         0.3772      -111.9922      -11.16614      0.5158982
      5273.5000        -999.25        -999.25        -999.25        -999.25        -999.25         0.3784          0.368        -999.25         0.4439      -108.7534      -7.880157      0.6723735
      5274.0000        -999.25        -999.25        -999.25        -999.25        -999.25          0.438         0.4199        -999.25         0.5802      -107.0067      -6.086273      0.7577965
      5274.5000        -999.25        -999.25        -999.25        -999.25        -999.25         0.4808         0.4892        -999.25         0.6929      -106.6176      -5.649994      0.7785717
      5275.0000        -999.25        -999.25        -999.25        -999.25        -999.25         0.5309          0.566        -999.25         0.7257      -107.0273      -6.012512       0.761309
      5275.5000        -999.25        -999.25        -999.25        -999.25        -999.25         0.6266         0.6019        -999.25         0.6434      -107.6772      -6.615234      0.7326079
      5276.0000        -999.25        -999.25        -999.25        -999.25        -999.25         0.6724         0.5939        -999.25         0.5579      -108.1429      -7.033752      0.7126784
      5276.5000        -999.25        -999.25        -999.25        -999.25        -999.25         0.6337         0.6035        -999.25         0.5259      -106.9219      -5.765572       0.773068
      5277.0000        -999.25        -999.25        -999.25        -999.25        -999.25         0.6017         0.5953        -999.25         0.5256      -105.8444      -4.640892      0.8266242
      5277.5000        -999.25        -999.25        -999.25        -999.25        -999.25         0.5737         0.5854        -999.25         0.5444      -105.7087      -4.458015      0.8353326
      5278.0000        -999.25        -999.25        -999.25        -999.25        -999.25         0.5527         0.5789        -999.25         0.5552      -106.6609      -5.363029      0.7922367
      5278.5000        -999.25        -999.25        -999.25        -999.25        -999.25         0.5859         0.5986        -999.25         0.5469      -109.8846      -8.539551      0.6409737
      5279.0000        -999.25        -999.25        -999.25        -999.25        -999.25         0.6353          0.632        -999.25          0.542      -113.8999      -12.50768      0.4520155
      5279.5000        -999.25        -999.25        -999.25        -999.25        -999.25         0.6788         0.6727        -999.25         0.5705      -116.0562      -14.61679      0.3515814
      5280.0000        -999.25        -999.25        -999.25        -999.25        -999.25          0.691          0.707        -999.25         0.6242      -117.7616      -16.27501      0.2726186
      5280.5000        -999.25        -999.25        -999.25        -999.25        -999.25         0.6536         0.7293        -999.25         0.6891      -119.2723      -17.73853       0.202927
      5281.0000        -999.25        -999.25        -999.25        -999.25        -999.25         0.5859         0.7058        -999.25         0.7583      -120.2531      -18.67215      0.1584691
      5281.5000        -999.25        -999.25        -999.25        -999.25        -999.25         0.5218         0.6481        -999.25         0.8313      -121.1914      -19.56327      0.1160347
      5282.0000        -999.25        -999.25        -999.25        -999.25        -999.25          0.473         0.5944        -999.25         0.7754      -121.9268       -20.2515     0.08326212
      5282.5000        -999.25        -999.25        -999.25        -999.25        -999.25         0.4278         0.5278        -999.25         0.6778      -122.5795      -20.85701      0.0544281
      5283.0000        -999.25        -999.25        -999.25        -999.25        -999.25         0.3758         0.4085        -999.25          0.492      -122.3955      -20.62583     0.06543659
      5283.5000        -999.25        -999.25        -999.25        -999.25        -999.25         0.3157         0.3525        -999.25         0.4294      -121.3549      -19.53805      0.1172358
      5284.0000        -999.25        -999.25        -999.25        -999.25        -999.25         0.2841         0.3255        -999.25          0.402      -120.0028      -18.13877      0.1838681
      5284.5000        -999.25        -999.25        -999.25        -999.25        -999.25         0.2697         0.3116        -999.25         0.4122      -118.8966      -16.98539       0.238791
      5285.0000        -999.25        -999.25        -999.25        -999.25        -999.25         0.2606          0.307        -999.25         0.4182      -118.3051      -16.34671      0.2692043
      5285.5000        -999.25        -999.25        -999.25        -999.25        -999.25         0.2683         0.3058        -999.25         0.4195      -118.0825      -16.07693      0.2820511
      5286.0000        -999.25        -999.25        -999.25        -999.25        -999.25         0.2836         0.3118        -999.25         0.3996      -116.8739      -14.82115      0.3418499
      5286.5000        -999.25        -999.25        -999.25        -999.25        -999.25         0.3014         0.3369        -999.25          0.385      -114.7664      -12.66647      0.4444537
      5287.0000        -999.25        -999.25        -999.25        -999.25        -999.25         0.3208         0.3615        -999.25         0.4071       -113.531      -11.38389      0.5055291
      5287.5000        -999.25        -999.25        -999.25        -999.25        -999.25         0.3431         0.3788        -999.25         0.4401      -113.9362      -11.74191      0.4884803
      5288.0000        -999.25        -999.25        -999.25        -999.25        -999.25         0.3668         0.3879        -999.25         0.4644      -115.4156      -13.17413      0.4202794
      5288.5000        -999.25        -999.25        -999.25        -999.25        -999.25         0.3921         0.3999        -999.25         0.4607      -115.5181      -13.22945      0.4176454
      5289.0000        -999.25        -999.25        -999.25        -999.25        -999.25         0.4178         0.4182        -999.25         0.4631        -113.85      -11.51417      0.4993253
