#------------------------------------------------------------------------------
# Created by    : vladimir.rabinovich
# Created on    : 09/19/2023 17:20:11
#------------------------------------------------------------------------------
~Version Information Section
VERS.           2.0     :   CWLS log ASCII Standard - VERSION 2.0
WRAP.           NO      :   One line per depth step
~Well Information Section
#MNEM       .UNIT                                         VALUE :DESCRIPTION
#------------------------------------------------------------------------------
STRT        .FT                                             984 :START DEPTH
STOP        .FT                                            6595 :STOP DEPTH
STEP        .FT                                             0.5 :STEP      
NULL        .                                           -999.25 :NULL      
COMP        .                   MCMORAN OFFSHORE EXPLORATION CO :COMPANY   
WELL        .                               OCS G03106 ST00BP00 :WELL      
FLD         .                                           WILDCAT :FIELD     
LOC         .                                                   :LOCATION  
CNTY        .                      MATAGORDA ISLAND LARGE BLOCK :LOCATION  
STAT        .                                             TEXAS :STATE     
CTRY        .                                     UNITED STATES :COUNTRY   
SRVC        .                                                   :SERVICE COMPANY
DATE        .                             9/13/2023 11:12:09 AM :LOG DATE  
API         .                                    42703400570000 :API NUMBER
UWI         .                                    42703400570000 :UNIQUE WELL ID
XCOORD      .                                  467986.403229072 :SURFACE X 
YCOORD      .                                  10153243.7887249 :SURFACE Y 
LAT         .                                         27.931172 :LATITUDE  
LON         .                                        -96.630795 :LONGITUDE 
ELEV        .FT                                              95 :ELEVATION VALUE
ELEV_TYPE   .                                                KB :ELEVATION REFERENCE TYPE
~Curve Information Section
#MNEM       .UNIT                                      API CODE :CURVE DESCRIPTION
#------------------------------------------------------------------------------
DEPT        .FT                                                 :DEPTH     
ASFL        .OHMM                                               :          
CILD        .MMHO                                               :          
DT          .US/F                                               :          
GR          .GAPI                                               :          
GR_NORM     .GAPI                                               :GammaRay Normalized
ILD         .OHMM                                               :          
SFL         .OHMM                                               :          
SP          .MV                                                 :          
SP_NORM     .MV                                                 :SP Normalized
VSH_GR      .V/V                                                :Volume of Shale from GR
VSH_SP      .V/V                                                :Volume of Shale from SP
~A        DEPTH           ASFL           CILD             DT             GR        GR_NORM            ILD            SFL             SP        SP_NORM         VSH_GR         VSH_SP
# ...
      1749.0000         0.5284       1844.215       157.0181        57.3629       91.06767          0.532         0.5265        -999.25        -999.25              1        -999.25
      1749.5000          0.528        1917.98       161.6396        56.8571       90.13431         0.5172         0.5123        -999.25        -999.25              1        -999.25
      1750.0000          0.529       1991.771       166.2622        56.5435        89.5556         0.5009          0.494        -999.25        -999.25              1        -999.25
      1750.5000         0.5305       2065.539       168.7915        56.2299       88.97691         0.4814          0.493        -999.25        -999.25              1        -999.25
      1751.0000         0.5321       2139.305       169.6802        55.9163       88.39819         0.4597         0.5121        -999.25        -999.25              1        -999.25
      1751.5000         0.5336       2186.582       168.6521        55.3016       87.26389         0.4455         0.5373        -999.25        -999.25              1        -999.25
      1752.0000         0.5341       2193.727       164.3755        54.5718       85.91733         0.4407         0.5487        -999.25        -999.25              1        -999.25
      1752.5000         0.5343       2144.965       159.4133        53.7595       84.41837         0.4451         0.5397        -999.25        -999.25              1        -999.25
      1753.0000         0.5346       2080.703       156.0051        53.7895       84.47354          0.458         0.5241        -999.25        -999.25              1        -999.25
      1753.5000         0.5348       2009.355       154.1484           53.8       84.49291         0.4766         0.5087        -999.25        -999.25              1        -999.25
      1754.0000         0.5351       1947.754       153.2793        51.8984       80.98398         0.4952         0.5094        -999.25        -999.25              1        -999.25
      1754.5000         0.5356       1897.689       153.4299        50.1506       77.75849          0.511         0.5136        -999.25        -999.25      0.9523084        -999.25
      1755.0000         0.5363       1858.666       154.0061        48.4548       74.62919         0.5237         0.5227        -999.25        -999.25      0.8857274        -999.25
      1755.5000          0.537       1828.674       154.9214        46.7571       71.49633         0.5331         0.5315        -999.25        -999.25      0.8190709        -999.25
      1756.0000         0.5377       1803.369       156.4116        45.1692       68.56611         0.5418         0.5401        -999.25        -999.25      0.7567257        -999.25
      1756.5000          0.541       1783.223       159.8384         43.582       65.63718         0.5485         0.5604        -999.25        -999.25      0.6944082        -999.25
      1757.0000         0.5467       1768.113       163.6772         42.322       63.31224         0.5545         0.5856        -999.25        -999.25      0.6449413        -999.25
      1757.5000         0.5525       1759.791       166.6863        41.4493       61.70163         0.5576         0.6102        -999.25        -999.25      0.6106729        -999.25
      1758.0000         0.5582       1761.566       169.6265        40.5764       60.09082         0.5605         0.6177        -999.25        -999.25      0.5764005        -999.25
      1758.5000          0.564       1767.266       172.8884        39.4052       57.92957         0.5613         0.5914        -999.25        -999.25      0.5304164        -999.25
      1759.0000         0.5711       1776.656        175.498        37.3241       54.08921         0.5587         0.5499        -999.25        -999.25      0.4487066        -999.25
      1759.5000         0.5797       1792.559       177.5117        40.3984       59.76252         0.5537         0.5089        -999.25        -999.25      0.5694153        -999.25
      1760.0000         0.5883       1818.238       179.0686        46.1185       70.31791         0.5432         0.4795        -999.25        -999.25      0.7939981        -999.25
      1760.5000         0.5797       1850.732       180.5002        49.7178       76.95986         0.5328         0.4613        -999.25        -999.25      0.9353162        -999.25
      1761.0000         0.5658       1887.688       182.2788        51.5065        80.2606         0.5206         0.4525        -999.25        -999.25              1        -999.25
      1761.5000          0.552       1923.701       184.0486          52.92       82.86902         0.5107           0.45        -999.25        -999.25              1        -999.25
      1762.0000         0.5383       1953.426       184.7878        53.8375       84.56227         0.5039          0.451        -999.25        -999.25              1        -999.25
      1762.5000         0.5245       1966.742       185.3418        53.6237       84.16757         0.4997         0.4536        -999.25        -999.25              1        -999.25
      1763.0000         0.5108       1971.199       185.9709        53.3063       83.58188         0.4985         0.4583        -999.25        -999.25              1        -999.25
      1763.5000         0.4982       1966.922       186.7571        52.8199       82.68428         0.4987         0.4634        -999.25        -999.25              1        -999.25
      1764.0000         0.4858       1956.938       187.8228         52.835       82.71233         0.4994          0.468        -999.25        -999.25              1        -999.25
      1764.5000         0.4733       1946.713       188.7266           52.9       82.83228         0.5008         0.4707        -999.25        -999.25              1        -999.25
      1765.0000         0.4686       1935.725       188.9722         52.433       81.97031         0.5043         0.4725        -999.25        -999.25              1        -999.25
      1765.5000         0.4681       1923.027       188.4175        51.7756       80.75716         0.5085         0.4749        -999.25        -999.25              1        -999.25
      1766.0000         0.4677       1909.449       187.4722         51.298       79.87585          0.515         0.4776        -999.25        -999.25      0.9973586        -999.25
      1766.5000         0.4704       1891.867       186.7085        51.8192       80.83765         0.5217         0.4803        -999.25        -999.25              1        -999.25
      1767.0000         0.4747       1865.365       187.1055        52.3721       81.85793         0.5287          0.483        -999.25        -999.25              1        -999.25
      1767.5000          0.479       1829.074       187.9158         53.185       83.35803         0.5392         0.4855        -999.25        -999.25              1        -999.25
      1768.0000         0.4833       1791.803       188.4795        52.9258       82.87971         0.5517         0.4896        -999.25        -999.25              1        -999.25
      1768.5000         0.4876       1753.686       187.8391        52.0611       81.28405         0.5646         0.4953        -999.25        -999.25              1        -999.25
      1769.0000         0.4919       1716.197       186.2795        51.0068       79.33849         0.5769          0.504        -999.25        -999.25      0.9859254        -999.25
      1769.5000         0.4973        1688.01       184.7515        49.9529       77.39369         0.5872          0.516        -999.25        -999.25      0.9445466        -999.25
      1770.0000         0.5034       1664.047        183.238        48.8986       75.44814         0.5936         0.5264        -999.25        -999.25       0.903152        -999.25
      1770.5000         0.5095       1644.492       181.7852        48.0955       73.96616         0.5986         0.5292        -999.25        -999.25      0.8716205        -999.25
      1771.0000         0.5151         1629.9       180.3892        48.9954       75.62695         0.6038         0.5247        -999.25        -999.25      0.9069564        -999.25
