#------------------------------------------------------------------------------
# Created by    : vladimir.rabinovich
# Created on    : 09/19/2023 17:19:22
#------------------------------------------------------------------------------
~Version Information Section
VERS.           2.0     :   CWLS log ASCII Standard - VERSION 2.0
WRAP.           NO      :   One line per depth step
~Well Information Section
#MNEM       .UNIT                                         VALUE :DESCRIPTION
#------------------------------------------------------------------------------
STRT        .FT                                            2350 :START DEPTH
STOP        .FT                                            7008 :STOP DEPTH
STEP        .FT                                             0.5 :STEP      
NULL        .                                           -999.25 :NULL      
COMP        .                                  W&T OFFSHORE INC :COMPANY   
WELL        .                               OCS G04565 ST00BP00 :WELL      
FLD         .                              GALVESTON BLOCK 0303 :FIELD     
LOC         .                                                   :LOCATION  
CNTY        .                             GALVESTON LARGE BLOCK :LOCATION  
STAT        .                                             TEXAS :STATE     
CTRY        .                                     UNITED STATES :COUNTRY   
SRVC        .                                                   :SERVICE COMPANY
DATE        .                             9/13/2023 11:19:03 AM :LOG DATE  
API         .                                    42706403950000 :API NUMBER
UWI         .                                    42706403950000 :UNIQUE WELL ID
XCOORD      .                                  979190.041446607 :SURFACE X 
YCOORD      .                                   10483081.623763 :SURFACE Y 
LAT         .                                        28.8707847 :LATITUDE  
LON         .                                       -95.0663777 :LONGITUDE 
ELEV        .FT                                              91 :ELEVATION VALUE
ELEV_TYPE   .                                                KB :ELEVATION REFERENCE TYPE
~Curve Information Section
#MNEM       .UNIT                                      API CODE :CURVE DESCRIPTION
#------------------------------------------------------------------------------
DEPT        .FT                                                 :DEPTH     
AF20        .OHMM                                               :          
AFCO        .MMHO                                               :          
AO90        .OHMM                                               :          
AT10        .OHMM                                               :          
AT20        .OHMM                                               :          
AT30        .OHMM                                               :          
AT60        .OHMM                                               :          
AT90        .OHMM                                               :          
DCAL        .IN                                                 :          
DPHI        .%                                                  :          
DRHO        .G/C3                                               :          
GR          .GAPI                                               :          
GR_NORM     .GAPI                                               :GammaRay Normalized
GRN         .GAPI                                               :          
NPOR        .%                                                  :          
RWA         .OHMM                                               :          
SP          .MV                                                 :          
SP_NORM     .MV                                                 :SP Normalized
TENR        .LBF                                                :          
TPHI        .%                                                  :          
VSH_GR      .V/V                                                :Volume of Shale from GR
VSH_SP      .V/V                                                :Volume of Shale from SP
~A        DEPTH           AF20           AFCO           AO90           AT10           AT20           AT30           AT60           AT90           DCAL           DPHI           DRHO             GR        GR_NORM            GRN           NPOR            RWA             SP        SP_NORM           TENR           TPHI         VSH_GR         VSH_SP
# ...
      4306.0000           0.33       4545.453           0.22           0.44           0.31           0.27           0.25           0.25          8.225           31.9          -0.03           27.4       32.00436        -999.25          37.68           0.03          -54.6      -46.94046           2285        -999.25              0       0.146537
      4306.5000           0.32       4545.453           0.22           0.43           0.31           0.27           0.25           0.25          8.725           32.2          -0.02           27.9        32.4539        -999.25             39           0.03          -55.5      -47.83509           2285        -999.25              0      0.1302712
      4307.0000           0.32       4545.453           0.22           0.42           0.31           0.27           0.25           0.26          9.225        32.5999          -0.02             27       31.64344        -999.25          39.12           0.03          -56.1       -48.4297           2245        -999.25              0      0.1194599
      4307.5000           0.31       4545.453           0.22           0.42           0.31           0.27           0.25           0.25          9.625        32.4999          -0.02           28.5       32.99299        -999.25          39.42           0.03          -56.8      -49.12432           2245        -999.25              0      0.1068305
      4308.0000           0.31       4545.453           0.22           0.42           0.31           0.27           0.25           0.25          9.825        32.0999          -0.02           28.2       32.72253        -999.25        38.9399           0.03          -57.1      -49.41894           2245        -999.25              0      0.1014739
      4308.5000           0.31       4545.453           0.22           0.42           0.31           0.27           0.25           0.25         10.025           32.2          -0.03           32.8       36.86208        -999.25         38.175           0.03          -57.6      -49.91356           2245        -999.25     0.08217183     0.09248075
      4309.0000           0.31       4545.453           0.22           0.41           0.31           0.27           0.25           0.25         10.425        32.9999          -0.03           28.8       33.26162        -999.25          38.85           0.03          -57.6      -49.90818           2240        -999.25    0.005566292     0.09257861
      4309.5000           0.31       4545.453           0.22           0.41           0.31           0.27           0.25           0.25         10.925        32.9999          -0.03           27.9       32.45116        -999.25        42.6868           0.03          -57.4       -49.7028           2240        -999.25              0     0.09631278
      4310.0000           0.32       4545.453           0.22           0.41           0.31           0.27           0.25           0.25         11.025        34.0999          -0.03           25.7       30.47071        -999.25        44.4356           0.04          -57.1      -49.39742           2240        -999.25              0      0.1018652
      4310.5000           0.32       4545.453           0.22           0.41           0.31           0.27           0.25           0.25         11.325        33.2999          -0.03           28.2       32.72025        -999.25        44.3203           0.03          -56.9      -49.19204           2240        -999.25              0      0.1055994
      4311.0000           0.33       4545.453           0.22           0.41           0.31           0.28           0.25           0.25         11.325        33.4999          -0.03           33.9       37.84979        -999.25        44.6929           0.03          -56.4      -48.68665           2290        -999.25      0.1031871      0.1147881
      4311.5000           0.34       4545.453           0.22           0.43           0.33           0.29           0.26           0.26         12.025           33.1          -0.03           36.4       40.09933        -999.25        45.1695           0.03          -56.6      -48.88127           2290        -999.25      0.1510496      0.1112496
      4312.0000           0.35       4545.453           0.22           0.46           0.35            0.3           0.26           0.27         12.625           34.4          -0.04           37.4       40.99888        -999.25        45.7605           0.04          -56.4      -48.67589           2290        -999.25      0.1701889      0.1149838
      4312.5000           0.36       4166.664           0.24            0.5           0.37           0.32           0.27           0.27         12.925        33.9999          -0.03           34.8       38.65842        -999.25        46.1101           0.04          -56.1      -48.37051           2290        -999.25      0.1203918      0.1205363
      4313.0000           0.37       4166.664           0.24           0.54           0.39           0.33           0.28           0.28         12.525        34.7999          -0.04           34.3       38.20796        -999.25        46.2002           0.04          -56.1      -48.36512           2255        -999.25      0.1108077      0.1206341
      4313.5000           0.38        4347.82           0.23           0.55            0.4           0.33           0.28           0.28         11.925        34.9999          -0.05           35.3        39.1075        -999.25        45.1453           0.04          -55.9      -48.15975           2255        -999.25      0.1299469      0.1243682
      4314.0000           0.39        4347.82           0.23           0.56           0.41           0.34           0.28           0.28         12.425           34.7          -0.05           36.6       40.27704        -999.25        43.9882           0.04          -55.8      -48.05436           2255        -999.25      0.1548307      0.1262843
      4314.5000           0.39       4166.664           0.24           0.57           0.41           0.34           0.28           0.28         12.225        34.5999          -0.05           38.6       42.07659        -999.25        43.6782           0.04          -55.6      -47.84898           2255        -999.25      0.1931189      0.1300185
      4315.0000           0.39           4000           0.25           0.56           0.41           0.34           0.28           0.28         12.825        35.2999          -0.04           37.2       40.81613        -999.25        43.7236           0.04          -55.2       -47.4436           2315        -999.25      0.1663007       0.137389
      4315.5000           0.39       4166.664           0.24           0.54            0.4           0.33           0.27           0.28         13.025           37.7          -0.02           35.2       39.01568        -999.25        44.0159           0.05          -55.3      -47.53822           2315        -999.25      0.1279932      0.1356687
      4316.0000           0.38       4545.453           0.22           0.52           0.38           0.32           0.26           0.27         12.925        41.2999          -0.01           31.9       36.04522        -999.25        44.6935           0.05          -55.3      -47.53284           2315        -999.25     0.06479182      0.1357666
      4316.5000           0.37       4545.453           0.22            0.5           0.37           0.31           0.26           0.26         13.025           44.2          -0.01           31.6       35.77477        -999.25        46.2652           0.06          -55.6      -47.82745           2315        -999.25     0.05903756      0.1304099
      4317.0000           0.37       4545.453           0.22           0.49           0.36            0.3           0.25           0.26         12.925        42.5999          -0.01           28.8        33.2543        -999.25        46.0758           0.06          -55.8      -48.02208           2290        -999.25    0.005410702      0.1268713
      4317.5000           0.36       4761.898           0.21           0.49           0.36            0.3           0.25           0.25         13.025        37.9999          -0.01           31.1       35.32384        -999.25        44.3414           0.04          -55.5      -47.71669           2290        -999.25     0.04944351      0.1324237
