#------------------------------------------------------------------------------
# Created by    : vladimir.rabinovich
# Created on    : 09/19/2023 17:21:51
#------------------------------------------------------------------------------
~Version Information Section
VERS.           2.0     :   CWLS log ASCII Standard - VERSION 2.0
WRAP.           NO      :   One line per depth step
~Well Information Section
#MNEM       .UNIT                                         VALUE :DESCRIPTION
#------------------------------------------------------------------------------
STRT        .FT                                             692 :START DEPTH
STOP        .FT                                            6716 :STOP DEPTH
STEP        .FT                                             0.5 :STEP      
NULL        .                                           -999.25 :NULL      
COMP        .                                  FMP OPERATING CO :COMPANY   
WELL        .                                          SL 89457 :WELL      
FLD         .                                           WILDCAT :FIELD     
LOC         .                                                   :LOCATION  
CNTY        .                      MATAGORDA ISLAND LARGE BLOCK :LOCATION  
STAT        .                                             TEXAS :STATE     
CTRY        .                                     UNITED STATES :COUNTRY   
SRVC        .                                                   :SERVICE COMPANY
DATE        .                             9/13/2023 11:12:01 AM :LOG DATE  
API         .                                    42703303600000 :API NUMBER
UWI         .                                    42703303600000 :UNIQUE WELL ID
XCOORD      .                                  499223.886875127 :SURFACE X 
YCOORD      .                                  10221285.9321665 :SURFACE Y 
LAT         .                                        28.1205561 :LATITUDE  
LON         .                                       -96.5403272 :LONGITUDE 
ELEV        .FT                                              81 :ELEVATION VALUE
ELEV_TYPE   .                                                KB :ELEVATION REFERENCE TYPE
~Curve Information Section
#MNEM       .UNIT                                      API CODE :CURVE DESCRIPTION
#------------------------------------------------------------------------------
DEPT        .FT                                                 :DEPTH     
CALI        .IN                                                 :          
CILD        .MMHO                                               :          
DT          .US/F                                               :          
DTL         .US/F                                               :          
GR          .GAPI                                               :          
GR_NORM     .GAPI                                               :GammaRay Normalized
ILD         .OHMM                                               :          
ILM         .OHMM                                               :          
SFLU        .OHMM                                               :          
SP          .MV                                                 :          
SP_NORM     .MV                                                 :SP Normalized
TENS        .LBS                                                :          
VSH_GR      .V/V                                                :Volume of Shale from GR
VSH_SP      .V/V                                                :Volume of Shale from SP
~A        DEPTH           CALI           CILD             DT            DTL             GR        GR_NORM            ILD            ILM           SFLU             SP        SP_NORM           TENS         VSH_GR         VSH_SP
# ...
      4382.0000        -999.25       2089.532        111.393       132.4876        45.8477       49.83589         0.4799         0.5489         0.7541       -32.1472       -27.8107       2114.428      0.3582104      0.1673968
      4382.5000        -999.25       1850.726       113.9801       142.8358        47.4351       51.86688         0.5477         0.6146         0.7872       -30.5606       -26.2279       2114.428       0.401423      0.2184549
      4383.0000        -999.25       1715.403        108.607       145.6219        47.1372       51.48315         0.6337         0.7004         0.8017       -30.4623       -26.1335       2114.428      0.3932586         0.2215
      4383.5000        -999.25       1245.751       102.2506       131.2935        44.0609       47.54078         0.7764         0.7982         0.8128       -31.3561       -27.0312       2114.428      0.3093784      0.1925419
      4384.0000        -999.25       1126.348        95.8942       104.6269        33.9432       34.57951         0.8355         0.9096         0.9321       -33.1426       -28.8216       2114.428     0.03360659      0.1347871
      4384.5000        -999.25       991.0249        88.7065        92.2886        28.0915       27.08235          0.927         1.0458         1.0689       -33.7386       -29.4215       2114.428              0      0.1154355
      4385.0000        -999.25       951.2239        86.7164        87.5124        27.6951       26.57245           1.07         1.0458         1.2258       -34.4336       -30.1204       2114.428              0     0.09289034
      4385.5000        -999.25       947.2637        82.1393        83.1343        30.0773       29.62132         1.0742         1.0848         1.3455       -34.7319       -30.4226       2114.428              0     0.08314195
      4386.0000        -999.25       971.1443        77.1642        79.7034        28.8877       28.09548         1.0506           1.07         1.4679       -34.6334        -30.328       2114.428              0     0.08619358
      4386.5000        -999.25        999.005         71.791        77.3632        27.7975       26.69695          0.963         0.9703         1.5652       -34.7333       -30.4318       2114.428              0     0.08284514
      4387.0000        -999.25       1030.846        78.5572        83.3333        27.4014       26.18731         0.9638          0.899         1.3031       -34.9324       -30.6348       2114.428              0     0.07629678
      4387.5000        -999.25       1054.726        86.1194        93.6816        27.6003       26.43989         0.9647         0.8316         1.0081       -35.2305       -30.9368       2114.428              0     0.06655484
      4388.0000        -999.25       1038.806       100.4478       100.2963        29.3134       28.63189         0.9655         0.8355         0.8667       -35.4295       -31.1397       2114.428              0     0.06000968
      4388.5000        -999.25       1014.925       107.4129       106.6169        31.1716       31.00961         0.9663         0.9426         0.7872       -35.6285       -31.3425       2124.378              0     0.05346772
      4389.0000        -999.25       1018.906        99.8507       104.8259        29.1903       28.46973         0.9674         1.0636         0.9241       -35.7283       -31.4462       2134.328              0      0.0501226
      4389.5000        -999.25       1033.787        97.2637       104.0299        28.3979       27.45264         0.9554         1.1835          1.081        -35.828       -31.5498       2134.328              0     0.04678062
      4390.0000        -999.25       1048.669        96.8657       103.4328        27.9033       26.81683         0.9199          1.162         1.4679       -36.1261       -31.8518       2134.328              0     0.03703868
      4390.5000        -999.25       1106.468        97.0647       105.8209         30.184       29.73583         0.8509         1.0201         1.4612       -36.6223       -32.3519       2134.328              0     0.02090651
      4391.0000        -999.25       1285.552       101.0448       112.3881        32.9601       33.28934          0.798         0.8955         1.2071       -37.1185        -32.852       2134.328    0.006156191    0.004774155
      4391.5000        -999.25       1540.279        108.607       123.8214        33.8527       34.43029         0.7084         0.7861         0.9971       -37.5155       -33.2529       2134.328     0.03043171              0
      4392.0000        -999.25       1699.483       112.5871       138.4388        34.0515       34.68274         0.6062         0.6861         0.8237       -37.7142       -33.4555       2134.328     0.03580304              0
      4392.5000        -999.25       2041.771       121.1443       159.1542        34.2499       34.93468         0.5308         0.5902         0.6611       -37.7148         -33.46       2134.328      0.0411635              0
      4393.0000        -999.25       2344.259       127.7114       157.3632        35.1426       36.07589         0.4583         0.4563         0.5284       -37.8144       -33.5635       2134.328     0.06544438              0
      4393.5000        -999.25       2885.572       129.1045       146.0199        34.5486       35.31278         0.3798         0.3977          0.469        -37.914        -33.667       2134.328     0.04920813              0
      4394.0000        -999.25       3153.665       129.9005       131.6915        33.8555       34.42287         0.3147         0.3764         0.4605       -38.2118       -33.9687       2134.328     0.03027376              0
      4394.5000        -999.25       3713.413       129.3035       129.3035        31.4783       31.37592         0.2756         0.3482          0.469       -38.3114       -34.0721       2134.328              0              0
      4395.0000        -999.25       3888.537       127.1144       127.5124        30.7855       30.48627         0.2561          0.345         0.4843       -38.3119       -34.0765       2134.328              0              0
      4395.5000        -999.25         3976.1       122.9353       127.7114        30.9843       30.73871         0.2515         0.3419         0.4888       -37.9161       -33.6846       2134.328              0              0
      4396.0000        -999.25       3936.299       122.1393       127.9104        32.5701       32.76767         0.2515         0.3326         0.4888       -37.7185       -33.4909       2134.328              0              0
      4396.5000        -999.25       3793.015       120.5473       126.9154         34.948       35.81102         0.2573         0.3403         0.4777       -37.4219       -33.1982       2134.328     0.05980885              0
      4397.0000        -999.25        3594.01       114.3781       120.1493        37.6227       39.23466         0.2744         0.3388         0.4399       -37.1253       -32.9055       2134.328      0.1326523    0.003048435
      4397.5000        -999.25       3363.164       107.2139        96.6667        38.4153       40.24766         0.2912         0.3466         0.4359       -37.0268       -32.8109       2134.328      0.1542056    0.006099947
      4398.0000        -999.25       3235.801       102.8358        90.2985        38.0195        39.7384         0.3007         0.3941         0.4888       -36.8293       -32.6173       2134.328      0.1433702     0.01234522
      4398.5000        -999.25       3108.438       105.6219       113.3831        37.8217       39.48288         0.3266         0.3941         0.6317       -36.6319       -32.4238       2134.328      0.1379336     0.01858705
      4399.0000        -999.25       2849.751       118.9552       122.5373        38.4162       40.24215          0.345         0.3995         0.7052       -36.6325       -32.4283       2134.328      0.1540882     0.01844197
      4399.5000        -999.25        2786.07       128.7065       130.8955        39.0106       41.00116         0.3546         0.4182         0.6317       -36.7321       -32.5318       2134.328      0.1702375     0.01510325
