#------------------------------------------------------------------------------
# Created by    : vladimir.rabinovich
# Created on    : 09/19/2023 17:20:03
#------------------------------------------------------------------------------
~Version Information Section
VERS.           2.0     :   CWLS log ASCII Standard - VERSION 2.0
WRAP.           NO      :   One line per depth step
~Well Information Section
#MNEM       .UNIT                                         VALUE :DESCRIPTION
#------------------------------------------------------------------------------
STRT        .FT                                             945 :START DEPTH
STOP        .FT                                           12004 :STOP DEPTH
STEP        .FT                                             0.5 :STEP      
NULL        .                                           -999.25 :NULL      
COMP        .                                    EXXON CO U S A :COMPANY   
WELL        .                                     ST TR 00819-L :WELL      
FLD         .                                           WILDCAT :FIELD     
LOC         .                                                   :LOCATION  
CNTY        .                        MUSTANG ISLAND LARGE BLOCK :LOCATION  
STAT        .                                             TEXAS :STATE     
CTRY        .                                     UNITED STATES :COUNTRY   
SRVC        .                                                   :SERVICE COMPANY
DATE        .                             9/13/2023 11:18:55 AM :LOG DATE  
API         .                                    42702301310000 :API NUMBER
UWI         .                                    42702301310000 :UNIQUE WELL ID
XCOORD      .                                  274042.524369281 :SURFACE X 
YCOORD      .                                  9990401.22532542 :SURFACE Y 
LAT         .                                        27.4671591 :LATITUDE  
LON         .                                       -97.2129423 :LONGITUDE 
ELEV        .FT                                              93 :ELEVATION VALUE
ELEV_TYPE   .                                                KB :ELEVATION REFERENCE TYPE
~Curve Information Section
#MNEM       .UNIT                                      API CODE :CURVE DESCRIPTION
#------------------------------------------------------------------------------
DEPT        .FT                                                 :DEPTH     
ASFL        .OHMM                                               :          
CILD        .MMHO                                               :          
GR          .GAPI                                               :          
GR_NORM     .GAPI                                               :GammaRay Normalized
ILD         .OHMM                                               :          
SP          .MV                                                 :          
SP_NORM     .MV                                                 :SP Normalized
VSH_GR      .V/V                                                :Volume of Shale from GR
VSH_SP      .V/V                                                :Volume of Shale from SP
~A        DEPTH           ASFL           CILD             GR        GR_NORM            ILD             SP        SP_NORM         VSH_GR         VSH_SP
# ...
      8285.5000         0.6102       1794.549        -999.25        -999.25         0.5031       -32.7401     -0.3667908        -999.25              1
      8286.0000         0.5785       1875.961        -999.25        -999.25         0.4804       -32.6592     -0.2849045        -999.25              1
      8286.5000         0.5465       1947.146        -999.25        -999.25         0.4587       -32.5858     -0.2105255        -999.25              1
      8287.0000         0.5339       2011.482        -999.25        -999.25         0.4392       -32.5124     -0.1361427        -999.25              1
      8287.5000         0.5272       2071.844        -999.25        -999.25         0.4216       -32.4389    -0.06166077        -999.25              1
      8288.0000         0.5413       2125.656        -999.25        -999.25         0.4279       -32.3654     0.01282501        -999.25              1
      8288.5000         0.5631       2171.426        -999.25        -999.25          0.436        -32.292     0.08720398        -999.25              1
      8289.0000         0.5882       2179.664        -999.25        -999.25         0.4506       -32.2185      0.1616898        -999.25              1
      8289.5000         0.6133       2065.492        -999.25        -999.25         0.4653        -32.165      0.2161674        -999.25              1
      8290.0000         0.6455       1987.059        -999.25        -999.25           0.48       -32.1317      0.2504539        -999.25              1
      8290.5000         0.6835       1908.625        -999.25        -999.25         0.4946       -32.0983       0.284832        -999.25              1
      8291.0000         0.7125        1772.41        -999.25        -999.25          0.507       -32.0649      0.3192177        -999.25              1
      8291.5000         0.7266       1687.473        -999.25        -999.25          0.518       -32.0316      0.3534966        -999.25              1
      8292.0000         0.7179        1645.85        -999.25        -999.25          0.529       -32.0157      0.3703804        -999.25              1
      8292.5000         0.7138       1622.369        -999.25        -999.25           0.54       -32.0052      0.3818626        -999.25              1
      8293.0000         0.7098       1606.459        -999.25        -999.25         0.5537       -31.9947      0.3933468        -999.25              1
      8293.5000         0.7057           1594        -999.25        -999.25         0.5686       -31.9836       0.405426        -999.25              1
      8294.0000         0.7017       1581.527        -999.25        -999.25         0.5835       -31.9663      0.4237118        -999.25              1
      8294.5000         0.6976       1552.201        -999.25        -999.25         0.6033       -31.9489       0.442091        -999.25              1
      8295.0000         0.7162        1517.75        -999.25        -999.25         0.6245       -32.1663      0.2256737        -999.25              1
      8295.5000         0.7403        1483.25        -999.25        -999.25         0.6458       -32.4706    -0.07764435        -999.25              1
      8296.0000         0.7825       1417.078        -999.25        -999.25         0.6697       -32.9125     -0.5185623        -999.25              1
      8296.5000         0.8277       1360.338        -999.25        -999.25         0.6972       -33.3544     -0.9594803        -999.25              1
      8297.0000         0.8798       1323.156        -999.25        -999.25         0.7247       -33.8576        -1.4617        -999.25         0.9919
      8297.5000         0.9496       1285.975        -999.25        -999.25         0.7515       -34.4048      -2.007915        -999.25      0.9823173
      8298.0000         0.9999       1237.576        -999.25        -999.25         0.7779       -34.6013      -2.203434        -999.25      0.9788871
      8298.5000          1.009       1170.361        -999.25        -999.25         0.7783       -34.7968      -2.397949        -999.25      0.9754746
      8299.0000         0.9856       1097.338        -999.25        -999.25         0.7602        -34.496      -2.096169        -999.25       0.980769
      8299.5000         0.9311       1104.313        -999.25        -999.25         0.7421       -34.0702      -1.669388        -999.25      0.9882563
      8300.0000         0.8839       1124.295        -999.25        -999.25          0.724        -33.655      -1.253204        -999.25      0.9955578
      8300.5000         0.8496       1172.844        -999.25        -999.25         0.7049       -33.2797     -0.8769226        -999.25              1
      8301.0000         0.8213       1227.547        -999.25        -999.25         0.6814       -33.0131     -0.6093407        -999.25              1
      8301.5000          0.806       1288.904        -999.25        -999.25         0.6578       -32.9864     -0.5816574        -999.25              1
      8302.0000         0.7908       1357.906        -999.25        -999.25         0.6343       -32.9598     -0.5540771        -999.25              1
      8302.5000         0.7721       1403.773        -999.25        -999.25         0.6108       -32.9331     -0.5263939        -999.25              1
      8303.0000          0.753       1449.443        -999.25        -999.25         0.5873       -32.9064     -0.4987106        -999.25              1
      8303.5000         0.7216       1492.234        -999.25        -999.25         0.5757       -32.8798     -0.4711266        -999.25              1
      8304.0000         0.6975       1534.578        -999.25        -999.25         0.5678       -32.8242      -0.414547        -999.25              1
      8304.5000         0.6847       1575.979        -999.25        -999.25           0.56       -32.7371     -0.3264618        -999.25              1
      8305.0000         0.6719       1616.785        -999.25        -999.25         0.5522         -32.65     -0.2383842        -999.25              1
      8305.5000         0.6746        1649.25        -999.25        -999.25         0.5443       -32.5629     -0.1502991        -999.25              1
      8306.0000         0.6785       1677.992        -999.25        -999.25         0.5378       -32.4757    -0.06211853        -999.25              1
      8306.5000          0.691       1698.369        -999.25        -999.25         0.5462       -32.3874     0.02716446        -999.25              1
      8307.0000         0.7048       1689.658        -999.25        -999.25         0.5546        -32.299      0.1165466        -999.25              1
      8307.5000         0.7186       1660.717        -999.25        -999.25         0.5629       -32.2294        0.18713        -999.25              1
      8308.0000         0.7324       1631.775        -999.25        -999.25         0.5713       -32.1981      0.2194099        -999.25              1
      8308.5000         0.7454       1596.631        -999.25        -999.25         0.5796       -32.1668      0.2516937        -999.25              1
      8309.0000         0.7579       1560.193        -999.25        -999.25         0.5877       -32.2517      0.1677742        -999.25              1
      8309.5000         0.7568       1540.846        -999.25        -999.25         0.5957        -32.351     0.06945801        -999.25              1
      8310.0000         0.7509       1539.244        -999.25        -999.25         0.6037       -32.3812     0.04024124        -999.25              1
      8310.5000         0.7449        1566.25        -999.25        -999.25         0.6103       -32.4011     0.02132416        -999.25              1
      8311.0000         0.7347       1593.057        -999.25        -999.25         0.6007       -32.4208    0.002605438        -999.25              1
      8311.5000         0.7241       1619.912        -999.25        -999.25         0.5912       -32.4406    -0.01621246        -999.25              1
