#------------------------------------------------------------------------------
# Created by    : vladimir.rabinovich
# Created on    : 09/19/2023 17:20:39
#------------------------------------------------------------------------------
~Version Information Section
VERS.           2.0     :   CWLS log ASCII Standard - VERSION 2.0
WRAP.           NO      :   One line per depth step
~Well Information Section
#MNEM       .UNIT                                         VALUE :DESCRIPTION
#------------------------------------------------------------------------------
STRT        .FT                                             502 :START DEPTH
STOP        .FT                                           11475 :STOP DEPTH
STEP        .FT                                             0.5 :STEP      
NULL        .                                           -999.25 :NULL      
COMP        .                                      SHELL OIL CO :COMPANY   
WELL        .                                OCS 00730 ST00BP00 :WELL      
FLD         .                                           WILDCAT :FIELD     
LOC         .                                                   :LOCATION  
CNTY        .                             GALVESTON LARGE BLOCK :LOCATION  
STAT        .                                             TEXAS :STATE     
CTRY        .                                     UNITED STATES :COUNTRY   
SRVC        .                                                   :SERVICE COMPANY
DATE        .                             9/13/2023 11:19:42 AM :LOG DATE  
API         .                                    42706000250000 :API NUMBER
UWI         .                                    42706000250000 :UNIQUE WELL ID
XCOORD      .                                  958538.282477158 :SURFACE X 
YCOORD      .                                   10357465.718335 :SURFACE Y 
LAT         .                                         28.524406 :LATITUDE  
LON         .                                        -95.123893 :LONGITUDE 
ELEV        .FT                                              80 :ELEVATION VALUE
ELEV_TYPE   .                                                KB :ELEVATION REFERENCE TYPE
~Curve Information Section
#MNEM       .UNIT                                      API CODE :CURVE DESCRIPTION
#------------------------------------------------------------------------------
DEPT        .FT                                                 :DEPTH     
ASN         .OHMM                                               :          
CILD        .MMHO                                               :          
ILD         .OHMM                                               :          
LAT         .OHMM                                               :          
LN          .OHMM                                               :          
SP          .MV                                                 :          
SP_NORM     .MV                                                 :SP Normalized
VSH_SP      .V/V                                                :Volume of Shale from SP
~A        DEPTH            ASN           CILD            ILD            LAT             LN             SP        SP_NORM         VSH_SP
# ...
      1239.5000         1.4274        -999.25        -999.25         1.7741         1.4489       -55.7425      -2.872116      0.8898755
      1240.0000         1.4241        -999.25        -999.25         1.7878         1.4434       -55.6962      -2.824509      0.8926759
      1240.5000         1.4221        -999.25        -999.25         1.8015          1.438       -55.6498      -2.776798      0.8954825
      1241.0000         1.4204        -999.25        -999.25         1.8152         1.4326       -55.5137      -2.639389      0.9035653
      1241.5000         1.4093        -999.25        -999.25         1.8269         1.4271       -55.3665      -2.490883       0.912301
      1242.0000         1.3867        -999.25        -999.25         1.8046         1.4154       -55.2194      -2.342472      0.9210311
      1242.5000         1.3299        -999.25        -999.25         1.7823         1.3997       -55.0721      -2.193871      0.9297723
      1243.0000          1.299        -999.25        -999.25         1.7601         1.3841        -54.925       -2.04546      0.9385024
      1243.5000         1.2722        -999.25        -999.25         1.7378         1.3684       -54.7778      -1.896954       0.947238
      1244.0000         1.2509        -999.25        -999.25         1.7155         1.3527       -54.6306      -1.748444      0.9559739
      1244.5000         1.2314        -999.25        -999.25         1.6932          1.337       -54.6451      -1.761635      0.9551979
      1245.0000         1.2228        -999.25        -999.25         1.6706         1.3214       -55.0121      -2.127331      0.9336864
      1245.5000         1.2141        -999.25        -999.25         1.6425         1.3092        -55.379      -2.492924       0.912181
      1246.0000         1.2054        -999.25        -999.25         1.6143         1.2993       -55.5456      -2.658215       0.902458
      1246.5000         1.1967        -999.25        -999.25         1.5861         1.2894       -55.6917      -2.803005      0.8939409
      1247.0000         1.1881        -999.25        -999.25         1.5579         1.2796       -55.8377      -2.947697      0.8854296
      1247.5000         1.1826        -999.25        -999.25         1.5297         1.2697       -55.9837      -3.092392      0.8769181
      1248.0000         1.1806        -999.25        -999.25         1.5015         1.2598       -56.1298      -3.237183      0.8684011
      1248.5000         1.1785        -999.25        -999.25         1.4733         1.2499       -56.2759      -3.381977      0.8598837
      1249.0000         1.1764        -999.25        -999.25         1.4465           1.24       -56.2166      -3.321365      0.8634491
      1249.5000         1.1743        -999.25        -999.25         1.4246         1.2301       -56.1359      -3.239357      0.8682731
      1250.0000         1.1722        -999.25        -999.25         1.4027         1.2202       -56.0552      -3.157349      0.8730971
      1250.5000         1.1702        -999.25        -999.25         1.3807          1.225       -55.9745      -3.075344      0.8779209
      1251.0000         1.1733        -999.25        -999.25         1.3588         1.2381       -55.8938      -2.993336       0.882745
      1251.5000         1.1785        -999.25        -999.25         1.3369         1.2513       -55.8131      -2.911327       0.887569
      1252.0000         1.1837        -999.25        -999.25          1.315         1.2644       -55.7324      -2.829319       0.892393
      1252.5000         1.1889        -999.25        -999.25          1.293         1.2776       -55.6517      -2.747311       0.897217
      1253.0000         1.1959        -999.25        -999.25         1.2749         1.2907        -55.571      -2.665306      0.9020408
      1253.5000         1.2112        -999.25        -999.25         1.2591         1.3039       -55.4904      -2.583397       0.906859
      1254.0000         1.2264        -999.25        -999.25         1.2433          1.317       -55.4097      -2.501389       0.911683
      1254.5000         1.2417        -999.25        -999.25         1.2275         1.3302        -55.329       -2.41938      0.9165071
      1255.0000          1.257        -999.25        -999.25         1.2117         1.3433       -55.2484      -2.337475       0.921325
      1255.5000         1.2724        -999.25        -999.25         1.1959         1.3564       -55.1677       -2.25547      0.9261488
      1256.0000         1.2879        -999.25        -999.25         1.1801         1.3696       -55.0122       -2.09866      0.9353729
      1256.5000         1.3033        -999.25        -999.25         1.1684         1.3827       -54.9122      -1.997353      0.9413322
      1257.0000         1.3149        -999.25        -999.25          1.172         1.3934       -55.1655      -2.249344      0.9265092
      1257.5000         1.3257        -999.25        -999.25         1.1756         1.4034       -55.4188      -2.501335      0.9116862
      1258.0000         1.3365        -999.25        -999.25         1.1792         1.4133       -55.6721      -2.753326      0.8968632
      1258.5000         1.3512        -999.25        -999.25         1.1828         1.4233       -55.9254      -3.005322      0.8820399
      1259.0000         1.3697        -999.25        -999.25         1.1864         1.4333       -56.1786      -3.257214      0.8672227
      1259.5000         1.3883        -999.25        -999.25           1.19         1.4433       -56.4319      -3.509205      0.8523997
      1260.0000         1.4145        -999.25        -999.25         1.1943         1.4532       -56.6852      -3.761196      0.8375767
      1260.5000         1.4425        -999.25        -999.25         1.2242         1.4632       -56.9385      -4.013187      0.8227537
      1261.0000         1.4697        -999.25        -999.25          1.254         1.4732       -57.1918      -4.265182      0.8079305
      1261.5000         1.4927        -999.25        -999.25         1.2839         1.4831       -57.4451      -4.517174      0.7931075
      1262.0000         1.5157        -999.25        -999.25         1.3138         1.4931       -57.6984      -4.769165      0.7782844
      1262.5000         1.5308        -999.25        -999.25         1.3436         1.5031       -57.9517      -5.021156      0.7634614
      1263.0000         1.5422        -999.25        -999.25         1.3325         1.5131       -58.2049      -5.273048      0.7486442
      1263.5000          1.573        -999.25        -999.25         1.3147          1.523        -58.901      -5.967846      0.7077737
      1264.0000         1.6106        -999.25        -999.25          1.297          1.533        -59.915      -6.980537      0.6482037
      1264.5000         1.6066        -999.25        -999.25         1.2625          1.543       -60.8325      -7.896729      0.5943101
      1265.0000         1.5847        -999.25        -999.25         1.2194         1.5521       -61.2602       -8.32312      0.5692282
      1265.5000         1.5628        -999.25        -999.25         1.1763         1.5556         -60.61      -7.671612      0.6075522
      1266.0000         1.5425        -999.25        -999.25         1.1331         1.5591       -59.9808      -7.041103       0.644641
      1266.5000           1.57        -999.25        -999.25         1.0928         1.5626       -59.4144      -6.473396      0.6780355
      1267.0000           1.63        -999.25        -999.25         1.1262         1.5661       -58.8479       -5.90559      0.7114359
      1267.5000         1.6648        -999.25        -999.25         1.1596         1.5696       -58.2816      -5.337982      0.7448246
      1268.0000         1.6676        -999.25        -999.25          1.193         1.5731        -57.715      -4.770073       0.778231
      1268.5000         1.6513        -999.25        -999.25         1.2229         1.5766       -57.7646      -4.818363      0.7753904
