#------------------------------------------------------------------------------
# Created by    : vladimir.rabinovich
# Created on    : 09/19/2023 17:20:40
#------------------------------------------------------------------------------
~Version Information Section
VERS.           2.0     :   CWLS log ASCII Standard - VERSION 2.0
WRAP.           NO      :   One line per depth step
~Well Information Section
#MNEM       .UNIT                                         VALUE :DESCRIPTION
#------------------------------------------------------------------------------
STRT        .FT                                             400 :START DEPTH
STOP        .FT                                           11002 :STOP DEPTH
STEP        .FT                                             0.5 :STEP      
NULL        .                                           -999.25 :NULL      
COMP        .                            STANOLIND OIL & GAS CO :COMPANY   
WELL        .                                     ST TR 00245-L :WELL      
FLD         .                              GALVESTON BLOCK 0245 :FIELD     
LOC         .                                                   :LOCATION  
CNTY        .                             GALVESTON LARGE BLOCK :LOCATION  
STAT        .                                             TEXAS :STATE     
CTRY        .                                     UNITED STATES :COUNTRY   
SRVC        .                                                   :SERVICE COMPANY
DATE        .                             9/13/2023 11:19:42 AM :LOG DATE  
API         .                                    42706000160000 :API NUMBER
UWI         .                                    42706000160000 :UNIQUE WELL ID
XCOORD      .                                  1024804.26554262 :SURFACE X 
YCOORD      .                                  10549089.4715911 :SURFACE Y 
LAT         .                                        29.0543948 :LATITUDE  
LON         .                                       -94.9272588 :LONGITUDE 
ELEV        .FT                                              11 :ELEVATION VALUE
ELEV_TYPE   .                                                KB :ELEVATION REFERENCE TYPE
~Curve Information Section
#MNEM       .UNIT                                      API CODE :CURVE DESCRIPTION
#------------------------------------------------------------------------------
DEPT        .FT                                                 :DEPTH     
ASN         .OHMM                                               :          
LAT         .OHMM                                               :          
LN          .OHMM                                               :          
SP          .MV                                                 :          
SP_NORM     .MV                                                 :SP Normalized
VSH_SP      .V/V                                                :Volume of Shale from SP
~A        DEPTH            ASN            LAT             LN             SP        SP_NORM         VSH_SP
       400.0000         0.0705        -999.25         0.0239        -6.9138       2.842298              1
       400.5000         0.1353        -999.25         0.0193       -12.1683       1.769506              1
       401.0000         0.2788        -999.25         0.0147       -18.7917     -0.6721878              1
       401.5000         0.4691        -999.25         0.0512       -22.5439     -0.2426796              1
       402.0000         1.5744        -999.25         0.0887       -26.8537     -0.3707733              1
       402.5000         1.9721        -999.25         0.1262        -34.393      -3.728369      0.9571548
       403.0000         2.3058        -999.25         0.2587       -44.1188      -9.272461      0.6310317
       403.5000         2.5924        -999.25         0.4743       -51.9355      -12.90745      0.4172087
       404.0000         2.7907        -999.25         0.9766        -57.925      -14.71524       0.310868
       404.5000         2.8996        -999.25         1.5527       -64.2388      -16.84734      0.1854506
       405.0000         2.9551        -999.25         2.1287       -68.4895      -16.91633      0.1813922
       405.5000         2.9888        -999.25         2.4535       -73.3612      -17.60632      0.1408045
       406.0000         3.0205        -999.25         2.5286       -74.9509      -15.01431      0.2932757
       406.5000         3.0229        -999.25         2.6037       -75.9409      -11.82261       0.481023
       407.0000         3.0254        -999.25         2.6694       -76.9309      -8.630905      0.6687703
       407.5000         3.0176        -999.25         2.7237       -77.5575      -5.075798      0.8778942
       408.0000         3.0069        -999.25          2.778       -78.1593      -2.546051              1
       408.5000         2.9927        -999.25         2.8323       -78.7025      -3.075378       0.995566
       409.0000         2.9727        -999.25         2.8866       -78.7966      -3.155609      0.9908465
       409.5000         2.9494        -999.25         2.9334       -78.8909      -3.236038      0.9861154
       410.0000         2.9246        -999.25         2.9453       -78.9387      -3.269966      0.9841197
       410.5000         2.8999        -999.25         2.9572       -78.6193      -2.936699              1
       411.0000         2.9086        -999.25         2.9691       -78.2998      -2.603325              1
       411.5000         2.9326        -999.25          2.981       -77.9803      -2.269958              1
       412.0000         2.9567        -999.25          2.993       -77.6395      -1.915298              1
       412.5000         2.9939        -999.25         3.0049       -77.1528      -1.414726              1
       413.0000         3.0343        -999.25         3.0168        -76.666     -0.9140549              1
       413.5000         3.0752        -999.25         3.0056       -76.1793     -0.4134827              1
       414.0000         3.1164        -999.25         2.9918       -75.7136     0.06608582              1
       414.5000         3.1625        -999.25         2.9779       -75.2871      0.5064545              1
       415.0000         3.2305        -999.25         2.9641       -74.8606      0.9468231              1
       415.5000         3.2986        -999.25         2.9503       -74.5553       1.265999              1
       416.0000          3.365        -999.25         2.9365       -74.4609       1.374268              1
       416.5000         3.4247        -999.25         2.9226       -74.3665       1.482536              1
       417.0000         3.4672        -999.25         2.9063       -74.4882        1.37471              1
       417.5000         3.4863        -999.25         2.8815       -74.9802      0.8965759              1
       418.0000         3.4846        -999.25         2.8566       -75.4724       0.418251              1
       418.5000         3.4813        -999.25         2.8318       -75.9645     -0.0599823              1
       419.0000         3.4733        -999.25          2.807       -76.6123     -0.6939163              1
       419.5000          3.429        -999.25         2.7822       -77.5563      -1.624046              1
       420.0000          3.386         0.0885         2.7574       -78.5002      -2.554077              1
       420.5000          3.343         0.1109         2.7326       -79.4442      -3.484207      0.9715172
       421.0000            3.3         0.1333         2.7077       -80.1996      -4.225739      0.9278978
       421.5000         3.2487         0.1824         2.6832       -80.5127      -4.524971      0.9102958
       422.0000         3.1864          0.246         2.6592       -80.8258      -4.824196      0.8926944
       422.5000         3.1046         0.3096         2.6352        -81.139      -5.123528      0.8750866
       423.0000         3.0145         0.4025         2.6112       -81.0175      -4.988159      0.8830495
       423.5000         2.9249         1.2368         2.5872       -80.6964      -4.653191      0.9027535
       424.0000         2.8159          2.032         2.5632       -80.3752      -4.318115      0.9224638
       424.5000         2.6927         2.3841         2.5391       -80.0541      -3.983147      0.9421678
       425.0000         2.5631           2.62         2.5151       -79.7329      -3.648079      0.9618777
       425.5000         2.4677         2.7868         2.4911       -79.4117      -3.313004       0.981588
       426.0000         2.3914         2.9065         2.4662       -79.0906      -2.978043              1
       426.5000          2.316         3.0262         2.4403       -78.7694      -2.642975              1
       427.0000         2.2617         3.1443         2.4144       -78.4299      -2.289604              1
       427.5000         2.2109         3.2561         2.3885        -78.051      -1.896835              1
       428.0000         2.1673         3.3679         2.3626       -77.6721      -1.504059              1
       428.5000         2.1265         3.4796         2.3366       -77.2932       -1.11129              1
       429.0000         2.0942         3.5914         2.3107       -76.9143     -0.7185211              1
       429.5000         2.0646         3.6745          2.308       -76.5354     -0.3257523              1
       430.0000         2.1131         3.7389         2.3187         -76.26    -0.03648376              1
       430.5000         2.1824         3.8033         2.3295       -76.1813     0.05609131              1
       431.0000          2.261         3.8059         2.3402       -76.3252    -0.07394409              1
       431.5000          2.351           3.77         2.3509       -76.6539     -0.3887711              1
       432.0000         2.4409          3.734         2.3617       -76.9827     -0.7036972              1
       432.5000         2.5191          3.697          2.396       -77.4246      -1.131737              1
       433.0000         2.5952         3.6363         2.4485       -77.9651      -1.658371              1
       433.5000         2.6703         3.5756         2.5009       -78.5055      -2.184898              1
       434.0000         2.7328         3.5148         2.5534        -79.046      -2.711525              1
       434.5000         2.7624         3.4541         2.6058       -79.5865      -3.238159      0.9859906
       435.0000         2.7397         3.3934         2.6583       -80.0387      -3.676483      0.9602069
       435.5000          2.717         3.3327         2.7107       -80.2855      -3.909416       0.946505
       436.0000         2.6943         3.2947         2.7135       -80.5323      -4.142349       0.932803
       436.5000         2.6392         3.2667         2.6592       -80.7792      -4.375374      0.9190956
       437.0000         2.5768         3.2388         2.6049       -80.8989      -4.481209        0.91287
       437.5000         2.5144         3.2108         2.5551       -80.7056      -4.274033      0.9250569
