#------------------------------------------------------------------------------
# Created by    : vladimir.rabinovich
# Created on    : 09/19/2023 17:21:26
#------------------------------------------------------------------------------
~Version Information Section
VERS.           2.0     :   CWLS log ASCII Standard - VERSION 2.0
WRAP.           NO      :   One line per depth step
~Well Information Section
#MNEM       .UNIT                                         VALUE :DESCRIPTION
#------------------------------------------------------------------------------
STRT        .FT                                            3102 :START DEPTH
STOP        .FT                                            8740 :STOP DEPTH
STEP        .FT                                             0.5 :STEP      
NULL        .                                           -999.25 :NULL      
COMP        .                          SEAGULL ENERGY E & P INC :COMPANY   
WELL        .                               OCS G13314 ST00BP00 :WELL      
FLD         .                              GALVESTON BLOCK 0330 :FIELD     
LOC         .                                                   :LOCATION  
CNTY        .                             GALVESTON LARGE BLOCK :LOCATION  
STAT        .                                             TEXAS :STATE     
CTRY        .                                     UNITED STATES :COUNTRY   
SRVC        .                                                   :SERVICE COMPANY
DATE        .                             9/13/2023 11:19:54 AM :LOG DATE  
API         .                                    42706403240000 :API NUMBER
UWI         .                                    42706403240000 :UNIQUE WELL ID
XCOORD      .                                  980373.867630971 :SURFACE X 
YCOORD      .                                  10452895.3513713 :SURFACE Y 
LAT         .                                         28.787844 :LATITUDE  
LON         .                                        -95.061044 :LONGITUDE 
ELEV        .FT                                              95 :ELEVATION VALUE
ELEV_TYPE   .                                                KB :ELEVATION REFERENCE TYPE
~Curve Information Section
#MNEM       .UNIT                                      API CODE :CURVE DESCRIPTION
#------------------------------------------------------------------------------
DEPT        .FT                                                 :DEPTH     
CALI        .IN                                                 :          
DRHO        .G/C3                                               :          
DT          .US/F                                               :          
GR          .GAPI                                               :          
GR_1        .GAPI                                               :          
GR_NORM     .GAPI                                               :GammaRay Normalized
ILD         .OHMM                                               :          
ILM         .OHMM                                               :          
NPHI        .%                                                  :          
RFOC        .OHMM                                               :          
RHOB        .G/C3                                               :          
SP          .MV                                                 :          
SP_NORM     .MV                                                 :SP Normalized
VSH_GR      .V/V                                                :Volume of Shale from GR
VSH_SP      .V/V                                                :Volume of Shale from SP
~A        DEPTH           CALI           DRHO             DT             GR           GR_1        GR_NORM            ILD            ILM           NPHI           RFOC           RHOB             SP        SP_NORM         VSH_GR         VSH_SP
# ...
      7624.0000        -999.25        -999.25       101.9731        74.3722        -999.25       85.87965         1.0213         1.0513        -999.25          1.227        -999.25       -30.6561      -1.428892              1      0.9821389
      7624.5000        -999.25        -999.25        107.803         74.469        -999.25       85.98898         0.9839         1.0306        -999.25         1.2935        -999.25       -30.5803      -1.353359              1       0.983083
      7625.0000        -999.25        -999.25       108.2549        74.4996        -999.25       86.02354         0.9534         1.0184        -999.25          1.311        -999.25       -30.7073      -1.480627              1      0.9814922
      7625.5000        -999.25        -999.25       107.8323        75.3616        -999.25       86.99718         0.9345         1.0084        -999.25         1.3142        -999.25        -30.806      -1.579594              1      0.9802551
      7626.0000        -999.25        -999.25       107.3624         75.009        -999.25       86.59891         0.9261         1.0054        -999.25         1.3123        -999.25       -30.7426       -1.51646              1      0.9810442
      7626.5000        -999.25        -999.25       107.0726         73.467        -999.25       84.85723         0.9332         1.0045        -999.25         1.3026        -999.25       -30.2415      -1.015631              1      0.9873046
      7627.0000        -999.25        -999.25       106.8326        71.9211        -999.25       83.11113         0.9466         1.0037        -999.25         1.2858        -999.25       -30.1337     -0.9080963              1      0.9886488
      7627.5000        -999.25        -999.25       106.4014        70.9176        -999.25       81.97768         0.9571         1.0091        -999.25         1.2858        -999.25       -30.5689      -1.343563              1      0.9832054
      7628.0000        -999.25        -999.25       105.5581         71.042        -999.25       82.11818         0.9616         1.0147        -999.25         1.3104        -999.25       -30.8673      -1.642231              1      0.9794721
      7628.5000        -999.25        -999.25       104.4811        72.3936        -999.25       83.64481         0.9587         1.0161        -999.25         1.3468        -999.25       -30.6816      -1.456799              1        0.98179
      7629.0000        -999.25        -999.25       104.2013        75.8092        -999.25       87.50273         0.9516          1.009        -999.25         1.3764        -999.25       -30.2865      -1.061968              1      0.9867254
      7629.5000        -999.25        -999.25       104.9161        77.4628        -999.25       89.37047         0.9397         0.9919        -999.25          1.381        -999.25       -29.8704     -0.6461334              1      0.9919233
      7630.0000        -999.25        -999.25       105.8859        76.8864        -999.25       88.71942         0.9248         0.9784        -999.25         1.3241        -999.25       -29.8578     -0.6338005              1      0.9920775
      7630.5000        -999.25        -999.25       107.0203        75.8215        -999.25       87.51662         0.9039         0.9714        -999.25         1.2601        -999.25       -30.1047     -0.8809681              1      0.9889879
      7631.0000        -999.25        -999.25       107.4392        75.0858        -999.25       86.68565         0.8803          0.966        -999.25         1.2585        -999.25       -31.2599      -2.036434              1      0.9745446
      7631.5000        -999.25        -999.25       107.0602        74.3153        -999.25       85.81538         0.8753         0.9654        -999.25         1.2876        -999.25       -32.2578      -3.034603              1      0.9620675
      7632.0000        -999.25        -999.25        106.129        73.0985        -999.25       84.44099         0.8899         0.9752        -999.25         1.3008        -999.25       -32.9052      -3.682272              1      0.9539716
      7632.5000        -999.25        -999.25       105.4901        71.8569        -999.25       83.03863         0.9152         1.0266        -999.25         1.2513        -999.25       -33.5433      -4.320639              1       0.945992
      7633.0000        -999.25        -999.25       105.0795        69.1412        -999.25       79.97124         0.9514         1.0896        -999.25         1.1516        -999.25       -34.8993      -5.676905       0.999388      0.9290387
      7633.5000        -999.25        -999.25       104.1022        62.7107        -999.25         72.708         0.9737         1.1626        -999.25         1.1522        -999.25       -39.1843      -9.962172      0.8448511      0.8754728
      7634.0000        -999.25        -999.25         97.755        49.8496        -999.25       58.18141         0.9653         1.1682        -999.25         1.3126        -999.25       -46.6561      -17.43424      0.5357746       0.782072
      7634.5000        -999.25        -999.25         92.395        48.9215        -999.25       57.13312         0.9525         1.1177        -999.25         2.0389        -999.25       -52.9741      -23.75251      0.5134706      0.7030936
      7635.0000        -999.25        -999.25        85.5243        53.2825        -999.25       62.05886         0.9396         1.0496        -999.25         2.4179        -999.25       -53.9109      -24.68958      0.6182737      0.6913803
      7635.5000        -999.25        -999.25        82.5251         59.347        -999.25       68.90871         0.9116         0.9855        -999.25         1.7704        -999.25       -51.2823      -22.06124      0.7640152      0.7242345
      7636.0000        -999.25        -999.25        89.9269        61.4852        -999.25        71.3238         0.8874         0.9482        -999.25         1.3752        -999.25       -50.5543      -21.33351         0.8154      0.7333311
      7636.5000        -999.25        -999.25        96.9073        62.6909        -999.25       72.68563         0.8624         0.9291        -999.25         1.2998        -999.25       -49.1046      -19.88408      0.8443751       0.751449
      7637.0000        -999.25        -999.25       103.6683        64.6002        -999.25       74.84219         0.8322         0.9161        -999.25          1.278        -999.25       -46.8416      -17.62134      0.8902593      0.7797332
      7637.5000        -999.25        -999.25       106.3757        67.6078        -999.25       78.23927         0.7978         0.9101        -999.25         1.2729        -999.25       -43.4581      -14.23811      0.9625377      0.8220236
      7638.0000        -999.25        -999.25       107.7819        70.2072        -999.25       81.17529         0.7835         0.9063        -999.25         1.2818        -999.25       -39.1509      -9.931181              1      0.8758602
      7638.5000        -999.25        -999.25       109.0109          72.49        -999.25       83.75369         0.7912          0.907        -999.25         1.2842        -999.25       -35.7007      -6.481245              1      0.9189844
      7639.0000        -999.25        -999.25       110.3572        75.0524        -999.25       86.64793         0.8127          0.922        -999.25         1.2597        -999.25       -32.6789      -3.459715              1      0.9567536
      7639.5000        -999.25        -999.25       111.4453        75.1267        -999.25       86.73185         0.8319         0.9449        -999.25         1.2106        -999.25       -31.2654       -2.04648              1       0.974419
      7640.0000        -999.25        -999.25       111.4086        73.5115        -999.25       84.90749         0.8453         0.9665        -999.25         1.1934        -999.25       -31.0513      -1.832649              1      0.9770919
      7640.5000        -999.25        -999.25       109.5021         71.429        -999.25        82.5553         0.8536         0.9723        -999.25         1.2358        -999.25       -31.4435      -2.225117              1       0.972186
