#------------------------------------------------------------------------------
# Created by    : vladimir.rabinovich
# Created on    : 09/19/2023 17:20:34
#------------------------------------------------------------------------------
~Version Information Section
VERS.           2.0     :   CWLS log ASCII Standard - VERSION 2.0
WRAP.           NO      :   One line per depth step
~Well Information Section
#MNEM       .UNIT                                         VALUE :DESCRIPTION
#------------------------------------------------------------------------------
STRT        .FT                                             500 :START DEPTH
STOP        .FT                                            9234 :STOP DEPTH
STEP        .FT                                             0.5 :STEP      
NULL        .                                           -999.25 :NULL      
COMP        .                                      SHELL OIL CO :COMPANY   
WELL        .                                OCS 00713 ST00BP00 :WELL      
FLD         .                                           WILDCAT :FIELD     
LOC         .                                                   :LOCATION  
CNTY        .                             GALVESTON LARGE BLOCK :LOCATION  
STAT        .                                             TEXAS :STATE     
CTRY        .                                     UNITED STATES :COUNTRY   
SRVC        .                                                   :SERVICE COMPANY
DATE        .                             9/13/2023 11:19:25 AM :LOG DATE  
API         .                                    42706000510000 :API NUMBER
UWI         .                                    42706000510000 :UNIQUE WELL ID
XCOORD      .                                  1104646.85179908 :SURFACE X 
YCOORD      .                                   10481381.387581 :SURFACE Y 
LAT         .                                         28.871549 :LATITUDE  
LON         .                                        -94.674396 :LONGITUDE 
ELEV        .FT                                              82 :ELEVATION VALUE
ELEV_TYPE   .                                                KB :ELEVATION REFERENCE TYPE
~Curve Information Section
#MNEM       .UNIT                                      API CODE :CURVE DESCRIPTION
#------------------------------------------------------------------------------
DEPT        .FT                                                 :DEPTH     
ASN         .OHMM                                               :          
ASN_1       .OHMM                                               :          
GR_NORM     .                                                   :GammaRay Normalized
ILD         .OHMM                                               :          
LAT         .OHMM                                               :          
LN          .OHMM                                               :          
SP          .MV                                                 :          
SP_1        .MV                                                 :          
SP_NORM     .MV                                                 :SP Normalized
VSH_SP      .V/V                                                :Volume of Shale from SP
~A        DEPTH            ASN          ASN_1        GR_NORM            ILD            LAT             LN             SP           SP_1        SP_NORM         VSH_SP
# ...
      7482.5000         1.1907        -999.25        -999.25         0.9573        -999.25        -999.25       -58.7496        -999.25      -2.551231      0.9854939
      7483.0000         1.1783        -999.25        -999.25          0.957        -999.25        -999.25        -58.545        -999.25      -2.349087      0.9908135
      7483.5000         1.1748        -999.25        -999.25         0.9549        -999.25        -999.25       -57.8986        -999.25      -1.705151              1
      7484.0000         1.1786        -999.25        -999.25         0.9515        -999.25        -999.25        -57.194        -999.25       -1.00301              1
      7484.5000         1.1871        -999.25        -999.25         0.9473        -999.25        -999.25       -57.3099        -999.25      -1.121365              1
      7485.0000         1.1977        -999.25        -999.25         0.9399        -999.25        -999.25       -58.3949        -999.25      -2.208828      0.9945045
      7485.5000         1.2007        -999.25        -999.25         0.9329        -999.25        -999.25       -59.8249        -999.25      -3.641289      0.9568082
      7486.0000         1.1904        -999.25        -999.25         0.9285        -999.25        -999.25       -61.2776        -999.25      -5.096443      0.9185147
      7486.5000         1.1768        -999.25        -999.25         0.9259        -999.25        -999.25       -62.8254        -999.25      -6.646706      0.8777183
      7487.0000         1.1598        -999.25        -999.25         0.9272        -999.25        -999.25       -63.0204        -999.25      -6.844166      0.8725219
      7487.5000         1.1426        -999.25        -999.25          0.929        -999.25        -999.25       -62.5739        -999.25       -6.40012      0.8842074
      7488.0000         1.1374        -999.25        -999.25         0.9329        -999.25        -999.25       -61.9926        -999.25      -5.821281        0.89944
      7488.5000         1.1501        -999.25        -999.25         0.9368        -999.25        -999.25       -61.3801        -999.25      -5.211239      0.9154937
      7489.0000         1.1552        -999.25        -999.25         0.9391        -999.25        -999.25       -60.9688        -999.25      -4.802399      0.9262527
      7489.5000         1.1505        -999.25        -999.25         0.9406        -999.25        -999.25       -61.2731        -999.25      -5.109161        0.91818
      7490.0000          1.124        -999.25        -999.25          0.938        -999.25        -999.25       -61.7682        -999.25      -5.606716      0.9050864
      7490.5000         1.1009        -999.25        -999.25         0.9366        -999.25        -999.25       -60.8663        -999.25      -4.707275      0.9287559
      7491.0000         1.0948        -999.25        -999.25         0.9374        -999.25        -999.25        -59.851        -999.25      -3.694439      0.9554095
      7491.5000          1.096        -999.25        -999.25         0.9386        -999.25        -999.25       -58.7983        -999.25      -2.644196      0.9830475
      7492.0000         1.0905        -999.25        -999.25         0.9381        -999.25        -999.25       -57.6334        -999.25      -1.481754              1
      7492.5000         1.0839        -999.25        -999.25         0.9358        -999.25        -999.25       -56.7869        -999.25     -0.6377144              1
      7493.0000         1.0763        -999.25        -999.25         0.9301        -999.25        -999.25       -56.3563        -999.25     -0.2095718              1
      7493.5000         1.0682        -999.25        -999.25         0.9222        -999.25        -999.25       -56.0699        -999.25     0.07436752              1
      7494.0000          1.059        -999.25        -999.25         0.9139        -999.25        -999.25       -55.8704        -999.25      0.2714081              1
      7494.5000         1.0664        -999.25        -999.25         0.9038        -999.25        -999.25       -55.8632        -999.25      0.2761497              1
      7495.0000          1.083        -999.25        -999.25         0.8937        -999.25        -999.25       -56.0886        -999.25     0.04829025              1
      7495.5000         1.0975        -999.25        -999.25         0.8836        -999.25        -999.25       -56.3257        -999.25     -0.1912689              1
      7496.0000         1.0922        -999.25        -999.25         0.8778        -999.25        -999.25       -56.6238        -999.25     -0.4918251              1
      7496.5000         1.0825        -999.25        -999.25         0.8728        -999.25        -999.25       -57.1393        -999.25      -1.009789              1
      7497.0000          1.071        -999.25        -999.25         0.8678        -999.25        -999.25       -57.8861        -999.25      -1.759048              1
      7497.5000         1.0758        -999.25        -999.25         0.8694        -999.25        -999.25       -59.0521        -999.25      -2.927505       0.975592
      7498.0000         1.0921        -999.25        -999.25         0.8801        -999.25        -999.25       -58.7212        -999.25      -2.599064      0.9842352
      7498.5000         1.1039        -999.25        -999.25          0.882        -999.25        -999.25       -57.7812        -999.25      -1.661522              1
      7499.0000         1.1114        -999.25        -999.25         0.8795        -999.25        -999.25       -57.5337        -999.25      -1.416481              1
      7499.5000         1.1185        -999.25        -999.25         0.8671        -999.25        -999.25       -58.4787        -999.25      -2.363941      0.9904226
      7500.0000         1.1229        -999.25        -999.25         0.8539        -999.25        -999.25       -60.6204        -999.25      -4.508099      0.9339974
      7500.5000         1.1211        -999.25        -999.25         0.8378        -999.25        -999.25       -61.5146        -999.25      -5.404758      0.9104011
      7501.0000         1.1156        -999.25        -999.25         0.8203        -999.25        -999.25        -61.217        -999.25      -5.109619      0.9181679
      7501.5000         1.1137        -999.25        -999.25         0.8019        -999.25        -999.25       -60.2155        -999.25      -4.110577      0.9444585
      7502.0000         1.1279        -999.25        -999.25          0.794        -999.25        -999.25       -60.3727        -999.25      -4.270237      0.9402569
      7502.5000         1.1555        -999.25        -999.25         0.7936        -999.25        -999.25       -64.3328        -999.25        -8.2328       0.835979
      7503.0000         1.1908        -999.25        -999.25         0.8029        -999.25        -999.25       -68.1072        -999.25      -12.00965       0.736588
      7503.5000         1.2005        -999.25        -999.25          0.822        -999.25        -999.25       -69.4056        -999.25      -13.31052      0.7023548
      7504.0000         1.1638        -999.25        -999.25         0.8422        -999.25        -999.25       -69.5212        -999.25      -13.42858       0.699248
      7504.5000          1.152        -999.25        -999.25         0.8611        -999.25        -999.25       -69.4025        -999.25      -13.31233      0.7023072
      7505.0000         1.1657        -999.25        -999.25         0.8758        -999.25        -999.25       -67.8855        -999.25      -11.79779      0.7421634
      7505.5000         1.1449        -999.25        -999.25         0.8907        -999.25        -999.25       -64.8622        -999.25      -8.776951      0.8216592
      7506.0000         1.1127        -999.25        -999.25         0.9065        -999.25        -999.25       -62.1762        -999.25       -6.09341      0.8922787
      7506.5000         1.1128        -999.25        -999.25          0.927        -999.25        -999.25       -61.1398        -999.25      -5.059471      0.9194876
