#------------------------------------------------------------------------------
# Created by    : vladimir.rabinovich
# Created on    : 09/19/2023 17:20:23
#------------------------------------------------------------------------------
~Version Information Section
VERS.           2.0     :   CWLS log ASCII Standard - VERSION 2.0
WRAP.           NO      :   One line per depth step
~Well Information Section
#MNEM       .UNIT                                         VALUE :DESCRIPTION
#------------------------------------------------------------------------------
STRT        .FT                                            3094 :START DEPTH
STOP        .FT                                           15705 :STOP DEPTH
STEP        .FT                                             0.5 :STEP      
NULL        .                                           -999.25 :NULL      
COMP        .                                       MONSANTO CO :COMPANY   
WELL        .                                     ST TR 00011-L :WELL      
FLD         .                                           WILDCAT :FIELD     
LOC         .                                                   :LOCATION  
CNTY        .                           HIGH ISLAND LARGE BLOCK :LOCATION  
STAT        .                                             TEXAS :STATE     
CTRY        .                                     UNITED STATES :COUNTRY   
SRVC        .                                                   :SERVICE COMPANY
DATE        .                             9/13/2023 11:19:15 AM :LOG DATE  
API         .                                    42708300660000 :API NUMBER
UWI         .                                    42708300660000 :UNIQUE WELL ID
XCOORD      .                                  1343190.12128624 :SURFACE X 
YCOORD      .                                   10724936.940093 :SURFACE Y 
LAT         .                                        29.5487141 :LATITUDE  
LON         .                                       -93.9350737 :LONGITUDE 
ELEV        .FT                                              49 :ELEVATION VALUE
ELEV_TYPE   .                                                KB :ELEVATION REFERENCE TYPE
~Curve Information Section
#MNEM       .UNIT                                      API CODE :CURVE DESCRIPTION
#------------------------------------------------------------------------------
DEPT        .FT                                                 :DEPTH     
ASN         .OHMM                                               :          
CILD        .MMHO                                               :          
ILD         .OHMM                                               :          
SP_NORM     .MV                                                 :SP Normalized
VSH_SP      .V/V                                                :Volume of Shale from SP
~A        DEPTH            ASN           CILD            ILD        SP_NORM         VSH_SP
# ...
     13170.0000         1.0977       2512.984         0.4764      -36.03052      0.4349916
     13170.5000         1.2694       2488.852         0.4786      -36.53748      0.4268148
     13171.0000         1.3332       2464.668         0.4832      -54.91594       0.130388
     13171.5000         1.3087        2380.77         0.4897      -55.58521      0.1195935
     13172.0000         1.0127        2330.41         0.4961      -52.11776      0.1755199
     13172.5000          0.971       2229.895         0.5025      -47.40443      0.2515415
     13173.0000         0.9337        2172.02         0.5089      -44.29649      0.3016696
     13173.5000         0.9143           2156         0.5153      -38.94795      0.3879363
     13174.0000          0.895       2169.086         0.5162      -35.80061      0.4386999
     13174.5000         0.8757       2287.418         0.5109      -34.03207      0.4672247
     13175.0000         0.9167       2354.395         0.5057      -25.76813      0.6005141
     13175.5000         1.0062       2391.816         0.5004      -27.54049      0.5719275
     13176.0000         1.0399       2429.238         0.4951      -30.89875      0.5177621
     13176.5000         0.9339       2468.848         0.4899      -33.69551      0.4726531
     13177.0000         0.8659       2508.754         0.4845      -35.70437      0.4402521
     13177.5000         0.8234        2551.75         0.4788      -34.76823      0.4553511
     13178.0000         0.8248       2594.742         0.4732      -29.58459      0.5389582
     13178.5000         0.8498       2617.684         0.4675      -28.15105      0.5620798
     13179.0000         0.8748       2637.734         0.4618      -31.72351      0.5044595
     13179.5000         0.8998       2647.289         0.4562      -34.25927      0.4635601
     13180.0000         0.9236       2632.063         0.4505      -35.48383      0.4438092
     13180.5000         0.9375       2619.898         0.4448       -36.0509      0.4346629
     13181.0000         0.9514        2609.57         0.4391      -38.44636      0.3960265
     13181.5000          0.954       2599.246         0.4349      -36.97102      0.4198223
     13182.0000         0.8822       2588.945         0.4329      -36.19857      0.4322811
     13182.5000         0.8561       2594.844         0.4309      -36.19404      0.4323542
     13183.0000         0.9234       2634.852         0.4289       -42.7512      0.3265935
     13183.5000         1.2037       2696.555         0.4269      -45.38056      0.2841845
     13184.0000         1.5713       2743.031         0.4249      -48.91612      0.2271594
     13184.5000         1.5818       2782.738         0.4229      -51.46658      0.1860229
     13185.0000         1.4641       2817.074         0.4209      -49.56524      0.2166897
     13185.5000         1.3117       2850.516         0.4189      -47.28711      0.2534338
     13186.0000         1.1946       2883.855         0.4173      -46.26966      0.2698442
     13186.5000         1.1339       2919.883         0.4189      -45.24983      0.2862931
     13187.0000         1.1375        2964.07         0.4205      -44.23259      0.3027002
     13187.5000         1.1576       2925.953         0.4222      -43.03284      0.3220509
     13188.0000         1.0569        2870.02         0.4238       -41.8283       0.341479
     13188.5000         0.9955       2825.336         0.4254      -40.52287      0.3625344
     13189.0000         1.0612       2780.551         0.4271      -39.08683      0.3856964
     13189.5000         1.2839       2735.766         0.4287      -38.23449      0.3994437
     13190.0000         1.4177       2691.078         0.4303      -47.19695      0.2548879
     13190.5000         1.3311       2660.875          0.432       -53.5223      0.1528661
     13191.0000         1.2372       2634.453         0.4336      -49.63867      0.2155053
     13191.5000         1.1435       2627.297         0.4352      -45.14703      0.2879511
     13192.0000         1.0497       2620.156         0.4357      -40.64539      0.3605582
     13192.5000         0.9274       2620.719         0.4363      -36.15365      0.4330056
     13193.0000         0.7845        2637.34         0.4368      -33.50381      0.4757449
     13193.5000         1.0089       2808.117         0.4374      -31.30207      0.5112569
     13194.0000           0.95       2825.969          0.438      -29.10013      0.5467721
     13194.5000          1.096       2830.848         0.4385      -29.01109      0.5482082
     13195.0000         1.1279       2835.723         0.4391      -34.64446      0.4573475
     13195.5000         1.1596       2835.426         0.4396      -40.26802      0.3666448
     13196.0000         1.1916        2832.93         0.4402      -45.90138      0.2757842
     13196.5000         1.2237       2830.438         0.4442      -49.71273      0.2143107
     13197.0000         1.2562       2820.109         0.4508       -51.7166      0.1819903
     13197.5000         1.2931       2807.348         0.4573      -52.58786      0.1679378
     13198.0000          1.299       2794.609         0.4639      -53.14272      0.1589883
     13198.5000         1.2438       2659.633         0.4705      -52.87748      0.1632664
     13199.0000         1.1885       2449.836          0.477      -51.92664      0.1786025
     13199.5000         1.1244       2354.793         0.4836        -49.976      0.2100645
     13200.0000          1.147       2298.863         0.4903      -47.82846      0.2447022
     13200.5000         1.1696        2242.93         0.4972      -45.71532      0.2787851
     13201.0000         1.1923       2220.238         0.5041      -44.32489      0.3012115
     13201.5000         1.2223       2206.031          0.511      -43.82574      0.3092622
     13202.0000         1.2557       2194.527         0.5179      -43.40611      0.3160305
     13202.5000         1.2489       2192.223         0.5187      -43.02517      0.3221748
     13203.0000         1.1005       2210.238         0.5085      -42.64442      0.3283157
     13203.5000         1.0576       2244.723         0.4984      -41.76799      0.3424518
     13204.0000         1.0281       2301.152         0.4882      -40.71375      0.3594557
     13204.5000         0.9866       2369.027         0.4781      -39.01921       0.386787
     13205.0000          0.944       2442.273          0.468      -36.02937      0.4350101
     13205.5000         0.8997        2497.41         0.4578      -35.30753      0.4466528
     13206.0000         0.9792       2523.285         0.4477      -36.33879      0.4300196
     13206.5000         1.0626       2519.598         0.4382      -37.37005      0.4133863
     13207.0000         1.1064       2515.809         0.4289      -38.71151      0.3917498
     13207.5000          0.983        2512.02         0.4195      -40.21317      0.3675295
     13208.0000         0.8942       2508.234         0.4159      -37.72583      0.4076479
     13208.5000         0.8521       2504.289         0.4153      -34.30519      0.4628194
     13209.0000         0.8296       2518.211         0.4147      -32.77805      0.4874507
     13209.5000         0.9051       2553.539         0.4142      -36.28652      0.4308626
     13210.0000         1.0878       2606.484         0.4184      -40.77728       0.358431
     13210.5000         1.2863       2657.191         0.4236      -44.78564        0.29378
     13211.0000         1.5711       2676.898         0.4288       -46.7796      0.2616194
     13211.5000         1.5848       2690.707         0.4339      -48.06946      0.2408152
     13212.0000         1.4697       2681.574         0.4391      -49.35922      0.2200126
     13212.5000          1.326       2672.445         0.4443      -47.99468      0.2420212
     13213.0000         1.1819       2663.313         0.4495      -44.65534      0.2958816
     13213.5000         1.0139        2649.43         0.4547        -41.316      0.3497419
