#------------------------------------------------------------------------------
# Created by    : vladimir.rabinovich
# Created on    : 09/19/2023 17:22:15
#------------------------------------------------------------------------------
~Version Information Section
VERS.           2.0     :   CWLS log ASCII Standard - VERSION 2.0
WRAP.           NO      :   One line per depth step
~Well Information Section
#MNEM       .UNIT                                         VALUE :DESCRIPTION
#------------------------------------------------------------------------------
STRT        .FT                                             712 :START DEPTH
STOP        .FT                                            8940 :STOP DEPTH
STEP        .FT                                             0.5 :STEP      
NULL        .                                           -999.25 :NULL      
COMP        .                                      SHELL OIL CO :COMPANY   
WELL        .                               OCS G03086 ST00BP00 :WELL      
FLD         .                                           WILDCAT :FIELD     
LOC         .                                                   :LOCATION  
CNTY        .                      MATAGORDA ISLAND LARGE BLOCK :LOCATION  
STAT        .                                             TEXAS :STATE     
CTRY        .                                     UNITED STATES :COUNTRY   
SRVC        .                                                   :SERVICE COMPANY
DATE        .                             9/13/2023 11:19:05 AM :LOG DATE  
API         .                                    42703400050000 :API NUMBER
UWI         .                                    42703400050000 :UNIQUE WELL ID
XCOORD      .                                  597395.628989583 :SURFACE X 
YCOORD      .                                    10217429.66268 :SURFACE Y 
LAT         .                                         28.117488 :LATITUDE  
LON         .                                        -96.235866 :LONGITUDE 
ELEV        .FT                                              93 :ELEVATION VALUE
ELEV_TYPE   .                                                KB :ELEVATION REFERENCE TYPE
~Curve Information Section
#MNEM       .UNIT                                      API CODE :CURVE DESCRIPTION
#------------------------------------------------------------------------------
DEPT        .FT                                                 :DEPTH     
CALI        .IN                                                 :          
DRHO        .G/C3                                               :          
DT          .US/F                                               :          
GR          .GAPI                                               :          
GR_1        .GAPI                                               :          
GR_NORM     .GAPI                                               :GammaRay Normalized
ILD         .OHMM                                               :          
NPHI        .%                                                  :          
RHOB        .G/C3                                               :          
SFL         .OHMM                                               :          
SP          .MV                                                 :          
SP_NORM     .MV                                                 :SP Normalized
VSH_GR      .V/V                                                :Volume of Shale from GR
VSH_SP      .V/V                                                :Volume of Shale from SP
~A        DEPTH           CALI           DRHO             DT             GR           GR_1        GR_NORM            ILD           NPHI           RHOB            SFL             SP        SP_NORM         VSH_GR         VSH_SP
# ...
      7822.0000         11.914         0.0024        -999.25        56.6516        45.4389       63.65882         1.9381        33.7068         2.4133         1.6664       -56.3523       -15.8077      0.6523153      0.6634613
      7822.5000        12.0609        -0.0035        -999.25        55.5094        45.7334       64.43633         1.8929        34.0739         2.4036         1.5807       -55.7871      -15.24358      0.6688582      0.6762822
      7823.0000        12.1599         0.0029        -999.25        56.8658        45.8585       64.76815         1.8451        33.9569         2.4469         1.4608       -56.3796      -15.83715      0.6759181       0.662792
      7823.5000        11.8589         0.0117        -999.25         57.937        45.7029       64.36143         1.7915        32.3039         2.5114         1.7013       -58.6168      -18.07543      0.6672646      0.6119221
      7824.0000         11.558         0.0108        -999.25        56.5942        45.6561       64.24102         1.7346        29.7779         2.4852         2.1904       -61.4821       -20.9418      0.6647025      0.5467772
      7824.5000        11.2755         0.0037        -999.25        55.2993        45.6403       64.20211         1.6749        25.9094         2.4249         2.2045       -62.8104      -22.27118      0.6638747      0.5165642
      7825.0000         10.594        -0.0008        -999.25        55.8843        45.8132       64.65971         1.6267        27.3554         2.4016         1.9224       -63.8036      -23.26545      0.6736107       0.493967
      7825.5000        10.3926         0.0001        -999.25        56.2723        45.7974       64.62077         1.5919        28.6979         2.3832         1.8009       -64.8167      -24.27963      0.6727822      0.4709175
      7826.0000        10.3011         0.0027        -999.25        55.0922        45.5941       64.08858         1.5694        28.8787         2.3691          1.624       -66.4702       -25.9342      0.6614593      0.4333136
      7826.5000        10.3277          0.006        -999.25        54.3374        45.4268       63.65109         1.5608        28.1819         2.3658         1.6664       -67.3225      -26.78758      0.6521509      0.4139187
      7827.0000        10.3959         0.0093        -999.25        54.8736        45.4322       63.66798         1.5591        26.3932         2.3828         1.7546       -67.7714      -27.23755      0.6525101      0.4036921
      7827.5000        10.5235         0.0053        -999.25        53.2089        45.5377       63.94822         1.5648        25.8494         2.4027         1.7958       -67.9913      -27.45853      0.6584727      0.3986698
      7828.0000        10.6158        -0.0015        -999.25        52.2512        46.0807       65.37953          1.593        25.0994         2.4235         1.8152       -68.0907      -27.55899      0.6889262      0.3963865
      7828.5000        10.6503        -0.0043        -999.25        52.8104        45.9833       65.12596         1.6361        24.3134         2.4616         1.8968       -68.1788      -27.64817      0.6835311      0.3943597
      7829.0000        10.6581        -0.0041        -999.25        55.2043        45.3923       63.57373         1.6885        23.6549         2.4911         2.0734       -68.0953      -27.56575      0.6505049      0.3962331
      7829.5000        10.7003        -0.0059        -999.25        57.7352        44.6978       61.74918         1.7385        23.7078         2.4636         2.2412       -67.8541      -27.32562      0.6116846      0.4016904
      7830.0000        10.7827        -0.0115        -999.25        59.3478        44.1055        60.1935         1.7598        24.4049         2.4262         2.3044       -67.6423       -27.1149      0.5785851      0.4064796
      7830.5000        10.4021        -0.0184        -999.25        58.8848        43.7313       59.21169         1.7564        25.9769         2.3685         2.2767       -68.4951      -27.96877      0.5576955      0.3870733
      7831.0000        10.2516        -0.0164        -999.25        58.0079        43.7142       59.16936         1.6891        26.6202         2.3729         1.9676       -69.4299      -28.90464      0.5567948      0.3658035
      7831.5000          10.22        -0.0052        -999.25        57.9343        43.7222       59.19311         1.5898        26.6827         2.3683         1.9296       -70.6838      -30.15962      0.5573003      0.3372814
      7832.0000        10.2113         0.0099        -999.25        56.3477        43.6282       58.94849         1.5343        27.1604          2.339         1.8593       -71.6323       -31.1092      0.5520955      0.3157001
      7832.5000        10.2182         0.0174        -999.25        54.2278        43.5709       58.80038         1.4879        28.3559          2.327         1.8108       -72.7943      -32.27226      0.5489442      0.2892668
      7833.0000        10.2277         0.0197        -999.25        54.7534        43.6782       59.08537         1.4267        29.2319         2.3425         1.8819       -73.7452      -33.22424      0.5550078      0.2676308
      7833.5000        10.2418          0.023        -999.25        56.9206        44.0683        60.1144         1.3882        29.2109         2.3641         2.0044       -75.0184      -34.49852       0.576902      0.2386701
      7834.0000        10.2648         0.0243        -999.25        57.7601        45.2378       63.19398          1.378        27.6149         2.3693         2.0084       -73.6533      -33.13449      0.6424252      0.2696708
      7834.5000        10.2991         0.0146        -999.25        57.4518        47.2837       68.57938         1.3823        26.8829         2.3752         1.9072       -72.1909      -31.67317       0.757008      0.3028826
      7835.0000           10.3         0.0093        -999.25        58.8188        49.2452       73.74275         1.4114        26.6169         2.3804           1.72       -71.2487      -30.73204      0.8668671      0.3242718
      7835.5000        10.2868         0.0092        -999.25        61.0295        50.7648       77.74347         1.4453        26.4149         2.3671         1.6017       -70.8151      -30.29951      0.9519887      0.3341019
      7836.0000        10.2599          0.009        -999.25        59.7977        52.6196        82.6261          1.483        26.0039         2.3666         1.7115       -70.5956      -30.08109              1      0.3390662
      7836.5000        10.2638         0.0052        -999.25        57.1996        51.1646        78.8007         1.5094        25.5884         2.3675         1.8187       -70.5742      -30.06076      0.9744829      0.3395281
      7837.0000        10.3072         0.0007        -999.25        55.6277        49.9777       75.68066         1.5262        24.3359         2.3734         1.9433       -70.7903      -30.27794      0.9080992      0.3345924
      7837.5000        10.3786        -0.0043        -999.25        54.9302        49.1248       73.43941         1.5297        23.4442         2.3589         2.1738       -70.9021      -30.39081      0.8604129       0.332027
      7838.0000        10.4581        -0.0068        -999.25        55.8594        48.1168       70.79006         1.5279        23.3797         2.3543         2.5822        -71.074      -30.56378      0.8040439      0.3280959
      7838.5000        10.4774        -0.0041        -999.25        57.1996        47.3359       68.73817         1.5227        24.1822         2.3726         2.9529       -71.2548      -30.74566      0.7603867      0.3239623
      7839.0000        10.4023         0.0024        -999.25        57.1305        47.5382       69.27308         1.5033        25.5239         2.3915          2.784       -71.3877      -30.87963      0.7717676      0.3209174
      7839.5000        10.2395         0.0128        -999.25        55.1395        48.3116       71.31055         1.4851        26.5544         2.3892         2.0218       -72.0245      -31.51751      0.8151182      0.3064203
