#------------------------------------------------------------------------------
# Created by    : vladimir.rabinovich
# Created on    : 09/19/2023 17:22:41
#------------------------------------------------------------------------------
~Version Information Section
VERS.           2.0     :   CWLS log ASCII Standard - VERSION 2.0
WRAP.           NO      :   One line per depth step
~Well Information Section
#MNEM       .UNIT                                         VALUE :DESCRIPTION
#------------------------------------------------------------------------------
STRT        .FT                                            2948 :START DEPTH
STOP        .FT                                            8770 :STOP DEPTH
STEP        .FT                                             0.5 :STEP      
NULL        .                                           -999.25 :NULL      
COMP        .                 BROOKLYN UNION EXPLORATION CO INC :COMPANY   
WELL        .                               OCS G07238 ST00BP00 :WELL      
FLD         .                                           WILDCAT :FIELD     
LOC         .                                                   :LOCATION  
CNTY        .                             GALVESTON LARGE BLOCK :LOCATION  
STAT        .                                             TEXAS :STATE     
CTRY        .                                     UNITED STATES :COUNTRY   
SRVC        .                                                   :SERVICE COMPANY
DATE        .                             9/13/2023 11:19:34 AM :LOG DATE  
API         .                                    42706402470000 :API NUMBER
UWI         .                                    42706402470000 :UNIQUE WELL ID
XCOORD      .                                  1057740.92261072 :SURFACE X 
YCOORD      .                                   10547901.298013 :SURFACE Y 
LAT         .                                         29.052568 :LATITUDE  
LON         .                                        -94.824133 :LONGITUDE 
ELEV        .FT                                              85 :ELEVATION VALUE
ELEV_TYPE   .                                                KB :ELEVATION REFERENCE TYPE
~Curve Information Section
#MNEM       .UNIT                                      API CODE :CURVE DESCRIPTION
#------------------------------------------------------------------------------
DEPT        .FT                                                 :DEPTH     
DCAL        .IN                                                 :          
DT          .US/F                                               :          
GR          .GAPI                                               :          
GR_NORM     .GAPI                                               :GammaRay Normalized
ILD         .OHMM                                               :          
ILM         .OHMM                                               :          
SFL         .OHMM                                               :          
SP          .MV                                                 :          
SP_NORM     .MV                                                 :SP Normalized
VSH_GR      .V/V                                                :Volume of Shale from GR
VSH_SP      .V/V                                                :Volume of Shale from SP
~A        DEPTH           DCAL             DT             GR        GR_NORM            ILD            ILM            SFL             SP        SP_NORM         VSH_GR         VSH_SP
# ...
      7223.0000         1.1245       109.0684        79.8805       89.94009         0.8358         0.8351         0.8365       -50.0951      -3.767418              1      0.9315015
      7223.5000         1.1224       110.0155         77.395       85.93139         0.8318         0.8327         0.8136       -50.1639      -3.836216              1      0.9302506
      7224.0000         1.1204       110.5568        75.1381        82.2914         0.8295         0.8368         0.8037       -50.2183      -3.890617              1      0.9292615
      7224.5000         1.1249       109.6632        73.9443         80.366         0.8343         0.8444         0.8187       -50.2727      -3.945019              1      0.9282724
      7225.0000         1.1303       108.3063        74.6912       81.57063         0.8505         0.8556          0.869       -50.2788      -3.951118              1      0.9281615
      7225.5000         1.1222       107.0717        75.2449       82.46365         0.8638         0.8726         0.9135         -50.28      -3.952316              1      0.9281397
      7226.0000         1.1132       106.1163        73.8367       80.19247         0.8759         0.8913         0.9268       -50.2343      -3.906616              1      0.9289706
      7226.5000         1.1147       105.3381        72.2137       77.57484         0.8876         0.9069         0.9264       -50.1467      -3.819019      0.9484008      0.9305633
      7227.0000         1.1201        104.839        72.5205       78.06965         0.9005         0.9042         0.9334       -50.0591      -3.731419      0.9589287       0.932156
      7227.5000         1.1287       105.0177        73.7181       80.00119         0.8977         0.8926         0.9514       -50.0146      -3.686916              1      0.9329652
      7228.0000         1.1419       106.6377        74.1121       80.63663         0.8887         0.8787         0.9587       -49.9813      -3.653618              1      0.9335706
      7228.5000         1.1522       109.0471        73.0255       78.88412         0.8703         0.8578         0.9034       -49.9341      -3.606419       0.976258      0.9344288
      7229.0000         1.1576       110.8866        72.6539        78.2848         0.8436          0.835         0.8567       -49.8763      -3.548618      0.9635063      0.9354796
      7229.5000          1.163       111.8337        73.6095       79.82602         0.8219         0.8139         0.8273       -49.8157      -3.488018      0.9962983      0.9365815
      7230.0000         1.1684       111.4828        74.9825       82.04045         0.8069          0.797         0.8022        -49.754      -3.426319              1      0.9377033
      7230.5000         1.1671       111.1151        76.2925       84.15326         0.7949         0.7828         0.7801       -49.7065      -3.378819              1      0.9385669
      7231.0000         1.1625       111.0629        76.7373       84.87064         0.7843         0.7799         0.7467       -49.7277      -3.400017              1      0.9381815
      7231.5000         1.1581       111.0487        76.1962       83.99794         0.7866         0.7824         0.7286        -49.733      -3.405319              1      0.9380851
      7232.0000         1.1582       109.6807        74.9504       81.98868          0.795         0.7915         0.7776       -49.7132      -3.385517              1      0.9384452
      7232.5000         1.1636       108.0294         73.333       79.38007         0.8079         0.8036         0.8879       -49.6382      -3.310516      0.9868099      0.9398088
      7233.0000         1.1625       106.9769        71.4686       76.37311         0.8211         0.8183         0.9696       -49.8212      -3.493519      0.9228321      0.9364815
      7233.5000         1.1602         107.01        70.1401       74.23048         0.8357         0.8329         0.9586       -50.3287      -4.001019      0.8772442      0.9272542
      7234.0000         1.1639       107.6292        71.2538       76.02668         0.8452         0.8454         0.8926       -50.8849      -4.557217      0.9154613      0.9171415
      7234.5000         1.1693       108.6469        73.1971       79.16089         0.8467         0.8572         0.8341       -51.3212      -4.993519      0.9821466      0.9092088
      7235.0000         1.1793       109.5647        75.0048       82.07642         0.8315         0.8601         0.8373       -51.4888      -5.161118              1      0.9061615
      7235.5000         1.1923       108.9424        73.2886       79.30847         0.8074         0.8527         0.8573       -51.6732      -5.345516      0.9852867      0.9028088
      7236.0000         1.2094       108.3649        69.9869       73.98338         0.7801         0.8368         0.8604       -52.1838      -5.856117      0.8719867      0.8935251
      7236.5000         1.2305       108.4594        67.8646       70.56046         0.7587         0.8171         0.8425       -53.1419      -6.814217      0.7991588      0.8761051
      7237.0000         1.2396       108.4503        69.0314       72.44232          0.739         0.7951         0.8317       -54.4778      -8.150116      0.8391984      0.8518161
      7237.5000         1.2365       108.0432        70.2969       74.48337         0.7197         0.7736         0.8679       -56.1471      -9.819416      0.8826249      0.8214651
      7238.0000         1.2388       107.0455        71.0525         75.702         0.7023         0.7564         0.8934       -59.0683      -12.74062      0.9085532      0.7683524
      7238.5000         1.2421       105.9979        71.2283       75.98556          0.695         0.7453         0.8953       -63.2415      -16.91382      0.9145863       0.692476
      7239.0000         1.2308       105.1873        71.1499       75.85912         0.6957         0.7391         0.8848       -65.7467      -19.41901       0.911896       0.646927
      7239.5000         1.2232       105.1642        71.3346       76.15699         0.7012         0.7406         0.8683       -66.7493      -20.42162      0.9182338      0.6286979
      7240.0000         1.1783       106.0565        73.1552       79.09332         0.7198         0.7535         0.8436       -66.1134      -19.78572       0.980709      0.6402596
      7240.5000         1.1556       107.6753        76.7654       84.91596         0.7428          0.795         0.8085       -64.2515      -17.92382              1      0.6741124
      7241.0000         1.1753       108.4423        79.7212       89.68315          0.767         0.8456         0.7912       -62.2488      -15.92112              1      0.7105252
      7241.5000         1.1704       107.2338        78.9557       88.44855         0.7921         0.8974         0.8114       -60.2166      -13.88892              1      0.7474743
      7242.0000         1.1709       105.0688        76.4617       84.42615         0.8104         0.9249         0.9212       -58.5399      -12.21222              1      0.7779596
      7242.5000         1.1763       102.9636        73.3231       79.36411         0.8164         0.9172         0.9736       -57.6997      -11.37202      0.9864703      0.7932361
      7243.0000         1.1879       101.0955         67.856        70.5466         0.8082         0.8724         0.9739       -58.5596      -12.23192      0.7988638      0.7776015
      7243.5000         1.2017        99.8484        63.9939        64.3177         0.7889         0.8286         0.9297       -61.2413      -14.91362       0.666334      0.7288433
      7244.0000          1.201       100.4794        61.5344       60.35094          0.755         0.7874         0.8897       -65.2367      -18.90902      0.5819348      0.6561996
      7244.5000         1.1979       101.7889        60.4979       58.67923         0.7061         0.7512         0.8613       -68.2296      -21.90192      0.5463665      0.6017833
      7245.0000         1.1778       101.8774         62.658        62.1631         0.6545         0.7215         0.8397       -71.3781      -25.05042      0.6204914      0.5445379
