#------------------------------------------------------------------------------
# Created by    : vladimir.rabinovich
# Created on    : 09/19/2023 17:22:50
#------------------------------------------------------------------------------
~Version Information Section
VERS.           2.0     :   CWLS log ASCII Standard - VERSION 2.0
WRAP.           NO      :   One line per depth step
~Well Information Section
#MNEM       .UNIT                                         VALUE :DESCRIPTION
#------------------------------------------------------------------------------
STRT        .FT                                            1142 :START DEPTH
STOP        .FT                                           15630 :STOP DEPTH
STEP        .FT                                             0.5 :STEP      
NULL        .                                           -999.25 :NULL      
COMP        .                                     PRIMARY FUELS :COMPANY   
WELL        .                                ST TR 00520-L SE/4 :WELL      
FLD         .                                          EL GORDO :FIELD     
LOC         .                                                   :LOCATION  
CNTY        .                      MATAGORDA ISLAND LARGE BLOCK :LOCATION  
STAT        .                                             TEXAS :STATE     
CTRY        .                                     UNITED STATES :COUNTRY   
SRVC        .                                                   :SERVICE COMPANY
DATE        .                             9/13/2023 11:19:05 AM :LOG DATE  
API         .                                    42703303520000 :API NUMBER
UWI         .                                    42703303520000 :UNIQUE WELL ID
XCOORD      .                                  629148.716839967 :SURFACE X 
YCOORD      .                                   10306131.761235 :SURFACE Y 
LAT         .                                        28.3634759 :LATITUDE  
LON         .                                       -96.1446235 :LONGITUDE 
ELEV        .FT                                             101 :ELEVATION VALUE
ELEV_TYPE   .                                                KB :ELEVATION REFERENCE TYPE
~Curve Information Section
#MNEM       .UNIT                                      API CODE :CURVE DESCRIPTION
#------------------------------------------------------------------------------
DEPT        .FT                                                 :DEPTH     
DT          .US/F                                               :          
ILD         .OHMM                                               :          
SP          .MV                                                 :          
SP_NORM     .MV                                                 :SP Normalized
VSH_SP      .V/V                                                :Volume of Shale from SP
~A        DEPTH             DT            ILD             SP        SP_NORM         VSH_SP
# ...
     13638.0000        99.0725         0.8784       120.0183      -3.334991      0.9604239
     13638.5000        99.1501         0.8548        120.068      -3.285294      0.9612662
     13639.0000        98.2413         0.7995       120.5559      -2.797394      0.9695357
     13639.5000       100.2769         0.7539       121.0438      -2.309494      0.9778052
     13640.0000       101.9144          0.741       121.1837      -2.169594      0.9801764
     13640.5000       103.0736         0.7282       121.2548      -2.098495      0.9813814
     13641.0000       103.7384         0.7188       121.1219      -2.231392       0.979129
     13641.5000       103.9606         0.7096       120.9249      -2.428398      0.9757898
     13642.0000       101.7041         0.7186       120.7539      -2.599396      0.9728916
     13642.5000        98.5243         0.7279       120.5962      -2.757095      0.9702187
     13643.0000        94.8586         0.7522       120.4534      -2.899895      0.9677984
     13643.5000        91.7339         0.7772       120.3479      -3.005394      0.9660103
     13644.0000        88.9897         0.7864       120.2272      -3.126091      0.9639646
     13644.5000         85.925         0.7884       120.0596      -3.293694      0.9611238
     13645.0000        91.6438         0.7758       119.9172      -3.436096      0.9587103
     13645.5000        94.7335         0.7617       119.8466      -3.506691      0.9575137
     13646.0000        97.8431         0.7467       119.8928      -3.460495      0.9582967
     13646.5000       100.8978          0.732       120.1168      -3.236496      0.9620933
     13647.0000       103.3315         0.7213       120.4058      -2.947495      0.9669916
     13647.5000       105.1643         0.7285       119.9128      -3.440491      0.9586357
     13648.0000       101.1682         0.7691       118.9434      -4.409897      0.9422051
     13648.5000         94.408         0.8272       116.9019      -6.451393      0.9076035
     13649.0000        89.1901         0.8926       114.6602      -8.693092      0.8696086
     13649.5000        85.1639         0.9865       112.3334       -11.0199      0.8301712
     13650.0000        82.8955         1.1066       110.6445      -12.70879      0.8015459
     13650.5000        82.8253         1.2299       109.8414      -13.51189       0.787934
     13651.0000         87.167         1.3528       109.3297       -14.0236      0.7792611
     13651.5000        92.0845         1.4382       109.2885       -14.0648      0.7785628
     13652.0000         99.676         1.2773       109.6688      -13.68449      0.7850085
     13652.5000       104.1678         1.0819       110.6145      -12.73879      0.8010374
     13653.0000       104.6761         0.8983       112.7787      -10.57459      0.8377188
     13653.5000       103.2865         0.7719       115.5558      -7.797493      0.8847883
     13654.0000       100.8928         0.6934       118.5581      -4.795197      0.9356746
     13654.5000       101.4086         0.6395       120.8649      -2.488396      0.9747729
     13655.0000       104.0876         0.5906       122.1884      -1.164894      0.9972052
     13655.5000       105.6926         0.5639       123.0753     -0.2779922              1
     13656.0000       105.5474         0.5568       123.3011    -0.05219269              1
     13656.5000       104.7512         0.5673       123.4882       0.134903              1
     13657.0000       103.2189         0.5828       123.1792     -0.1740952              1
     13657.5000       101.6953         0.6212       122.8701     -0.4831924              1
     13658.0000       101.1758         0.6621       122.5756     -0.7776947              1
     13658.5000       100.8866         0.7058       122.4124     -0.9408951              1
     13659.0000       100.9353         0.7529       122.4269     -0.9263916              1
     13659.5000       101.3285          0.803       122.2172      -1.136093      0.9976934
     13660.0000       102.0171         0.8577       121.7993      -1.553993      0.9906103
     13660.5000       102.4352          0.928       121.0375      -2.315796      0.9776984
     13661.0000        99.4407         0.9887       120.0167      -3.336594      0.9603967
     13661.5000         96.436         1.0264       118.9984      -4.354897      0.9431373
     13662.0000        94.0223         1.0024       118.3455      -5.007797      0.9320712
     13662.5000        92.4225         0.9703       118.9209      -4.432396      0.9418238
     13663.0000        94.9789         0.9243       119.5702      -3.783096      0.9528289
     13663.5000        98.2438         0.8805       119.8954      -3.457893      0.9583408
     13664.0000       101.5288         0.8363       120.0962      -3.257095      0.9617441
     13664.5000       103.7922         0.7928       120.2694      -3.083893      0.9646798
     13665.0000       106.0707          0.749        120.691      -2.662292      0.9718255
     13665.5000       108.4243         0.7079       121.2815      -2.071793       0.981834
     13666.0000       109.6887         0.6794       121.9457      -1.407593      0.9930916
     13666.5000       109.2468         0.6565       122.4973     -0.8559952              1
     13667.0000        108.562         0.6382       122.4604     -0.8928909              1
     13667.5000       107.3201         0.6328       122.3898     -0.9634933              1
     13668.0000       109.6711         0.6274       122.3114      -1.041893      0.9992899
     13668.5000       111.6792         0.6284        122.438     -0.9152908              1
     13669.0000       112.1199         0.6296       122.7075     -0.6457977              1
     13669.5000        109.526         0.6314       122.7037     -0.6495972              1
     13670.0000        107.533         0.6343        122.478     -0.8752975              1
     13670.5000       106.5151         0.6373       122.1152      -1.238098      0.9959645
     13671.0000       106.7717         0.6404       121.7642      -1.589096      0.9900153
     13671.5000       107.1249         0.6438       121.7988      -1.554497      0.9906018
     13672.0000        106.321         0.6472       121.8372      -1.516098      0.9912526
     13672.5000        106.097         0.6501        121.916      -1.437294      0.9925882
     13673.0000       106.7817         0.6524        121.995      -1.358292      0.9939272
     13673.5000       107.7883         0.6522       121.9496      -1.403694      0.9931577
     13674.0000       108.7347         0.6493       121.8593      -1.493996      0.9916272
     13674.5000       109.2931         0.6459       121.7136      -1.639694      0.9891577
     13675.0000       108.8938         0.6403        121.557      -1.796295      0.9865035
     13675.5000       108.5452         0.6366       121.3802      -1.973091      0.9835069
     13676.0000       108.7698          0.657       121.1082      -2.245094      0.9788967
     13676.5000       109.0928         0.6954       120.8354      -2.517891       0.974273
     13677.0000       109.5222         0.7353       120.5433      -2.809998      0.9693221
     13677.5000        109.549         0.7759       120.2075      -3.145798      0.9636306
     13678.0000       106.4863         0.8184       119.8391      -3.514191      0.9573866
     13678.5000       100.5674           0.85       119.3788      -3.974495      0.9495848
     13679.0000          95.76         0.8828       119.0354      -4.317894      0.9437645
     13679.5000        93.4866         0.9035        119.166      -4.187294       0.945978
     13680.0000        96.5313         0.9175        119.699      -3.654297      0.9550119
     13680.5000       100.5874           0.92       120.1106      -3.242691      0.9619883
     13681.0000       103.7672         0.8956       120.5221      -2.831192      0.9689628
     13681.5000       106.6166         0.8643       120.8737      -2.479591      0.9749222
