#------------------------------------------------------------------------------
# Created by    : vladimir.rabinovich
# Created on    : 09/19/2023 17:21:20
#------------------------------------------------------------------------------
~Version Information Section
VERS.           2.0     :   CWLS log ASCII Standard - VERSION 2.0
WRAP.           NO      :   One line per depth step
~Well Information Section
#MNEM       .UNIT                                         VALUE :DESCRIPTION
#------------------------------------------------------------------------------
STRT        .FT                                            6712 :START DEPTH
STOP        .FT                                           10254 :STOP DEPTH
STEP        .FT                                             0.5 :STEP      
NULL        .                                           -999.25 :NULL      
COMP        .                                SHELL OFFSHORE INC :COMPANY   
WELL        .                               OCS G17145 ST00BP00 :WELL      
FLD         .                                           WILDCAT :FIELD     
LOC         .                                                   :LOCATION  
CNTY        .                           HIGH ISLAND LARGE BLOCK :LOCATION  
STAT        .                                             TEXAS :STATE     
CTRY        .                                     UNITED STATES :COUNTRY   
SRVC        .                                                   :SERVICE COMPANY
DATE        .                             9/13/2023 11:19:48 AM :LOG DATE  
API         .                                    42708404610000 :API NUMBER
UWI         .                                    42708404610000 :UNIQUE WELL ID
XCOORD      .                                  1236256.25309123 :SURFACE X 
YCOORD      .                                  10648843.7308139 :SURFACE Y 
LAT         .                                         29.336637 :LATITUDE  
LON         .                                        -94.268822 :LONGITUDE 
ELEV        .FT                                             110 :ELEVATION VALUE
ELEV_TYPE   .                                                KB :ELEVATION REFERENCE TYPE
~Curve Information Section
#MNEM       .UNIT                                      API CODE :CURVE DESCRIPTION
#------------------------------------------------------------------------------
DEPT        .FT                                                 :DEPTH     
CALI        .IN                                                 :          
CPCHM       .MMHO                                               :          
CPCM        .MMHO                                               :          
DFL         .OHMM                                               :          
DPHI        .%                                                  :          
DRHO        .G/C3                                               :          
DT          .US/F                                               :          
GR          .GAPI                                               :          
GR_NORM     .GAPI                                               :GammaRay Normalized
GRAM        .GAPI                                               :          
HDCN        .MMHO                                               :          
HDRS        .OHMM                                               :          
HMRS        .OHMM                                               :          
NPHI        .%                                                  :          
PE          .G/C3                                               :          
RACHM       .OHMM                                               :          
RACM        .OHMM                                               :          
RHOB        .G/C3                                               :          
ROPS        .F/HR                                               :          
RPCHM       .OHMM                                               :          
RPCM        .OHMM                                               :          
RPTHM       .MINS                                               :          
RPTM        .MINS                                               :          
SP01        .MV                                                 :          
TENS        .LBS                                                :          
VSH_GR      .V/V                                                :Volume of Shale from GR
~A        DEPTH           CALI          CPCHM           CPCM            DFL           DPHI           DRHO             DT             GR        GR_NORM           GRAM           HDCN           HDRS           HMRS           NPHI             PE          RACHM           RACM           RHOB           ROPS          RPCHM           RPCM          RPTHM           RPTM           SP01           TENS         VSH_GR
# ...
      9682.0000        10.4499       2350.441        -999.25         0.4666        19.6036        -0.0697       128.7092        57.7325       79.72775        83.7069        2522.82         0.3964         0.4105        44.0241         7.8221          0.416        -999.25         2.3265        58.0959          0.425        -999.25       299.8784        -999.25       480.2671       4487.148      0.9942075
      9682.5000        10.3035       2367.059        -999.25         0.4383        19.0237        -0.0438       131.9248        55.5792       76.63756        81.5079       2512.949         0.3979         0.4133        42.4299         7.2017           0.42        -999.25         2.3361          57.22          0.422        -999.25       299.8843        -999.25       480.1201       4484.742      0.9284587
      9683.0000        10.4581       2270.625        -999.25         0.4764         19.332        -0.0254       135.4609         56.375       74.53174        80.0089       2477.914         0.4036         0.4195        40.7765         7.1178          0.416        -999.25          2.331          57.22           0.44        -999.25       299.8896        -999.25         479.96       4487.289       0.883654
      9683.5000        10.6452       2428.754        -999.25          0.496        21.3791        -0.0486       126.4203        53.7068       72.02092        78.2219       2432.168         0.4112         0.4268         40.907         8.2261          0.409        -999.25         2.2972         65.627          0.412        -999.25        299.895        -999.25       479.9546        4493.57      0.8302323
      9684.0000        10.7021       2513.379        -999.25           0.53        20.2086        -0.0618       127.4141        51.0542       70.03323        76.8069       2413.883         0.4143         0.4294        41.1601         9.4434          0.398        -999.25         2.3166         65.627          0.398        -999.25       299.9009        -999.25       480.1724       4493.734       0.787941
      9684.5000        10.7672       2551.648        -999.25         0.4938        18.8598         -0.073       132.6953         51.023       70.28148        76.9819       2439.695         0.4099         0.4249        42.5521         9.3694          0.396        -999.25         2.3388         69.042          0.392        -999.25       299.9062        -999.25        480.415       4488.594       0.793223
      9685.0000        10.6126       2499.047        -999.25         0.4982        19.1708        -0.0568       133.5498        53.7536       69.13612        76.1659        2480.16         0.4032          0.419         42.818         8.5548          0.401        -999.25         2.3337         69.042            0.4        -999.25       299.9116        -999.25       480.8521       4489.039      0.7688537
      9685.5000        10.3523       2403.156        -999.25         0.4785        18.8069        -0.0444       131.5107        53.2699       69.38014        76.3379       2494.984         0.4008         0.4176        42.2247         8.7271          0.408        -999.25         2.3397        64.7899          0.416        -999.25        299.917        -999.25       481.2769       4501.617      0.7740456
      9686.0000        10.1896       2434.695        -999.25         0.4891        19.6031        -0.0387       131.7827        56.6558       70.34291         77.021       2486.105         0.4022          0.419        42.3178         8.0988           0.41        -999.25         2.3265        64.7899          0.411        -999.25       299.9229        -999.25       481.4946       4519.555        0.79453
      9686.5000         9.9537       2485.852        -999.25         0.4891         21.068        -0.0421       135.0967        58.7155        69.8021        76.6349       2484.277         0.4025         0.4188        41.9147         8.1912           0.41        -999.25         2.3024        59.0569          0.402        -999.25       299.9282        -999.25       481.4424       4524.867      0.7830234
      9687.0000         9.8154       2443.586        -999.25         0.4928        22.1011        -0.0366       131.4358        59.5425       69.84785        76.6659       2487.328          0.402         0.4179        41.0756         8.0054          0.411        -999.25         2.2853        59.0569          0.409        -999.25       299.9336        -999.25       481.1538       4510.133      0.7839969
      9687.5000         9.7828        2435.27        -999.25         0.4801        20.9556         -0.036       124.4922        57.6077       68.86295         75.964        2475.98         0.4039           0.42        41.2426         8.1038          0.422        -999.25         2.3042        86.4359          0.411        -999.25        299.939        -999.25       480.8501       4493.328      0.7630414
      9688.0000         9.7747       2238.945        -999.25         0.5004        21.3246         -0.052       129.6062        56.2189       67.51791         75.006       2445.543         0.4089         0.4256         39.194         8.9061           0.45        -999.25         2.2981        86.4359          0.447        -999.25       299.9448        -999.25        480.248       4484.164      0.7344237
      9688.5000         9.7503       1984.617        -999.25         0.4773        25.0075         -0.105       132.0781        53.6132       62.53476        71.4609       2415.281          0.414         0.4304        38.9792         9.2374          0.481        -999.25         2.2374       104.2319          0.504        -999.25       299.9502        -999.25       479.6465       4484.539      0.6283991
      9689.0000         9.7828       1810.838        -999.25         0.5172         22.828        -0.1136       131.0967        51.3195       55.88957        66.7339       2420.527         0.4131         0.4276        37.5916         9.7881          0.523        -999.25         2.2733       104.2319          0.553        -999.25       299.9556        -999.25       479.3062       4482.688      0.4870121
      9689.5000        10.0838       1517.607        -999.25         0.4913        22.4976        -0.1212       131.4514        48.1988       53.76547        65.2219       2480.117         0.4032         0.4161         38.959        10.0172          0.556        -999.25         2.2788       146.3689          0.662        -999.25       299.9609        -999.25       479.1748       4477.461      0.4418186
      9690.0000        10.4499       1448.242        -999.25         0.4848        22.2555        -0.1346       131.9624        47.6371       53.22481        64.8359       2551.926         0.3919         0.4038        39.8123         10.479          0.565        -999.25         2.2828       146.3689          0.691        -999.25       299.9668        -999.25       479.1968        4468.82       0.430315
      9690.5000        10.4255       1749.646        -999.25         0.4533          20.62        -0.1552       132.8108        46.7165       54.23679         65.554       2584.613         0.3869         0.3994        40.5798         11.743          0.552        -999.25         2.3098       154.0818          0.572        -999.25       299.9722        -999.25       479.3916       4464.219      0.4518467
      9691.0000        10.2059       1850.895        -999.25         0.4589        19.2938        -0.1444       132.2515        47.2626       55.58177        66.5089       2571.441         0.3889         0.4038        41.6534        10.9929          0.539        -999.25         2.3316       154.0818           0.54        -999.25       299.9775        -999.25       479.5972       4466.984      0.4804632
      9691.5000        10.0838       1770.691        -999.25         0.4593        20.4537        -0.1446       129.3906        47.4498        55.0075         66.099        2541.16         0.3935         0.4104        41.2493        11.0349          0.548        -999.25         2.3125       164.3618          0.565        -999.25       299.5024        -999.25       479.6313       4466.695      0.4682446
