#------------------------------------------------------------------------------
# Created by    : vladimir.rabinovich
# Created on    : 09/19/2023 17:20:10
#------------------------------------------------------------------------------
~Version Information Section
VERS.           2.0     :   CWLS log ASCII Standard - VERSION 2.0
WRAP.           NO      :   One line per depth step
~Well Information Section
#MNEM       .UNIT                                         VALUE :DESCRIPTION
#------------------------------------------------------------------------------
STRT        .FT                                             409 :START DEPTH
STOP        .FT                                           13135 :STOP DEPTH
STEP        .FT                                             0.5 :STEP      
NULL        .                                           -999.25 :NULL      
COMP        .                         ATLANTIC RICHFIELD CO THE :COMPANY   
WELL        .                               OCS G04547 ST00BP00 :WELL      
FLD         .                                           WILDCAT :FIELD     
LOC         .                                                   :LOCATION  
CNTY        .                      MATAGORDA ISLAND LARGE BLOCK :LOCATION  
STAT        .                                             TEXAS :STATE     
CTRY        .                                     UNITED STATES :COUNTRY   
SRVC        .                                                   :SERVICE COMPANY
DATE        .                             9/13/2023 11:12:03 AM :LOG DATE  
API         .                                    42703401300000 :API NUMBER
UWI         .                                    42703401300000 :UNIQUE WELL ID
XCOORD      .                                  517134.995430583 :SURFACE X 
YCOORD      .                                  10172294.5320476 :SURFACE Y 
LAT         .                                         27.987424 :LATITUDE  
LON         .                                        -96.480505 :LONGITUDE 
ELEV        .FT                                              99 :ELEVATION VALUE
ELEV_TYPE   .                                                KB :ELEVATION REFERENCE TYPE
~Curve Information Section
#MNEM       .UNIT                                      API CODE :CURVE DESCRIPTION
#------------------------------------------------------------------------------
DEPT        .FT                                                 :DEPTH     
ASFL        .OHMM                                               :          
CILD        .MMHO                                               :          
GR          .GAPI                                               :          
GR_NORM     .GAPI                                               :GammaRay Normalized
ILD         .OHMM                                               :          
SP          .MV                                                 :          
SP_NORM     .MV                                                 :SP Normalized
VSH_GR      .V/V                                                :Volume of Shale from GR
VSH_SP      .V/V                                                :Volume of Shale from SP
~A        DEPTH           ASFL           CILD             GR        GR_NORM            ILD             SP        SP_NORM         VSH_GR         VSH_SP
# ...
     12254.5000         1.8217       635.1855        29.7615       72.06012         1.5084        -42.382      -2.861042      0.8310664      0.9546087
     12255.0000         1.8502       629.5322        30.5762       74.30937         1.5182        -42.536      -3.015041      0.8789228      0.9508526
     12255.5000         1.8753       623.8789        31.3921       76.56188         1.5212       -42.6608      -3.139843      0.9268485      0.9478087
     12256.0000         1.8584        616.334        31.9744       78.18568         1.5164       -42.7858      -3.264843      0.9613975      0.9447599
     12256.5000         1.7627       606.3535        31.8809       77.99076         1.5116       -42.9088       -3.38784      0.9572502        0.94176
     12257.0000         1.7105       610.1377        31.7874       77.79583         1.4972       -43.0031      -3.482143      0.9531028      0.9394599
     12257.5000         1.6199       623.1084        31.5195       77.13155         1.4622       -43.0974      -3.576443      0.9389693        0.93716
     12258.0000         1.6338       638.4404         30.899       75.51833         1.4273       -43.1917      -3.670742      0.9046452      0.9348599
     12258.5000          1.653       658.8838        30.2784       73.90487         1.3935       -43.1874      -3.666443      0.8703164      0.9349648
     12259.0000         1.6721       679.3271        29.6853       72.36536         1.3683       -43.1514      -3.630444       0.837561      0.9358428
     12259.5000         1.6902       699.7695        29.2535       71.26001         1.3811       -43.1154       -3.59444      0.8140427       0.936721
     12260.0000         1.6749       703.5908        29.5781       72.19027         1.4193       -42.7453      -3.224342      0.8338355      0.9457477
     12260.5000         1.6414       696.4795        29.9033       73.12215         1.4574        -42.276      -2.755043      0.8536628      0.9571941
     12261.0000         1.5918       689.3799        30.1885       73.94641         1.4956       -41.7627      -2.241741      0.8712003      0.9697136
     12261.5000         1.5429       682.2676        30.3588       74.46141          1.524        -41.191      -1.670044      0.8821577      0.9836575
     12262.0000         1.5196       644.3223        30.5292       74.97672          1.436       -40.6193      -1.098343      0.8931216      0.9976014
     12262.5000         1.5119       632.9922        30.6995       75.49176         1.3566       -40.0785     -0.5575409        0.90408              1
     12263.0000         1.5085        668.334        30.8698       76.00675         1.3175       -39.6884     -0.1674423      0.9150373              1
     12263.5000         1.5128       725.2275        31.3206       77.27669         1.2949       -39.2977       0.223259      0.9420572              1
     12264.0000         1.5171       756.7607        33.0405       81.96204         1.2839       -38.9565      0.5644569              1              1
     12264.5000         1.5223        714.958        34.0744       84.80125          1.273        -38.642      0.8789597              1              1
     12265.0000         1.5669        703.748        35.1083       87.64046         1.2588       -38.3651       1.155857              1              1
     12265.5000         1.6091       704.1572        36.0635       90.26781         1.2108       -38.1525       1.368458              1              1
     12266.0000          1.615       715.8984        34.4412        85.9585         1.1628       -37.9405        1.58046              1              1
     12266.5000         1.5826       727.6387        32.5641       80.96347         1.1019       -37.7285       1.792458              1              1
     12267.0000         1.5489       745.1406        31.2063         77.366         1.0465       -37.5215       1.999458      0.9439574              1
     12267.5000         1.4954       769.4893        30.7096       76.08591         1.0276       -37.3298       2.191158      0.9167216              1
     12268.0000         1.4423       829.3721        30.2332       74.86053         1.0087       -37.1377       2.383259      0.8906497              1
     12268.5000         1.3932       862.2549        29.8425       73.86575         0.9899       -36.9459       2.575058      0.8694841              1
     12269.0000         1.2945       878.5273        29.7329        73.6275         0.9743       -36.7539       2.767059      0.8644149              1
     12269.5000         1.2623       888.9902        30.5869       75.98257         0.9598       -36.5621       2.958858      0.9145229              1
     12270.0000          1.283       899.4775        32.5593       81.34749         0.9451       -36.5217       2.999256              1              1
     12270.5000         1.3101       915.4844        33.2627       83.29717         0.9358       -36.4857       3.035259              1              1
     12271.0000         1.2903       955.1172         32.071        80.1467         0.9729       -36.4496       3.071358              1              1
     12271.5000          1.231       1000.825        30.6608       76.40824         1.0115       -36.4136       3.107357      0.9235796              1
     12272.0000         1.1945       961.1445        29.0909       72.23993          1.125       -36.7048       2.816158      0.8348921              1
     12272.5000         1.1813       953.6348        27.2328       67.29602         1.2387       -36.9977       2.523258      0.7297026              1
     12273.0000          1.242       946.1133        25.9679       63.94025         1.3311       -37.2908        2.23016      0.6583031              1
     12273.5000         1.5374       938.1211        25.4343       62.50771         1.3956       -37.7571       1.763859      0.6278235              1
     12274.0000         1.6125       930.0576        25.4939       62.67157         1.4601       -38.3455       1.175457        0.63131              1
     12274.5000          1.701       919.6309        26.5563       65.53424         1.5389       -38.9172      0.6037598      0.6922179              1
     12275.0000         1.8342       724.0703        27.6187       68.39691         1.6227       -39.1804      0.3405571      0.7531258              1
     12275.5000         1.8747       629.9541        29.8389       74.37551         1.5399       -39.4502     0.07075882        0.88033              1
     12276.0000         1.5329       562.1641        32.1258       80.53362         1.4146        -39.767     -0.2460403              1              1
     12276.5000         1.3919       573.7842        33.6671        84.6851         1.3254       -40.0839     -0.5629425              1              1
     12277.0000         1.3388       592.2021        35.0344       88.36835         1.2793       -40.4007     -0.8797417              1              1
     12277.5000         1.3033        610.668        27.8617       69.06831         1.2736       -41.5102      -1.989243      0.7674109      0.9758722
     12278.0000         1.2798       634.4863        26.5634       65.57772         1.3035       -43.1753      -3.654343       0.693143      0.9352599
     12278.5000         1.3467       662.6924        25.1223       61.70284         1.4317       -45.2287      -5.707741      0.6106988      0.8851771
     12279.0000         1.5493        693.502        23.4643       57.24423         1.5587       -46.6818      -7.160843      0.5158347      0.8497356
     12279.5000         1.7515       735.1602        24.8435       60.95949         1.6421       -47.6967      -8.175743      0.5948828      0.8249819
     12280.0000         1.9541       749.9141        26.2252       64.68146         1.7254       -49.7048      -10.18384      0.6740736      0.7760038
     12280.5000         2.2128        678.748        28.8289       71.69217         1.7772       -48.7162      -9.195244      0.8232377       0.800116
