#------------------------------------------------------------------------------
# Created by    : vladimir.rabinovich
# Created on    : 09/19/2023 17:20:24
#------------------------------------------------------------------------------
~Version Information Section
VERS.           2.0     :   CWLS log ASCII Standard - VERSION 2.0
WRAP.           NO      :   One line per depth step
~Well Information Section
#MNEM       .UNIT                                         VALUE :DESCRIPTION
#------------------------------------------------------------------------------
STRT        .FT                                            2979 :START DEPTH
STOP        .FT                                           11003 :STOP DEPTH
STEP        .FT                                             0.5 :STEP      
NULL        .                                           -999.25 :NULL      
COMP        .                                        TEXACO USA :COMPANY   
WELL        .                               OCS G01821 ST00BP00 :WELL      
FLD         .                                           WILDCAT :FIELD     
LOC         .                                                   :LOCATION  
CNTY        .                           HIGH ISLAND LARGE BLOCK :LOCATION  
STAT        .                                             TEXAS :STATE     
CTRY        .                                     UNITED STATES :COUNTRY   
SRVC        .                                                   :SERVICE COMPANY
DATE        .                             9/13/2023 11:19:15 AM :LOG DATE  
API         .                                    42708300170000 :API NUMBER
UWI         .                                    42708300170000 :UNIQUE WELL ID
XCOORD      .                                  1345073.13508324 :SURFACE X 
YCOORD      .                                  10640242.4404634 :SURFACE Y 
LAT         .                                         29.315788 :LATITUDE  
LON         .                                        -93.927032 :LONGITUDE 
ELEV        .FT                                              74 :ELEVATION VALUE
ELEV_TYPE   .                                                KB :ELEVATION REFERENCE TYPE
~Curve Information Section
#MNEM       .UNIT                                      API CODE :CURVE DESCRIPTION
#------------------------------------------------------------------------------
DEPT        .FT                                                 :DEPTH     
ASN         .OHMM                                               :          
CILD        .MMHO                                               :          
ILD         .OHMM                                               :          
SP          .MV                                                 :          
SP_NORM     .MV                                                 :SP Normalized
VSH_SP      .V/V                                                :Volume of Shale from SP
~A        DEPTH            ASN           CILD            ILD             SP        SP_NORM         VSH_SP
# ...
      6703.0000          1.301       841.2207         1.1435       -72.8064      -25.53367      0.5189477
      6703.5000         1.2819       842.7393         1.1588       -71.5823      -24.30957      0.5429496
      6704.0000         1.2623       814.9902         1.1741       -70.3594      -23.08667       0.566928
      6704.5000         1.2471        780.542         1.1864       -69.3879      -22.11517       0.585977
      6705.0000         1.2817       798.1162         1.1909       -68.7393      -21.46658      0.5986946
      6705.5000         1.3163       820.5898         1.1954       -68.0912      -20.81847      0.6114025
      6706.0000         1.3346       864.2891         1.1657       -67.4431      -20.17037      0.6241103
      6706.5000         1.3124       923.7363         1.1219       -67.7001      -20.42738      0.6190711
      6707.0000         1.2808       1073.531         1.0781       -68.7839      -21.51117      0.5978202
      6707.5000         1.2448       1154.328         1.0343       -69.9348      -22.66207      0.5752535
      6708.0000         1.2038       1231.775         0.9736       -71.2595      -23.98677       0.549279
      6708.5000         1.1618       1284.725         0.9104        -72.583      -25.31027       0.523328
      6709.0000         1.1159       1337.672         0.8471       -73.8732      -26.60047        0.49803
      6709.5000         1.0687       1390.619         0.7839       -73.9896      -26.71687      0.4957476
      6710.0000          1.014       1439.994         0.7561       -75.6508      -28.37807       0.463175
      6710.5000         0.9743       1418.318         0.7331       -77.6161      -30.34337      0.4246398
      6711.0000          0.989       1396.645         0.7102       -79.0052      -31.73248      0.3974024
      6711.5000         1.0036       1374.971         0.6958       -80.3958      -33.12307      0.3701359
      6712.0000         1.0183       1353.322         0.6956       -83.5592      -36.28647      0.3081084
      6712.5000         1.0313       1330.922         0.6989       -85.1954      -37.92267      0.2760261
      6713.0000         1.0432       1304.748         0.7164        -84.756      -37.48327      0.2846418
      6713.5000          1.055       1278.549         0.7338       -82.4728      -35.20007      0.3294103
      6714.0000          1.053       1252.375         0.7512       -81.8055      -34.53277      0.3424947
      6714.5000         1.0437       1226.176         0.7686       -81.1382      -33.86547       0.355579
      6715.0000         1.0314         1246.4         0.7812       -80.4703      -33.19757      0.3686751
      6715.5000         1.0222       1261.611         0.7734       -79.7974      -32.52467      0.3818691
      6716.0000         1.0481       1276.824         0.7657       -79.1251      -31.85237      0.3950515
      6716.5000         1.0678       1299.598          0.758       -81.5082      -34.23547      0.3483241
      6717.0000         1.0875       1323.771         0.7502        -83.353      -36.08027      0.3121516
      6717.5000         1.1072       1342.521         0.7425        -85.198      -37.92527      0.2759751
      6718.0000         1.1076       1354.721         0.7347       -86.5946      -39.32187      0.2485908
      6718.5000         1.0955       1345.797          0.728       -87.7083      -40.43557      0.2267535
      6719.0000         1.0833       1329.572         0.7214       -88.8132      -41.54047      0.2050887
      6719.5000         1.0959       1311.248         0.7148       -86.5121      -39.23937      0.2502084
      6720.0000         1.1494       1286.123         0.7082       -87.0292      -39.75647      0.2400692
      6720.5000          1.203       1261.025          0.716       -87.8573      -40.58457      0.2238319
      6721.0000         1.2528       1235.926         0.7349       -90.4645      -43.19177      0.1727103
      6721.5000         1.3012       1210.801         0.7539       -97.0916      -49.81887     0.04276725
      6722.0000         1.3404       1186.076         0.7729      -100.7491      -53.47637              0
      6722.5000         1.3466       1162.428         0.7918      -100.7268      -53.45407              0
      6723.0000         1.3062       1138.805         0.8095       -98.1047      -50.83197     0.02290254
      6723.5000         1.2617       1115.154         0.8267       -94.7626      -47.48988     0.08843381
      6724.0000         1.2211       1095.154         0.8439       -91.2118      -43.93907      0.1580574
      6724.5000         1.1988        1088.68         0.8611       -88.2869      -41.01418      0.2154083
      6725.0000         1.1765       1143.078         0.8727       -86.9336      -39.66087      0.2419437
      6725.5000         1.1542       1193.178         0.8521       -85.5803      -38.30757       0.268479
      6726.0000         1.1319       1217.002         0.8315       -84.2271      -36.95437      0.2950124
      6726.5000         1.1156        1240.85         0.8105       -82.8739      -35.60117      0.3215456
      6727.0000         1.0997       1264.674         0.7886       -81.4462      -34.17347      0.3495398
      6727.5000         1.0838       1288.498         0.7667       -79.4919      -32.21917      0.3878594
      6728.0000         1.0679       1304.686         0.7448       -77.5403      -30.26757      0.4261261
      6728.5000         1.0517       1318.098         0.7229       -77.7365      -30.46378      0.4222789
      6729.0000           1.03       1331.498          0.701       -79.0289      -31.75617      0.3969378
      6729.5000         1.0446       1319.723         0.6791       -80.4454      -33.17267      0.3691634
      6730.0000         1.0656       1260.324         0.6959       -83.3158      -36.04308      0.3128809
      6730.5000         1.0812       1200.926         0.7133       -86.1862      -38.91348      0.2565985
      6731.0000         1.0968       1143.129         0.7307       -87.1637      -39.89097       0.237432
      6731.5000         1.0932       1096.779         0.7481       -87.3164      -40.04367      0.2344378
      6732.0000         1.0832       1050.381         0.7656       -87.4691      -40.19637      0.2314437
      6732.5000         1.0718       1004.034         0.8133       -82.9136      -35.64087      0.3207673
      6733.0000         1.0562       964.0352         0.8617       -74.5657      -27.29297      0.4844516
      6733.5000         1.0624       927.9863         0.9101       -70.3843      -23.11157      0.5664397
      6734.0000         1.0851       891.8877         0.9585       -66.1979      -18.92517      0.6485261
      6734.5000         1.1064       857.9893         1.0069       -60.8098      -13.53707      0.7541751
      6735.0000          1.126       830.3145         1.0553       -59.8315      -12.55877      0.7733574
      6735.5000         1.1456       802.6162         1.0989       -55.2379      -7.965172       0.863428
      6736.0000          1.164       811.1025         1.1265         -52.73      -5.457272      0.9126025
      6736.5000         1.1561       825.3398         1.1541       -51.6735      -4.400772      0.9333182
      6737.0000         1.1477       839.5645         1.1746       -50.6306      -3.357872      0.9537672
      6737.5000         1.1361       853.7891         1.1682       -49.6933       -2.42057      0.9721457
      6738.0000         1.1245       868.0137         1.1619       -48.8069      -1.534172       0.989526
      6738.5000         1.1129        882.251         1.1345       -49.1054      -1.832672      0.9836731
      6739.0000         1.1036       896.4746         1.0957       -50.4357      -3.162971      0.9575888
      6739.5000         1.1124       921.0117         1.0569       -54.1006      -6.827873       0.885728
      6740.0000         1.1212       947.1104          1.018       -58.2485      -10.97577      0.8043966
      6740.5000           1.13       973.2354         0.9792       -59.5422      -12.26947        0.77903
