#------------------------------------------------------------------------------
# Created by    : vladimir.rabinovich
# Created on    : 09/19/2023 17:20:24
#------------------------------------------------------------------------------
~Version Information Section
VERS.           2.0     :   CWLS log ASCII Standard - VERSION 2.0
WRAP.           NO      :   One line per depth step
~Well Information Section
#MNEM       .UNIT                                         VALUE :DESCRIPTION
#------------------------------------------------------------------------------
STRT        .FT                                            2979 :START DEPTH
STOP        .FT                                           11003 :STOP DEPTH
STEP        .FT                                             0.5 :STEP      
NULL        .                                           -999.25 :NULL      
COMP        .                                        TEXACO USA :COMPANY   
WELL        .                               OCS G01821 ST00BP00 :WELL      
FLD         .                                           WILDCAT :FIELD     
LOC         .                                                   :LOCATION  
CNTY        .                           HIGH ISLAND LARGE BLOCK :LOCATION  
STAT        .                                             TEXAS :STATE     
CTRY        .                                     UNITED STATES :COUNTRY   
SRVC        .                                                   :SERVICE COMPANY
DATE        .                             9/13/2023 11:19:15 AM :LOG DATE  
API         .                                    42708300170000 :API NUMBER
UWI         .                                    42708300170000 :UNIQUE WELL ID
XCOORD      .                                  1345073.13508324 :SURFACE X 
YCOORD      .                                  10640242.4404634 :SURFACE Y 
LAT         .                                         29.315788 :LATITUDE  
LON         .                                        -93.927032 :LONGITUDE 
ELEV        .FT                                              74 :ELEVATION VALUE
ELEV_TYPE   .                                                KB :ELEVATION REFERENCE TYPE
~Curve Information Section
#MNEM       .UNIT                                      API CODE :CURVE DESCRIPTION
#------------------------------------------------------------------------------
DEPT        .FT                                                 :DEPTH     
ASN         .OHMM                                               :          
CILD        .MMHO                                               :          
ILD         .OHMM                                               :          
SP          .MV                                                 :          
SP_NORM     .MV                                                 :SP Normalized
VSH_SP      .V/V                                                :Volume of Shale from SP
~A        DEPTH            ASN           CILD            ILD             SP        SP_NORM         VSH_SP
# ...
      4043.0000         0.8506       1128.891         0.7461       -54.4489      -11.73368      0.7503795
      4043.5000         0.8621        1124.33         0.7502       -53.1782      -10.45838      0.7800376
      4044.0000         0.8736       1120.795         0.7541       -56.7426      -14.01818      0.6972515
      4044.5000         0.8851       1123.973         0.7476       -64.5168      -21.78779      0.5165631
      4045.0000         0.8966       1130.354         0.7411       -68.5518      -25.81819      0.4228328
      4045.5000         0.9081       1144.328         0.7346       -72.2899      -29.55169      0.3360071
      4046.0000         0.9197       1159.066          0.728       -73.7922      -31.04939      0.3011769
      4046.5000         0.9379       1173.791         0.7215       -75.2957      -32.54829      0.2663187
      4047.0000         0.9592       1188.514          0.715       -76.7979      -34.04589      0.2314908
      4047.5000         0.9476       1203.238         0.7085       -78.3014       -35.5448      0.1966326
      4048.0000         0.9341       1218.727          0.702       -79.2008       -36.4396      0.1758233
      4048.5000         0.9224       1234.238         0.6986        -79.975       -37.2092      0.1579255
      4049.0000         0.9108       1249.762         0.6959        -79.333      -36.56261      0.1729626
      4049.5000         0.8991       1265.273         0.6932       -77.6936      -34.91861      0.2111951
      4050.0000         0.8874       1280.799         0.6905       -76.5912      -33.81161      0.2369393
      4050.5000         0.8757       1292.123         0.6879       -75.4894      -32.70522      0.2626694
      4051.0000         0.8641       1300.973         0.6852       -74.3875      -31.59871      0.2884021
      4051.5000         0.8662        1309.83         0.6876       -73.2856      -30.49221      0.3141346
      4052.0000         0.8828        1318.68         0.6985       -77.9004      -35.10242      0.2069205
      4052.5000         0.8982        1312.51         0.7093       -80.7732      -37.97062      0.1402182
      4053.0000         0.9019       1293.598         0.7201       -73.4633      -30.65612      0.3103227
      4053.5000         0.8813       1274.699         0.7309        -59.171      -16.35923      0.6428087
      4054.0000         0.8607       1255.787         0.7411       -53.5693      -10.75293      0.7731878
      4054.5000         0.8401       1226.951         0.7496       -50.4097      -7.588726      0.8467738
      4055.0000          0.832       1185.877         0.7581       -48.6877      -5.862129      0.8869272
      4055.5000         0.8284       1144.803         0.7666       -46.9645      -4.134331      0.9271086
      4056.0000         0.8477        1103.73         0.7751       -46.0097      -3.174934      0.9494202
      4056.5000         0.8681       1068.832         0.7836       -45.2785      -2.439137      0.9665317
      4057.0000         0.8885       1041.807         0.7921       -44.5693      -1.725338      0.9831316
      4057.5000         0.9089       1014.783         0.7994       -44.1595       -1.31094      0.9927688
      4058.0000         0.9294       987.7598         0.8049       -44.0811      -1.227943       0.994699
      4058.5000         0.9498       972.7539         0.8104       -44.4435      -1.585743      0.9863781
      4059.0000         0.9645       964.1162         0.8159       -44.8061      -1.943745      0.9780524
      4059.5000         0.9753       961.8809         0.8214       -45.2236      -2.356647      0.9684501
      4060.0000         0.9862         964.46         0.8269       -45.6686      -2.797047      0.9582082
      4060.5000         0.9853       970.5127         0.8325       -46.1134      -3.237251      0.9479709
      4061.0000         0.9779       976.5625          0.838       -46.5585      -3.677753      0.9377267
      4061.5000         0.9705       982.6162         0.8435       -47.0032      -4.117855      0.9274917
      4062.0000         0.9631       987.7754         0.8497       -47.1333      -4.243359      0.9245731
      4062.5000         0.9676       991.8594         0.8573       -46.7317      -3.837162      0.9340195
      4063.0000         0.9764       995.9434         0.8649         -46.33      -3.430866      0.9434682
      4063.5000         0.9852       989.7783         0.8725       -46.6994      -3.795666      0.9349845
      4064.0000         0.9941       978.8477         0.8801       -47.3611      -4.452766      0.9197031
      4064.5000         1.0034       967.9229         0.8877       -48.1011      -5.188171      0.9026006
      4065.0000         1.0161       956.9922         0.8953        -48.841       -5.92347      0.8855007
      4065.5000         1.0288       946.0674         0.9029       -49.5815      -6.659374      0.8683866
      4066.0000         1.0414       935.1357         0.9105       -50.3215      -7.394775      0.8512843
      4066.5000         1.0541        927.208         0.9172       -51.0615      -8.130177       0.834182
      4067.0000         1.0667       923.5742         0.9233       -51.8014      -8.865479      0.8170819
      4067.5000         1.0794       919.9365         0.9293       -52.5419      -9.601383      0.7999678
      4068.0000          1.092       916.3027         0.9354       -53.2282      -10.28308      0.7841144
      4068.5000         1.1037        912.665         0.9415       -53.7322      -10.78249      0.7725003
      4069.0000         1.1151       909.0273         0.9475       -54.2363      -11.28199      0.7608839
      4069.5000         1.1264       905.4561         0.9536       -54.7407      -11.78179      0.7492607
      4070.0000         1.1188       902.4346         0.9597       -55.2447      -12.28119      0.7376467
      4070.5000         1.1118       899.4111         0.9644       -55.7488      -12.78069      0.7260304
      4071.0000         1.1252       896.3877         0.9659       -56.2531       -13.2804      0.7144094
      4071.5000          1.134       889.8438         0.9675       -56.2947       -13.3174      0.7135489
      4072.0000         1.1426       878.9443         0.9691       -55.9938       -13.0119      0.7206535
      4072.5000         1.1424       871.2012         0.9706       -55.3273       -12.3408      0.7362604
      4073.0000         1.1317       877.2695         0.9722       -54.5339       -11.5428      0.7548185
      4073.5000          1.121       884.0439         0.9737       -53.7406      -10.74491      0.7733743
      4074.0000         1.1103       890.8252         0.9694       -52.9473      -9.947006      0.7919301
      4074.5000         1.0996        897.625         0.9578       -52.1533      -9.148411      0.8105021
      4075.0000         1.0884       905.0312         0.9463         -51.36      -8.350513      0.8290578
      4075.5000         1.0764       912.4307         0.9347       -50.5667      -7.552612      0.8476137
      4076.0000         1.0645       919.8369         0.9232       -49.7734      -6.754715      0.8661694
      4076.5000         1.0526       927.2432         0.9117       -48.9794       -5.95612      0.8847414
      4077.0000         1.0406       934.6484         0.8989       -48.4598      -5.431919      0.8969321
      4077.5000         1.0287       942.0547         0.8846       -48.0278      -4.995323      0.9070855
      4078.0000         1.0167       949.4609         0.8704       -47.5958      -4.558723       0.917239
      4078.5000         1.0107       956.8604         0.8562       -47.1637      -4.122025      0.9273948
      4079.0000           1.01       963.0459         0.8419       -46.7314      -3.685127      0.9375552
      4079.5000         1.0097       965.1426         0.8277       -46.2993      -3.248432      0.9477109
      4080.0000         1.0131       967.2412         0.8224       -45.8672      -2.811729      0.9578667
      4080.5000         1.0165       969.3398         0.8262       -45.5228      -2.462734      0.9659829
