#------------------------------------------------------------------------------
# Created by    : vladimir.rabinovich
# Created on    : 09/19/2023 17:20:24
#------------------------------------------------------------------------------
~Version Information Section
VERS.           2.0     :   CWLS log ASCII Standard - VERSION 2.0
WRAP.           NO      :   One line per depth step
~Well Information Section
#MNEM       .UNIT                                         VALUE :DESCRIPTION
#------------------------------------------------------------------------------
STRT        .FT                                            3071 :START DEPTH
STOP        .FT                                           14991 :STOP DEPTH
STEP        .FT                                             0.5 :STEP      
NULL        .                                           -999.25 :NULL      
COMP        .                                        TEXACO USA :COMPANY   
WELL        .                                     ST TR 00012-L :WELL      
FLD         .                                           WILDCAT :FIELD     
LOC         .                                                   :LOCATION  
CNTY        .                           HIGH ISLAND LARGE BLOCK :LOCATION  
STAT        .                                             TEXAS :STATE     
CTRY        .                                     UNITED STATES :COUNTRY   
SRVC        .                                                   :SERVICE COMPANY
DATE        .                             9/13/2023 11:19:15 AM :LOG DATE  
API         .                                    42708000680000 :API NUMBER
UWI         .                                    42708000680000 :UNIQUE WELL ID
XCOORD      .                                  1354682.00685938 :SURFACE X 
YCOORD      .                                  10733491.7088446 :SURFACE Y 
LAT         .                                        29.5724948 :LATITUDE  
LON         .                                       -93.8991324 :LONGITUDE 
ELEV        .FT                                              44 :ELEVATION VALUE
ELEV_TYPE   .                                                KB :ELEVATION REFERENCE TYPE
~Curve Information Section
#MNEM       .UNIT                                      API CODE :CURVE DESCRIPTION
#------------------------------------------------------------------------------
DEPT        .FT                                                 :DEPTH     
ASN         .OHMM                                               :          
CILD        .MMHO                                               :          
ILD         .OHMM                                               :          
SP          .MV                                                 :          
SP_NORM     .MV                                                 :SP Normalized
VSH_SP      .V/V                                                :Volume of Shale from SP
~A        DEPTH            ASN           CILD            ILD             SP        SP_NORM         VSH_SP
# ...
     11013.0000         0.6322       2389.148          0.469       -43.5982      -3.902954      0.9546413
     11013.5000         0.6374       2422.805         0.4721       -44.3298       -4.63623      0.9431839
     11014.0000         0.6426       2456.461         0.4751       -45.0615       -5.36961      0.9317248
     11014.5000         0.6478       2396.652         0.4782       -45.7932      -6.102989      0.9202658
     11015.0000          0.653       2324.402         0.4813       -46.5248      -6.836266      0.9088084
     11015.5000         0.6582       2252.156         0.4844       -47.1944      -7.507545      0.8983196
     11016.0000         0.6638       2180.898         0.4872       -47.7834      -8.098225      0.8890902
     11016.5000         0.6693       2111.117         0.4884       -48.3725      -8.689003      0.8798593
     11017.0000         0.6709       2083.086         0.4895       -48.9603      -9.278481      0.8706487
     11017.5000         0.6594       2142.207         0.4906       -49.5493       -9.86916      0.8614194
     11018.0000         0.6479       2181.688         0.4918       -49.2766      -9.598137      0.8656541
     11018.5000         0.6364       2221.066         0.4929       -48.6801      -9.003315      0.8749482
     11019.0000         0.6296       2271.008         0.4941       -48.0836      -8.408493      0.8842423
     11019.5000         0.6228        2334.57         0.4943       -47.4871      -7.813671      0.8935364
     11020.0000         0.6159       2504.527         0.4888       -46.8906      -7.218849      0.9028305
     11020.5000         0.6091       2544.301         0.4832       -46.3363      -6.666229      0.9114652
     11021.0000         0.6023        2531.52         0.4777       -46.0653      -6.396908      0.9156733
     11021.5000         0.5955       2522.637         0.4721       -45.7944      -6.127686      0.9198799
     11022.0000         0.5886       2515.102         0.4666       -45.5234      -5.858364      0.9240881
     11022.5000         0.5818       2507.551          0.461       -45.2524      -5.589043      0.9282962
     11023.0000          0.575       2518.641         0.4555       -44.9815       -5.31982      0.9325028
     11023.5000         0.5682       2557.625         0.4499       -44.7105      -5.050499       0.936711
     11024.0000         0.5639       2584.918         0.4475       -44.4396      -4.781281      0.9409175
     11024.5000         0.5627       2604.313         0.4472       -44.1686      -4.511955      0.9451257
     11025.0000         0.5615       2623.754          0.447       -43.8976      -4.242634      0.9493338
     11025.5000         0.5604       2620.484         0.4467       -43.6267      -3.973415      0.9535404
     11026.0000         0.5592       2611.246         0.4465       -43.3558      -3.704193       0.957747
     11026.5000          0.558       2602.004         0.4462       -43.0848      -3.434872      0.9619551
     11027.0000         0.5569       2592.762          0.446       -42.8145      -3.166248      0.9661524
     11027.5000         0.5557       2583.523         0.4457       -42.5435      -2.896927      0.9703605
     11028.0000         0.5545        2574.27         0.4455       -42.2725      -2.627605      0.9745687
     11028.5000         0.5533       2565.027         0.4452       -42.0016      -2.358383      0.9787753
     11029.0000         0.5522       2561.582          0.445        -41.898      -2.256462      0.9803678
     11029.5000          0.551       2558.977         0.4447       -41.8915       -2.25164      0.9804431
     11030.0000         0.5498       2556.375         0.4445       -41.8851      -2.246922      0.9805169
     11030.5000         0.5486       2553.777         0.4442       -41.8787      -2.242199      0.9805906
     11031.0000         0.5479       2551.176          0.444       -41.8723      -2.237476      0.9806644
     11031.5000         0.5483        2550.43         0.4443       -41.8658      -2.232655      0.9807398
     11032.0000         0.5487       2552.316         0.4453       -41.8594      -2.227936      0.9808135
     11032.5000          0.549       2554.199         0.4464        -41.853      -2.223213      0.9808873
     11033.0000         0.5494       2556.086         0.4474       -41.8466      -2.218491      0.9809611
     11033.5000         0.5498       2557.977         0.4485       -41.8401      -2.213669      0.9810364
     11034.0000         0.5501       2558.145         0.4495       -41.8337      -2.208946      0.9811102
     11034.5000         0.5505       2555.574         0.4505       -41.8273      -2.204227      0.9811839
     11035.0000         0.5508       2555.344         0.4516       -41.8209      -2.199505      0.9812577
     11035.5000         0.5512       2562.563         0.4526       -41.8145      -2.194782      0.9813315
     11036.0000         0.5516       2569.777         0.4537        -41.808       -2.18996      0.9814069
     11036.5000         0.5525       2577.008         0.4547       -41.8016      -2.185242      0.9814806
     11037.0000         0.5542       2584.227         0.4557       -41.8413       -2.22662      0.9808341
     11037.5000         0.5559       2591.441         0.4568       -41.8879      -2.274899      0.9800797
     11038.0000         0.5576       2589.309         0.4578       -41.9344      -2.323074       0.979327
     11038.5000         0.5593       2585.891         0.4589        -41.981      -2.371353      0.9785726
     11039.0000          0.561       2573.469         0.4598       -42.0275      -2.419533      0.9778198
     11039.5000         0.5627       2543.711         0.4592       -42.0741      -2.467812      0.9770654
     11040.0000         0.5644       2513.902         0.4585       -42.1206      -2.515991      0.9763126
     11040.5000         0.5661       2484.098         0.4579       -42.1672      -2.564266      0.9755583
     11041.0000         0.5678       2454.289         0.4573       -42.2137      -2.612446      0.9748055
     11041.5000         0.5695        2422.41         0.4567       -42.2603      -2.660725      0.9740512
     11042.0000          0.569       2419.055         0.4561       -42.3069      -2.709003      0.9732968
     11042.5000         0.5674       2438.055         0.4555       -42.3534      -2.757183       0.972544
     11043.0000         0.5658       2469.242         0.4549          -42.4      -2.805462      0.9717897
     11043.5000         0.5643       2505.809         0.4543       -42.4465      -2.853638      0.9710369
     11044.0000         0.5627       2542.328         0.4536        -42.493      -2.901817      0.9702841
     11044.5000         0.5607       2571.348          0.453       -42.5396      -2.950096      0.9695297
     11045.0000         0.5585       2590.445         0.4524       -42.5836      -2.995773       0.968816
     11045.5000         0.5563       2609.492         0.4518       -42.6218      -3.035652      0.9681929
     11046.0000         0.5541        2628.59         0.4512         -42.66      -3.075531      0.9675698
     11046.5000         0.5519       2645.512         0.4506       -42.6982       -3.11541      0.9669467
     11047.0000         0.5497       2647.555           0.45       -42.7365      -3.155388      0.9663221
     11047.5000         0.5475       2646.801         0.4493       -42.7748      -3.195366      0.9656974
     11048.0000         0.5453       2634.512         0.4487        -42.813      -3.235245      0.9650743
     11048.5000         0.5431       2622.199         0.4481       -42.8512      -3.275124      0.9644512
     11049.0000         0.5409       2609.887         0.4464       -42.8895      -3.315102      0.9638265
     11049.5000         0.5399       2597.574         0.4447       -42.9277       -3.35498      0.9632034
     11050.0000          0.539       2585.262         0.4431       -42.9659      -3.394859      0.9625803
     11050.5000         0.5381       2576.305         0.4414       -43.0041      -3.434738      0.9619572
