#------------------------------------------------------------------------------
# Created by    : vladimir.rabinovich
# Created on    : 09/19/2023 17:22:32
#------------------------------------------------------------------------------
~Version Information Section
VERS.           2.0     :   CWLS log ASCII Standard - VERSION 2.0
WRAP.           NO      :   One line per depth step
~Well Information Section
#MNEM       .UNIT                                         VALUE :DESCRIPTION
#------------------------------------------------------------------------------
STRT        .FT                                          2841.5 :START DEPTH
STOP        .FT                                          6769.5 :STOP DEPTH
STEP        .FT                                             0.5 :STEP      
NULL        .                                           -999.25 :NULL      
COMP        .                      SPINNAKER EXPLORATION CO LLC :COMPANY   
WELL        .                               OCS G18941 ST00BP00 :WELL      
FLD         .                            HIGH ISLAND BLOCK 0235 :FIELD     
LOC         .                                                   :LOCATION  
CNTY        .                           HIGH ISLAND LARGE BLOCK :LOCATION  
STAT        .                                             TEXAS :STATE     
CTRY        .                                     UNITED STATES :COUNTRY   
SRVC        .                                                   :SERVICE COMPANY
DATE        .                             9/13/2023 11:20:02 AM :LOG DATE  
API         .                                    42708405540000 :API NUMBER
UWI         .                                    42708405540000 :UNIQUE WELL ID
XCOORD      .                                  1178439.61066162 :SURFACE X 
YCOORD      .                                  10526520.2311607 :SURFACE Y 
LAT         .                                         28.998365 :LATITUDE  
LON         .                                        -94.445565 :LONGITUDE 
ELEV        .FT                                              98 :ELEVATION VALUE
ELEV_TYPE   .                                                KB :ELEVATION REFERENCE TYPE
~Curve Information Section
#MNEM       .UNIT                                      API CODE :CURVE DESCRIPTION
#------------------------------------------------------------------------------
DEPT        .FT                                                 :DEPTH     
CNCF        .%                                                  :          
DCAL        .IN                                                 :          
DT24        .US/F                                               :          
GR          .GAPI                                               :          
GR_NORM     .GAPI                                               :GammaRay Normalized
M2R1        .OHMM                                               :          
M2R2        .OHMM                                               :          
M2R3        .OHMM                                               :          
M2R6        .OHMM                                               :          
M2R9        .OHMM                                               :          
M2RX        .OHMM                                               :          
PORZ        .%                                                  :          
RWAZ        .OHMM                                               :          
SPCH        .MV                                                 :          
TEN         .LB/F                                               :          
VSH_GR      .V/V                                                :Volume of Shale from GR
ZCOR        .G/CC                                               :          
~A        DEPTH           CNCF           DCAL           DT24             GR        GR_NORM           M2R1           M2R2           M2R3           M2R6           M2R9           M2RX           PORZ           RWAZ           SPCH            TEN         VSH_GR           ZCOR
# ...
      5691.5000         43.753          0.473        127.094        124.414       81.27932          0.732          0.726          0.718           0.71          0.709          0.714         22.957          0.049          5.039        -26.674              1          0.048
      5692.0000         41.289          0.474        126.261        122.638        79.4963          0.751          0.742          0.732          0.725          0.723          0.728         22.832          0.049          6.361        -40.129       0.989283          0.047
      5692.5000         39.569          0.488        126.132        119.747       76.59829          0.787          0.774          0.763          0.755          0.753          0.759         22.625           0.05          6.772        -32.723      0.9276232          0.047
      5693.0000         38.653          0.496        124.168        117.793       74.63727          0.824          0.809          0.796          0.788          0.786          0.792         22.524          0.052          6.449        -18.951      0.8858993          0.051
      5693.5000         38.586          0.462         122.16        117.227       74.06425          0.845           0.83          0.817          0.808          0.806          0.812         22.544          0.053          5.951         -20.03      0.8737075          0.059
      5694.0000         39.881           0.38        121.364         117.43       74.26024          0.841           0.83          0.818          0.809          0.806          0.813         22.582          0.053          5.615        -23.912      0.8778774          0.065
      5694.5000         42.022          0.299        123.008        118.192       75.01522          0.823          0.817          0.805          0.796          0.793            0.8         22.605          0.053           5.53        -14.869      0.8939409          0.061
      5695.0000         44.111          0.255        125.437        120.373       77.18921          0.807          0.804          0.792          0.783           0.78          0.787         22.693          0.052          5.684          9.037      0.9401959          0.054
      5695.5000         44.583          0.241        126.147        121.486       78.29519          0.798          0.795          0.783          0.774          0.771          0.777          23.12          0.054          6.053         40.669      0.9637274          0.055
      5696.0000         43.236          0.235        124.938        118.927       75.72918          0.796          0.792          0.779          0.768          0.766          0.772         23.891          0.057          6.349         58.191      0.9091315          0.069
      5696.5000         41.885          0.226         123.17        115.942       72.73716          0.803          0.794           0.78          0.769          0.767          0.773         24.357           0.06          5.866         41.646      0.8454715          0.087
      5697.0000         42.162          0.212        121.469        116.687       73.47514          0.808          0.796          0.781           0.77          0.767          0.773          23.96          0.058          4.574          2.133      0.8611731          0.092
      5697.5000          43.07          0.191        120.031        119.656       76.43713          0.809          0.795          0.779          0.768          0.766          0.772         23.104          0.053          3.577        -22.962      0.9241942          0.076
      5698.0000         43.865          0.182        120.094        120.224       76.99811          0.817          0.802          0.787          0.776          0.774          0.779         22.623          0.051          3.566        -25.725      0.9361299          0.061
      5698.5000         44.151          0.208        121.077         118.76        75.5271          0.825          0.811          0.796          0.786          0.784          0.789         22.823          0.053          3.972        -27.855      0.9048319          0.067
      5699.0000         43.102          0.257        121.999        118.882       75.64208          0.806          0.796          0.783          0.773          0.772          0.777         23.324          0.055          4.124        -21.125      0.9072784          0.078
      5699.5000         42.171          0.275        123.384        120.954       77.70707          0.766           0.76          0.749           0.74           0.74          0.744         23.634          0.054          4.186          2.282      0.9512143          0.078
      5700.0000         43.303          0.242        122.864        122.548       79.29404          0.737          0.734          0.725          0.717          0.716          0.719         23.512          0.052          4.343         13.146      0.9849797          0.074
      5700.5000         44.904          0.209        121.456        122.024       78.76303          0.734          0.734          0.725          0.717          0.716          0.719         23.086           0.05          4.383         -0.097      0.9736815          0.074
      5701.0000         45.553          0.243         121.55        119.846       76.57802          0.752          0.753          0.744          0.735          0.734          0.737          22.73          0.049          4.235        -15.762      0.9271919          0.073
      5701.5000         45.625          0.332        121.995        118.687       75.41199          0.768           0.77          0.761          0.752          0.751          0.754         22.796          0.051          4.039        -25.645      0.9023829           0.07
      5702.0000         44.827          0.408        123.047        120.615       77.33298          0.766           0.77          0.761          0.752          0.751          0.754         23.264          0.053          3.844        -29.869       0.943255          0.068
      5702.5000         44.235          0.433        123.436         124.55       81.26097          0.752          0.757           0.75          0.741           0.74          0.742         23.649          0.054          3.942        -18.385              1          0.068
      5703.0000         44.701          0.423        123.088        127.212       83.91595          0.738          0.744          0.738           0.73          0.729          0.731         23.507          0.052          4.397          2.553              1          0.065
      5703.5000         45.626           0.42        123.312        126.502       83.19894          0.726          0.735           0.73          0.721           0.72          0.722         23.059           0.05          4.653         12.214              1          0.055
      5704.0000         46.901          0.472        123.398        123.424       80.11392          0.717          0.727          0.723          0.715          0.714          0.715         23.085          0.049          4.526          9.021              1          0.049
      5704.5000         48.347           0.58         123.24        121.083       77.76591          0.706          0.716          0.713          0.705          0.704          0.706          23.88          0.052           4.51          0.379      0.9524661          0.062
      5705.0000         47.872           0.69        123.591         121.29       77.96589          0.692          0.702          0.699          0.692          0.691          0.692         24.719          0.055          4.818        -15.495      0.9567211          0.085
      5705.5000         45.805          0.745        124.484        122.984       79.65288          0.684          0.694          0.692          0.684          0.683          0.684         24.701          0.055          5.192        -28.815      0.9926144           0.09
      5706.0000         45.136          0.711        125.331         123.37       80.03186          0.688          0.697          0.695          0.687          0.686          0.687         23.775          0.051          5.337        -29.433              1          0.069
