#------------------------------------------------------------------------------
# Created by    : vladimir.rabinovich
# Created on    : 09/19/2023 17:21:24
#------------------------------------------------------------------------------
~Version Information Section
VERS.           2.0     :   CWLS log ASCII Standard - VERSION 2.0
WRAP.           NO      :   One line per depth step
~Well Information Section
#MNEM       .UNIT                                         VALUE :DESCRIPTION
#------------------------------------------------------------------------------
STRT        .FT                                            4000 :START DEPTH
STOP        .FT                                            8085 :STOP DEPTH
STEP        .FT                                             0.5 :STEP      
NULL        .                                           -999.25 :NULL      
COMP        .                             WALTER OIL & GAS CORP :COMPANY   
WELL        .                               OCS G09047 ST00BP00 :WELL      
FLD         .                              GALVESTON BLOCK 0351 :FIELD     
LOC         .                                                   :LOCATION  
CNTY        .                             GALVESTON LARGE BLOCK :LOCATION  
STAT        .                                             TEXAS :STATE     
CTRY        .                                     UNITED STATES :COUNTRY   
SRVC        .                                                   :SERVICE COMPANY
DATE        .                             9/13/2023 11:19:36 AM :LOG DATE  
API         .                                    42706402000000 :API NUMBER
UWI         .                                    42706402000000 :UNIQUE WELL ID
XCOORD      .                                  1036183.96101641 :SURFACE X 
YCOORD      .                                  10437562.0132666 :SURFACE Y 
LAT         .                                        28.7482272 :LATITUDE  
LON         .                                       -94.8860948 :LONGITUDE 
ELEV        .FT                                              80 :ELEVATION VALUE
ELEV_TYPE   .                                                KB :ELEVATION REFERENCE TYPE
~Curve Information Section
#MNEM       .UNIT                                      API CODE :CURVE DESCRIPTION
#------------------------------------------------------------------------------
DEPT        .FT                                                 :DEPTH     
CALI        .IN                                                 :          
DRHO        .G/C3                                               :          
GR          .GAPI                                               :          
GR_NORM     .GAPI                                               :GammaRay Normalized
ILD         .OHMM                                               :          
ILM         .OHMM                                               :          
NPHI        .%                                                  :          
RHOB        .G/C3                                               :          
SFL         .OHMM                                               :          
SP          .MV                                                 :          
SP_NORM     .MV                                                 :SP Normalized
VSH_GR      .V/V                                                :Volume of Shale from GR
VSH_SP      .V/V                                                :Volume of Shale from SP
~A        DEPTH           CALI           DRHO             GR        GR_NORM            ILD            ILM           NPHI           RHOB            SFL             SP        SP_NORM         VSH_GR         VSH_SP
# ...
      5900.0000        10.1323         0.0931        84.0139       75.20064         0.7161         0.7365        38.1309         2.3482         0.8154       -52.0851      -3.253052      0.8978859      0.9535278
      5900.5000        10.1949         0.0981        84.5319       75.77619         0.7238         0.7396        37.3522         2.3626         0.8169       -51.3564      -2.529945      0.9101318      0.9638579
      5901.0000        10.2684         0.0919        80.5956       71.40252         0.7175         0.7307        36.6285         2.3862         0.8221       -50.6115      -1.790638      0.8170749      0.9744195
      5901.5000        10.3419         0.0847         76.212       66.53185         0.7113         0.7219        36.4203         2.4078         0.8248        -49.908      -1.092731      0.7134437      0.9843895
      5902.0000        10.3883          0.077        74.8528       65.02164         0.6978         0.7132        36.8209         2.4141         0.8139       -49.7505     -0.9408226      0.6813114      0.9865597
      5902.5000        10.4138         0.0779        74.8986       65.07253         0.6831         0.7013        37.1904         2.3996         0.8032        -49.593     -0.7889137      0.6823941      0.9887298
      5903.0000        10.4394         0.0798        76.3071       66.63752         0.6688         0.6888        37.6722          2.386         0.7927       -49.2964     -0.4979057      0.7156919      0.9928871
      5903.5000         10.396         0.0805        76.9778       67.38274         0.6551         0.6765         38.289         2.3742         0.7853       -48.9796     -0.1866989      0.7315477      0.9973329
      5904.0000        10.2905         0.0812        77.0867       67.50375         0.6419         0.6679        39.3973         2.3633         0.7784       -48.6981      0.0892067      0.7341223              1
      5904.5000         10.185          0.078        77.7371       68.22641         0.6354         0.6688        40.1647         2.3609         0.7715       -48.4494      0.3323174      0.7494981              1
      5905.0000        10.0937         0.0774        78.9742       69.60097         0.6289         0.6698        40.2599         2.3587          0.772       -48.3987      0.3774261       0.778744              1
      5905.5000        10.0037         0.0752        80.3879       71.17175         0.6252          0.675        39.6207         2.3568           0.79       -48.7656    0.004936218      0.8121648              1
      5906.0000           9.93         0.0667        80.8209       71.65285         0.6286         0.6803        38.1713           2.36          0.818       -49.2692     -0.5042572      0.8224012      0.9927963
      5906.5000         9.8936         0.0571        80.7281       71.54975         0.6319         0.6852        37.2001         2.3656         0.8241       -49.9425      -1.183151      0.8202075      0.9830979
      5907.0000         9.8571         0.0646        79.4209        70.0973         0.6354         0.6887        37.4055         2.3724         0.8154       -49.8159      -1.062141      0.7893042      0.9848266
      5907.5000         9.8207         0.0928        78.0586       68.58363         0.6461         0.6923        38.4464          2.371         0.7847       -49.7286     -0.9804344      0.7570986      0.9859938
      5908.0000         9.8185         0.1002        76.0819       66.38731         0.6574         0.6979        39.0233         2.3667         0.8332       -49.7133      -0.970726      0.7103682      0.9861325
      5908.5000         9.8316         0.1006        74.5544       64.69008         0.6726          0.706        38.9518          2.361         0.8904       -50.4701      -1.733116       0.674257      0.9752412
      5909.0000         9.8446          0.101        73.7688       63.81719         0.6915         0.7249        38.8016         2.3526         0.8598       -50.7031      -1.971706      0.6556848      0.9718328
      5909.5000         9.8941         0.1153        74.8459       65.01397         0.7099         0.7602        38.6577         2.3372         0.8228       -50.6556      -1.929802      0.6811483      0.9724314
      5910.0000         9.9521         0.1532        75.3795       65.60686         0.7244         0.7964        37.7606         2.3188         0.7767       -50.5676      -1.847393      0.6937629      0.9736087
      5910.5000         9.9393         0.1495        74.6946       64.84586         0.7325         0.8242        35.4075         2.3279          0.799       -50.4797      -1.765083      0.6775715      0.9747846
      5911.0000         9.9048         0.0948        70.4924       60.17675         0.7371           0.83        33.3122         2.3668         0.8848       -50.6212      -1.912178      0.5782287      0.9726832
      5911.5000         9.8583          0.035        67.8279       57.21619          0.738         0.7996         31.928          2.408         0.9816        -50.968      -2.264568      0.5152382       0.967649
      5912.0000         9.8042         0.0238        67.2924       56.62119          0.739          0.776        31.1622         2.4386         0.9651       -51.6185      -2.920662      0.5025784      0.9582763
      5912.5000         9.8106         0.0413        69.3265        58.8813         0.7385         0.7532        31.8584         2.4081         0.9411       -52.9609      -4.268654       0.550666      0.9390192
      5913.0000         9.8488         0.0479        70.8246       60.54586         0.7268         0.7311        34.3674         2.3528         0.9325       -53.9379      -5.251244       0.586082      0.9249822
      5913.5000         9.9013         0.0512        71.7135       61.53352         0.6996         0.7096        36.6006         2.3261         0.9181       -53.6048      -4.923737      0.6070963      0.9296609
      5914.0000         10.014         0.0647        73.3723       63.37663          0.674         0.6907        37.9818         2.3299         0.8623       -53.2449      -4.569427      0.6463113      0.9347225
      5914.5000        10.1266         0.0797        74.6271       64.77086         0.6515          0.681        37.9967         2.3296          0.809       -51.3358       -2.66592      0.6759757      0.9619154
      5915.0000        10.1674         0.0933        74.3418       64.45386         0.6329         0.6715        36.7834         2.3283          0.803       -50.0123      -1.348011       0.669231      0.9807427
      5915.5000        10.1689         0.1043        72.0887       61.95041         0.6213         0.6656        36.0252         2.3294         0.8016        -48.745    -0.08630371      0.6159662      0.9987671
      5916.0000        10.1704         0.1059        70.6326       60.33252         0.6147         0.6695        36.1157         2.3313         0.7997        -47.731      0.9221039       0.581543              1
      5916.5000        10.2193         0.1033        70.3759        60.0473           0.61         0.6735        36.7789         2.3387         0.7968       -47.5306       1.116909      0.5754745              1
      5917.0000        10.2375         0.0941        70.6007       60.29708         0.6095         0.6775        36.8829         2.3467         0.7939       -47.7396       0.902317       0.580789              1
      5917.5000        10.1889         0.1088        71.7072       61.52652          0.609         0.6806        36.8752         2.3528         0.7955       -48.5611     0.07522964      0.6069473              1
      5918.0000        10.1402         0.1157        72.8832       62.83319         0.6084         0.6831        36.3361         2.3541         0.7993       -49.4368     -0.8060608      0.6347488      0.9884849
      5918.5000         10.058         0.1148        73.4849       63.50175         0.6037         0.6857        35.7875         2.3554         0.8216       -51.3458      -2.720654      0.6489733      0.9611335
