#------------------------------------------------------------------------------
# Created by    : vladimir.rabinovich
# Created on    : 09/19/2023 17:22:45
#------------------------------------------------------------------------------
~Version Information Section
VERS.           2.0     :   CWLS log ASCII Standard - VERSION 2.0
WRAP.           NO      :   One line per depth step
~Well Information Section
#MNEM       .UNIT                                         VALUE :DESCRIPTION
#------------------------------------------------------------------------------
STRT        .FT                                            3370 :START DEPTH
STOP        .FT                                           10136 :STOP DEPTH
STEP        .FT                                             0.5 :STEP      
NULL        .                                           -999.25 :NULL      
COMP        .                                  W&T OFFSHORE INC :COMPANY   
WELL        .                               OCS G04565 ST00BP00 :WELL      
FLD         .                              GALVESTON BLOCK 0303 :FIELD     
LOC         .                                                   :LOCATION  
CNTY        .                             GALVESTON LARGE BLOCK :LOCATION  
STAT        .                                             TEXAS :STATE     
CTRY        .                                     UNITED STATES :COUNTRY   
SRVC        .                                                   :SERVICE COMPANY
DATE        .                             9/13/2023 11:19:27 AM :LOG DATE  
API         .                                    42706401000000 :API NUMBER
UWI         .                                    42706401000000 :UNIQUE WELL ID
XCOORD      .                                  988505.563749319 :SURFACE X 
YCOORD      .                                  10486369.8338556 :SURFACE Y 
LAT         .                                        28.8802688 :LATITUDE  
LON         .                                       -95.0374578 :LONGITUDE 
ELEV        .FT                                              93 :ELEVATION VALUE
ELEV_TYPE   .                                                KB :ELEVATION REFERENCE TYPE
~Curve Information Section
#MNEM       .UNIT                                      API CODE :CURVE DESCRIPTION
#------------------------------------------------------------------------------
DEPT        .FT                                                 :DEPTH     
DPHI        .DEC                                                :          
DRHO        .G/C3                                               :          
DT          .US/F                                               :          
GR          .GAPI                                               :          
GR_1        .GAPI                                               :          
GR_NORM     .GAPI                                               :GammaRay Normalized
ILD         .OHMM                                               :          
NPHI        .DEC                                                :          
RHOB        .G/C3                                               :          
SP          .MV                                                 :          
SP_NORM     .MV                                                 :SP Normalized
VSH_GR      .V/V                                                :Volume of Shale from GR
VSH_SP      .V/V                                                :Volume of Shale from SP
~A        DEPTH           DPHI           DRHO             DT             GR           GR_1        GR_NORM            ILD           NPHI           RHOB             SP        SP_NORM         VSH_GR         VSH_SP
# ...
     10115.0000        -999.25        -999.25       121.0065        -999.25        69.3704       78.26959         0.4132        -999.25        -999.25       -41.7136     -0.2041626      0.9631828      0.9970834
     10115.5000        -999.25        -999.25       121.0001        -999.25        70.3458       79.48885         0.3991        -999.25        -999.25       -41.8047     -0.2952614      0.9891244       0.995782
     10116.0000        -999.25        -999.25       120.9772        -999.25        72.1887       81.79247         0.3872        -999.25        -999.25       -42.3596     -0.8501625              1      0.9878548
     10116.5000        -999.25        -999.25       120.9326        -999.25        72.7887       82.54247         0.3773        -999.25        -999.25       -43.0663      -1.556862              1      0.9777591
     10117.0000        -999.25        -999.25       120.8881        -999.25        72.4948       82.17509         0.3695        -999.25        -999.25       -43.6773      -2.167862              1      0.9690306
     10117.5000        -999.25        -999.25       120.8436        -999.25        72.0752        81.6506         0.3626        -999.25        -999.25       -43.5637      -2.054264              1      0.9706534
     10118.0000        -999.25        -999.25       120.7991        -999.25        71.2709       80.64522         0.3574        -999.25        -999.25       -42.5004      -0.990963              1      0.9858434
     10118.5000        -999.25        -999.25        120.765        -999.25        69.4281       78.34172          0.354        -999.25        -999.25       -42.3915      -0.882061      0.9647174      0.9873991
     10119.0000        -999.25        -999.25       120.7729        -999.25         68.152        76.7466         0.3555        -999.25        -999.25       -42.9742      -1.464764      0.9307787      0.9790748
     10119.5000        -999.25        -999.25        120.781        -999.25        68.6404        77.3571         0.3609        -999.25        -999.25       -43.6267      -2.117264      0.9437681      0.9697534
     10120.0000        -999.25        -999.25       120.7891        -999.25        70.2747       79.39996         0.3685        -999.25        -999.25        -44.142      -2.632561      0.9872333       0.962392
     10120.5000        -999.25        -999.25        120.797        -999.25        71.4353       80.85072         0.3768        -999.25        -999.25       -44.5441      -3.034664              1      0.9566476
     10121.0000        -999.25        -999.25       120.8021        -999.25        72.0476        81.6161         0.3854        -999.25        -999.25       -44.5377      -3.028263              1      0.9567391
     10121.5000        -999.25        -999.25       120.7859        -999.25        72.4493       82.11823         0.3953        -999.25        -999.25       -44.2828      -2.773361              1      0.9603806
     10122.0000        -999.25        -999.25       120.7695        -999.25        72.1512        81.7456         0.4055        -999.25        -999.25       -43.8917      -2.382263              1      0.9659677
     10122.5000        -999.25        -999.25       120.7533        -999.25        70.9225       80.20972          0.414        -999.25        -999.25       -43.6373      -2.127861              1       0.969602
     10123.0000        -999.25        -999.25       120.7371        -999.25        69.7152        78.7006         0.4218        -999.25        -999.25       -43.6402      -2.130764      0.9723532      0.9695605
     10123.5000        -999.25        -999.25       120.7207        -999.25        68.9458       77.73885         0.4275        -999.25        -999.25       -43.9046      -2.395161      0.9518903      0.9657834
     10124.0000        -999.25        -999.25       120.7045        -999.25        68.6572        77.3781         0.4321        -999.25        -999.25       -44.4641      -2.954662      0.9442148      0.9577906
     10124.5000        -999.25        -999.25       120.6899        -999.25        68.4708        77.1451         0.4308        -999.25        -999.25       -45.0944      -3.584961      0.9392574      0.9487863
     10125.0000        -999.25        -999.25       120.6754        -999.25        68.4288        77.0926         0.4291        -999.25        -999.25       -45.7238      -4.214363      0.9381404      0.9397948
     10125.5000        -999.25        -999.25       120.6609        -999.25        68.4282       77.09184         0.4257        -999.25        -999.25       -46.2686      -4.759163      0.9381243       0.932012
     10126.0000        -999.25        -999.25       120.6464        -999.25         68.515       77.20035         0.4217        -999.25        -999.25       -46.6836      -5.174164      0.9404329      0.9260834
     10126.5000        -999.25        -999.25       120.6318        -999.25        68.6016       77.30859         0.4173        -999.25        -999.25       -46.9615      -5.452061       0.942736      0.9221134
     10127.0000        -999.25        -999.25       120.6174        -999.25        68.6831       77.41047         0.4139        -999.25        -999.25       -47.2197      -5.710262      0.9449036      0.9184248
     10127.5000        -999.25        -999.25       120.6099        -999.25        68.7532       77.49809         0.4108        -999.25        -999.25       -47.5146      -6.005161      0.9467679       0.914212
     10128.0000        -999.25        -999.25       120.6108        -999.25        68.7855       77.53847         0.4078        -999.25        -999.25       -47.8219      -6.312462      0.9476269       0.909822
     10128.5000        -999.25        -999.25       120.6119        -999.25        68.8177       77.57873         0.4049        -999.25        -999.25       -47.8539      -6.344463      0.9484836      0.9093648
     10129.0000        -999.25        -999.25        120.613        -999.25        68.8029       77.56023         0.4023        -999.25        -999.25       -47.5275      -6.018063      0.9480899      0.9140277
     10129.5000        -999.25        -999.25        120.614        -999.25        68.7849       77.53772         0.4001        -999.25        -999.25       -46.8695      -5.360062       0.947611      0.9234277
     10130.0000        -999.25        -999.25       120.6158        -999.25         68.782        77.5341         0.3985        -999.25        -999.25       -46.0515      -4.542061       0.947534      0.9351134
     10130.5000        -999.25        -999.25       120.6248        -999.25        68.7952       77.55059         0.3971        -999.25        -999.25       -45.3824      -3.872963      0.9478849      0.9446719
     10131.0000        -999.25        -999.25       120.6337        -999.25        68.8083       77.56697         0.3958        -999.25        -999.25       -44.8611      -3.351662      0.9482334      0.9521191
     10131.5000        -999.25        -999.25       120.6426        -999.25        68.7681       77.51672         0.3957        -999.25        -999.25        -44.494      -2.984562      0.9471642      0.9573634
     10132.0000        -999.25        -999.25       120.6515        -999.25        68.7214       77.45834         0.3961        -999.25        -999.25       -44.4273      -2.917862      0.9459222      0.9583163
     10132.5000        -999.25        -999.25       120.6605        -999.25        68.6801       77.40672         0.3936        -999.25        -999.25       -44.4617      -2.952263      0.9448239      0.9578248
     10133.0000        -999.25        -999.25       120.6942        -999.25        68.6539       77.37397         0.3912        -999.25        -999.25       -44.4647      -2.955261       0.944127       0.957782
     10133.5000        -999.25        -999.25       120.7778        -999.25        68.6278       77.34135         0.3892        -999.25        -999.25       -44.5324      -3.022961      0.9434329      0.9568148
