#------------------------------------------------------------------------------
# Created by    : vladimir.rabinovich
# Created on    : 09/19/2023 17:21:24
#------------------------------------------------------------------------------
~Version Information Section
VERS.           2.0     :   CWLS log ASCII Standard - VERSION 2.0
WRAP.           NO      :   One line per depth step
~Well Information Section
#MNEM       .UNIT                                         VALUE :DESCRIPTION
#------------------------------------------------------------------------------
STRT        .FT                                             682 :START DEPTH
STOP        .FT                                            8542 :STOP DEPTH
STEP        .FT                                             0.5 :STEP      
NULL        .                                           -999.25 :NULL      
COMP        .                       CORPUS CHRISTI OIL & GAS CO :COMPANY   
WELL        .                               OCS G08551 ST00BP00 :WELL      
FLD         .                                           WILDCAT :FIELD     
LOC         .                                                   :LOCATION  
CNTY        .                             GALVESTON LARGE BLOCK :LOCATION  
STAT        .                                             TEXAS :STATE     
CTRY        .                                     UNITED STATES :COUNTRY   
SRVC        .                                                   :SERVICE COMPANY
DATE        .                             9/13/2023 11:19:36 AM :LOG DATE  
API         .                                    42706401950000 :API NUMBER
UWI         .                                    42706401950000 :UNIQUE WELL ID
XCOORD      .                                   976199.22633255 :SURFACE X 
YCOORD      .                                  10415950.2633902 :SURFACE Y 
LAT         .                                         28.686063 :LATITUDE  
LON         .                                        -95.072067 :LONGITUDE 
ELEV        .FT                                              81 :ELEVATION VALUE
ELEV_TYPE   .                                                KB :ELEVATION REFERENCE TYPE
~Curve Information Section
#MNEM       .UNIT                                      API CODE :CURVE DESCRIPTION
#------------------------------------------------------------------------------
DEPT        .FT                                                 :DEPTH     
CALI        .IN                                                 :          
DPHI        .%                                                  :          
DRHO        .G/C3                                               :          
DT          .US/F                                               :          
GR          .GAPI                                               :          
GR_1        .GAPI                                               :          
GR_NORM     .GAPI                                               :GammaRay Normalized
ILD         .OHMM                                               :          
ILM         .OHMM                                               :          
NPHI        .%                                                  :          
SFL         .OHMM                                               :          
SP_NORM     .MV                                                 :SP Normalized
SPS         .MV                                                 :          
VSH_GR      .V/V                                                :Volume of Shale from GR
VSH_SP      .V/V                                                :Volume of Shale from SP
~A        DEPTH           CALI           DPHI           DRHO             DT             GR           GR_1        GR_NORM            ILD            ILM           NPHI            SFL        SP_NORM            SPS         VSH_GR         VSH_SP
# ...
      1209.0000        -999.25        -999.25        -999.25       172.6401        72.2964        -999.25       81.29768         1.3008         1.2335        -999.25         1.1585      -1.258812       -87.9375              1              1
      1209.5000        -999.25        -999.25        -999.25       171.9683        73.0243        -999.25       82.32924          1.301         1.2297        -999.25         1.1602     -0.9328461        -87.608              1      0.9569931
      1210.0000        -999.25        -999.25        -999.25       171.0759        73.0541        -999.25       82.37322         1.3015         1.2273        -999.25           1.16     -0.7372818       -87.4089              1      0.9186447
      1210.5000        -999.25        -999.25        -999.25       170.1833        73.4135        -999.25       82.88348          1.302         1.2257        -999.25         1.1521      -1.235619       -87.9037              1              1
      1211.0000        -999.25        -999.25        -999.25       169.2913        73.4349        -999.25       82.91556         1.3002         1.2279        -999.25         1.1734      -1.757652       -88.4222              1              1
      1211.5000        -999.25        -999.25        -999.25       168.2693        72.8683        -999.25       82.11584         1.2972         1.2285        -999.25         1.1987      -1.996483       -88.6575              1              1
      1212.0000        -999.25        -999.25        -999.25       167.4287         72.022        -999.25       80.92043         1.2941         1.2253        -999.25         1.1907      -1.557724       -88.2152              1              1
      1212.5000        -999.25        -999.25        -999.25       167.5359        71.3708        -999.25       80.00102         1.2898         1.2172        -999.25          1.177      -1.103157       -87.7571              1      0.9956421
      1213.0000        -999.25        -999.25        -999.25        169.658        72.6735        -999.25       81.84571         1.2855         1.2084        -999.25          1.165     -0.7001877       -87.3506              1      0.9158142
      1213.5000        -999.25        -999.25        -999.25       171.4143        74.5192        -999.25        84.4586         1.2811         1.2001        -999.25         1.1586     -0.4782257       -87.1251              1      0.8721848
      1214.0000        -999.25        -999.25        -999.25        173.061        76.0863        -999.25       86.67735         1.2752         1.1928        -999.25         1.1492     -0.4356613        -87.079              1      0.8644363
      1214.5000        -999.25        -999.25        -999.25       173.4292        77.1799        -999.25       88.22624         1.2693         1.1931        -999.25         1.1344     -0.7248917       -87.3647              1      0.9230484
      1215.0000        -999.25        -999.25        -999.25       172.7842        76.5656        -999.25       87.35903         1.2634         1.1934        -999.25         1.1209      -1.114922       -87.7512              1              1
      1215.5000        -999.25        -999.25        -999.25       172.1748        75.2075        -999.25        85.4396         1.2576         1.1938        -999.25         1.1293      -1.466965       -88.0997              1              1
      1216.0000        -999.25        -999.25        -999.25       171.7861        73.6808        -999.25       83.28164          1.252         1.1899        -999.25         1.1529      -1.489494       -88.1187              1              1
      1216.5000        -999.25        -999.25        -999.25        172.353        71.9294        -999.25       80.80581         1.2463         1.1766        -999.25         1.1504       -1.20443       -87.8301              1              1
      1217.0000        -999.25        -999.25        -999.25       172.8867        70.6006        -999.25       78.92783         1.2442          1.163        -999.25         1.1499      -1.192558       -87.8147      0.9771878              1
      1217.5000        -999.25        -999.25        -999.25       173.3584        70.6455        -999.25       78.99317         1.2429         1.1572        -999.25         1.1498      -1.308899       -87.9275      0.9785782              1
      1218.0000        -999.25        -999.25        -999.25        173.792        71.1788        -999.25       79.74943         1.2375         1.1544        -999.25         1.1404      -1.434334       -88.0494      0.9946687              1
      1218.5000        -999.25        -999.25        -999.25       174.2256        71.0381        -999.25       79.55221         1.2298         1.1528        -999.25         1.1434       -1.71637       -88.3279      0.9904725              1
      1219.0000        -999.25        -999.25        -999.25       174.7244        70.0031        -999.25       78.08984         1.2168         1.1501        -999.25         1.1454      -1.929604       -88.5376      0.9593584              1
      1219.5000        -999.25        -999.25        -999.25       175.2317        69.2395        -999.25       77.01143         1.2027         1.1466        -999.25         1.1227      -1.892738       -88.4972      0.9364134              1
      1220.0000        -999.25        -999.25        -999.25        175.749        72.0148        -999.25       80.93938          1.188         1.1425        -999.25         1.0979      -1.502968       -88.1039              1              1
      1220.5000        -999.25        -999.25        -999.25       176.3245          74.49        -999.25       84.44277          1.173         1.1383        -999.25         1.0756      -1.103401       -87.7008              1              1
      1221.0000        -999.25        -999.25        -999.25        176.644        75.8727        -999.25       86.40067         1.1585         1.1336        -999.25          1.056     -0.9814453       -87.5753              1      0.9842972
      1221.5000        -999.25        -999.25        -999.25       176.4321        76.6587        -999.25        87.5144         1.1478         1.1214        -999.25         1.0499      -1.144073       -87.7344              1              1
      1222.0000        -999.25        -999.25        -999.25       175.8777        77.4755        -999.25       88.67173         1.1371         1.1104        -999.25         1.0583      -1.361008       -87.9478              1              1
      1222.5000        -999.25        -999.25        -999.25       175.4456        77.2909        -999.25        88.4124          1.131         1.1022        -999.25         1.0754       -1.31324       -87.8965              1              1
      1223.0000        -999.25        -999.25        -999.25       175.2393        76.8431        -999.25       87.78074         1.1275         1.0941        -999.25          1.078      -1.011177       -87.5909              1      0.9933029
      1223.5000        -999.25        -999.25        -999.25       175.6072        76.9648        -999.25       87.95472         1.1234         1.0872        -999.25         1.0778     -0.6656113       -87.2418              1      0.9249542
      1224.0000        -999.25        -999.25        -999.25       176.1306        77.5913        -999.25       88.84283         1.1191         1.0843        -999.25         1.0719     -0.4129486       -86.9856              1      0.8751861
      1224.5000        -999.25        -999.25        -999.25       176.1177        77.4331        -999.25       88.62084         1.1199         1.0843        -999.25         1.0689     -0.4606857       -87.0298              1       0.885498
      1225.0000        -999.25        -999.25        -999.25       175.8472        74.4385        -999.25       84.38631         1.1226         1.0862        -999.25         1.0725     -0.7500153       -87.3156              1      0.9441284
      1225.5000        -999.25        -999.25        -999.25       175.4487        72.2688        -999.25       81.31873         1.1285         1.0899        -999.25          1.073      -1.025253       -87.5873              1      0.9999405
