#------------------------------------------------------------------------------
# Created by    : vladimir.rabinovich
# Created on    : 09/19/2023 17:20:39
#------------------------------------------------------------------------------
~Version Information Section
VERS.           2.0     :   CWLS log ASCII Standard - VERSION 2.0
WRAP.           NO      :   One line per depth step
~Well Information Section
#MNEM       .UNIT                                         VALUE :DESCRIPTION
#------------------------------------------------------------------------------
STRT        .FT                                             520 :START DEPTH
STOP        .FT                                           11478 :STOP DEPTH
STEP        .FT                                             0.5 :STEP      
NULL        .                                           -999.25 :NULL      
COMP        .                                      SHELL OIL CO :COMPANY   
WELL        .                                OCS 00730 ST00BP00 :WELL      
FLD         .                                           WILDCAT :FIELD     
LOC         .                                                   :LOCATION  
CNTY        .                             GALVESTON LARGE BLOCK :LOCATION  
STAT        .                                             TEXAS :STATE     
CTRY        .                                     UNITED STATES :COUNTRY   
SRVC        .                                                   :SERVICE COMPANY
DATE        .                             9/13/2023 11:19:42 AM :LOG DATE  
API         .                                    42706000260000 :API NUMBER
UWI         .                                    42706000260000 :UNIQUE WELL ID
XCOORD      .                                  961416.888637646 :SURFACE X 
YCOORD      .                                  10353223.2377546 :SURFACE Y 
LAT         .                                         28.512881 :LATITUDE  
LON         .                                        -95.114699 :LONGITUDE 
ELEV        .FT                                              72 :ELEVATION VALUE
ELEV_TYPE   .                                                KB :ELEVATION REFERENCE TYPE
~Curve Information Section
#MNEM       .UNIT                                      API CODE :CURVE DESCRIPTION
#------------------------------------------------------------------------------
DEPT        .FT                                                 :DEPTH     
ASN         .OHMM                                               :          
CILD        .MMHO                                               :          
ILD         .OHMM                                               :          
LAT         .OHMM                                               :          
LN          .OHMM                                               :          
SP          .MV                                                 :          
SP_NORM     .MV                                                 :SP Normalized
VSH_SP      .V/V                                                :Volume of Shale from SP
~A        DEPTH            ASN           CILD            ILD            LAT             LN             SP        SP_NORM         VSH_SP
# ...
      6331.5000         0.5432       2495.758          0.443        -999.25        -999.25       -44.8863         1.0434              1
      6332.0000         0.5405       2497.586         0.4422        -999.25        -999.25       -45.1083      0.8132553              1
      6332.5000         0.5378       2499.418         0.4412        -999.25        -999.25       -45.3304      0.5830116              1
      6333.0000          0.535       2501.246         0.4402        -999.25        -999.25       -45.5524      0.3528671              1
      6333.5000         0.5323       2503.078         0.4391        -999.25        -999.25       -45.7747      0.1224213              1
      6334.0000         0.5295       2504.906         0.4381        -999.25        -999.25       -45.9968     -0.1078224              1
      6334.5000         0.5268       2495.719         0.4371        -999.25        -999.25       -46.2187     -0.3378677              1
      6335.0000         0.5241       2485.793         0.4361        -999.25        -999.25       -46.6294     -0.7567101              1
      6335.5000         0.5213       2475.867          0.435        -999.25        -999.25       -47.2039      -1.339355              1
      6336.0000         0.5186       2465.926          0.434        -999.25        -999.25       -47.7777      -1.921299              1
      6336.5000         0.5159           2456          0.433        -999.25        -999.25       -48.3516      -2.503345      0.9820234
      6337.0000         0.5131       2446.063          0.432        -999.25        -999.25       -48.6444      -2.804291      0.9712753
      6337.5000         0.5109       2442.688         0.4309        -999.25        -999.25       -48.3505      -2.518532       0.981481
      6338.0000         0.5132       2439.668         0.4299        -999.25        -999.25       -48.0563      -2.232479      0.9916972
      6338.5000         0.5156       2436.645         0.4289        -999.25        -999.25       -47.7624      -1.946724              1
      6339.0000         0.5179       2433.625         0.4279        -999.25        -999.25       -47.5072      -1.699665              1
      6339.5000         0.5202       2427.969         0.4268        -999.25        -999.25       -47.3055      -1.506111              1
      6340.0000         0.5225       2408.227         0.4258        -999.25        -999.25       -47.1041      -1.312855              1
      6340.5000         0.5248       2388.488         0.4248        -999.25        -999.25       -46.9024      -1.119301              1
      6341.0000         0.5272       2368.746         0.4238        -999.25        -999.25        -46.701     -0.9260445              1
      6341.5000         0.5295       2349.008         0.4227        -999.25        -999.25       -46.4993     -0.7324867              1
      6342.0000         0.5318       2332.645         0.4217        -999.25        -999.25       -46.2979     -0.5392342              1
      6342.5000         0.5341       2316.379         0.4207        -999.25        -999.25       -46.0962     -0.3456764              1
      6343.0000         0.5365       2300.086         0.4197        -999.25        -999.25       -45.8945     -0.1521225              1
      6343.5000         0.5405       2283.816          0.418        -999.25        -999.25       -45.8558     -0.1215668              1
      6344.0000         0.5445       2267.754         0.4163        -999.25        -999.25       -45.8423     -0.1162109              1
      6344.5000         0.5485       2281.141         0.4146        -999.25        -999.25       -45.8289     -0.1109543              1
      6345.0000         0.5525       2302.969          0.413        -999.25        -999.25       -45.8154     -0.1055984              1
      6345.5000         0.5545       2324.816         0.4113        -999.25        -999.25       -45.8019     -0.1002426              1
      6346.0000         0.5524       2346.645         0.4096        -999.25        -999.25       -45.7885    -0.09498978              1
      6346.5000         0.5503       2368.496         0.4079        -999.25        -999.25        -45.912     -0.2266312              1
      6347.0000         0.5482       2390.324         0.4063        -999.25        -999.25       -46.0605     -0.3832779              1
      6347.5000         0.5461       2411.313         0.4046        -999.25        -999.25        -46.209     -0.5399208              1
      6348.0000          0.544       2428.738         0.4029        -999.25        -999.25       -46.3574     -0.6964645              1
      6348.5000         0.5419       2446.164         0.4012        -999.25        -999.25       -46.5059     -0.8531113              1
      6349.0000         0.5398       2459.098         0.3995        -999.25        -999.25       -46.6542      -1.009556              1
      6349.5000         0.5374       2461.605         0.3979        -999.25        -999.25       -46.8027      -1.166199              1
      6350.0000         0.5348       2449.637         0.3962        -999.25        -999.25       -46.7488      -1.120441              1
      6350.5000         0.5323       2437.656         0.3945        -999.25        -999.25       -46.6152     -0.9949875              1
      6351.0000         0.5298       2425.688         0.3928        -999.25        -999.25       -46.4816     -0.8695335              1
      6351.5000         0.5273       2449.227         0.3912        -999.25        -999.25        -46.348     -0.7440758              1
      6352.0000         0.5247       2471.102         0.3895        -999.25        -999.25       -46.2145      -0.618721              1
      6352.5000         0.5222       2486.324         0.3878        -999.25        -999.25       -46.1046      -0.516964              1
      6353.0000         0.5197       2501.574         0.3861        -999.25        -999.25       -45.9987     -0.4192085              1
      6353.5000         0.5172       2516.797         0.3845        -999.25        -999.25       -45.8928     -0.3214531              1
      6354.0000         0.5147       2532.047         0.3828        -999.25        -999.25       -45.7871     -0.2238998              1
      6354.5000         0.5121       2545.047         0.3817        -999.25        -999.25       -45.8544     -0.2993431              1
      6355.0000         0.5096       2550.098         0.3811        -999.25        -999.25       -46.1733     -0.6263885              1
      6355.5000         0.5114       2555.145         0.3806        -999.25        -999.25       -46.4924     -0.9536324              1
      6356.0000         0.5135        2551.48           0.38        -999.25        -999.25       -46.8113      -1.280674              1
      6356.5000         0.5157       2542.527         0.3795        -999.25        -999.25       -47.1303      -1.607819              1
      6357.0000         0.5178        2533.59         0.3789        -999.25        -999.25       -47.4493      -1.934963              1
      6357.5000         0.5199       2524.648         0.3784        -999.25        -999.25       -47.7682      -2.262009      0.9906425
      6358.0000         0.5221       2515.699         0.3778        -999.25        -999.25        -48.009      -2.510952      0.9817517
      6358.5000         0.5242       2496.016         0.3773        -999.25        -999.25       -47.8899      -2.399998      0.9857144
      6359.0000         0.5263       2462.344         0.3768        -999.25        -999.25       -47.7708      -2.289043       0.989677
      6359.5000         0.5285       2428.672         0.3762        -999.25        -999.25       -47.6517      -2.178085      0.9936398
      6360.0000         0.5306           2395         0.3757        -999.25        -999.25       -47.5326      -2.067131      0.9976025
      6360.5000          0.535       2366.727         0.3751        -999.25        -999.25       -47.2598      -1.802475              1
