#------------------------------------------------------------------------------
# Created by    : vladimir.rabinovich
# Created on    : 09/19/2023 17:19:56
#------------------------------------------------------------------------------
~Version Information Section
VERS.           2.0     :   CWLS log ASCII Standard - VERSION 2.0
WRAP.           NO      :   One line per depth step
~Well Information Section
#MNEM       .UNIT                                         VALUE :DESCRIPTION
#------------------------------------------------------------------------------
STRT        .FT                                            3966 :START DEPTH
STOP        .FT                                           12200 :STOP DEPTH
STEP        .FT                                             0.5 :STEP      
NULL        .                                           -999.25 :NULL      
COMP        .                       HOUSTON OIL & MINERALS CORP :COMPANY   
WELL        .                                ST TR 00526-L SW/4 :WELL      
FLD         .                                           CAVALLO :FIELD     
LOC         .                                                   :LOCATION  
CNTY        .                      MATAGORDA ISLAND LARGE BLOCK :LOCATION  
STAT        .                                             TEXAS :STATE     
CTRY        .                                     UNITED STATES :COUNTRY   
SRVC        .                                                   :SERVICE COMPANY
DATE        .                             9/13/2023 11:19:05 AM :LOG DATE  
API         .                                    42703302090000 :API NUMBER
UWI         .                                    42703302090000 :UNIQUE WELL ID
XCOORD      .                                  601997.830501628 :SURFACE X 
YCOORD      .                                  10286578.1750905 :SURFACE Y 
LAT         .                                        28.3077871 :LATITUDE  
LON         .                                       -96.2273179 :LONGITUDE 
ELEV        .FT                                             113 :ELEVATION VALUE
ELEV_TYPE   .                                                KB :ELEVATION REFERENCE TYPE
~Curve Information Section
#MNEM       .UNIT                                      API CODE :CURVE DESCRIPTION
#------------------------------------------------------------------------------
DEPT        .FT                                                 :DEPTH     
ASFL        .OHMM                                               :          
CILD        .MMHO                                               :          
ILD         .OHMM                                               :          
SP          .MV                                                 :          
SP_NORM     .MV                                                 :SP Normalized
VSH_SP      .V/V                                                :Volume of Shale from SP
~A        DEPTH           ASFL           CILD            ILD             SP        SP_NORM         VSH_SP
# ...
      9438.0000          1.353           2224         0.4706           -111      -66.68862      0.1684985
      9438.5000          1.204           2328         0.4706         -117.6      -73.28862     0.08495418
      9439.0000         1.0558           2168          0.451      -101.5102      -57.19882      0.2886225
      9439.5000         0.9044           2168         0.4118       -86.0204      -41.70902      0.4846959
      9440.0000         1.1203           2168         0.3725       -86.6334      -42.32202      0.4769364
      9440.5000         1.3331           2008         0.3137       -87.2482      -42.93682      0.4691542
      9441.0000         1.5474           1840         0.3922       -87.8618      -43.55042      0.4613871
      9441.5000          1.761           1680         0.4706       -89.3896      -45.07822      0.4420478
      9442.0000         1.9801       1521.569          0.549       -90.2941      -45.98272      0.4305985
      9442.5000         2.0598       1359.384         0.6275       -91.1765      -46.86512      0.4194289
      9443.0000         2.0797       1359.574         0.7059       -92.9412      -48.62982      0.3970909
      9443.5000         2.3904       1359.765         0.7059       -92.9412      -48.62982      0.3970909
      9444.0000          2.004       1367.877         0.7059       -86.6604      -42.34902      0.4765947
      9444.5000         1.8287        1383.91         0.7059       -83.6314      -39.32002      0.5149364
      9445.0000         1.2191       1419.608         0.7059       -80.6089      -36.29752      0.5531959
      9445.5000         0.7761        1474.51         0.6863       -74.8714      -30.56002      0.6258225
      9446.0000         0.6398       1498.039         0.6667       -68.5857      -24.27432      0.7053883
      9446.5000         0.6438       1521.569         0.6471          -62.6      -18.28862      0.7811567
      9447.0000         0.6558       1521.569         0.6275       -56.6143      -12.30292      0.8569251
      9447.5000         0.7562       1521.569         0.6275       -44.3322    -0.02082062              1
      9448.0000          0.859       1513.725         0.6471       -44.0472      0.2641792              1
      9448.5000          0.957       1187.429         0.7059       -43.7616       0.549778              1
      9449.0000         1.0526       1075.619         0.7647       -43.4755      0.8358803              1
      9449.5000          0.992       1079.619         0.8431       -43.4884       0.822979              1
      9450.0000         0.9331           1072          0.902       -43.2002       1.111179              1
      9450.5000         0.8749           1104         0.9608        -43.202       1.109379              1
      9451.0000          0.812           1144           1.04       -43.2038       1.107578              1
      9451.5000         0.7482           1164           1.04       -43.5046       0.806778              1
      9452.0000         0.7482           1176           1.04       -43.8049      0.5064774              1
      9452.5000         0.7482           1140           1.04       -44.1045      0.2068787              1
      9453.0000         0.7602           1068           1.04       -44.7018     -0.3904228              1
      9453.5000         0.8861            996           1.04            -45     -0.6886215              1
      9454.0000          1.012            920           1.04          -45.3     -0.9886208              1
      9454.5000         1.1402            880           1.04          -45.9      -1.588623      0.9925491
      9455.0000         1.2677            880           1.06          -46.5      -2.188622      0.9849542
      9455.5000         1.2478            880            1.1          -47.1       -2.78862      0.9773592
      9456.0000         1.2279            880           1.14          -47.1       -2.78862      0.9773592
      9456.5000          1.204            880           1.18          -47.4      -3.088623      0.9735617
      9457.0000          1.212            880           1.18          -47.7      -3.388622      0.9697643
      9457.5000         1.2478            888           1.18            -48      -3.688622      0.9659668
      9458.0000         1.2837            904           1.18            -48      -3.688622      0.9659668
      9458.5000         1.2279            920           1.16          -47.7      -3.388622      0.9697643
      9459.0000         1.1721            944           1.14          -47.1       -2.78862      0.9773592
      9459.5000         1.1163            976            1.1          -46.5      -2.188622      0.9849542
      9460.0000         1.0558           1008           1.04          -45.9      -1.588623      0.9925491
      9460.5000              1           1040              1          -45.3     -0.9886208              1
      9461.0000         0.8781           1048         0.9608       -44.7059     -0.3945198              1
      9461.5000         0.8821           1056         0.9412       -44.1176       0.193779              1
      9462.0000         0.8861           1064         0.9216       -44.1176       0.193779              1
      9462.5000         0.9371           1080          0.902       -43.8235      0.4878769              1
      9463.0000         0.9371           1080         0.8824       -43.8235      0.4878769              1
      9463.5000         0.9371           1072         0.8824       -43.8235      0.4878769              1
      9464.0000          0.988           1048         0.8824       -43.5294      0.7819786              1
      9464.5000         1.0398           1008          0.902       -43.5294      0.7819786              1
      9465.0000         1.0916           1008         0.9314       -43.5294      0.7819786              1
      9465.5000         1.1442           1008         0.9608       -43.5294      0.7819786              1
      9466.0000          1.196           1000         0.9804       -43.5294      0.7819786              1
      9466.5000         1.1442           1000              1       -43.5294      0.7819786              1
      9467.0000         1.0916           1016           1.02       -43.5294      0.7819786              1
      9467.5000         1.0398           1048           1.04       -43.5294      0.7819786              1
      9468.0000          0.988           1088           1.04       -43.5294      0.7819786              1
      9468.5000         0.8749           1128           1.04       -43.5294      0.7819786              1
      9469.0000          0.812           1168           1.02       -43.8235      0.4878769              1
      9469.5000         0.7841       1231.686         0.9804       -44.1176       0.193779              1
      9470.0000         0.7283       1231.686         0.9412       -44.1176       0.193779              1
      9470.5000          0.812           1192         0.8235       -44.4118     -0.1004219              1
      9471.0000         0.8861           1184         0.8039       -44.7059     -0.3945198              1
      9471.5000          0.961           1160         0.7843          -45.6       -1.28862      0.9963466
      9472.0000          0.961           1136         0.7843          -45.9      -1.588623      0.9925491
      9472.5000          0.961           1104         0.7843          -46.5      -2.188622      0.9849542
      9473.0000         1.0398           1096         0.7843          -47.7      -3.388622      0.9697643
      9473.5000         1.1163           1080         0.7843          -48.9      -4.588623      0.9545744
      9474.0000          1.192           1072         0.7843          -50.1       -5.78862      0.9393846
      9474.5000         1.2717           1168         0.7843          -51.3      -6.988621      0.9241947
      9475.0000          1.188       1287.007         0.7843          -52.5      -8.188622      0.9090048
      9475.5000         1.0438       1374.275         0.7843          -53.7      -9.388622      0.8938149
