#------------------------------------------------------------------------------
# Created by    : vladimir.rabinovich
# Created on    : 09/19/2023 17:20:57
#------------------------------------------------------------------------------
~Version Information Section
VERS.           2.0     :   CWLS log ASCII Standard - VERSION 2.0
WRAP.           NO      :   One line per depth step
~Well Information Section
#MNEM       .UNIT                                         VALUE :DESCRIPTION
#------------------------------------------------------------------------------
STRT        .FT                                             598 :START DEPTH
STOP        .FT                                           10008 :STOP DEPTH
STEP        .FT                                             0.5 :STEP      
NULL        .                                           -999.25 :NULL      
COMP        .                                        SUN OIL CO :COMPANY   
WELL        .                               OCS G01712 ST00BP00 :WELL      
FLD         .                                           WILDCAT :FIELD     
LOC         .                                                   :LOCATION  
CNTY        .                                BRAZOS LARGE BLOCK :LOCATION  
STAT        .                                             TEXAS :STATE     
CTRY        .                                     UNITED STATES :COUNTRY   
SRVC        .                                                   :SERVICE COMPANY
DATE        .                             9/13/2023 11:18:52 AM :LOG DATE  
API         .                                    42704300120000 :API NUMBER
UWI         .                                    42704300120000 :UNIQUE WELL ID
XCOORD      .                                   818594.06951761 :SURFACE X 
YCOORD      .                                  10373365.4427938 :SURFACE Y 
LAT         .                                         28.560597 :LATITUDE  
LON         .                                        -95.560517 :LONGITUDE 
ELEV        .FT                                              89 :ELEVATION VALUE
ELEV_TYPE   .                                                KB :ELEVATION REFERENCE TYPE
~Curve Information Section
#MNEM       .UNIT                                      API CODE :CURVE DESCRIPTION
#------------------------------------------------------------------------------
DEPT        .FT                                                 :DEPTH     
ASN         .OHMM                                               :          
CALI        .IN                                                 :          
CILD        .MMHO                                               :          
ILD         .OHMM                                               :          
SP          .MV                                                 :          
SP_NORM     .MV                                                 :SP Normalized
VSH_SP      .V/V                                                :Volume of Shale from SP
~A        DEPTH            ASN           CALI           CILD            ILD             SP        SP_NORM         VSH_SP
# ...
      4350.0000         0.5109        13.2159       4082.688         0.2283       -99.0094      -46.62844     0.06880725
      4350.5000         0.4961        13.6654       4094.895         0.2245       -99.3135      -46.93254     0.06260113
      4351.0000         0.4812        14.3398       4095.926         0.2237       -99.6282      -47.24724     0.05617873
      4351.5000         0.4915        14.4864       4074.656         0.2281       -99.9388      -47.55784     0.04983995
      4352.0000          0.504        14.3906       4043.332         0.2325      -100.2419      -47.86094     0.04365423
      4352.5000         0.5165        14.0154       3971.875         0.2369      -100.5028      -48.12185     0.03832969
      4353.0000         0.5291        13.3785       3911.742         0.2427      -100.7494      -48.36844     0.03329709
      4353.5000           0.54        13.0924       3867.813         0.2489      -101.1169      -48.73594     0.02579708
      4354.0000         0.5508        12.9033       3817.816         0.2551      -100.9174      -48.53644     0.02986853
      4354.5000         0.5615        12.8387       3781.793         0.2622       -100.566      -48.18505     0.03703985
      4355.0000         0.5712         13.063       3875.195           0.27       -99.9843      -47.60334     0.04891135
      4355.5000         0.5798         13.287       3977.426         0.2777       -99.3225      -46.94155      0.0624174
      4356.0000         0.5883        13.3714       4001.055         0.2854       -98.6104      -46.22944     0.07695015
      4356.5000         0.5836        13.1446       4000.535          0.294       -97.8104      -45.42945     0.09327659
      4357.0000         0.5724        12.6874        4000.02         0.2957       -96.9271      -44.54615      0.1113031
      4357.5000         0.5611        12.5342         3999.5         0.2926       -95.7382      -43.35724      0.1355665
      4358.0000         0.5375        12.4648       3994.305         0.2896       -95.6405      -43.25955      0.1375602
      4358.5000         0.5098        12.4288       3984.234         0.2866       -95.9087      -43.52774      0.1320869
      4359.0000          0.492        12.4209       3638.418         0.2835       -96.2983      -43.91735      0.1241358
      4359.5000         0.4996        12.4397       3453.777         0.2831       -96.6881      -44.30715      0.1161807
      4360.0000         0.5073        12.4768       3392.195         0.2931       -96.6936      -44.31265      0.1160684
      4360.5000         0.5203        12.5131       2880.207         0.3051       -96.6118      -44.23085      0.1177378
      4361.0000         0.5338         12.543        2831.23          0.325       -96.1527      -43.77175      0.1271072
      4361.5000         0.5472         12.573       2816.172         0.3423       -95.6932      -43.31224      0.1364848
      4362.0000         0.5573         12.594       2761.719         0.3561       -95.1719      -42.79094      0.1471236
      4362.5000         0.5662        12.6134       2609.691         0.3681       -94.6188      -42.23784      0.1584114
      4363.0000          0.575        12.6322        2561.91           0.38       -94.0741      -41.69314      0.1695277
      4363.5000         0.5823        12.6501       2598.082         0.3823       -93.5425      -41.16155      0.1803766
      4364.0000         0.5759        12.7155       2641.688         0.3782       -93.1967      -40.81575      0.1874337
      4364.5000         0.5695          12.77       2692.652         0.3665       -93.0476      -40.66665      0.1904766
      4365.0000         0.5632         12.797       2751.922         0.3499       -93.1984      -40.81745       0.187399
      4365.5000         0.5568         12.797       2840.676         0.3332       -93.3539      -40.97294      0.1842257
      4366.0000         0.5459        12.8065       2955.086         0.3178       -93.7853      -41.40435      0.1754215
      4366.5000          0.526        12.9582        3174.41         0.3062       -94.3605      -41.97954      0.1636828
      4367.0000         0.4985        13.2034       3373.352         0.2947       -95.0219      -42.64094      0.1501849
      4367.5000         0.5011        13.4465       3414.793         0.2869        -95.453      -43.07205      0.1413868
      4368.0000         0.5139        13.5748       3402.934          0.284       -95.8368      -43.45584      0.1335542
      4368.5000         0.5266        13.6167       3309.457         0.2811        -95.649      -43.26805      0.1373868
      4369.0000         0.5393        13.6337        3235.57         0.2781       -95.2544      -42.87345      0.1454398
      4369.5000         0.5523        13.6448       3226.348         0.2762       -95.2103      -42.82934        0.14634
      4370.0000         0.5656         13.652       3235.195         0.2775       -95.3105      -42.92955       0.144295
      4370.5000         0.5789        13.6536        3255.41         0.2788        -95.411      -43.03005      0.1422439
      4371.0000         0.5932        13.6541       3285.715         0.2811       -95.5112      -43.13025      0.1401991
      4371.5000         0.6082        13.6034       3317.063         0.2865       -95.7091      -43.32814      0.1361603
      4372.0000           0.63        13.4368       3378.672         0.2923       -95.9417      -43.56075      0.1314133
      4372.5000         0.6434        13.1938       3410.219         0.3051       -96.1719      -43.79094      0.1267155
      4373.0000         0.6222        13.1618       3291.559         0.3179       -96.3901      -44.00914      0.1222624
      4373.5000         0.5744        13.2356       3185.945         0.3313       -96.6084      -44.22744      0.1178073
      4374.0000         0.6007        13.5711        3013.91         0.3462       -96.8853      -44.50434      0.1121562
      4374.5000         0.6391        14.1194       2664.063         0.3612       -97.1761      -44.79515      0.1062215
      4375.0000         0.6928        14.1958       2462.117         0.3765        -97.418      -45.03704      0.1012848
      4375.5000         0.7817        14.1945       2426.242         0.3983       -97.6559      -45.27494     0.09642971
      4376.0000         0.8718        14.1403       2390.344           0.42       -97.8068      -45.42585     0.09335008
      4376.5000         0.8985         13.882       2354.445         0.4437       -97.9575      -45.57654     0.09027465
      4377.0000         0.8864        13.3074       2294.727         0.4676       -98.1261      -45.74514      0.0868338
      4377.5000         0.8735        13.2347       2126.965         0.4881       -98.3035      -45.92254     0.08321342
      4378.0000         0.8564        13.4748       2061.133         0.5009       -98.4811      -46.10015     0.07958883
      4378.5000         0.8392        13.6828       2086.938         0.5048       -98.6658      -46.28485     0.07581944
      4379.0000         0.8213        13.7107       2140.191         0.5015       -98.8671      -46.48615     0.07171125
      4379.5000         0.8022        13.7276       2220.938         0.4894       -98.3073      -45.92634     0.08313588
      4380.0000         0.8191        13.7933       2324.262         0.4773       -97.7196      -45.33864     0.09512975
      4380.5000         0.8968        13.8365       2567.703          0.465       -97.5491      -45.16815     0.09860922
      4381.0000         0.9059        13.8693       2625.852         0.4525       -97.5776      -45.19664     0.09802768
      4381.5000         0.8797         13.882        2656.93           0.44       -97.6063      -45.22535     0.09744193
      4382.0000          0.836        13.9934       2687.605         0.4275       -97.7769      -45.39595     0.09396028
      4382.5000         0.8009        14.2623       2718.285         0.4165       -97.9647      -45.58374     0.09012767
      4383.0000         0.7798        14.3092       2748.965         0.4094       -98.1525      -45.77154     0.08629507
