#------------------------------------------------------------------------------
# Created by    : vladimir.rabinovich
# Created on    : 09/19/2023 17:20:01
#------------------------------------------------------------------------------
~Version Information Section
VERS.           2.0     :   CWLS log ASCII Standard - VERSION 2.0
WRAP.           NO      :   One line per depth step
~Well Information Section
#MNEM       .UNIT                                         VALUE :DESCRIPTION
#------------------------------------------------------------------------------
STRT        .FT                                            3470 :START DEPTH
STOP        .FT                                           12708 :STOP DEPTH
STEP        .FT                                             0.5 :STEP      
NULL        .                                           -999.25 :NULL      
COMP        .                                     INEXCO OIL CO :COMPANY   
WELL        .                                     ST TR 00794-L :WELL      
FLD         .                                       BLOCK 794-L :FIELD     
LOC         .                                                   :LOCATION  
CNTY        .                        MUSTANG ISLAND LARGE BLOCK :LOCATION  
STAT        .                                             TEXAS :STATE     
CTRY        .                                     UNITED STATES :COUNTRY   
SRVC        .                                                   :SERVICE COMPANY
DATE        .                             9/13/2023 11:18:55 AM :LOG DATE  
API         .                                    42702301710000 :API NUMBER
UWI         .                                    42702301710000 :UNIQUE WELL ID
XCOORD      .                                  319607.894357718 :SURFACE X 
YCOORD      .                                   10038241.944616 :SURFACE Y 
LAT         .                                        27.6026524 :LATITUDE  
LON         .                                       -97.0775955 :LONGITUDE 
ELEV        .FT                                               0 :ELEVATION VALUE
ELEV_TYPE   .                                                GL :ELEVATION REFERENCE TYPE
~Curve Information Section
#MNEM       .UNIT                                      API CODE :CURVE DESCRIPTION
#------------------------------------------------------------------------------
DEPT        .FT                                                 :DEPTH     
ASFL        .OHMM                                               :          
CILD        .MMHO                                               :          
DT          .US/F                                               :          
GR          .GAPI                                               :          
GR_NORM     .GAPI                                               :GammaRay Normalized
ILD         .OHMM                                               :          
ILM         .OHMM                                               :          
SP          .MV                                                 :          
SP_NORM     .MV                                                 :SP Normalized
VSH_GR      .V/V                                                :Volume of Shale from GR
VSH_SP      .V/V                                                :Volume of Shale from SP
~A        DEPTH           ASFL           CILD             DT             GR        GR_NORM            ILD            ILM             SP        SP_NORM         VSH_GR         VSH_SP
# ...
      8420.0000         0.6141       2519.746       133.9375        64.2758       78.40881         0.3375         0.3675       -46.3341      0.6843719       0.966145              1
      8420.5000          0.614        2545.23       133.8384        63.8918       77.73327         0.3447         0.3698       -47.0114    0.004428864      0.9517717              1
      8421.0000         0.6164       2570.762       133.8621        63.5079       77.05787         0.3737         0.3728       -47.6402      -0.627018      0.9374015              1
      8421.5000         0.6187       2542.367       133.9329        63.1239       76.38231         0.4027         0.3812       -48.0919       -1.08136      0.9230279      0.9971945
      8422.0000         0.6211       2489.945        134.041          62.74       75.70695         0.4359         0.3981       -48.0934      -1.085503      0.9086584      0.9970517
      8422.5000         0.6235       2437.617       133.8879        62.2024       74.76331         0.4706         0.4208       -47.9947     -0.9894485      0.8885812              1
      8423.0000         0.6262       2252.004       133.2488         60.831       72.36453         0.5052         0.4422       -47.8955     -0.8928909      0.8375432              1
      8423.5000         0.6371       2096.289       130.4102         59.404       69.86871         0.5288         0.4686       -47.7957     -0.7957344      0.7844407              1
      8424.0000         0.6479       1928.928       126.5525        57.8536       67.15752         0.5437         0.4915       -47.6958     -0.6984787      0.7267557              1
      8424.5000         0.6588       1796.902       122.6996         56.429       64.66591         0.5586         0.5095       -47.7245     -0.7298203      0.6737427              1
      8425.0000         0.7124       1695.553       118.6765         55.077       62.30098         0.5735         0.5214       -47.9056     -0.9135666       0.623425              1
      8425.5000         0.7437       1627.307       115.2054        53.4686       59.48856         0.5884         0.5234        -48.087       -1.09761      0.5635864      0.9966341
      8426.0000         0.7248       1561.195        114.145        51.8505       56.65922         0.5852         0.5251       -48.2681      -1.281353      0.5033876      0.9902982
      8426.5000          0.706       1530.955       115.3588        50.9423       55.06883         0.5777         0.5259       -48.4728      -1.488693      0.4695496      0.9831485
      8427.0000         0.6873       1508.676       117.0881        50.7197       54.67495         0.5702         0.5256       -48.7298      -1.748337      0.4611692      0.9741953
      8427.5000         0.6715       1537.557       119.1715        51.8129       56.57744         0.5535         0.5212       -48.9871      -2.008278      0.5016477      0.9652318
      8428.0000         0.6799       1569.836       119.9541        53.3041       59.17448         0.5326         0.5141       -49.2444      -2.268223      0.5569039      0.9562682
      8428.5000         0.6884       1615.268       120.2654        55.0214       62.16615         0.5118         0.5054        -49.414      -2.440468      0.6205565      0.9503287
      8429.0000         0.6954       1674.777       120.5792        57.3481       66.22134         0.4909         0.4931       -49.5757      -2.604809      0.7068371      0.9446617
      8429.5000         0.6884       1737.199       121.0845        60.3013       71.36996         0.4769         0.4837       -49.7375      -2.769253      0.8163821      0.9389913
      8430.0000         0.6785       1805.154       121.9991        62.5071       75.21413         0.4653          0.471       -49.8989      -2.933296      0.8981729      0.9333346
      8430.5000         0.6682        1876.41       122.9843        64.2607       78.26917         0.4536         0.4542       -49.6177      -2.654739      0.9631737        0.94294
      8431.0000         0.6575       1963.391       123.9292        65.4822       80.39555          0.442         0.4386       -49.2619      -2.301586              1      0.9551177
      8431.5000         0.6468       2039.404        125.188        66.6431       82.41616         0.4304          0.426       -48.3851      -1.427429              1      0.9852611
      8432.0000         0.6361       2108.133       126.3214         67.238         83.449         0.4187         0.4182       -47.5096     -0.5545731              1              1
      8432.5000         0.6254       2164.344       127.4877        65.9779       81.24448         0.4194         0.4115       -46.6364      0.3159904              1              1
      8433.0000         0.6195       2214.191       128.1067        64.7178       79.03992         0.4259         0.4061       -45.7657       1.184044      0.9795727              1
      8433.5000         0.6141       2217.203         128.46        63.4855       76.88388         0.4324         0.4067       -45.3162       1.630901      0.9336996              1
      8434.0000         0.6142       2198.855       128.5723        62.6571       75.43276         0.4388           0.41       -45.0168       1.927658      0.9028247              1
      8434.5000         0.6164       2155.848       128.3572        61.8287       73.98162         0.4453         0.4184       -44.9757       1.966114      0.8719494              1
      8435.0000         0.6196       2112.844       127.9141        61.0015       72.53259         0.4518         0.4283       -45.1952       1.743969      0.8411188              1
      8435.5000         0.6259       2069.789       127.4628        60.1732       71.08163         0.4582          0.434        -45.415       1.521526      0.8102474              1
      8436.0000         0.6322       2025.182       126.8505        59.3447       69.63033         0.4663           0.44       -45.7391       1.194782      0.7793686              1
      8436.5000         0.6379         1978.1       126.2448        58.5986       68.32281         0.4744         0.4448       -46.0729      0.8583412      0.7515491              1
      8437.0000         0.6414       1949.582       125.6865        58.0912       67.43189         0.4824         0.4495       -46.4067      0.5218964      0.7325935              1
      8437.5000          0.645       1934.559       125.0985        57.5839       66.54115         0.4905         0.4554        -46.676      0.2499542      0.7136414              1
      8438.0000         0.6486       1919.537       124.6583        57.0766        65.6504         0.4986         0.4603       -46.8783     0.04500961      0.6946893              1
      8438.5000          0.652       1904.488       124.2643        56.5693       64.75965         0.4996          0.463       -47.0806      -0.159935      0.6757373              1
      8439.0000         0.6531       1905.283       123.8398        57.5585       66.48064         0.4955         0.4637       -47.1978     -0.2797737      0.7123539              1
      8439.5000         0.6541       1906.541       123.4506        59.1065       69.17682         0.4915         0.4615       -47.1328     -0.2174187      0.7697195              1
      8440.0000         0.6551       1914.416       123.1815        60.6133       71.80112         0.4875         0.4585       -47.0677     -0.1549606      0.8255559              1
      8440.5000         0.6559       1930.676       123.4124         61.004       72.47758         0.4835         0.4553       -47.0027    -0.09260559      0.8399486              1
      8441.0000         0.6559       1946.938       124.4899        60.7427       72.01618         0.4771          0.452       -46.9376    -0.03014755      0.8301315              1
      8441.5000         0.6559       1963.197       125.5026        60.4812       71.55441         0.4698         0.4506       -46.8843     0.02050781      0.8203065              1
      8442.0000         0.6559       1979.457       125.4619          60.22       71.09316         0.4625         0.4497       -46.9026  -0.0004348755      0.8104928              1
