#------------------------------------------------------------------------------
# Created by    : vladimir.rabinovich
# Created on    : 09/19/2023 17:21:26
#------------------------------------------------------------------------------
~Version Information Section
VERS.           2.0     :   CWLS log ASCII Standard - VERSION 2.0
WRAP.           NO      :   One line per depth step
~Well Information Section
#MNEM       .UNIT                                         VALUE :DESCRIPTION
#------------------------------------------------------------------------------
STRT        .FT                                            3102 :START DEPTH
STOP        .FT                                            8740 :STOP DEPTH
STEP        .FT                                             0.5 :STEP      
NULL        .                                           -999.25 :NULL      
COMP        .                          SEAGULL ENERGY E & P INC :COMPANY   
WELL        .                               OCS G13314 ST00BP00 :WELL      
FLD         .                              GALVESTON BLOCK 0330 :FIELD     
LOC         .                                                   :LOCATION  
CNTY        .                             GALVESTON LARGE BLOCK :LOCATION  
STAT        .                                             TEXAS :STATE     
CTRY        .                                     UNITED STATES :COUNTRY   
SRVC        .                                                   :SERVICE COMPANY
DATE        .                             9/13/2023 11:19:54 AM :LOG DATE  
API         .                                    42706403240000 :API NUMBER
UWI         .                                    42706403240000 :UNIQUE WELL ID
XCOORD      .                                  980373.867630971 :SURFACE X 
YCOORD      .                                  10452895.3513713 :SURFACE Y 
LAT         .                                         28.787844 :LATITUDE  
LON         .                                        -95.061044 :LONGITUDE 
ELEV        .FT                                              95 :ELEVATION VALUE
ELEV_TYPE   .                                                KB :ELEVATION REFERENCE TYPE
~Curve Information Section
#MNEM       .UNIT                                      API CODE :CURVE DESCRIPTION
#------------------------------------------------------------------------------
DEPT        .FT                                                 :DEPTH     
CALI        .IN                                                 :          
DRHO        .G/C3                                               :          
DT          .US/F                                               :          
GR          .GAPI                                               :          
GR_1        .GAPI                                               :          
GR_NORM     .GAPI                                               :GammaRay Normalized
ILD         .OHMM                                               :          
ILM         .OHMM                                               :          
NPHI        .%                                                  :          
RFOC        .OHMM                                               :          
RHOB        .G/C3                                               :          
SP          .MV                                                 :          
SP_NORM     .MV                                                 :SP Normalized
VSH_GR      .V/V                                                :Volume of Shale from GR
VSH_SP      .V/V                                                :Volume of Shale from SP
~A        DEPTH           CALI           DRHO             DT             GR           GR_1        GR_NORM            ILD            ILM           NPHI           RFOC           RHOB             SP        SP_NORM         VSH_GR         VSH_SP
# ...
      5023.0000        -999.25        -999.25       122.0574         44.335        -999.25       51.95268         0.4884         0.6185        -999.25         1.2133        -999.25       -70.8883      -40.27021      0.4032485      0.4966223
      5023.5000        -999.25        -999.25       122.0219        41.5858        -999.25       48.84746         0.4488         0.5587        -999.25         1.2931        -999.25        -77.938      -47.32019        0.33718      0.4084977
      5024.0000        -999.25        -999.25       121.7509        38.2655        -999.25       45.09719         0.4019         0.4834        -999.25         1.5093        -999.25       -85.0804      -54.46285       0.257387      0.3192144
      5024.5000        -999.25        -999.25       121.0514        35.7858        -999.25       42.29637          0.352         0.4277        -999.25         1.6125        -999.25       -92.2228      -61.60552      0.1977951       0.229931
      5025.0000        -999.25        -999.25       119.9393        36.7994        -999.25       43.44123         0.3229         0.3889        -999.25         1.5163        -999.25       -98.8719      -68.25489      0.2221538      0.1468139
      5025.5000        -999.25        -999.25       119.0068        39.8008        -999.25       46.83131         0.3074         0.3781        -999.25         1.3169        -999.25      -100.5936      -69.97685      0.2942832      0.1252894
      5026.0000        -999.25        -999.25       118.9196        44.6366        -999.25       52.29333         0.3024          0.387        -999.25         1.1682        -999.25       -99.4023      -68.78582      0.4104965      0.1401772
      5026.5000        -999.25        -999.25       120.2411        50.6986        -999.25       59.14035         0.3052         0.4108        -999.25         1.0371        -999.25       -86.7566      -56.14039      0.5561777      0.2982451
      5027.0000        -999.25        -999.25       123.0824        52.6622        -999.25       61.35823         0.3156         0.4452        -999.25         0.9675        -999.25       -74.6003      -43.98436      0.6033666      0.4501955
      5027.5000        -999.25        -999.25       125.2617        53.0242        -999.25       61.76711         0.3448         0.4908        -999.25         0.9784        -999.25       -66.8906      -36.27493      0.6120661      0.5465634
      5028.0000        -999.25        -999.25       123.1023        52.9942        -999.25       61.73323         0.3979         0.5257        -999.25         1.2271        -999.25       -64.0574      -33.44199      0.6113454      0.5819751
      5028.5000        -999.25        -999.25        122.646        55.0597        -999.25       64.06621         0.4433         0.5632        -999.25          1.353        -999.25       -61.2983      -30.68316      0.6609831      0.6164605
      5029.0000        -999.25        -999.25       126.4436        60.1378        -999.25        69.8019         0.4834         0.5984        -999.25         1.1778        -999.25       -56.4551      -25.84023      0.7830192      0.6769972
      5029.5000        -999.25        -999.25       132.3181        64.9933        -999.25       75.28619         0.5241         0.6271        -999.25         1.0194        -999.25       -45.7341      -15.11949      0.8997061      0.8110064
      5030.0000        -999.25        -999.25       135.5186        67.2295        -999.25       77.81198         0.5521         0.6547        -999.25         0.9843        -999.25       -39.0516      -8.437262      0.9534464      0.8945342
      5030.5000        -999.25        -999.25       137.9285        68.5596        -999.25       79.31432         0.5801         0.6764        -999.25         1.0303        -999.25        -35.968      -5.353926      0.9854111      0.9330759
      5031.0000        -999.25        -999.25       141.0854        70.3519        -999.25       81.33872         0.6061         0.6959        -999.25         1.0355        -999.25       -33.3721      -2.758295              1      0.9655213
      5031.5000        -999.25        -999.25       145.7183        71.5238        -999.25       82.66238         0.6344          0.714        -999.25         1.0302        -999.25       -31.5253     -0.9117603              1       0.988603
      5032.0000        -999.25        -999.25       150.6902         71.567        -999.25       82.71119          0.664         0.7287        -999.25         1.0463        -999.25       -30.4438      0.1694717              1              1
      5032.5000        -999.25        -999.25       152.1453        71.5618        -999.25        82.7053         0.6945         0.7389        -999.25         1.0791        -999.25       -29.9666      0.6464024              1              1
      5033.0000        -999.25        -999.25        149.314        72.3533        -999.25        83.5993         0.7037         0.7379        -999.25         1.0795        -999.25       -29.7086      0.9041367              1              1
      5033.5000        -999.25        -999.25        145.843        73.6052        -999.25       85.01332         0.7129         0.7302        -999.25         1.0698        -999.25       -29.6727      0.9397678              1              1
      5034.0000        -999.25        -999.25       143.4031        73.3508        -999.25       84.72598         0.7223          0.722        -999.25         1.0853        -999.25        -29.725      0.8872013              1              1
      5034.5000        -999.25        -999.25       144.1624         72.548        -999.25       83.81921         0.7126         0.7093        -999.25         1.0851        -999.25       -29.9455      0.6664352              1              1
      5035.0000        -999.25        -999.25       148.0371        72.4005        -999.25       83.65261         0.6949         0.6951        -999.25         1.0296        -999.25       -30.2839      0.3277683              1              1
      5035.5000        -999.25        -999.25       154.3855        72.7457        -999.25       84.04252         0.6774          0.681        -999.25         0.9651        -999.25       -30.6807    -0.06930161              1      0.9991337
      5036.0000        -999.25        -999.25       159.8264        73.2072        -999.25       84.56377         0.6609         0.6671        -999.25         0.9193        -999.25       -31.2458     -0.6346684              1      0.9920666
      5036.5000        -999.25        -999.25       163.6589         73.603        -999.25       85.01083          0.645         0.6562        -999.25          0.918        -999.25       -31.8674      -1.256535              1      0.9842933
      5037.0000        -999.25        -999.25       166.7185        74.6747        -999.25       86.22131         0.6293         0.6469        -999.25         0.9443        -999.25       -32.4733      -1.862703              1      0.9767162
      5037.5000        -999.25        -999.25       168.3491         75.085        -999.25       86.68475          0.615         0.6406        -999.25         0.9724        -999.25       -31.4449     -0.8345699              1      0.9895679
      5038.0000        -999.25        -999.25       167.2969        74.1506        -999.25       85.62934         0.6053         0.6348        -999.25         0.9667        -999.25       -31.1839     -0.5738392              1       0.992827
      5038.5000        -999.25        -999.25       163.7263         72.844        -999.25       84.15355         0.5983         0.6321        -999.25         0.9405        -999.25       -31.1241     -0.5143051              1      0.9935712
      5039.0000        -999.25        -999.25       159.6619         70.907        -999.25       81.96571         0.5948         0.6321        -999.25         0.9132        -999.25       -31.2491     -0.6395721              1      0.9920053
      5039.5000        -999.25        -999.25       156.1086        68.1022        -999.25       78.79769          0.592         0.6352        -999.25         0.9054        -999.25       -31.8818      -1.272539      0.9744189      0.9840932
