#------------------------------------------------------------------------------
# Created by    : vladimir.rabinovich
# Created on    : 09/19/2023 17:19:46
#------------------------------------------------------------------------------
~Version Information Section
VERS.           2.0     :   CWLS log ASCII Standard - VERSION 2.0
WRAP.           NO      :   One line per depth step
~Well Information Section
#MNEM       .UNIT                                         VALUE :DESCRIPTION
#------------------------------------------------------------------------------
STRT        .FT                                            3460 :START DEPTH
STOP        .FT                                           13634 :STOP DEPTH
STEP        .FT                                             0.5 :STEP      
NULL        .                                           -999.25 :NULL      
COMP        .                                SHELL OFFSHORE INC :COMPANY   
WELL        .                               OCS G06107 ST00BP00 :WELL      
FLD         .                                           WILDCAT :FIELD     
LOC         .                                                   :LOCATION  
CNTY        .                             GALVESTON LARGE BLOCK :LOCATION  
STAT        .                                             TEXAS :STATE     
CTRY        .                                     UNITED STATES :COUNTRY   
SRVC        .                                                   :SERVICE COMPANY
DATE        .                             9/13/2023 11:19:27 AM :LOG DATE  
API         .                                    42706401270000 :API NUMBER
UWI         .                                    42706401270000 :UNIQUE WELL ID
XCOORD      .                                  941908.785460496 :SURFACE X 
YCOORD      .                                  10441108.8632451 :SURFACE Y 
LAT         .                                         28.753553 :LATITUDE  
LON         .                                        -95.180411 :LONGITUDE 
ELEV        .FT                                              90 :ELEVATION VALUE
ELEV_TYPE   .                                                KB :ELEVATION REFERENCE TYPE
~Curve Information Section
#MNEM       .UNIT                                      API CODE :CURVE DESCRIPTION
#------------------------------------------------------------------------------
DEPT        .FT                                                 :DEPTH     
ASFL        .OHMM                                               :          
CALI        .IN                                                 :          
CILD        .MMHO                                               :          
DT          .US/F                                               :          
GR          .GAPI                                               :          
GR_1        .GAPI                                               :          
GR_NORM     .GAPI                                               :GammaRay Normalized
ILD         .OHMM                                               :          
ILM         .OHMM                                               :          
RHOB        .G/C3                                               :          
SP          .MV                                                 :          
VSH_GR      .V/V                                                :Volume of Shale from GR
~A        DEPTH           ASFL           CALI           CILD             DT             GR           GR_1        GR_NORM            ILD            ILM           RHOB             SP         VSH_GR
# ...
     11598.5000        -999.25         9.5969       1915.775       104.5363        -999.25        45.1656       69.28115         0.5315         0.6038         2.4229        -999.25      0.7719394
     11599.0000        -999.25          9.586       1974.184       106.3767        -999.25        46.9086       71.82906         0.5122         0.5853          2.427        -999.25      0.8261501
     11599.5000        -999.25         9.5818       2028.939       107.6899        -999.25        48.3892       73.99332         0.4904         0.5715         2.4301        -999.25      0.8721984
     11600.0000        -999.25         9.5889       2058.785       108.5237        -999.25        49.1519       75.10803         0.4939         0.5681         2.4284        -999.25      0.8959156
     11600.5000        -999.25         9.5956       2120.559       108.9855        -999.25         51.473        78.5011         0.4783         0.5528          2.428        -999.25      0.9681085
     11601.0000        -999.25         9.5874       2172.867       109.3086        -999.25        51.8229       79.01231         0.4631         0.5391         2.4279        -999.25      0.9789852
     11601.5000        -999.25         9.5844       2229.855       112.1313        -999.25        49.7409       75.96809         0.4541         0.5281         2.4177        -999.25      0.9142146
     11602.0000        -999.25         9.5826       2302.113       114.4719        -999.25        48.2959       73.85516         0.4449         0.5171         2.4019        -999.25      0.8692588
     11602.5000        -999.25         9.5825       2360.324       117.8099        -999.25        48.2178       73.74064         0.4367         0.5048         2.3917        -999.25      0.8668221
     11603.0000        -999.25         9.5902       2402.965       116.1002        -999.25        50.4911       77.06382          0.429          0.497         2.3891        -999.25      0.9375281
     11603.5000        -999.25         9.5963       2406.027        114.774        -999.25        51.9538       79.20192         0.4222         0.4927          2.396        -999.25      0.9830196
     11604.0000        -999.25         9.6003       2371.313       115.3306        -999.25        53.1421       80.93887         0.4272         0.4946         2.4033        -999.25              1
     11604.5000        -999.25         9.6013       2289.492       114.4313        -999.25        53.7228       81.78749         0.4341          0.496         2.4115        -999.25              1
     11605.0000        -999.25         9.6031       2196.477       111.6606        -999.25        53.7753       81.86389         0.4533         0.5101         2.4174        -999.25              1
     11605.5000        -999.25         9.6064       2105.699       104.2749        -999.25        53.1773       80.98928         0.4907         0.5311         2.4207        -999.25              1
     11606.0000        -999.25         9.6132       2005.359        99.2272        -999.25        51.3471       78.31319          0.512         0.5454         2.4176        -999.25      0.9641105
     11606.5000        -999.25         9.6235       1893.822        95.9656        -999.25        48.3513       73.93301         0.5343         0.5633         2.4002        -999.25      0.8709152
     11607.0000        -999.25         9.6316       1811.391         95.459        -999.25        46.1207       70.67155         0.5583         0.5817         2.3851        -999.25      0.8015224
     11607.5000        -999.25         9.6351       1727.025        96.1373        -999.25        44.5297       68.34518         0.5804         0.6079         2.3744        -999.25      0.7520252
     11608.0000        -999.25         9.6246       1684.283        98.6407        -999.25        43.1501       66.32788         0.5981         0.6376         2.3678        -999.25      0.7091038
     11608.5000        -999.25         9.6378       1659.375        99.7692        -999.25        42.4955        65.3705         0.6066         0.6458         2.3679        -999.25       0.688734
     11609.0000        -999.25         9.6482        1654.67       102.7891        -999.25         42.685       65.64721         0.6066         0.6468         2.3709        -999.25      0.6946214
     11609.5000        -999.25         9.6557       1670.951       103.2089        -999.25        44.3384        68.0641         0.6021         0.6378         2.3751        -999.25      0.7460448
     11610.0000        -999.25         9.6512       1696.445       101.3593        -999.25        44.9964       69.02574         0.5931         0.6258         2.3763        -999.25      0.7665051
     11610.5000        -999.25         9.6374        1719.75       100.8586        -999.25        42.4049       65.23666         0.5843         0.6159         2.3755        -999.25      0.6858863
     11611.0000        -999.25         9.6052       1740.307       101.0051        -999.25        40.7534       62.82182         0.5786         0.6112          2.379        -999.25      0.6345069
     11611.5000        -999.25         9.5959       1753.912       100.7321        -999.25        39.7531       61.35906          0.577         0.6112         2.3853        -999.25      0.6033842
     11612.0000        -999.25         9.6077       1755.291        99.3472        -999.25        40.2802       62.12933         0.5771         0.6103         2.3882        -999.25      0.6197729
     11612.5000        -999.25         9.6465       1745.191       100.0693        -999.25        41.5842        64.0354         0.5805         0.6103         2.3745        -999.25      0.6603277
     11613.0000        -999.25         9.7294       1732.166       101.8427        -999.25        42.0471       64.71181         0.5857         0.6124         2.3644        -999.25      0.6747195
     11613.5000        -999.25         9.8554       1723.426       103.2063        -999.25        40.8113       62.90474         0.5918         0.6155           2.36        -999.25      0.6362711
     11614.0000        -999.25         9.9982       1720.537        98.4792        -999.25        39.0314       60.30219         0.5951         0.6205          2.369        -999.25      0.5808976
     11614.5000        -999.25        10.0703       1728.195        96.7161        -999.25        36.9054       57.19365         0.5947          0.621         2.3711        -999.25      0.5147586
     11615.0000        -999.25        10.0278       1747.201        97.5887        -999.25        36.9822       57.30559         0.5885         0.6236         2.3688        -999.25      0.5171402
     11615.5000        -999.25         9.9394       1776.027        99.2094        -999.25        39.0063       60.26445         0.5726         0.6207         2.3666        -999.25      0.5800947
     11616.0000        -999.25         9.8437       1810.781       100.0311        -999.25        40.3632       62.24788         0.5515         0.6099         2.3715        -999.25      0.6222952
     11616.5000        -999.25         9.7214       1864.311       100.4065        -999.25        41.0505       63.25234         0.5371         0.5974         2.3785        -999.25      0.6436669
     11617.0000        -999.25         9.6249        1906.34       101.2041        -999.25        42.8178       65.83575         0.5301         0.5857         2.3824        -999.25      0.6986331
     11617.5000        -999.25         9.5867       1942.264        103.705        -999.25        46.4078       71.08396         0.5217         0.5742         2.3864        -999.25      0.8102971
     11618.0000        -999.25         9.5767       1982.461       105.5979        -999.25        50.8738       77.61285         0.5147         0.5629         2.3929        -999.25      0.9492095
     11618.5000        -999.25         9.5888       2007.318       106.6537        -999.25        54.0308       82.22799         0.5115         0.5528          2.399        -999.25              1
