#------------------------------------------------------------------------------
# Created by    : vladimir.rabinovich
# Created on    : 09/19/2023 17:21:24
#------------------------------------------------------------------------------
~Version Information Section
VERS.           2.0     :   CWLS log ASCII Standard - VERSION 2.0
WRAP.           NO      :   One line per depth step
~Well Information Section
#MNEM       .UNIT                                         VALUE :DESCRIPTION
#------------------------------------------------------------------------------
STRT        .FT                                            4234 :START DEPTH
STOP        .FT                                            7516 :STOP DEPTH
STEP        .FT                                             0.5 :STEP      
NULL        .                                           -999.25 :NULL      
COMP        .                          SEAGULL ENERGY E & P INC :COMPANY   
WELL        .                               OCS G11311 ST00BP00 :WELL      
FLD         .                                           WILDCAT :FIELD     
LOC         .                                                   :LOCATION  
CNTY        .                             GALVESTON LARGE BLOCK :LOCATION  
STAT        .                                             TEXAS :STATE     
CTRY        .                                     UNITED STATES :COUNTRY   
SRVC        .                                                   :SERVICE COMPANY
DATE        .                             9/13/2023 11:19:54 AM :LOG DATE  
API         .                                    42706403550000 :API NUMBER
UWI         .                                    42706403550000 :UNIQUE WELL ID
XCOORD      .                                  972569.007613557 :SURFACE X 
YCOORD      .                                  10477919.1442114 :SURFACE Y 
LAT         .                                         28.856272 :LATITUDE  
LON         .                                        -95.086774 :LONGITUDE 
ELEV        .FT                                              94 :ELEVATION VALUE
ELEV_TYPE   .                                                KB :ELEVATION REFERENCE TYPE
~Curve Information Section
#MNEM       .UNIT                                      API CODE :CURVE DESCRIPTION
#------------------------------------------------------------------------------
DEPT        .FT                                                 :DEPTH     
CALI        .IN                                                 :          
DPHI        .%                                                  :          
DRHO        .G/C3                                               :          
DTLN        .US/F                                               :          
GR          .GAPI                                               :          
GR_NORM     .GAPI                                               :GammaRay Normalized
IDPH        .OHMM                                               :          
IMPH        .OHMM                                               :          
NPHI        .%                                                  :          
SFLU        .OHMM                                               :          
SP          .MV                                                 :          
SP_NORM     .MV                                                 :SP Normalized
VSH_GR      .V/V                                                :Volume of Shale from GR
VSH_SP      .V/V                                                :Volume of Shale from SP
~A        DEPTH           CALI           DPHI           DRHO           DTLN             GR        GR_NORM           IDPH           IMPH           NPHI           SFLU             SP        SP_NORM         VSH_GR         VSH_SP
# ...
      6070.0000        10.0963        25.8611        -0.0275        99.3738        43.9552       46.13691         0.3672         0.4005        32.8322         0.8748      -120.0131      -63.00893      0.2795086     0.09987243
      6070.5000        10.1004        24.7309        -0.0264        99.6083        44.6299       46.79468         0.3705         0.4103        32.8469         0.7861      -117.3557      -60.53546      0.2935038      0.1352077
      6071.0000        10.1038         23.879        -0.0262       100.0583        46.2546       48.37996         0.3731         0.4196        33.1024         0.7477      -114.9396      -58.28721      0.3272331      0.1673256
      6071.5000        10.0776        24.0037        -0.0267       100.5391        49.2328       51.28667         0.3742         0.4253        33.6039         0.7995      -113.7766      -57.20852      0.3890781      0.1827354
      6072.0000        10.0621        25.4315        -0.0291       101.0299        51.6302       53.62635          0.377         0.4214         34.556          0.847      -113.2404      -56.71484      0.4388585       0.189788
      6072.5000        10.0815        27.0198        -0.0317       101.8197        52.5861       54.55866         0.3795         0.4104        37.1654         0.8404      -114.1401      -57.56133      0.4586949      0.1776953
      6073.0000        10.1146        27.5303        -0.0326       101.8751        53.0704       55.03053         0.3866          0.406        37.5726         0.8133      -114.6434      -58.03785      0.4687347      0.1708878
      6073.5000        10.1428        25.6845        -0.0298       100.3429        53.9134       55.85262         0.3931         0.4081        35.6099         0.7811      -113.5667      -57.03971      0.4862259       0.185147
      6074.0000        10.1591        23.7712        -0.0252        98.2593        55.8617       57.75382         0.3907         0.4231        31.9002         0.8181      -111.7004       -55.3046      0.5266771      0.2099343
      6074.5000        10.1304        21.1873        -0.0234        95.6266        56.2587       58.14047         0.3835         0.4419        29.2198         0.9402      -110.3134      -54.01684      0.5349036      0.2283309
      6075.0000        10.0857        21.2143        -0.0256          95.55        55.0513       56.96072         0.3763         0.4535        30.6068         1.0482      -109.9193      -53.65578      0.5098026      0.2334888
      6075.5000        10.0294        23.5796        -0.0297        96.7523        50.5927       52.60676         0.3687         0.4529        33.2985         1.1194      -111.1448      -54.80635      0.4171651      0.2170521
      6076.0000        10.0109        26.1366        -0.0336        98.5878        46.8868       48.98767         0.3613         0.4451        35.6085         1.0805      -115.5818      -58.95433      0.3401633      0.1577953
      6076.5000        10.0585        28.6651        -0.0373       100.4583        43.2738       45.45929          0.352         0.4199        36.4249         1.0287      -120.4556      -63.50998      0.2650912     0.09271453
      6077.0000        10.1174        30.5611        -0.0365       103.3041        41.1185       43.35408         0.3421         0.3902        36.7103         0.9468      -124.5215       -67.3116      0.2202995     0.03840572
      6077.5000         10.155        30.8748        -0.0333       104.5397        40.5383       42.78667          0.327         0.3627        37.9865          0.812      -126.2936      -68.97233      0.2082271     0.01468103
      6078.0000        10.1753         30.651        -0.0323       103.0697        39.5592        41.8298         0.3172         0.3371        37.9899          0.708      -127.2014      -69.82638      0.1878682    0.002480316
      6078.5000        10.1833        29.9803        -0.0329       101.1703         38.183       40.48524         0.3106         0.3297        37.5711         0.7117      -128.5347      -71.07757      0.1592605              0
      6079.0000        10.1757        29.2362        -0.0352        98.4098        37.2296       39.55347         0.3083         0.3293        36.5786         0.7529      -129.8784      -72.33847      0.1394356              0
      6079.5000         10.186        28.5843        -0.0398         95.426        37.8555       40.16361         0.3093         0.3325        35.2537         0.7591      -130.6948       -73.1072      0.1524172              0
      6080.0000        10.2196        28.1913        -0.0418        93.7548        39.1351       41.41195         0.3112         0.3379         34.065         0.7506      -131.2776      -73.65794      0.1789776              0
      6080.5000         10.257        27.9476        -0.0405        93.3922        40.2341       42.48397         0.3149         0.3424        33.4896         0.7388      -131.8035      -74.15554      0.2017866              0
      6081.0000        10.2833         27.858        -0.0393        93.7673        41.4736       43.69316         0.3192         0.3473        33.2349         0.6779      -131.7808      -74.14114       0.227514              0
      6081.5000        10.2872        27.7715        -0.0389        94.5961         44.438       46.58641         0.3227         0.3551        32.9891         0.5311      -130.5251      -72.97592      0.2890726              0
      6082.0000        10.2671        27.6176        -0.0382        95.9563        46.9019         48.991         0.3252         0.3574        33.0867         0.4508       -127.902      -70.53446      0.3402342              0
      6082.5000        10.1987        27.2983        -0.0364        97.4895        47.4501       49.52527         0.3263          0.359        34.6301         0.5662      -124.9603      -67.79565      0.3516015     0.03149065
      6083.0000        10.1562         26.957        -0.0339         99.024         45.271       47.39683         0.3241         0.3599        34.9447         0.9765      -122.3972      -65.41019      0.3063156     0.06556865
      6083.5000        10.1379        27.0588        -0.0315       100.5586        42.6704       44.85686         0.3194         0.3551        35.2862         1.1973      -121.4377      -64.52144      0.2522737     0.07826516
      6084.0000        10.1344        28.1292        -0.0317       101.8611        41.9465       44.14916         0.3115         0.3477          36.58         1.1984      -122.5648      -65.58017      0.2372162     0.06314043
      6084.5000        10.1626         29.734        -0.0323       103.4232        42.7469       44.92965         0.3007         0.3374        38.5756         0.9951      -124.9603      -67.82274      0.2538223     0.03110373
      6085.0000        10.2466        31.1847        -0.0323       105.1796        44.1137       46.26313         0.2915         0.3233        39.1332         0.6951      -127.1128      -69.83852      0.2821943    0.002306911
      6085.5000        10.3034        32.3041        -0.0321       106.6865        44.5475       46.68571         0.2884         0.3039        36.9064         0.4705      -128.4592      -71.10192      0.2911854              0
      6086.0000        10.3184        32.1162        -0.0332       107.1429        44.1087       46.25636         0.2903          0.295        34.5366         0.3866      -129.1167      -71.72237      0.2820501              0
      6086.5000        10.2574        31.4676        -0.0338       106.8627        44.0403       46.18861         0.2975         0.2959        33.8932         0.3792      -128.3049      -70.97147      0.2806088              0
      6087.0000        10.1589        30.5499         -0.033       106.1995        45.5947       47.70526         0.3074         0.3015        35.1339         0.3597      -124.1241      -67.07616      0.3128778     0.04176919
      6087.5000        10.0962        27.6995        -0.0311         105.54        53.0289       54.96245         0.3145         0.3156        37.8937         0.3161      -114.0752      -57.70396      0.4672861      0.1756577
