#------------------------------------------------------------------------------
# Created by    : vladimir.rabinovich
# Created on    : 09/19/2023 17:20:40
#------------------------------------------------------------------------------
~Version Information Section
VERS.           2.0     :   CWLS log ASCII Standard - VERSION 2.0
WRAP.           NO      :   One line per depth step
~Well Information Section
#MNEM       .UNIT                                         VALUE :DESCRIPTION
#------------------------------------------------------------------------------
STRT        .FT                                             546 :START DEPTH
STOP        .FT                                            8737 :STOP DEPTH
STEP        .FT                                             0.5 :STEP      
NULL        .                                           -999.25 :NULL      
COMP        .                                      SHELL OIL CO :COMPANY   
WELL        .                                OCS 00702 ST00BP00 :WELL      
FLD         .                                           WILDCAT :FIELD     
LOC         .                                                   :LOCATION  
CNTY        .                             GALVESTON LARGE BLOCK :LOCATION  
STAT        .                                             TEXAS :STATE     
CTRY        .                                     UNITED STATES :COUNTRY   
SRVC        .                                                   :SERVICE COMPANY
DATE        .                             9/13/2023 11:19:42 AM :LOG DATE  
API         .                                    42706000140000 :API NUMBER
UWI         .                                    42706000140000 :UNIQUE WELL ID
XCOORD      .                                  1138683.88536091 :SURFACE X 
YCOORD      .                                  10533063.1188688 :SURFACE Y 
LAT         .                                         29.014964 :LATITUDE  
LON         .                                        -94.570199 :LONGITUDE 
ELEV        .FT                                              72 :ELEVATION VALUE
ELEV_TYPE   .                                                KB :ELEVATION REFERENCE TYPE
~Curve Information Section
#MNEM       .UNIT                                      API CODE :CURVE DESCRIPTION
#------------------------------------------------------------------------------
DEPT        .FT                                                 :DEPTH     
ASN         .OHMM                                               :          
CILD        .MMHO                                               :          
ILD         .OHMM                                               :          
SP          .MV                                                 :          
SP_NORM     .MV                                                 :SP Normalized
VSH_SP      .V/V                                                :Volume of Shale from SP
~A        DEPTH            ASN           CILD            ILD             SP        SP_NORM         VSH_SP
# ...
      1078.0000         1.1331        -999.25         1.0286       -58.0508       3.591103              1
      1078.5000         1.1407        -999.25         1.0267       -58.5724       3.065624              1
      1079.0000         1.1482        -999.25         1.0249       -59.0942       2.539944              1
      1079.5000         1.1507        -999.25          1.023       -58.3248       3.305466              1
      1080.0000         1.1472        -999.25         1.0211       -56.8793       4.747089              1
      1080.5000         1.1436        -999.25         1.0181       -55.8335       5.789009              1
      1081.0000         1.1375        -999.25         1.0119       -54.7875       6.831131              1
      1081.5000         1.1235        -999.25         1.0058       -54.0103        7.60445              1
      1082.0000         1.1096        -999.25         0.9996       -53.7029        7.90797              1
      1082.5000         1.0956        -999.25         0.9934       -53.6363       7.970695              1
      1083.0000         1.0926        -999.25          0.987       -53.9363       7.666817              1
      1083.5000         1.0985        -999.25         0.9772       -54.2363       7.362934              1
      1084.0000         1.1075        -999.25         0.9675       -54.5362       7.059155              1
      1084.5000         1.1215        -999.25         0.9578       -55.7303       5.861179              1
      1085.0000         1.1354        -999.25         0.9481        -56.997       4.590599              1
      1085.5000         1.1475        -999.25         0.9383       -58.3502       3.233521              1
      1086.0000         1.1514        -999.25         0.9286       -59.6251       1.954742              1
      1086.5000         1.1237        -999.25         0.9243        -60.745      0.8309631              1
      1087.0000         1.0958        -999.25         0.9207       -61.8589     -0.2868118              1
      1087.5000         1.0758        -999.25         0.9171       -62.6227      -1.054493              1
      1088.0000         1.0478        -999.25         0.9135       -63.1896      -1.625275              1
      1088.5000         1.0077        -999.25           0.91       -62.6631      -1.102654              1
      1089.0000         0.9664        -999.25         0.9064       -62.1364     -0.5798264              1
      1089.5000         0.9333        -999.25         0.9149       -61.6099    -0.05720901              1
      1090.0000         0.9362        -999.25         0.9248       -61.1041      0.4447136              1
      1090.5000         0.9563        -999.25         0.9348       -60.6022      0.9427338              1
      1091.0000         0.9829        -999.25         0.9447       -60.9722      0.5688591              1
      1091.5000         1.0095        -999.25         0.9547       -61.6906     -0.1534233              1
      1092.0000         1.0362        -999.25         0.9684       -62.3303     -0.7970009              1
      1092.5000         1.0466        -999.25         0.9825         -62.97      -1.440582              1
      1093.0000         1.0528        -999.25         0.9965       -63.6099      -2.084362       0.996987
      1093.5000         1.0537        -999.25         1.0105       -63.6863      -2.164635      0.9941202
      1094.0000         1.0539        -999.25         1.0246       -63.5693      -2.051517      0.9981601
      1094.5000         1.0505        -999.25         1.0386        -63.426      -1.912094              1
      1095.0000         1.0471        -999.25          1.047       -63.2825      -1.772476              1
      1095.5000         1.0437        -999.25          1.047       -63.1391       -1.63295              1
      1096.0000         1.0403        -999.25         1.0469       -63.1673      -1.665031              1
      1096.5000         1.0369        -999.25         1.0469       -63.8986      -2.400211      0.9857067
      1097.0000         1.0361        -999.25         1.0469       -64.6299      -3.135387      0.9594504
      1097.5000         1.0361        -999.25         1.0445       -65.1981      -3.707466      0.9390191
      1098.0000           1.06        -999.25         1.0407        -65.701      -4.214241        0.92092
      1098.5000         1.0913        -999.25          1.037       -65.2831       -3.80022      0.9357064
      1099.0000         1.1227        -999.25         1.0332       -64.7321      -3.253105      0.9552463
      1099.5000         1.1442        -999.25         1.0294       -64.1809      -2.705784      0.9747934
      1100.0000         1.1297        -999.25         1.0256       -63.6298      -2.158558      0.9943372
      1100.5000         1.1151        -999.25         1.0218       -63.0787       -1.61134              1
      1101.0000         1.0997        -999.25         1.0181        -62.686      -1.222519              1
      1101.5000         1.0839        -999.25         1.0143       -62.3798     -0.9201965              1
      1102.0000         1.0681        -999.25         1.0113       -62.0737     -0.6179771              1
      1102.5000         1.0534        -999.25         1.0113       -61.7675     -0.3156548              1
      1103.0000         1.0499        -999.25         1.0113       -61.4666    -0.01863098              1
      1103.5000         1.0463        -999.25         1.0113        -62.094     -0.6499138              1
      1104.0000         1.0456        -999.25         1.0113       -62.5701       -1.12989              1
      1104.5000         1.0451        -999.25         1.0113       -63.0438      -1.607468              1
      1105.0000         1.0447        -999.25         1.0113       -63.2149      -1.782448              1
      1105.5000         1.0391        -999.25         1.0113       -62.8272      -1.398628              1
      1106.0000          1.032        -999.25         1.0113       -62.4394      -1.014706              1
      1106.5000         1.0249        -999.25         1.0125       -62.0517     -0.6308823              1
      1107.0000         1.0178        -999.25         1.0147       -61.7405     -0.3235626              1
      1107.5000         1.0123        -999.25         1.0168        -61.739     -0.3259392              1
      1108.0000         1.0079        -999.25          1.019       -63.1357      -1.726521              1
      1108.5000         1.0036        -999.25         1.0211       -64.5322      -3.126904      0.9597535
      1109.0000         1.0069        -999.25         1.0233       -65.2491      -3.847675      0.9340116
      1109.5000          1.012        -999.25         1.0254       -65.4506      -4.053055      0.9266766
      1110.0000          1.017        -999.25         1.0275       -65.0537      -3.660038      0.9407129
      1110.5000          1.022        -999.25         1.0295       -64.6417      -3.251915      0.9552888
      1111.0000         1.0271        -999.25         1.0312       -64.2295       -2.84359      0.9698718
      1111.5000         1.0294        -999.25         1.0329       -63.8174      -2.435371       0.984451
      1112.0000         1.0308        -999.25         1.0346       -63.4053      -2.027149      0.9990304
      1112.5000         1.0322        -999.25         1.0362       -62.9932      -1.618927              1
      1113.0000         1.0336        -999.25         1.0379       -62.6578      -1.287407              1
      1113.5000         1.0355        -999.25         1.0396       -62.5544      -1.187885              1
      1114.0000         1.0392        -999.25         1.0413       -62.9838      -1.621162              1
      1114.5000         1.0428        -999.25         1.0429       -63.4865      -2.127743      0.9954377
      1115.0000         1.0522        -999.25         1.0421        -63.989      -2.634121      0.9773528
      1115.5000         1.0742        -999.25          1.041       -64.4916      -3.140598      0.9592643
