#------------------------------------------------------------------------------
# Created by    : vladimir.rabinovich
# Created on    : 09/19/2023 17:20:03
#------------------------------------------------------------------------------
~Version Information Section
VERS.           2.0     :   CWLS log ASCII Standard - VERSION 2.0
WRAP.           NO      :   One line per depth step
~Well Information Section
#MNEM       .UNIT                                         VALUE :DESCRIPTION
#------------------------------------------------------------------------------
STRT        .FT                                             945 :START DEPTH
STOP        .FT                                           12004 :STOP DEPTH
STEP        .FT                                             0.5 :STEP      
NULL        .                                           -999.25 :NULL      
COMP        .                                    EXXON CO U S A :COMPANY   
WELL        .                                     ST TR 00819-L :WELL      
FLD         .                                           WILDCAT :FIELD     
LOC         .                                                   :LOCATION  
CNTY        .                        MUSTANG ISLAND LARGE BLOCK :LOCATION  
STAT        .                                             TEXAS :STATE     
CTRY        .                                     UNITED STATES :COUNTRY   
SRVC        .                                                   :SERVICE COMPANY
DATE        .                             9/13/2023 11:18:55 AM :LOG DATE  
API         .                                    42702301310000 :API NUMBER
UWI         .                                    42702301310000 :UNIQUE WELL ID
XCOORD      .                                  274042.524369281 :SURFACE X 
YCOORD      .                                  9990401.22532542 :SURFACE Y 
LAT         .                                        27.4671591 :LATITUDE  
LON         .                                       -97.2129423 :LONGITUDE 
ELEV        .FT                                              93 :ELEVATION VALUE
ELEV_TYPE   .                                                KB :ELEVATION REFERENCE TYPE
~Curve Information Section
#MNEM       .UNIT                                      API CODE :CURVE DESCRIPTION
#------------------------------------------------------------------------------
DEPT        .FT                                                 :DEPTH     
ASFL        .OHMM                                               :          
CILD        .MMHO                                               :          
GR          .GAPI                                               :          
GR_NORM     .GAPI                                               :GammaRay Normalized
ILD         .OHMM                                               :          
SP          .MV                                                 :          
SP_NORM     .MV                                                 :SP Normalized
VSH_GR      .V/V                                                :Volume of Shale from GR
VSH_SP      .V/V                                                :Volume of Shale from SP
~A        DEPTH           ASFL           CILD             GR        GR_NORM            ILD             SP        SP_NORM         VSH_GR         VSH_SP
# ...
      7570.0000         0.8999       1136.438        -999.25        -999.25         0.7993       -30.7562      0.2115192        -999.25              1
      7570.5000          0.897       1140.646        -999.25        -999.25         0.7985       -30.8698     0.09890175        -999.25              1
      7571.0000         0.8932       1144.879        -999.25        -999.25         0.7977       -30.9854    -0.01571465        -999.25              1
      7571.5000         0.8894       1149.145        -999.25        -999.25         0.7969       -31.1008     -0.1301327        -999.25              1
      7572.0000         0.8855       1153.414        -999.25        -999.25         0.7913       -31.2162     -0.2445507        -999.25              1
      7572.5000         0.8812       1159.777        -999.25        -999.25          0.785       -31.3318      -0.359169        -999.25              1
      7573.0000         0.8739       1169.549        -999.25        -999.25         0.7788       -31.4309     -0.4572868        -999.25              1
      7573.5000         0.8666       1179.045        -999.25        -999.25         0.7725         -31.51     -0.5354042        -999.25              1
      7574.0000         0.8592       1188.369        -999.25        -999.25         0.7663       -31.5891     -0.6135216        -999.25              1
      7574.5000         0.8503        1197.68        -999.25        -999.25         0.7608       -31.6681     -0.6915398        -999.25              1
      7575.0000         0.8414       1207.004        -999.25        -999.25         0.7557       -31.7397     -0.7621574        -999.25              1
      7575.5000         0.8324       1220.908        -999.25        -999.25         0.7506       -31.7832     -0.8046741        -999.25              1
      7576.0000          0.821       1234.963        -999.25        -999.25         0.7455       -31.8265     -0.8469925        -999.25              1
      7576.5000         0.8096       1253.908        -999.25        -999.25         0.7403       -31.8761     -0.8956108        -999.25              1
      7577.0000         0.7984       1276.404        -999.25        -999.25         0.7352        -31.954     -0.9725285        -999.25              1
      7577.5000         0.7875       1298.924        -999.25        -999.25         0.7301       -32.0319      -1.049444        -999.25      0.9991326
      7578.0000         0.7769        1321.52        -999.25        -999.25         0.7221       -32.1097      -1.126263        -999.25      0.9977849
      7578.5000         0.7663        1346.82        -999.25        -999.25         0.7111       -32.1876       -1.20318        -999.25      0.9964354
      7579.0000          0.756        1372.42        -999.25        -999.25         0.7001        -32.274      -1.288597        -999.25      0.9949369
      7579.5000         0.7465       1398.889        -999.25        -999.25         0.6891       -32.3766      -1.390215        -999.25      0.9931541
      7580.0000          0.736        1427.32        -999.25        -999.25         0.6781       -32.4791      -1.491734        -999.25      0.9913731
      7580.5000         0.7242       1458.506        -999.25        -999.25         0.6671       -32.5817      -1.593351        -999.25      0.9895903
      7581.0000         0.7103       1489.047        -999.25        -999.25         0.6561       -32.6843      -1.694969        -999.25      0.9878076
      7581.5000         0.6957       1492.328        -999.25        -999.25         0.6472       -32.8141      -1.823786        -999.25      0.9855476
      7582.0000          0.704       1495.254        -999.25        -999.25         0.6384       -32.9468      -1.955505        -999.25      0.9832367
      7582.5000         0.7126       1498.182        -999.25        -999.25         0.6297       -33.0795      -2.087221        -999.25      0.9809259
      7583.0000         0.7207       1501.107        -999.25        -999.25         0.6209       -33.2122      -2.218943        -999.25       0.978615
      7583.5000         0.7279       1504.709        -999.25        -999.25         0.6122       -33.3431      -2.348862        -999.25      0.9763358
      7584.0000         0.7248       1508.898        -999.25        -999.25         0.6034       -33.4692      -2.473978        -999.25      0.9741408
      7584.5000         0.7205       1513.094        -999.25        -999.25         0.6018       -33.5953      -2.599094        -999.25      0.9719457
      7585.0000         0.7159       1517.285        -999.25        -999.25         0.6007       -33.7214      -2.724215        -999.25      0.9697506
      7585.5000         0.7095        1521.76        -999.25        -999.25         0.5997       -33.8493      -2.851131        -999.25       0.967524
      7586.0000         0.7031       1526.926        -999.25        -999.25         0.5986        -34.007      -3.007849        -999.25      0.9647746
      7586.5000         0.6967       1532.096        -999.25        -999.25         0.5975       -34.1646      -3.164467        -999.25      0.9620269
      7587.0000         0.6973       1537.268        -999.25        -999.25         0.5964       -34.3221      -3.320986        -999.25       0.959281
      7587.5000         0.7009       1543.885        -999.25        -999.25         0.5953       -34.4683      -3.466202        -999.25      0.9567333
      7588.0000         0.7057       1550.725        -999.25        -999.25         0.5943       -34.5991      -3.596018        -999.25      0.9544559
      7588.5000         0.7105       1557.564        -999.25        -999.25         0.5929         -34.73      -3.725937        -999.25      0.9521766
      7589.0000          0.715       1564.406        -999.25        -999.25         0.5908       -34.7964      -3.791353        -999.25      0.9510289
      7589.5000         0.7168       1570.949        -999.25        -999.25         0.5887       -34.8223      -3.816273        -999.25      0.9505917
      7590.0000         0.7168       1577.336        -999.25        -999.25         0.5866       -34.7978      -3.790789        -999.25      0.9510388
      7590.5000         0.7127       1583.723        -999.25        -999.25         0.5845         -34.76      -3.752007        -999.25      0.9517192
      7591.0000         0.7091       1590.105        -999.25        -999.25         0.5824       -34.7223      -3.713327        -999.25      0.9523978
      7591.5000         0.7062        1596.25        -999.25        -999.25         0.5803       -34.6921      -3.682144        -999.25      0.9529448
      7592.0000         0.7032       1602.234        -999.25        -999.25         0.5783       -34.6622      -3.651262        -999.25      0.9534866
      7592.5000         0.7003       1608.225        -999.25        -999.25         0.5763       -34.6323       -3.62038        -999.25      0.9540284
      7593.0000         0.6978       1614.215        -999.25        -999.25         0.5755       -34.6025      -3.589598        -999.25      0.9545684
      7593.5000         0.6954       1622.086        -999.25        -999.25         0.5747       -34.5602      -3.546314        -999.25      0.9553278
      7594.0000          0.693       1631.334        -999.25        -999.25         0.5739        -34.488      -3.473131        -999.25      0.9566118
      7594.5000         0.6906       1640.584        -999.25        -999.25         0.5731       -34.4158      -3.399948        -999.25      0.9578956
      7595.0000         0.6883        1649.82        -999.25        -999.25         0.5723       -34.3436      -3.326769        -999.25      0.9591795
      7595.5000         0.6855       1656.264        -999.25        -999.25         0.5715       -34.2714      -3.253586        -999.25      0.9604634
      7596.0000          0.682       1661.857        -999.25        -999.25          0.582       -34.1815      -3.162703        -999.25      0.9620578
