#------------------------------------------------------------------------------
# Created by    : vladimir.rabinovich
# Created on    : 09/19/2023 17:22:48
#------------------------------------------------------------------------------
~Version Information Section
VERS.           2.0     :   CWLS log ASCII Standard - VERSION 2.0
WRAP.           NO      :   One line per depth step
~Well Information Section
#MNEM       .UNIT                                         VALUE :DESCRIPTION
#------------------------------------------------------------------------------
STRT        .FT                                             306 :START DEPTH
STOP        .FT                                           13139 :STOP DEPTH
STEP        .FT                                             0.5 :STEP      
NULL        .                                           -999.25 :NULL      
COMP        .                                    CITIES SERVICE :COMPANY   
WELL        .                                          SL 77337 :WELL      
FLD         .                                           WILDCAT :FIELD     
LOC         .                                                   :LOCATION  
CNTY        .                                BRAZOS LARGE BLOCK :LOCATION  
STAT        .                                             TEXAS :STATE     
CTRY        .                                     UNITED STATES :COUNTRY   
SRVC        .                                                   :SERVICE COMPANY
DATE        .                             9/13/2023 11:18:52 AM :LOG DATE  
API         .                                    42704301950000 :API NUMBER
UWI         .                                    42704301950000 :UNIQUE WELL ID
XCOORD      .                                   673900.18951543 :SURFACE X 
YCOORD      .                                   10333530.060148 :SURFACE Y 
LAT         .                                        28.4418955 :LATITUDE  
LON         .                                       -96.0077528 :LONGITUDE 
ELEV        .FT                                              82 :ELEVATION VALUE
ELEV_TYPE   .                                                KB :ELEVATION REFERENCE TYPE
~Curve Information Section
#MNEM       .UNIT                                      API CODE :CURVE DESCRIPTION
#------------------------------------------------------------------------------
DEPT        .FT                                                 :DEPTH     
DT          .US/F                                               :          
SP          .MV                                                 :          
SP_NORM     .MV                                                 :SP Normalized
VSH_SP      .V/V                                                :Volume of Shale from SP
~A        DEPTH             DT             SP        SP_NORM         VSH_SP
# ...
      4546.0000        98.1079        -77.874      -27.35647     0.09115627
      4546.5000        95.8931       -77.7338      -27.22462     0.09570286
      4547.0000        93.5422       -77.5934      -27.09256      0.1002564
      4547.5000        91.4421       -77.3107      -26.81821      0.1097169
      4548.0000        89.5839       -76.9956      -26.51146      0.1202945
      4548.5000        87.3728        -76.571      -26.09521       0.134648
      4549.0000         85.108       -75.9955      -25.52805      0.1542051
      4549.5000        82.7833        -75.408       -24.9489      0.1741758
      4550.0000        82.5377       -75.6857      -25.23495       0.164312
      4550.5000        84.6416       -76.4357       -25.9933      0.1381622
      4551.0000        87.8567        -77.177      -26.74295      0.1123121
      4551.5000        90.1014       -77.6543      -27.22859      0.0955658
      4552.0000        91.2925       -77.8508      -27.43344      0.0885019
      4552.5000        91.9536       -77.9769      -27.56789     0.08386586
      4553.0000        92.1486       -78.0858      -27.68514      0.0798228
      4553.5000        92.2784       -78.2103      -27.81799     0.07524188
      4554.0000        92.4181        -78.098      -27.71404     0.07882638
      4554.5000        92.5027        -77.606      -27.23038     0.09550397
      4555.0000        92.1287       -76.8655      -26.49823      0.1207506
      4555.5000        90.7961       -76.0033      -25.64438      0.1501937
      4556.0000        88.0612       -74.9952      -24.64463       0.184668
      4556.5000        84.6067       -73.6482      -23.30598      0.2308284
      4557.0000        -999.25       -72.1915      -21.85762      0.2807717
      4557.5000        -999.25       -70.6211      -20.29557      0.3346354
      4558.0000        -999.25       -69.2108      -18.89362      0.3829786
      4558.5000        -999.25       -67.9583      -17.64946      0.4258806
      4559.0000        -999.25        -66.917      -16.61652      0.4614995
      4559.5000        -999.25       -66.0029      -15.71076      0.4927323
      4560.0000        -999.25       -65.2002      -14.91641      0.5201237
      4560.5000        -999.25       -64.4037      -14.12826      0.5473014
      4561.0000        82.5439       -63.5278      -13.26071       0.577217
      4561.5000        88.1584       -62.5185      -12.25975      0.6117326
      4562.0000        91.5656       -61.2283       -10.9779      0.6559345
      4562.5000        95.9454       -59.2074      -8.965351      0.7253327
      4563.0000        98.8163       -57.4968        -7.2631       0.784031
      4563.5000       102.0065       -56.6146      -6.389248      0.8141639
      4564.0000       105.4908       -56.4359      -6.218895      0.8200381
      4564.5000       107.9626       -55.9763      -5.767643      0.8355985
      4565.0000       110.3721       -55.3835      -5.183189      0.8557521
      4565.5000       114.4714       -54.6442      -4.452236      0.8809574
      4566.0000       115.4429       -53.6826      -3.498985      0.9138281
      4566.5000       114.9371        -53.197      -3.021732      0.9302851
      4567.0000       111.0405       -53.3272      -3.160282      0.9255075
      4567.5000       107.1646       -54.1487      -3.990131       0.896892
      4568.0000       106.2305       -55.0021      -4.851879      0.8671766
      4568.5000       109.0452         -55.33      -5.188129      0.8555818
      4569.0000       113.0784       -55.0125      -4.878975      0.8662422
      4569.5000       116.3508       -54.2088      -4.083622      0.8936682
      4570.0000       117.8954       -53.4799      -3.363071      0.9185148
      4570.5000       118.0905        -52.851      -2.742519      0.9399132
      4571.0000       118.1506       -52.3671      -2.266964      0.9563116
      4571.5000       118.2466       -51.9654      -1.873615      0.9698753
      4572.0000       118.1541       -51.7553       -1.67186      0.9768324
      4572.5000       116.3296       -51.4868      -1.411709      0.9858031
      4573.0000       113.6744       -51.1786      -1.111858      0.9961428
      4573.5000       110.7712       -50.8962     -0.8378029              1
      4574.0000       107.1732       -50.8826     -0.8325539              1
      4574.5000       106.3657       -50.9737      -0.932003              1
      4575.0000       106.0482       -51.0479      -1.014549      0.9994983
      4575.5000       106.1093       -51.1539      -1.128899      0.9955552
      4576.0000       106.1927       -51.4404      -1.423744      0.9853882
      4576.5000       105.5938       -51.8893      -1.880993      0.9696209
      4577.0000       104.4595       -52.5007      -2.500671      0.9482527
      4577.5000       103.8076       -53.3234      -3.316925      0.9201061
      4578.0000       104.4508       -54.2876      -4.274689      0.8870797
      4578.5000       106.6133       -55.3707      -5.351345      0.8499536
      4579.0000       108.9204       -56.4081      -6.382305      0.8144033
      4579.5000       110.3977       -56.0715      -6.039261      0.8262324
      4580.0000       110.8025       -53.8915      -3.852818       0.901627
      4580.5000       110.0392       -52.1359      -2.090778       0.962387
      4581.0000       108.3506       -50.9089      -0.857338              1
      4581.5000       106.3003       -50.1922     -0.1341972              1
      4582.0000         104.83       -49.6973      0.3671455              1
      4582.5000       104.2999       -49.2837      0.7871857              1
      4583.0000       105.1329       -48.9794       1.097927              1
      4583.5000       108.3418       -48.6005       1.483269              1
      4584.0000       111.0056          -48.2       1.890209              1
      4584.5000        112.678       -47.2956       2.801048              1
      4585.0000       114.2083       -47.3885       2.714592              1
      4585.5000       116.1013       -48.3142        1.79533              1
      4586.0000       117.8591       -48.9624       1.153576              1
      4586.5000       117.1589       -49.5449      0.5775146              1
      4587.0000       109.6338       -50.0273      0.1015549              1
      4587.5000        99.0433       -50.4781     -0.3428001              1
      4588.0000         93.662        -50.999     -0.8572617              1
      4588.5000         93.778       -51.3842      -1.236019      0.9918614
      4589.0000        95.8781       -51.3318      -1.177177      0.9938904
      4589.5000         99.582       -50.8792     -0.7181358              1
      4590.0000       104.8199       -50.3323     -0.1647949              1
      4590.5000        108.343       -49.6244      0.5495453              1
      4591.0000        109.877       -49.2018      0.9785843              1
      4591.5000       111.0437       -49.3597      0.8271294              1
      4592.0000       112.1281       -49.7114      0.4818687              1
      4592.5000       113.4525         -49.54      0.6597099              1
      4593.0000       115.3412        -49.105       1.101151              1
      4593.5000       114.6497       -48.6286       1.583992              1
      4594.0000       109.2147       -48.1569       2.062138              1
      4594.5000       105.0918       -47.7695       2.455975              1
      4595.0000       101.4578       -47.5918       2.640118              1
      4595.5000       100.3035        -47.798       2.440357              1
      4596.0000       100.2673       -48.3004       1.944401              1
      4596.5000       101.6249       -49.1364       1.114841              1
      4597.0000       104.7252       -50.2857    -0.02801895              1
      4597.5000       108.2021       -51.1342      -0.870079              1
      4598.0000        111.734       -51.7354      -1.464836      0.9839712
      4598.5000       114.1359       -52.1188      -1.841797      0.9709725
