#------------------------------------------------------------------------------
# Created by    : vladimir.rabinovich
# Created on    : 09/19/2023 17:20:10
#------------------------------------------------------------------------------
~Version Information Section
VERS.           2.0     :   CWLS log ASCII Standard - VERSION 2.0
WRAP.           NO      :   One line per depth step
~Well Information Section
#MNEM       .UNIT                                         VALUE :DESCRIPTION
#------------------------------------------------------------------------------
STRT        .FT                                             409 :START DEPTH
STOP        .FT                                           13135 :STOP DEPTH
STEP        .FT                                             0.5 :STEP      
NULL        .                                           -999.25 :NULL      
COMP        .                         ATLANTIC RICHFIELD CO THE :COMPANY   
WELL        .                               OCS G04547 ST00BP00 :WELL      
FLD         .                                           WILDCAT :FIELD     
LOC         .                                                   :LOCATION  
CNTY        .                      MATAGORDA ISLAND LARGE BLOCK :LOCATION  
STAT        .                                             TEXAS :STATE     
CTRY        .                                     UNITED STATES :COUNTRY   
SRVC        .                                                   :SERVICE COMPANY
DATE        .                             9/13/2023 11:12:03 AM :LOG DATE  
API         .                                    42703401300000 :API NUMBER
UWI         .                                    42703401300000 :UNIQUE WELL ID
XCOORD      .                                  517134.995430583 :SURFACE X 
YCOORD      .                                  10172294.5320476 :SURFACE Y 
LAT         .                                         27.987424 :LATITUDE  
LON         .                                        -96.480505 :LONGITUDE 
ELEV        .FT                                              99 :ELEVATION VALUE
ELEV_TYPE   .                                                KB :ELEVATION REFERENCE TYPE
~Curve Information Section
#MNEM       .UNIT                                      API CODE :CURVE DESCRIPTION
#------------------------------------------------------------------------------
DEPT        .FT                                                 :DEPTH     
ASFL        .OHMM                                               :          
CILD        .MMHO                                               :          
GR          .GAPI                                               :          
GR_NORM     .GAPI                                               :GammaRay Normalized
ILD         .OHMM                                               :          
SP          .MV                                                 :          
SP_NORM     .MV                                                 :SP Normalized
VSH_GR      .V/V                                                :Volume of Shale from GR
VSH_SP      .V/V                                                :Volume of Shale from SP
~A        DEPTH           ASFL           CILD             GR        GR_NORM            ILD             SP        SP_NORM         VSH_GR         VSH_SP
# ...
     10558.5000         0.6928       1581.432         26.641        72.3427         0.6491       -37.9714       1.549557      0.8370788              1
     10559.0000         0.6859       1598.018        26.7362       72.60258         0.6446        -38.045        1.47596       0.842608              1
     10559.5000          0.679       1611.807        26.8311       72.86167         0.6373       -38.1182        1.40276      0.8481207              1
     10560.0000         0.6721       1624.367        26.9211       73.10757           0.63       -38.1074       1.413559      0.8533525              1
     10560.5000         0.6653       1636.928        26.9843       73.28136         0.6227       -38.0966       1.424358      0.8570501              1
     10561.0000         0.6586       1645.666        27.0476        73.4554         0.6154       -38.0858       1.435158      0.8607532              1
     10561.5000         0.6518       1650.705        27.1057       73.61546         0.6081        -38.075       1.445957      0.8641588              1
     10562.0000         0.6489       1654.742        26.9068       73.08382         0.6111       -38.0748       1.446159      0.8528473              1
     10562.5000         0.6475       1656.025        26.7082       72.55309         0.6161       -38.0967       1.424259      0.8415552              1
     10563.0000          0.646       1653.857         26.433       71.81613         0.6216       -38.1186       1.402359      0.8258752              1
     10563.5000         0.6447       1649.535        26.0281       70.73016         0.6274       -38.1405       1.380459      0.8027693              1
     10564.0000         0.6465       1640.182        25.6237       69.64546         0.6333       -38.1624       1.358559      0.7796907              1
     10564.5000         0.6483        1630.84        25.2187       68.55923         0.6384        -38.212       1.308956      0.7565795              1
     10565.0000         0.6501        1622.74        24.8144       67.47485         0.6385       -38.2753       1.245659      0.7335073              1
     10565.5000         0.6519       1617.195        24.3671        66.2747         0.6386       -38.3384       1.182556      0.7079724              1
     10566.0000         0.6532       1611.662        22.8497       62.19474         0.6387       -38.3958       1.125156      0.6211647              1
     10566.5000         0.6544       1606.117        23.4452       63.80105         0.6388       -38.4299       1.091057      0.6553415              1
     10567.0000         0.6555       1600.584        25.4701       69.25424         0.6389       -38.4642       1.056759      0.7713668              1
     10567.5000         0.6567       1594.969        26.1511        71.0907          0.639       -38.4872       1.033756      0.8104404              1
     10568.0000         0.6579       1586.385        26.2093       71.25102         0.6391       -38.4119       1.109058      0.8138515              1
     10568.5000          0.659       1577.791        26.2674       71.41108         0.6392       -38.3365        1.18446       0.817257              1
     10569.0000          0.661       1569.209        26.5027       72.04801         0.6382       -38.2612       1.259758      0.8308088              1
     10569.5000         0.6636       1561.031         25.713       69.92641         0.6362        -38.186       1.334957      0.7856684              1
     10570.0000         0.6661       1558.385          24.89       67.71523         0.6342       -38.1158       1.405159       0.738622              1
     10570.5000         0.6685       1562.676         24.011       65.35329         0.6323       -38.0542       1.466759      0.6883678              1
     10571.0000         0.6705       1582.203        23.1308       62.98816         0.6303       -37.9924       1.528557       0.638046              1
     10571.5000         0.6703       1604.912        22.8616       62.26739         0.6284       -37.9307        1.59026      0.6227105              1
     10572.0000         0.6637       1629.236        23.3749       63.65245         0.6223        -37.869       1.651958      0.6521797              1
     10572.5000         0.6571       1641.869        23.8871       65.03461         0.6158       -37.9011       1.619858      0.6815874              1
     10573.0000         0.6505       1654.502        24.4005       66.42001         0.6092       -37.9477       1.573257      0.7110641              1
     10573.5000         0.6469       1665.855        25.1127       68.34042         0.6035       -37.9944       1.526558      0.7519237              1
     10574.0000         0.6438       1676.246        25.9358       70.55927          0.599       -37.9928       1.528156      0.7991333              1
     10574.5000         0.6406       1701.102        26.7588       72.77785         0.5945       -37.9771       1.543858      0.8463373              1
     10575.0000         0.6375       1724.619        27.0619       73.59727         0.5932       -37.9614       1.559559      0.8637718              1
     10575.5000         0.6349       1727.994        27.3639       74.41369         0.5923       -37.8527       1.668259      0.8811423              1
     10576.0000          0.633       1731.369        28.8098       78.30869         0.5914       -37.7276       1.793358      0.9640148              1
     10576.5000         0.6312       1734.744        29.1684       79.27746         0.5905       -37.7551       1.765858      0.9846268              1
     10577.0000         0.6294       1735.443        28.2893        76.9153           0.59       -37.8577       1.663258      0.9343681              1
     10577.5000         0.6276       1735.436         27.463       74.69517         0.5895       -37.9601        1.56086      0.8871312              1
     10578.0000         0.6269       1729.043        27.4874       74.76456         0.5889        -38.058       1.462959      0.8886077              1
     10578.5000         0.6277       1715.422        27.7534       75.48409         0.5884       -38.1486       1.372356      0.9039167              1
     10579.0000         0.6285       1701.777        28.5752       77.69949         0.5879       -38.2393       1.281658      0.9510529              1
     10579.5000         0.6305       1687.119        29.3982       79.91807         0.5874       -38.3291       1.191856      0.9982567              1
     10580.0000         0.6358        1672.27        29.0623       79.01777         0.5867       -38.4146       1.106358      0.9791015              1
     10580.5000          0.641       1657.443        28.2703       76.88998         0.5861       -38.4397       1.081257      0.9338293              1
     10581.0000         0.6463       1639.098        27.6724       75.28456         0.5854         -38.38       1.140957      0.8996715              1
     10581.5000         0.6515       1625.477        27.0756       73.68213         0.5847       -38.3203       1.200657      0.8655772              1
     10582.0000         0.6599       1630.852        26.6692        72.5921         0.5841       -38.2601       1.260857      0.8423852              1
     10582.5000         0.6573       1636.229         26.539       72.24541         0.5874       -38.1963       1.324657      0.8350088              1
     10583.0000         0.6546       1641.604        26.4086       71.89816         0.5928       -38.1323       1.388657      0.8276205              1
     10583.5000         0.6519       1643.943        26.2145       71.37946         0.5981       -38.0684       1.452557      0.8165843              1
     10584.0000         0.6493       1645.438        25.9667       70.71627         0.6035       -38.0257       1.495258      0.8024738              1
     10584.5000         0.6457        1646.93         25.719       70.05333         0.6089        -38.023       1.497959      0.7883687              1
