#------------------------------------------------------------------------------
# Created by    : vladimir.rabinovich
# Created on    : 09/19/2023 17:20:37
#------------------------------------------------------------------------------
~Version Information Section
VERS.           2.0     :   CWLS log ASCII Standard - VERSION 2.0
WRAP.           NO      :   One line per depth step
~Well Information Section
#MNEM       .UNIT                                         VALUE :DESCRIPTION
#------------------------------------------------------------------------------
STRT        .FT                                             254 :START DEPTH
STOP        .FT                                            9030 :STOP DEPTH
STEP        .FT                                             0.5 :STEP      
NULL        .                                           -999.25 :NULL      
COMP        .                                    MOBIL OIL CORP :COMPANY   
WELL        .                                OCS 00724 ST00BP00 :WELL      
FLD         .                                           WILDCAT :FIELD     
LOC         .                                                   :LOCATION  
CNTY        .                             GALVESTON LARGE BLOCK :LOCATION  
STAT        .                                             TEXAS :STATE     
CTRY        .                                     UNITED STATES :COUNTRY   
SRVC        .                                                   :SERVICE COMPANY
DATE        .                             9/13/2023 11:19:25 AM :LOG DATE  
API         .                                    42706000340000 :API NUMBER
UWI         .                                    42706000340000 :UNIQUE WELL ID
XCOORD      .                                  1011870.95166473 :SURFACE X 
YCOORD      .                                   10400634.765487 :SURFACE Y 
LAT         .                                         28.645607 :LATITUDE  
LON         .                                        -94.960058 :LONGITUDE 
ELEV        .FT                                              34 :ELEVATION VALUE
ELEV_TYPE   .                                                KB :ELEVATION REFERENCE TYPE
~Curve Information Section
#MNEM       .UNIT                                      API CODE :CURVE DESCRIPTION
#------------------------------------------------------------------------------
DEPT        .FT                                                 :DEPTH     
ASN         .OHMM                                               :          
CALI        .IN                                                 :          
CILD        .MMHO                                               :          
DT          .US/F                                               :          
ILD         .OHMM                                               :          
SP          .MV                                                 :          
SP_NORM     .MV                                                 :SP Normalized
VSH_SP      .V/V                                                :Volume of Shale from SP
~A        DEPTH            ASN           CALI           CILD             DT            ILD             SP        SP_NORM         VSH_SP
# ...
      3174.5000         1.0143         8.9598       1181.074       145.7288         0.8555       -54.8502      -1.191662      0.9943629
      3175.0000         1.0006         8.9684       1194.746       144.3638         0.8452       -55.0951      -1.436562        0.98716
      3175.5000         0.9828          8.977       1208.383       138.9797         0.8348       -55.3929       -1.73436      0.9784012
      3176.0000         0.9658         8.9856       1221.908        138.718         0.8246       -55.7411      -2.082561        0.96816
      3176.5000         0.9537         8.9942       1235.426       138.9917         0.8145       -56.0891      -2.430561      0.9579247
      3177.0000         0.9416         9.0029       1244.686       139.2649         0.8043       -56.4183      -2.759762      0.9482423
      3177.5000          0.932         9.0041       1251.012       139.4465         0.7977       -56.5979      -2.939362        0.94296
      3178.0000         0.9225          8.998       1257.332        139.334         0.7914       -56.7775      -3.118961      0.9376776
      3178.5000         0.9153         8.9905       1262.219       138.8452         0.7851       -56.5772      -2.918663      0.9435687
      3179.0000         0.9086         8.9695       1266.145       138.5959         0.7788       -56.0342       -2.37566      0.9595394
      3179.5000         0.9019         8.9486       1270.082       139.5105          0.773       -55.5851      -1.926559      0.9727483
      3180.0000         0.8968          8.929       1278.713       140.3333         0.7681       -55.2814       -1.62286      0.9816806
      3180.5000         0.8918         8.9108       1287.342       142.4248         0.7632       -55.1031      -1.444561      0.9869246
      3181.0000         0.8868         8.8927       1302.377       146.0396         0.7582        -55.317      -1.658463      0.9806334
      3181.5000         0.8846         8.9404       1318.875       148.4473         0.7533       -55.5308      -1.872261      0.9743453
      3182.0000         0.8825          8.976       1335.658       149.0393         0.7502       -55.7445       -2.08596        0.96806
      3182.5000         0.8803         9.0116       1352.783       148.6519         0.7472       -55.9555      -2.296963       0.961854
      3183.0000         0.8781         9.0426       1370.201       148.4741         0.7442       -56.1221      -2.463562      0.9569541
      3183.5000         0.8763         9.0327       1392.686       150.3069         0.7412       -56.2888       -2.63026      0.9520512
      3184.0000         0.8745         9.0005        1412.25       151.5383          0.738       -56.3973      -2.738762      0.9488599
      3184.5000         0.8727         8.9682       1424.219       152.3364         0.7332       -56.3533      -2.694759      0.9501541
      3185.0000         0.8709          8.936       1435.436       153.2129         0.7285       -56.3093      -2.650761      0.9514482
      3185.5000         0.8691         8.9028       1439.082       153.8162         0.7237       -56.1948      -2.536263      0.9548158
      3186.0000         0.8657         8.8915       1441.766       154.4573         0.7217       -56.0515       -2.39296      0.9590306
      3186.5000         0.8621         8.9113       1435.145       155.3774         0.7244       -55.9083       -2.24976      0.9632424
      3187.0000         0.8584          8.944       1402.848        158.687          0.727       -55.7651       -2.10656      0.9674541
      3187.5000         0.8592         8.9843       1369.656       160.0457         0.7296       -55.6219       -1.96336      0.9716659
      3188.0000         0.8649         9.0246       1343.357       161.7405         0.7328       -55.4787       -1.82016      0.9758776
      3188.5000         0.8706         9.0622       1316.844       163.3713         0.7385       -55.3354      -1.676861      0.9800923
      3189.0000         0.8804         9.0978       1274.396       165.0183         0.7441       -55.1923       -1.53376      0.9843011
      3189.5000         0.9005         9.0925       1231.951       165.8301         0.7529       -55.0491       -1.39056      0.9885129
      3190.0000         0.9242         9.0678        1200.27       166.5679         0.7638       -54.9099      -1.251362       0.992607
      3190.5000         0.9412         9.0314       1177.445       167.6846         0.7748       -54.7811      -1.122562      0.9963952
      3191.0000         0.9505          8.995       1155.496       168.2771         0.7828       -54.6524     -0.9938622              1
      3191.5000         0.9541         8.9627       1133.762       167.6055         0.7889       -54.5379     -0.8793602              1
      3192.0000         0.9556         8.9506       1132.264       166.0693          0.795       -54.4293     -0.7707596              1
      3192.5000         0.9527         8.9385        1150.25       163.0007         0.7965       -54.4265     -0.7679596              1
      3193.0000         0.9483         8.9366         1183.6       158.0603         0.7952        -54.618     -0.9594612              1
      3193.5000         0.9439         8.9379       1231.701       154.8582         0.7936       -54.8096      -1.151062       0.995557
      3194.0000         0.9313         8.9449       1262.906       153.6118         0.7835       -55.1406      -1.482059      0.9858218
      3194.5000         0.9182         8.9834       1292.895       152.5652         0.7735       -55.7109      -2.052361      0.9690482
      3195.0000          0.902         9.0479       1321.057       150.8455         0.7634       -56.2318      -2.573261      0.9537276
      3195.5000         0.8847         9.1082       1341.314       145.7117         0.7534       -56.6612      -3.002663      0.9410982
      3196.0000         0.8759         9.1549       1356.496       146.7839         0.7435       -56.9202      -3.261662      0.9334806
      3196.5000         0.8677         9.2032       1371.678        153.114         0.7336       -56.8525      -3.193962      0.9354717
      3197.0000         0.8594         9.2198       1386.416       153.8555         0.7236       -56.7849      -3.126362      0.9374599
      3197.5000         0.8548         9.2314        1401.07       159.0403         0.7137       -56.7172      -3.058662      0.9394511
      3198.0000         0.8505          9.243       1410.535       163.3562         0.7038       -56.6495      -2.990963      0.9414423
      3198.5000         0.8461         9.2545       1419.059       164.5593         0.6963       -56.4675       -2.80896      0.9467953
      3199.0000         0.8454         9.3151       1427.574        165.436         0.6963       -56.1234      -2.464863      0.9569158
      3199.5000         0.8449         9.2699       1434.779       166.8459         0.6964       -55.7793      -2.120762      0.9670364
      3200.0000         0.8445          9.211       1441.771       168.4011         0.6964       -55.4352      -1.776661      0.9771571
      3200.5000         0.8474         9.1792       1449.336       171.6316         0.6995       -55.0883       -1.42976        0.98736
      3201.0000         0.8512         9.2126       1450.721       174.1582         0.7065       -54.7403       -1.08176      0.9975953
      3201.5000         0.8551          9.246       1449.928       174.5022         0.7135       -54.3924       -0.73386              1
      3202.0000         0.8591         9.2748       1436.188       176.0027         0.7204       -54.0592     -0.4006615              1
      3202.5000         0.8656          9.288       1422.102       176.1604         0.7274       -53.7829     -0.1243629              1
      3203.0000         0.8721         9.2745       1401.668       177.0735         0.7363       -53.6541    0.004440308              1
      3203.5000         0.8787          9.261       1379.207       177.3345          0.746       -53.9872     -0.3286629              1
