#------------------------------------------------------------------------------
# Created by    : vladimir.rabinovich
# Created on    : 09/19/2023 17:19:50
#------------------------------------------------------------------------------
~Version Information Section
VERS.           2.0     :   CWLS log ASCII Standard - VERSION 2.0
WRAP.           NO      :   One line per depth step
~Well Information Section
#MNEM       .UNIT                                         VALUE :DESCRIPTION
#------------------------------------------------------------------------------
STRT        .FT                                             880 :START DEPTH
STOP        .FT                                            8374 :STOP DEPTH
STEP        .FT                                             0.5 :STEP      
NULL        .                                           -999.25 :NULL      
COMP        .                                        EXXON CORP :COMPANY   
WELL        .                               OCS G04552 ST00BP00 :WELL      
FLD         .                                 BRAZOS BLOCK 0451 :FIELD     
LOC         .                                                   :LOCATION  
CNTY        .                                BRAZOS LARGE BLOCK :LOCATION  
STAT        .                                             TEXAS :STATE     
CTRY        .                                     UNITED STATES :COUNTRY   
SRVC        .                                                   :SERVICE COMPANY
DATE        .                             9/13/2023 11:19:08 AM :LOG DATE  
API         .                                    42704401130000 :API NUMBER
UWI         .                                    42704401130000 :UNIQUE WELL ID
XCOORD      .                                  760277.642000753 :SURFACE X 
YCOORD      .                                  10343629.6463693 :SURFACE Y 
LAT         .                                         28.475327 :LATITUDE  
LON         .                                        -95.739931 :LONGITUDE 
ELEV        .FT                                              95 :ELEVATION VALUE
ELEV_TYPE   .                                                KB :ELEVATION REFERENCE TYPE
~Curve Information Section
#MNEM       .UNIT                                      API CODE :CURVE DESCRIPTION
#------------------------------------------------------------------------------
DEPT        .FT                                                 :DEPTH     
ASFL        .OHMM                                               :          
CALI        .IN                                                 :          
CILD        .MMHO                                               :          
DT          .US/F                                               :          
GR          .GAPI                                               :          
GR_NORM     .GAPI                                               :GammaRay Normalized
ILD         .OHMM                                               :          
ILM         .OHMM                                               :          
RHOB        .G/C3                                               :          
SP          .MV                                                 :          
SP_NORM     .MV                                                 :SP Normalized
VSH_GR      .V/V                                                :Volume of Shale from GR
VSH_SP      .V/V                                                :Volume of Shale from SP
~A        DEPTH           ASFL           CALI           CILD             DT             GR        GR_NORM            ILD            ILM           RHOB             SP        SP_NORM         VSH_GR         VSH_SP
# ...
      7834.0000         1.6716        11.6538       744.9111        84.2307         38.273       52.36894         1.3647         1.6281         2.4705       -37.9288         1.2869      0.4121051              1
      7834.5000         1.7074        11.6465       720.2666        83.5464        39.3637        54.4776         1.3954         1.7837         2.4932       -38.2128         1.0029      0.4569701              1
      7835.0000         1.7608        11.6379       695.6211        81.0894        40.2357       56.16346         1.5003         1.9974         2.5092       -38.8411         0.3746      0.4928396              1
      7835.5000         1.9744        11.6261       670.9766        79.2279        41.1077       57.84931         1.6223         2.1449         2.5188       -39.6238        -0.4081      0.5287088       0.991838
      7836.0000         2.4949         11.615        635.624        77.6178        41.9371        59.4528         1.7546         2.2081         2.5146       -40.6467         -1.431      0.5628256        0.97138
      7836.5000         2.9661        11.6135       595.8926        76.6233        41.5249       58.65588         1.9145         2.2077         2.4651       -41.6481        -2.4324      0.5458698       0.951352
      7837.0000           2.87        11.6137       558.9629        76.0365        40.3337       56.35292         2.0138         2.1895         2.4301       -42.6245        -3.4088      0.4968706       0.931824
      7837.5000         2.7232        11.6171       540.3984        76.8335        39.1426       54.05014         2.0533         2.1689         2.4074       -43.2653        -4.0496      0.4478753       0.919008
      7838.0000         2.4955        11.6185        521.833        77.6003        37.9514       51.74736         2.0835         2.2459         2.3971       -42.8996        -3.6839        0.39888       0.926322
      7838.5000         2.3629        11.6218        503.269        77.8959        38.2247       52.27574         2.1072         2.3867         2.4378       -42.0464        -2.8307      0.4101221       0.943386
      7839.0000         2.2299        11.6283       479.6001        77.5778        38.6713       53.13899         2.1301         2.3097         2.4876       -41.0714        -1.8557      0.4284891       0.962886
      7839.5000         2.3214        11.6291       429.9106        76.9591        39.1161       53.99892         2.1502         2.1636         2.5187       -40.3677         -1.152      0.4467856        0.97696
      7840.0000         2.4479        11.6355       442.6704         75.929        39.5591       54.85557         2.1333         2.0535         2.5348       -39.7335        -0.5178      0.4650121       0.989644
      7840.5000         2.2164        11.6445       457.2324        76.2136         39.899       55.51251         2.1164         2.0028         2.5278       -39.5026        -0.2869      0.4789895       0.994262
      7841.0000         2.1314        11.6561       471.7939        78.5574        40.1144       55.92894         2.1053         1.9833          2.524       -39.5269        -0.3112      0.4878499       0.993776
      7841.5000         2.0936        11.6688       486.6558        80.7766        40.1754       56.04707         2.0964         1.9678         2.5202       -39.6696        -0.4539      0.4903631       0.990922
      7842.0000         2.0754        11.6817       521.8838        81.6974        40.2392       56.17021         2.0875         1.8963         2.5041        -39.812        -0.5963      0.4929832       0.988074
      7842.5000         2.0643        11.6946       557.1113        80.8192        40.3293        56.3446         2.0773         1.7602         2.4917       -39.8845        -0.6688      0.4966936       0.986624
      7843.0000         2.0469        11.7117       592.3398         79.323         40.536       56.74403         2.0659         1.6079         2.5161       -39.7991        -0.5834      0.5051921       0.988332
      7843.5000         2.0243         11.731       629.0186        78.2809        41.6594       58.91591         2.0545         1.4758         2.5503       -39.7136        -0.4979      0.5514023       0.990042
      7844.0000          1.978        11.7528       689.7666        79.1278        43.2551       62.00091         2.0184         1.3472         2.5649       -39.6282        -0.4125      0.6170407        0.99175
      7844.5000         1.8092        11.7745       750.6152        82.6907        44.6467       64.69149         1.9414         1.2302         2.4933       -39.5992        -0.3835       0.674287        0.99233
      7845.0000         1.7069        11.7876       811.4639         86.884        44.1033       63.64075         1.6357          1.139         2.4333       -39.6212        -0.4055      0.6519308        0.99189
      7845.5000         1.5231        11.8048       903.7373        89.5887        43.9839       63.40992         1.3127         1.0679         2.4213       -39.7416        -0.5259      0.6470195       0.989482
      7846.0000         1.4968        11.8179       999.6133        91.1187         45.057       65.48454         1.1345         1.0124          2.412       -39.8978        -0.6821      0.6911605       0.986358
      7846.5000         1.4706        11.8253       1053.506        92.3409        46.1992        67.6928         1.0468         0.9763         2.3987       -40.0539        -0.8382      0.7381448       0.983236
      7847.0000         1.4444        11.8232       1103.996        93.6007        47.3313       69.88168         0.9794         0.9529         2.3786       -40.2098        -0.9941      0.7847167       0.980118
      7847.5000         1.4182        11.8011       1145.104        95.1382         48.182       71.52618         0.9223         0.9533         2.3595        -40.368        -1.1523      0.8197059       0.976954
      7848.0000         1.3425        11.7694       1169.398         96.787        48.8354        72.7894         0.8986         0.9761         2.3416       -40.5297         -1.314      0.8465829        0.97372
      7848.5000         1.3042        11.7178       1193.691        97.9476        49.2607       73.61165         0.8749         1.0101         2.3286       -40.8232        -1.6075      0.8640776        0.96785
      7849.0000         1.3546        11.6489       1193.268        97.0122         49.644       74.35287          0.877         1.0365         2.3424       -41.3315        -2.1158      0.8798482       0.957684
      7849.5000         1.4436        11.5886       1186.049        94.0098        48.1028       71.37325         0.8831         1.0539         2.3699       -42.6508        -3.4351      0.8164522       0.931298
      7850.0000          1.515        11.5534       1178.844        89.6613        45.6827       66.69423         0.9137          1.065         2.4056       -43.7779        -4.5622      0.7168985       0.908756
      7850.5000         1.5616        11.5647       1171.049        87.4667        44.2252       63.87642         0.9476         1.0789         2.4432       -44.8196        -5.6039       0.656945       0.887922
      7851.0000         1.5959        11.6002       1130.717        87.2955        42.3052       60.16445         0.9814         1.1146         2.4646       -45.8361        -6.6204       0.577967       0.867592
      7851.5000         1.6306        11.6126       1090.385        87.3812        40.2759       56.24117         1.0152         1.1799         2.4846       -46.8413        -7.6256      0.4944929       0.847488
      7852.0000         1.6664        11.6206       1050.053        87.0066        39.5459       54.83004          1.059         1.2663         2.4997       -47.9232        -8.7075      0.4644689        0.82585
      7852.5000         1.7153        11.6298       944.9697        86.2573        41.1317       57.89589         1.1129          1.364         2.5093       -49.1835        -9.9678      0.5296999       0.800644
