#------------------------------------------------------------------------------
# Created by    : vladimir.rabinovich
# Created on    : 09/19/2023 17:22:47
#------------------------------------------------------------------------------
~Version Information Section
VERS.           2.0     :   CWLS log ASCII Standard - VERSION 2.0
WRAP.           NO      :   One line per depth step
~Well Information Section
#MNEM       .UNIT                                         VALUE :DESCRIPTION
#------------------------------------------------------------------------------
STRT        .FT                                            4658 :START DEPTH
STOP        .FT                                           10852 :STOP DEPTH
STEP        .FT                                             0.5 :STEP      
NULL        .                                           -999.25 :NULL      
COMP        .                             WALTER OIL & GAS CORP :COMPANY   
WELL        .                               OCS G04721 ST00BP00 :WELL      
FLD         .                              GALVESTON BLOCK 0350 :FIELD     
LOC         .                                                   :LOCATION  
CNTY        .                             GALVESTON LARGE BLOCK :LOCATION  
STAT        .                                             TEXAS :STATE     
CTRY        .                                     UNITED STATES :COUNTRY   
SRVC        .                                                   :SERVICE COMPANY
DATE        .                             9/13/2023 11:19:36 AM :LOG DATE  
API         .                                    42706401870000 :API NUMBER
UWI         .                                    42706401870000 :UNIQUE WELL ID
XCOORD      .                                  1032064.33467067 :SURFACE X 
YCOORD      .                                   10428906.138822 :SURFACE Y 
LAT         .                                        28.7242451 :LATITUDE  
LON         .                                       -94.8985179 :LONGITUDE 
ELEV        .FT                                              92 :ELEVATION VALUE
ELEV_TYPE   .                                                KB :ELEVATION REFERENCE TYPE
~Curve Information Section
#MNEM       .UNIT                                      API CODE :CURVE DESCRIPTION
#------------------------------------------------------------------------------
DEPT        .FT                                                 :DEPTH     
DT          .US/F                                               :          
GR          .GAPI                                               :          
GR_1        .GAPI                                               :          
GR_NORM     .GAPI                                               :GammaRay Normalized
ILD         .OHMM                                               :          
ILM         .OHMM                                               :          
NPHI        .%                                                  :          
RFOC        .OHMM                                               :          
RHOB        .G/C3                                               :          
SP          .MV                                                 :          
SP_NORM     .MV                                                 :SP Normalized
VSH_GR      .V/V                                                :Volume of Shale from GR
VSH_SP      .V/V                                                :Volume of Shale from SP
~A        DEPTH             DT             GR           GR_1        GR_NORM            ILD            ILM           NPHI           RFOC           RHOB             SP        SP_NORM         VSH_GR         VSH_SP
# ...
      9199.0000        -999.25        69.3892        -999.25       72.49417         0.5525         0.5917        39.0424         0.6357         2.4072       -44.7984     -0.1245734      0.8403015      0.9980835
      9199.5000        -999.25        69.3606        -999.25       72.45592         0.5563         0.5913        38.2072         0.6354         2.4009       -45.0547     -0.4252078      0.8394876      0.9934583
      9200.0000        -999.25        69.3812        -999.25       72.48347         0.5608         0.5902        35.9055         0.6385         2.3847       -45.2282     -0.6292445      0.8400738      0.9903193
      9200.5000        -999.25        69.9498        -999.25        73.2441         0.5631         0.5891        35.9978         0.6443         2.3779          -45.3      -0.714627      0.8562575      0.9890057
      9201.0000        -999.25        71.0964        -999.25       74.77797         0.5628          0.585        37.1412          0.658         2.3784       -45.3987     -0.8313987      0.8888929      0.9872093
      9201.5000        -999.25        71.5955        -999.25       75.44563         0.5616         0.5807        37.7694         0.6802         2.3841       -45.6791      -1.160147      0.9030986      0.9821516
      9202.0000        -999.25        71.5919        -999.25       75.44083         0.5572           0.58        37.2156         0.7032         2.3902        -45.574      -1.039152      0.9029965      0.9840131
      9202.5000        -999.25        71.5365        -999.25       75.36671         0.5512         0.5798        36.8494          0.705         2.4013       -45.3017     -0.7230873      0.9014195      0.9888756
      9203.0000        -999.25        70.6205        -999.25       74.14134          0.544         0.5696        37.7397         0.6656         2.4068       -44.8464     -0.1935202      0.8753477      0.9970227
      9203.5000        -999.25        68.6755        -999.25       71.53941         0.5351         0.5633        38.8831         0.6307          2.405         -44.39      0.3373286      0.8199875              1
      9204.0000        -999.25        68.7599        -999.25       71.65233         0.5235         0.5641        39.6111         0.6288          2.405       -44.5796      0.1145109        0.82239              1
      9204.5000        -999.25        70.0168        -999.25       73.33374         0.5233         0.5644        39.9747          0.633         2.4059       -44.7693     -0.1084226      0.8581647       0.998332
      9205.0000        -999.25        71.4666        -999.25        75.2732         0.5247         0.5644         40.234         0.6358         2.4025       -44.9655     -0.3389397      0.8994298      0.9947855
      9205.5000        -999.25        72.0317        -999.25       76.02917         0.5285         0.5652        40.1923         0.6366         2.3972       -45.1628     -0.5707429      0.9155142      0.9912193
      9206.0000        -999.25        71.9084        -999.25       75.86422         0.5301          0.566        40.1506         0.6333         2.3915       -45.3457     -0.7857456      0.9120046      0.9879116
      9206.5000        -999.25        71.4926        -999.25         75.308         0.5279         0.5665        40.3376         0.6327         2.3842       -45.6627      -1.157196      0.9001702       0.982197
      9207.0000        -999.25        70.7371        -999.25       74.29732         0.5257         0.5666        40.5512         0.6358         2.3774       -46.1951      -1.779947      0.8786663      0.9726162
      9207.5000        -999.25        69.8842        -999.25       73.15636         0.5242         0.5665        40.8043          0.639         2.3686       -46.4932      -2.129346      0.8543906      0.9672408
      9208.0000        -999.25        69.1392        -999.25       72.15974         0.5228         0.5589        40.8564         0.6389         2.3579       -46.4083      -2.031916      0.8331859      0.9687397
      9208.5000        -999.25        70.3292        -999.25       73.75166         0.5214          0.557        40.6197         0.6385         2.3659        -45.928      -1.473189      0.8670565      0.9773356
      9209.0000        -999.25        71.7299        -999.25       75.62543         0.5238         0.5607        40.1359         0.6283         2.3723        -45.584      -1.073469      0.9069241      0.9834851
      9209.5000        -999.25        72.7377        -999.25       76.97363         0.5263         0.5651         39.925         0.6199          2.377       -45.2654     -0.7033895       0.935609      0.9891786
      9210.0000        -999.25        73.3578        -999.25       77.80315         0.5287         0.5683        39.8076          0.623         2.3765       -45.2143     -0.6453864      0.9532586       0.990071
      9210.5000        -999.25        73.1177        -999.25       77.48195         0.5334         0.5716        39.1027         0.6321         2.3727       -45.2015     -0.6306953      0.9464244       0.990297
      9211.0000        -999.25        72.7216        -999.25       76.95207         0.5392         0.5738        38.9366         0.6319         2.3698       -45.1891     -0.6137924      0.9351504       0.990557
      9211.5000        -999.25          72.01        -999.25       76.00014         0.5442         0.5744        38.9677         0.6262         2.3736       -45.1773     -0.5975971      0.9148965      0.9908062
      9212.0000        -999.25        71.0829        -999.25       74.75991         0.5477          0.575        39.0699         0.6292         2.3795       -45.1655     -0.5814018      0.8885087      0.9910554
      9212.5000        -999.25        70.0936        -999.25       73.43647           0.55         0.5732        39.0674         0.6402         2.3889       -45.1794      -0.595185      0.8603504      0.9908433
      9213.0000        -999.25        69.3016        -999.25       72.37698         0.5478         0.5702        39.2091         0.6449          2.393        -45.197     -0.6132851       0.837808      0.9905648
      9213.5000        -999.25         69.749        -999.25       72.97549         0.5455         0.5672        39.7064          0.638         2.3923       -45.2242      -0.642587      0.8505424       0.990114
      9214.0000        -999.25        71.7299        -999.25       75.62543         0.5418         0.5669         39.722         0.6247         2.3952       -45.4451      -0.897871      0.9069241      0.9861866
      9214.5000        -999.25        73.3649        -999.25       77.81264         0.5378         0.5675        39.2947         0.6157         2.3975       -45.6726      -1.160859      0.9534605      0.9821407
      9215.0000        -999.25        74.2178        -999.25       78.95361         0.5343          0.568        38.9679         0.6136         2.3962       -46.0637       -1.61471      0.9777365      0.9751583
      9215.5000        -999.25        74.1362        -999.25       78.84445         0.5326         0.5678        39.1352         0.6265         2.3949       -46.3563      -1.953645      0.9754139      0.9699439
      9216.0000        -999.25        73.7826        -999.25       78.37142         0.5308         0.5676        39.6379         0.6337          2.389       -46.5016      -2.120725      0.9653494      0.9673735
      9216.5000        -999.25        73.0513        -999.25       77.39314         0.5325         0.5674        40.3927         0.6346         2.3807       -46.5444      -2.168229      0.9445348      0.9666426
      9217.0000        -999.25        73.2446        -999.25       77.65171         0.5351         0.5694        41.0455         0.6255         2.3744       -46.5281      -2.146783      0.9500364      0.9669726
      9217.5000        -999.25        73.7343        -999.25       78.30681         0.5375         0.5734        41.6835         0.6234         2.3736       -46.4971      -2.108184      0.9639747      0.9675664
