#------------------------------------------------------------------------------
# Created by    : vladimir.rabinovich
# Created on    : 09/19/2023 17:20:34
#------------------------------------------------------------------------------
~Version Information Section
VERS.           2.0     :   CWLS log ASCII Standard - VERSION 2.0
WRAP.           NO      :   One line per depth step
~Well Information Section
#MNEM       .UNIT                                         VALUE :DESCRIPTION
#------------------------------------------------------------------------------
STRT        .FT                                             495 :START DEPTH
STOP        .FT                                            9652 :STOP DEPTH
STEP        .FT                                             0.5 :STEP      
NULL        .                                           -999.25 :NULL      
COMP        .                                      SHELL OIL CO :COMPANY   
WELL        .                                OCS 00714 ST00BP00 :WELL      
FLD         .                                FEDERAL BLOCK 0288 :FIELD     
LOC         .                                                   :LOCATION  
CNTY        .                             GALVESTON LARGE BLOCK :LOCATION  
STAT        .                                             TEXAS :STATE     
CTRY        .                                     UNITED STATES :COUNTRY   
SRVC        .                                                   :SERVICE COMPANY
DATE        .                             9/13/2023 11:19:25 AM :LOG DATE  
API         .                                    42706000490000 :API NUMBER
UWI         .                                    42706000490000 :UNIQUE WELL ID
XCOORD      .                                  1093419.85109126 :SURFACE X 
YCOORD      .                                  10468907.9519753 :SURFACE Y 
LAT         .                                         28.836806 :LATITUDE  
LON         .                                        -94.708909 :LONGITUDE 
ELEV        .FT                                              83 :ELEVATION VALUE
ELEV_TYPE   .                                                KB :ELEVATION REFERENCE TYPE
~Curve Information Section
#MNEM       .UNIT                                      API CODE :CURVE DESCRIPTION
#------------------------------------------------------------------------------
DEPT        .FT                                                 :DEPTH     
ASN         .OHMM                                               :          
ASN_1       .OHMM                                               :          
CALI        .IN                                                 :          
CALI_1      .IN                                                 :          
DRHO        .G/C3                                               :          
DT          .US/F                                               :          
ILD         .OHMM                                               :          
LAT         .OHMM                                               :          
LN          .OHMM                                               :          
RHOB        .G/C3                                               :          
SP          .MV                                                 :          
SP_1        .MV                                                 :          
SP_NORM     .MV                                                 :SP Normalized
VSH_SP      .V/V                                                :Volume of Shale from SP
~A        DEPTH            ASN          ASN_1           CALI         CALI_1           DRHO             DT            ILD            LAT             LN           RHOB             SP           SP_1        SP_NORM         VSH_SP
# ...
      9171.0000         1.8822        -999.25        10.3382        -999.25         0.0445        81.2638         1.4631        -999.25        -999.25         2.2978        -999.25       -47.8707      -13.13258      0.6024078
      9171.5000         1.8753        -999.25        10.3698        -999.25         0.0934        89.0135         1.4753        -999.25        -999.25         2.3319        -999.25       -47.0535      -12.32602      0.6312136
      9172.0000         1.8402        -999.25        10.3867        -999.25         0.0572        92.7467         1.4871        -999.25        -999.25          2.356        -999.25       -46.8309      -12.11405      0.6387839
      9172.5000         1.8106        -999.25         10.393        -999.25         0.0213        93.8418         1.4711        -999.25        -999.25         2.3469        -999.25       -47.5728      -12.86659      0.6119075
      9173.0000         1.8124        -999.25        10.3866        -999.25         0.0234        91.2175         1.4685        -999.25        -999.25          2.349        -999.25       -48.3108      -13.61522      0.5851707
      9173.5000         1.8357        -999.25        10.3677        -999.25         0.0501        87.9205          1.489        -999.25        -999.25         2.3469        -999.25       -48.7194      -14.03445      0.5701981
      9174.0000         1.8875        -999.25         10.354        -999.25          0.082        86.4554          1.529        -999.25        -999.25         2.3361        -999.25       -49.2568      -14.58249      0.5506253
      9174.5000         1.9493        -999.25        10.3461        -999.25         0.0989        87.7947          1.595        -999.25        -999.25         2.3396        -999.25       -48.6126      -13.94893      0.5732527
      9175.0000         1.9971        -999.25        10.3406        -999.25         0.0738         90.301          1.704        -999.25        -999.25         2.3334        -999.25       -47.7297      -13.07666       0.604405
      9175.5000         2.0655        -999.25         10.336        -999.25         0.0789        90.0525         1.7995        -999.25        -999.25         2.3573        -999.25        -47.357       -12.7146      0.6173359
      9176.0000         2.1103        -999.25        10.3336        -999.25         0.0981        83.5936         1.8418        -999.25        -999.25         2.3957        -999.25       -46.2475      -11.61573       0.656581
      9176.5000          2.113        -999.25        10.3313        -999.25         0.1083        77.4945         1.8403        -999.25        -999.25         2.4102        -999.25        -45.283      -10.66187      0.6906477
      9177.0000          2.098        -999.25        10.3374        -999.25         0.0756        86.0945         1.7852        -999.25        -999.25         2.4031        -999.25       -45.7085        -11.098      0.6750714
      9177.5000         2.0629        -999.25        10.3448        -999.25         0.0488        91.5099         1.6947        -999.25        -999.25         2.3914        -999.25       -44.4714      -9.871536      0.7188737
      9178.0000         1.9991        -999.25        10.3614        -999.25         0.0264        88.0599         1.5795        -999.25        -999.25         2.3726        -999.25       -42.4143      -7.825069      0.7919618
      9178.5000         1.9591        -999.25         10.362        -999.25         0.0695        90.8441         1.4585        -999.25        -999.25         2.3538        -999.25       -39.8558      -5.277203       0.882957
      9179.0000         1.8555        -999.25        10.3529        -999.25          0.143        94.9282          1.346        -999.25        -999.25         2.3585        -999.25       -37.8279      -3.259937      0.9550022
      9179.5000          1.747        -999.25        10.3581        -999.25         0.1765        93.5361         1.2654        -999.25        -999.25         2.3556        -999.25       -37.0837      -2.526371      0.9812011
      9180.0000         1.6468        -999.25        10.3931        -999.25         0.1788        94.7123          1.211        -999.25        -999.25         2.3532        -999.25       -36.0271      -1.480408              1
      9180.5000         1.5575        -999.25        10.4901        -999.25         0.2448       102.0887          1.179        -999.25        -999.25         2.3728        -999.25       -35.5915      -1.055443              1
      9181.0000         1.5037        -999.25        10.5746        -999.25         0.2778       105.1406          1.164        -999.25        -999.25         2.3612        -999.25       -35.5172     -0.9917793              1
      9181.5000         1.4912        -999.25        10.5661        -999.25         0.3097       103.6001         1.1575        -999.25        -999.25         2.3501        -999.25       -35.5934      -1.078609              1
      9182.0000         1.5029        -999.25        10.5522        -999.25         0.2889       100.2987         1.1609        -999.25        -999.25         2.3497        -999.25       -34.6169     -0.1127472              1
      9182.5000         1.5546        -999.25        10.8709        -999.25         0.2557        93.9387         1.1936        -999.25        -999.25         2.3587        -999.25       -34.8985     -0.4049797              1
      9183.0000         1.6138        -999.25        11.1511        -999.25         0.2542        90.2167         1.2516        -999.25        -999.25         2.3819        -999.25       -34.9001     -0.4172173              1
      9183.5000         1.6754        -999.25        11.1088        -999.25         0.2793        94.5323         1.3411        -999.25        -999.25          2.408        -999.25       -34.8342     -0.3619537              1
      9184.0000          1.743        -999.25        11.0339        -999.25         0.2609        97.5156         1.4463        -999.25        -999.25         2.4235        -999.25       -34.9316     -0.4699821              1
      9184.5000         1.8289        -999.25        10.8633        -999.25         0.2723        92.6793         1.5795        -999.25        -999.25         2.4287        -999.25       -35.2312       -0.78022              1
      9185.0000         2.0596        -999.25        10.5769        -999.25         0.2348        87.2549         1.7466        -999.25        -999.25         2.4187        -999.25       -35.5623      -1.121956              1
      9185.5000         2.2634        -999.25        10.6174        -999.25          0.187        84.2053         1.8977        -999.25        -999.25         2.4029        -999.25       -35.9034       -1.47369              1
      9186.0000         2.4766        -999.25        10.9274        -999.25         0.1509         82.901         2.0198        -999.25        -999.25         2.3984        -999.25       -36.7285      -2.309425      0.9889491
      9186.5000         2.7033        -999.25        10.6628        -999.25         0.1136          72.34         2.0307        -999.25        -999.25         2.3857        -999.25       -38.0056      -3.597157      0.9429587
      9187.0000         2.9232        -999.25        10.8289        -999.25         0.0598        90.2684         1.9893        -999.25        -999.25          2.377        -999.25       -39.7501      -5.352291      0.8802753
      9187.5000         3.1076        -999.25        10.8694        -999.25         0.0338       123.6605         1.8932        -999.25        -999.25         2.3911        -999.25       -41.1081      -6.720928      0.8313954
      9188.0000         3.0926        -999.25        10.6133        -999.25         0.0271       130.2812         1.7654        -999.25        -999.25         2.4049        -999.25       -42.2052      -7.828663      0.7918335
      9188.5000         2.6992        -999.25        10.3447        -999.25         0.0238        86.2384         1.6199        -999.25        -999.25          2.412        -999.25        -43.761        -9.3951      0.7358893
