#------------------------------------------------------------------------------
# Created by    : vladimir.rabinovich
# Created on    : 09/19/2023 17:21:24
#------------------------------------------------------------------------------
~Version Information Section
VERS.           2.0     :   CWLS log ASCII Standard - VERSION 2.0
WRAP.           NO      :   One line per depth step
~Well Information Section
#MNEM       .UNIT                                         VALUE :DESCRIPTION
#------------------------------------------------------------------------------
STRT        .FT                                            4000 :START DEPTH
STOP        .FT                                            8085 :STOP DEPTH
STEP        .FT                                             0.5 :STEP      
NULL        .                                           -999.25 :NULL      
COMP        .                             WALTER OIL & GAS CORP :COMPANY   
WELL        .                               OCS G09047 ST00BP00 :WELL      
FLD         .                              GALVESTON BLOCK 0351 :FIELD     
LOC         .                                                   :LOCATION  
CNTY        .                             GALVESTON LARGE BLOCK :LOCATION  
STAT        .                                             TEXAS :STATE     
CTRY        .                                     UNITED STATES :COUNTRY   
SRVC        .                                                   :SERVICE COMPANY
DATE        .                             9/13/2023 11:19:36 AM :LOG DATE  
API         .                                    42706402000000 :API NUMBER
UWI         .                                    42706402000000 :UNIQUE WELL ID
XCOORD      .                                  1036183.96101641 :SURFACE X 
YCOORD      .                                  10437562.0132666 :SURFACE Y 
LAT         .                                        28.7482272 :LATITUDE  
LON         .                                       -94.8860948 :LONGITUDE 
ELEV        .FT                                              80 :ELEVATION VALUE
ELEV_TYPE   .                                                KB :ELEVATION REFERENCE TYPE
~Curve Information Section
#MNEM       .UNIT                                      API CODE :CURVE DESCRIPTION
#------------------------------------------------------------------------------
DEPT        .FT                                                 :DEPTH     
CALI        .IN                                                 :          
DRHO        .G/C3                                               :          
GR          .GAPI                                               :          
GR_NORM     .GAPI                                               :GammaRay Normalized
ILD         .OHMM                                               :          
ILM         .OHMM                                               :          
NPHI        .%                                                  :          
RHOB        .G/C3                                               :          
SFL         .OHMM                                               :          
SP          .MV                                                 :          
SP_NORM     .MV                                                 :SP Normalized
VSH_GR      .V/V                                                :Volume of Shale from GR
VSH_SP      .V/V                                                :Volume of Shale from SP
~A        DEPTH           CALI           DRHO             GR        GR_NORM            ILD            ILM           NPHI           RHOB            SFL             SP        SP_NORM         VSH_GR         VSH_SP
# ...
      4836.0000        10.0896         0.0583        96.2822       89.27818         0.5977         0.6183        41.4314         2.2567         0.7688       -47.9471     0.06165314              1              1
      4836.5000        10.1205         0.0532        94.1523       86.90633         0.6085          0.628        40.4301         2.2597         0.7822       -47.9376     0.07333374              1              1
      4837.0000        10.1461         0.0465         93.022       85.64516         0.6209         0.6411        39.5702         2.2631         0.7834       -47.9345     0.07861328              1              1
      4837.5000        10.1524         0.0396        92.9572       85.56788         0.6386         0.6545        38.9329         2.2677         0.7848       -48.1303     -0.1150055              1      0.9983571
      4838.0000        10.1587         0.0381          94.05       86.77682         0.6568         0.6685        38.3691         2.2723         0.7866       -48.3259     -0.3084259              1      0.9955939
      4838.5000        10.1649         0.0395        95.3033       88.16409         0.6748         0.6831        37.9547         2.2766         0.7926       -48.5029      -0.483242              1      0.9930965
      4839.0000        10.1629         0.0473        95.9839       88.91504         0.6873         0.6967        37.5403         2.2805         0.8038       -48.6376     -0.6157646              1      0.9912034
      4839.5000        10.1593         0.0602        96.0391       88.97109         0.7001         0.7033        37.4352         2.2844          0.821       -48.7723     -0.7482834              1      0.9893103
      4840.0000        10.1557         0.0571        94.6674        87.4417         0.6952         0.7069        37.3577         2.2885         0.8465       -48.9493     -0.9231033              1      0.9868128
      4840.5000        10.1521         0.0481         92.121       84.60709         0.6898         0.6884        37.8927         2.2927         0.8635       -49.1357      -1.107323              1      0.9841811
      4841.0000        10.1504         0.0406        89.5746       81.77247         0.6767         0.6703        38.7649         2.2946          0.856       -49.3221      -1.291542              1      0.9815494
      4841.5000        10.1589         0.0338        88.0551       80.07886         0.6632         0.6527        39.6751         2.2905         0.8221       -49.2552      -1.222462              1      0.9825363
      4842.0000        10.1675         0.0297        88.3625       80.41513         0.6493         0.6379          40.66         2.2852          0.792       -48.9874     -0.9524803              1      0.9863932
      4842.5000         10.176         0.0332        91.0536       83.39996         0.6337         0.6241        41.5128         2.2797         0.7871       -48.7197     -0.6826019              1      0.9902486
      4843.0000        10.1755         0.0369        92.6273       85.14323         0.6185         0.6106        41.9429         2.2731         0.7821       -48.2634     -0.2241211              1      0.9967983
      4843.5000        10.1717         0.0416        91.9458       84.38073         0.6036         0.6138        42.3105         2.2664         0.7763       -47.6906      0.3508606              1              1
      4844.0000         10.168         0.0464        91.6228       84.01656         0.5936         0.6205        42.4477         2.2623         0.7701       -47.1177      0.9259415              1              1
      4844.5000        10.2787          0.051        92.5756       85.06995          0.584         0.6389        42.5629         2.2597         0.7629       -47.1584      0.8874207              1              1
      4845.0000         10.267         0.0553        93.4515        86.0379         0.5841         0.6579        42.2437         2.2576          0.758       -47.6163      0.4317017              1              1
      4845.5000        10.2619         0.0545        94.2325       86.90039         0.5934         0.6779        40.9468         2.2582         0.7642       -48.4849     -0.4347191              1      0.9937897
      4846.0000        10.2732         0.0415        94.4348       87.11989         0.6054         0.6996        40.7975         2.2588         0.7993       -50.0773      -2.024937              1      0.9710723
      4846.5000        10.2845         0.0302        92.3704       84.82083          0.622          0.722        40.6477         2.2629         0.8463       -51.7385      -3.683956              1      0.9473721
      4847.0000        10.2876         0.0261        89.2054       81.29888         0.6388         0.7389        39.9372         2.2683         0.8896       -53.6566      -5.599876              1      0.9200017
      4847.5000        10.2892         0.0245        84.9531       76.56882         0.6538         0.7501        38.8776         2.2747         0.9163       -55.5274      -7.468498      0.9269963      0.8933071
      4848.0000        10.2997          0.028        81.9728        73.2521         0.6692         0.7524         38.048          2.282         0.9054       -57.3257      -9.264614      0.8564276      0.8676484
      4848.5000        10.3227         0.0294        80.1671       71.24048          0.675         0.7495        37.2677         2.2779         0.8844        -58.575      -10.51173      0.8136272      0.8498324
      4849.0000        10.3457         0.0273        79.4679       70.45831         0.6774         0.7467        36.5546         2.2741         0.8901       -59.7144      -11.64896      0.7969854      0.8335863
      4849.5000        10.3857         0.0196        77.7429       68.53636         0.6686          0.728        36.0283         2.2705         0.8965        -60.301      -12.23337      0.7560928      0.8252376
      4850.0000        10.4296          0.012        75.2365        65.7462           0.66         0.7097        36.7241         2.2748         0.8941       -60.1294      -12.05959      0.6967277      0.8277201
      4850.5000        10.4675         0.0129        73.6902        64.0228         0.6515         0.6918        37.5261         2.2803         0.8794       -59.2533      -11.18131      0.6600597      0.8402669
      4851.0000         10.476         0.0141        75.9822       66.56419         0.6436         0.6758        38.3235         2.2849         0.8579       -57.9186      -9.844429      0.7141316      0.8593653
      4851.5000        10.4841         0.0155        79.2294       70.16691         0.6358         0.6602        39.1173         2.2889         0.8381       -56.4035      -8.327152      0.7907853      0.8810407
      4852.0000        10.4921          0.018        82.5963       73.90262          0.628         0.6554        39.7463         2.2903         0.8325       -54.8759      -6.797371      0.8702685      0.9028947
      4852.5000           10.5         0.0204         85.619       77.25591         0.6234         0.6593        40.0677         2.2906         0.8199       -53.3097      -5.228992       0.941615      0.9253001
      4853.0000        10.5002         0.0249        88.2378       80.16039         0.6203         0.6627        40.0496         2.2905         0.8038       -51.7447      -3.661812              1      0.9476884
      4853.5000        10.4966         0.0304        89.8851       81.98545         0.6172         0.6612        39.8723         2.2894         0.7876       -50.5715      -2.486427              1      0.9644796
      4854.0000        10.4931         0.0387        91.0516       83.27628         0.6144         0.6598        39.7281         2.2882         0.7796       -49.4321      -1.344849              1      0.9807879
      4854.5000        10.4895         0.0516        90.5735       82.73978         0.6119         0.6584        39.6104         2.2869         0.7784       -48.6933     -0.6038666              1      0.9913734
