#------------------------------------------------------------------------------
# Created by    : vladimir.rabinovich
# Created on    : 09/19/2023 17:20:40
#------------------------------------------------------------------------------
~Version Information Section
VERS.           2.0     :   CWLS log ASCII Standard - VERSION 2.0
WRAP.           NO      :   One line per depth step
~Well Information Section
#MNEM       .UNIT                                         VALUE :DESCRIPTION
#------------------------------------------------------------------------------
STRT        .FT                                             400 :START DEPTH
STOP        .FT                                           11002 :STOP DEPTH
STEP        .FT                                             0.5 :STEP      
NULL        .                                           -999.25 :NULL      
COMP        .                            STANOLIND OIL & GAS CO :COMPANY   
WELL        .                                     ST TR 00245-L :WELL      
FLD         .                              GALVESTON BLOCK 0245 :FIELD     
LOC         .                                                   :LOCATION  
CNTY        .                             GALVESTON LARGE BLOCK :LOCATION  
STAT        .                                             TEXAS :STATE     
CTRY        .                                     UNITED STATES :COUNTRY   
SRVC        .                                                   :SERVICE COMPANY
DATE        .                             9/13/2023 11:19:42 AM :LOG DATE  
API         .                                    42706000160000 :API NUMBER
UWI         .                                    42706000160000 :UNIQUE WELL ID
XCOORD      .                                  1024804.26554262 :SURFACE X 
YCOORD      .                                  10549089.4715911 :SURFACE Y 
LAT         .                                        29.0543948 :LATITUDE  
LON         .                                       -94.9272588 :LONGITUDE 
ELEV        .FT                                              11 :ELEVATION VALUE
ELEV_TYPE   .                                                KB :ELEVATION REFERENCE TYPE
~Curve Information Section
#MNEM       .UNIT                                      API CODE :CURVE DESCRIPTION
#------------------------------------------------------------------------------
DEPT        .FT                                                 :DEPTH     
ASN         .OHMM                                               :          
LAT         .OHMM                                               :          
LN          .OHMM                                               :          
SP          .MV                                                 :          
SP_NORM     .MV                                                 :SP Normalized
VSH_SP      .V/V                                                :Volume of Shale from SP
~A        DEPTH            ASN            LAT             LN             SP        SP_NORM         VSH_SP
# ...
      9558.0000         0.4544         0.4238         0.4021       -56.5448       -3.63488      0.9814218
      9558.5000         0.4584         0.4262         0.4024       -55.2452      -2.347565      0.9960504
      9559.0000         0.4566         0.4303          0.394       -53.8132      -0.927845              1
      9559.5000         0.4522         0.4255         0.3808        -53.012     -0.1389275              1
      9560.0000         0.4479          0.419         0.3767       -52.5295       0.331295              1
      9560.5000          0.444         0.4098         0.3725       -52.6157       0.232811              1
      9561.0000         0.4408          0.399         0.3683        -52.702      0.1342316              1
      9561.5000         0.4393         0.3937         0.3686        -52.778     0.04595184              1
      9562.0000         0.4372          0.391         0.3689       -52.7751     0.03656769              1
      9562.5000         0.4345         0.3881         0.3693       -52.7723     0.02708817              1
      9563.0000         0.4319         0.3836         0.3687       -52.8083    -0.02119446              1
      9563.5000         0.4292         0.3792         0.3651       -52.8475     -0.0726738              1
      9564.0000         0.4264         0.3747         0.3643       -52.8865     -0.1239586              1
      9564.5000         0.4235         0.3692         0.3676       -52.8308    -0.08053589              1
      9565.0000         0.4203         0.3636         0.3709       -52.6988     0.03918076              1
      9565.5000         0.4183         0.3579         0.3731       -52.6139      0.1118011              1
      9566.0000          0.417         0.3535         0.3753       -52.6111      0.1023178              1
      9566.5000         0.4173         0.3552         0.3776       -52.6082     0.09293747              1
      9567.0000         0.4201          0.357         0.3783       -52.6054     0.08345413              1
      9567.5000          0.423         0.3587         0.3743       -52.6026     0.07397461              1
      9568.0000          0.428         0.3604         0.3704       -52.8408      -0.176506              1
      9568.5000         0.4336          0.355         0.3665        -53.238     -0.5859871              1
      9569.0000         0.4369         0.3495         0.3643       -53.6353     -0.9955673              1
      9569.5000         0.4387         0.3453         0.3624       -54.0773      -1.449852              1
      9570.0000         0.4346          0.343         0.3605       -54.5686       -1.95343              1
      9570.5000         0.4304         0.3406         0.3601       -54.5658      -1.962914              1
      9571.0000         0.4253         0.3438         0.3604        -54.563      -1.972393              1
      9571.5000           0.42         0.3536         0.3607       -54.5601      -1.981777              1
      9572.0000          0.416         0.3619         0.3611       -54.3549      -1.788857              1
      9572.5000          0.414         0.3659         0.3614       -54.1149      -1.561138              1
      9573.0000          0.414         0.3638         0.3676       -53.9024       -1.36092              1
      9573.5000         0.4167         0.3555         0.3745       -53.7214      -1.192204              1
      9574.0000         0.4161         0.3473         0.3818       -53.9717      -1.454781              1
      9574.5000         0.4149         0.3434         0.3893       -54.2805       -1.77586              1
      9575.0000         0.4145         0.3398         0.3916       -54.5889      -2.096546      0.9989029
      9575.5000         0.4146         0.3524         0.3919        -55.053      -2.572926      0.9934895
      9576.0000         0.4131         0.3659         0.3901       -55.5724      -3.104607      0.9874477
      9576.5000         0.4099         0.3794         0.3864       -55.9961      -3.540588      0.9824933
      9577.0000         0.4085         0.3867          0.379       -56.3967      -3.953472      0.9778014
      9577.5000         0.4116         0.3923         0.3704        -56.631       -4.20005      0.9749994
      9578.0000         0.4148         0.3975         0.3617       -56.9376      -4.518932      0.9713758
      9578.5000         0.4136         0.4011          0.346       -57.3879      -4.981514      0.9661192
      9579.0000         0.4081         0.4023         0.3247       -57.7791      -5.384995      0.9615341
      9579.5000         0.4123         0.3951         0.3195       -57.8309      -5.449074       0.960806
      9580.0000         0.4207         0.3868         0.3261       -57.8829      -5.513359      0.9600754
      9580.5000         0.4279         0.3749         0.3328       -57.4321      -5.074837      0.9650587
      9581.0000         0.4263          0.363          0.342       -56.5525       -4.20752      0.9749146
      9581.5000         0.4247         0.3631         0.3623       -55.5989      -3.266201      0.9856114
      9582.0000         0.4216          0.365         0.3747       -54.8563      -2.535881      0.9939104
      9582.5000         0.4172         0.3669          0.375       -54.3701      -2.061962      0.9992959
      9583.0000          0.417         0.3674         0.3753       -54.0508      -1.754944              1
      9583.5000          0.417         0.3555         0.3773       -53.7618      -1.478226              1
      9584.0000         0.4158         0.3436         0.3804       -53.4993      -1.228004              1
      9584.5000         0.4134         0.3316         0.3834       -53.4965      -1.237488              1
      9585.0000         0.4111         0.3197         0.3837       -53.4858      -1.239071              1
      9585.5000         0.4084         0.3129         0.3841       -53.2886      -1.054153              1
      9586.0000         0.4054         0.3157         0.3844       -53.0916     -0.8694305              1
      9586.5000         0.4024         0.3185         0.3847       -52.8165      -0.606617              1
      9587.0000         0.3993         0.3175          0.385       -52.5286     -0.3309937              1
      9587.5000         0.3963         0.3154         0.3853       -52.4064     -0.2210732              1
      9588.0000         0.3933         0.3134         0.3846       -52.3085     -0.1354561              1
      9588.5000         0.3928         0.3089          0.381       -52.2108    -0.05003738              1
      9589.0000         0.3923          0.301         0.3792       -52.4706     -0.3221207              1
      9589.5000         0.3923         0.3004         0.3795       -52.8181        -0.6819              1
      9590.0000         0.3931         0.3045         0.3798       -53.2109      -1.086983              1
      9590.5000         0.3926         0.3052         0.3801       -53.4736      -1.361961              1
      9591.0000         0.3903         0.3052         0.3804       -53.6844      -1.585045              1
      9591.5000          0.388         0.3057         0.3824        -54.069      -1.981926              1
      9592.0000         0.3875         0.3124         0.3845       -54.5193      -2.444508      0.9949488
      9592.5000         0.3871         0.3192         0.3866       -55.0541      -2.991589      0.9887319
      9593.0000         0.3871          0.326         0.3887       -55.6309      -3.580673      0.9820378
      9593.5000         0.3886         0.3186         0.3869       -56.0343      -3.996353      0.9773142
      9594.0000           0.39         0.3097         0.3846       -56.3746       -4.34893      0.9733076
      9594.5000         0.3914         0.3098         0.3824       -56.6951      -4.681713       0.969526
      9595.0000          0.393         0.3181         0.3805       -57.0011      -4.999992      0.9659092
      9595.5000         0.3977         0.3264         0.3786       -57.2946      -5.305779      0.9624344
