#------------------------------------------------------------------------------
# Created by    : vladimir.rabinovich
# Created on    : 09/19/2023 17:19:49
#------------------------------------------------------------------------------
~Version Information Section
VERS.           2.0     :   CWLS log ASCII Standard - VERSION 2.0
WRAP.           NO      :   One line per depth step
~Well Information Section
#MNEM       .UNIT                                         VALUE :DESCRIPTION
#------------------------------------------------------------------------------
STRT        .FT                                             790 :START DEPTH
STOP        .FT                                           12500 :STOP DEPTH
STEP        .FT                                             0.5 :STEP      
NULL        .                                           -999.25 :NULL      
COMP        .                                 CHEVRON U S A INC :COMPANY   
WELL        .                               OCS G04596 ST00BP00 :WELL      
FLD         .                                           WILDCAT :FIELD     
LOC         .                                                   :LOCATION  
CNTY        .                        MUSTANG ISLAND LARGE BLOCK :LOCATION  
STAT        .                                             TEXAS :STATE     
CTRY        .                                     UNITED STATES :COUNTRY   
SRVC        .                                                   :SERVICE COMPANY
DATE        .                             9/13/2023 11:19:13 AM :LOG DATE  
API         .                                    42702401310000 :API NUMBER
UWI         .                                    42702401310000 :UNIQUE WELL ID
XCOORD      .                                  486632.184756912 :SURFACE X 
YCOORD      .                                  10088502.2555927 :SURFACE Y 
LAT         .                                          27.75488 :LATITUDE  
LON         .                                        -96.567316 :LONGITUDE 
ELEV        .FT                                              90 :ELEVATION VALUE
ELEV_TYPE   .                                                KB :ELEVATION REFERENCE TYPE
~Curve Information Section
#MNEM       .UNIT                                      API CODE :CURVE DESCRIPTION
#------------------------------------------------------------------------------
DEPT        .FT                                                 :DEPTH     
ASFL        .OHMM                                               :          
CILD        .MMHO                                               :          
GR          .GAPI                                               :          
GR_NORM     .GAPI                                               :GammaRay Normalized
ILD         .OHMM                                               :          
SP          .MV                                                 :          
SP_NORM     .MV                                                 :SP Normalized
VSH_GR      .V/V                                                :Volume of Shale from GR
VSH_SP      .V/V                                                :Volume of Shale from SP
~A        DEPTH           ASFL           CILD             GR        GR_NORM            ILD             SP        SP_NORM         VSH_GR         VSH_SP
# ...
      4049.5000         0.7546       1470.029        66.1008        84.4616         0.7878       -91.0227       -9.01255              1      0.8748039
      4050.0000          0.752       1430.744        63.9058       81.07675          0.805       -91.1178      -9.111519              1      0.8732575
      4050.5000         0.7711         1390.4        61.3485       77.13321         0.8221       -89.9967      -7.994286      0.9390045      0.8907143
      4051.0000          0.796       1345.342        58.4227       72.62141         0.8505       -87.1617      -5.163147      0.8430086      0.9349508
      4051.5000         0.8209        1286.02        57.1053       70.58988         0.8887        -86.047      -4.052315      0.7997847      0.9523076
      4052.0000         0.9181       1225.465        56.0729       68.99783         0.9269       -85.8557      -3.864883      0.7659113      0.9552362
      4052.5000         1.0304       1157.803        55.7222       68.45704         0.9652       -86.2405      -4.253555      0.7544051      0.9491632
      4053.0000         1.0595       1102.873        55.3868       67.93983         1.0034       -86.7413      -4.758217      0.7434006      0.9412779
      4053.5000         1.0944       1062.947        55.0512       67.42232         1.0416       -87.2426      -5.263382      0.7323897      0.9333847
      4054.0000         1.1371       1026.451        54.4331       66.46916         1.0718       -88.2181      -6.242752      0.7121098       0.918082
      4054.5000           1.18       995.8779         53.432       64.92539         1.1007       -89.2407      -7.269218      0.6792637      0.9020435
      4055.0000         1.2228       972.5098        52.2964       63.17421         1.1295         -90.34      -8.372383      0.6420044      0.8848065
      4055.5000         1.4044       956.0508        51.2094       61.49797         1.1584       -92.0897      -10.12595      0.6063397      0.8574071
      4056.0000         1.4497       941.3682        50.3655       60.19663         1.1786       -94.3683      -12.40842      0.5786517      0.8217435
      4056.5000         1.4925       926.6865        49.4216       58.74106         1.1971       -97.4526      -15.49658      0.5476822      0.7734909
      4057.0000         1.5339       907.6113        48.2405       56.91971         1.2156       -99.6168      -17.66465        0.50893      0.7396148
      4057.5000         1.5945       875.6807        47.1277       55.20369         1.2341      -102.4985      -20.55022      0.4724188      0.6945279
      4058.0000         1.6541       843.7246        46.1794       53.74135         1.2513      -108.5934      -26.64898      0.4413053      0.5992347
      4058.5000         1.7594       817.7041        45.2318       52.28007         1.2488      -111.0586      -29.11805      0.4102143      0.5606555
      4059.0000         1.8171       810.9922        44.4979       51.14835         1.2463      -113.0215      -31.08482       0.386135      0.5299248
      4059.5000         1.8734       819.4932         43.853       50.15387         1.2438      -115.3971      -33.46429      0.3649759      0.4927455
      4060.0000         3.0761        830.665        43.2127       49.16648          1.227      -116.7838      -34.85485      0.3439676       0.471018
      4060.5000         3.2318       841.8438        42.5789       48.18911         1.1855       -90.0139      -8.088814      0.3231725      0.8892373
      4061.0000         2.9076       853.0156        44.5549       51.23625          1.144        -87.879      -5.957779      0.3880053      0.9225347
      4061.5000           2.56       864.1943        47.9771       56.51352         1.1025       -86.7251      -4.807747      0.5002877       0.940504
      4062.0000         1.6816        1091.77        51.2346       61.53684          1.061        -85.697      -3.783516      0.6071669      0.9565076
      4062.5000          1.127       1207.648        53.9368       65.70382         1.0057       -84.5002      -2.590576      0.6958259      0.9751472
      4063.0000         0.9258       1268.055        56.4918       69.64382          0.937       -83.8597      -1.953949      0.7796558      0.9850945
      4063.5000         0.8784       1329.227        58.7543       73.13277         0.8682       -83.2324      -1.330513      0.8538886      0.9948357
      4064.0000         0.8519       1376.162        60.2553       75.44741         0.8186       -82.7792     -0.8811798      0.9031364              1
      4064.5000         0.8348        1423.07        60.8581       76.37697         0.7964       -82.3751     -0.4809494      0.9229142              1
      4065.0000         0.8252       1462.578        61.5364       77.42296         0.7743       -82.1997     -0.3094101      0.9451693              1
      4065.5000         0.8164       1490.078        62.2495       78.52262         0.7545       -82.0242     -0.1377792      0.9685664              1
      4066.0000           0.81       1496.408        63.1142       79.85605         0.7461       -81.9846     -0.1020432      0.9969372              1
      4066.5000         0.8094       1482.787        64.3671       81.78811         0.7377       -81.9879     -0.1092148              1              1
      4067.0000         0.8087       1469.166         64.574       82.10715         0.7294       -81.9913     -0.1164856              1              1
      4067.5000         0.8084       1455.533        64.0618       81.31731          0.721       -82.2485     -0.3775406              1              1
      4068.0000         0.8087       1447.746        63.5496       80.52746         0.7127       -82.6609      -0.793808              1              1
      4068.5000         0.8085       1484.342        63.0377       79.73808         0.7077       -82.8171     -0.9538803      0.9944273              1
      4069.0000         0.7945       1523.602         62.575       79.02456         0.7037       -82.0458     -0.1864471       0.979246              1
      4069.5000         0.7805       1549.598        63.6338       80.65732         0.6998       -81.2744      0.5810852              1              1
      4070.0000         0.7664       1570.166        64.8639       82.55421         0.7054       -80.5031       1.348526              1              1
      4070.5000         0.7522       1592.979        66.0947       84.45222         0.7222       -79.7325       2.115257              1              1
      4071.0000         0.7379       1618.406         67.288       86.29234         0.7391       -79.2821        2.56179              1              1
      4071.5000         0.7275       1647.229        67.0552       85.93336          0.756       -79.1172       2.722816              1              1
      4072.0000         0.7228       1610.438        65.6365       83.74561         0.7729       -79.2051       2.631058              1              1
      4072.5000         0.7582        1573.67        64.2178       81.55788         0.7898       -79.4012       2.431091              1              1
      4073.0000         0.7962       1537.914         62.465       78.85493         0.8065       -80.0166       1.811821      0.9756367              1
      4073.5000         0.8324       1503.639        60.5937       75.96926         0.8216       -80.9109      0.9136581      0.9142396              1
      4074.0000         0.8814       1460.232        59.7818       74.71725         0.8367       -82.6538     -0.8331146       0.887601              1
      4074.5000         0.9435       1406.734        58.9705       73.46617         0.8518       -85.2136      -3.396774      0.8609824      0.9625504
      4075.0000         1.0041       1302.059        58.3486       72.50715         0.8669       -87.2797      -5.466743      0.8405777      0.9302071
      4075.5000          1.069       1241.898        57.9485       71.89016         0.8821       -89.8162      -8.007111      0.8274502      0.8905139
