#------------------------------------------------------------------------------
# Created by    : vladimir.rabinovich
# Created on    : 09/19/2023 17:20:24
#------------------------------------------------------------------------------
~Version Information Section
VERS.           2.0     :   CWLS log ASCII Standard - VERSION 2.0
WRAP.           NO      :   One line per depth step
~Well Information Section
#MNEM       .UNIT                                         VALUE :DESCRIPTION
#------------------------------------------------------------------------------
STRT        .FT                                            1590 :START DEPTH
STOP        .FT                                            8991 :STOP DEPTH
STEP        .FT                                             0.5 :STEP      
NULL        .                                           -999.25 :NULL      
COMP        .                                 C & K OFFSHORE CO :COMPANY   
WELL        .                                OCS 00507 ST00BP00 :WELL      
FLD         .                                           WILDCAT :FIELD     
LOC         .                                                   :LOCATION  
CNTY        .                           HIGH ISLAND LARGE BLOCK :LOCATION  
STAT        .                                             TEXAS :STATE     
CTRY        .                                     UNITED STATES :COUNTRY   
SRVC        .                                                   :SERVICE COMPANY
DATE        .                             9/13/2023 11:19:15 AM :LOG DATE  
API         .                                    42708300260000 :API NUMBER
UWI         .                                    42708300260000 :UNIQUE WELL ID
XCOORD      .                                  1287575.74118613 :SURFACE X 
YCOORD      .                                  10681645.7296129 :SURFACE Y 
LAT         .                                         29.428295 :LATITUDE  
LON         .                                        -94.108714 :LONGITUDE 
ELEV        .FT                                              73 :ELEVATION VALUE
ELEV_TYPE   .                                                KB :ELEVATION REFERENCE TYPE
~Curve Information Section
#MNEM       .UNIT                                      API CODE :CURVE DESCRIPTION
#------------------------------------------------------------------------------
DEPT        .FT                                                 :DEPTH     
ASN         .OHMM                                               :          
CALI        .IN                                                 :          
CILD        .MMHO                                               :          
DT          .US/F                                               :          
GR          .GAPI                                               :          
GR_NORM     .GAPI                                               :GammaRay Normalized
ILD         .OHMM                                               :          
SP          .MV                                                 :          
SP_NORM     .MV                                                 :SP Normalized
VSH_GR      .V/V                                                :Volume of Shale from GR
VSH_SP      .V/V                                                :Volume of Shale from SP
~A        DEPTH            ASN           CALI           CILD             DT             GR        GR_NORM            ILD             SP        SP_NORM         VSH_GR         VSH_SP
# ...
      4537.5000         0.6492        11.3067       3955.285        79.8474        38.1417       36.13415         0.2252      -105.3484      -64.45306     0.06668399     0.07924195
      4538.0000         0.6619         11.072       3957.246       120.8077         38.585       36.68752         0.2223      -105.0603      -64.16432     0.07845777     0.08336683
      4538.5000          0.672         10.942       3970.035       121.5272        38.7607       36.90639         0.2195      -105.3134      -64.41678     0.08311471     0.07976031
      4539.0000         0.6763        10.9603       4053.371       120.4122        38.2186       36.22801         0.2164      -105.7838      -64.88653     0.06868111      0.0730496
      4539.5000         0.6872        11.1021       4147.813         120.92        36.4605       34.02963         0.2127      -106.2539      -65.35599     0.02190708     0.06634303
      4540.0000         0.7057         11.453       4460.609       119.2467        33.8892       30.81475         0.2091      -107.0305      -66.13194              0     0.05525796
      4540.5000         0.7183        11.6934       4475.883       118.4125        33.5336        30.3695         0.2054      -108.1621      -67.26289              0     0.03910152
      4541.0000         0.7291        11.9007       4486.188       118.3314        34.2281       31.23686         0.2018      -110.3853      -69.48544              0    0.007350813
      4541.5000         0.7382        12.2085       4496.797        118.457        33.4531       30.26736         0.2015      -110.4698      -69.56931              0     0.00615278
      4542.0000         0.7473        12.4934       4432.281       118.7545        31.5605       27.90086         0.2028      -110.5543      -69.65315              0    0.004954965
      4542.5000         0.7569        13.6442       4390.352       119.2161        31.2747       27.54285         0.2042      -110.6388      -69.73701              0    0.003757041
      4543.0000         0.7667        14.1115         3869.5       121.0225         33.182       29.92622         0.2074      -110.4069      -69.50446              0    0.007079206
      4543.5000         0.7765        14.3912       3663.117       121.9591        35.1444       32.37847         0.2107      -109.8921      -68.98901              0     0.01444266
      4544.0000         0.7869        14.6802        3623.91       119.8483         35.443       32.75097         0.2139       -109.375      -68.47127              0     0.02183903
      4544.5000         0.7973        15.1631        3577.66       120.5967        33.9069       30.83009         0.2171      -108.9437      -68.03932              0     0.02800969
      4545.0000         0.8078        15.3057       3511.031       120.1401        34.4982       31.56846         0.2228      -108.5537      -67.64867              0     0.03359037
      4545.5000         0.8177        14.9942       3464.582       119.6218        35.7155       33.08933         0.2319      -108.1639      -67.25822    0.001900693     0.03916822
      4546.0000         0.8272        14.7867        2804.75       119.3281        35.5775       32.91608         0.2409      -107.7743      -66.86798              0     0.04474313
      4546.5000         0.8305        14.7435       2775.832       119.0171        34.8861       32.05108           0.25      -107.3845      -66.47753              0     0.05032098
      4547.0000         0.8268        15.2894       2744.641       118.9209        36.0131       33.45907          0.258      -106.9985      -66.09088    0.009767491     0.05584455
      4547.5000         0.8294        15.4098       2639.184        119.686        35.5736       32.90894         0.2651      -106.6163      -65.70804              0     0.06131374
      4548.0000         0.8479        15.4321       2504.527        119.291        35.1744       32.40919         0.2723       -106.234      -65.32509              0     0.06678445
      4548.5000         0.8754        15.4168       2405.039        120.651        35.7971       33.18681          0.281      -105.8518      -64.94225    0.003974752     0.07225364
      4549.0000         0.9058        15.3807       2347.551       114.7102        36.3805       33.91531         0.2927      -105.4696      -64.55939     0.01947468     0.07772293
      4549.5000         0.9328        13.9673       2309.668         91.043        36.8406       34.48968         0.3045      -105.0491      -64.13826     0.03169527     0.08373915
      4550.0000         0.9498        11.9539         2277.5        85.3193        38.9827       37.16655         0.3162      -104.6138       -63.7023     0.08865008     0.08996707
      4550.5000         0.9717        11.5809       2207.254        99.0103        40.1964       38.68292         0.3346      -104.1781      -63.26596      0.1209132     0.09620056
      4551.0000         1.0041         11.452       2194.742        99.0028        37.9947       35.93005          0.356      -103.8608      -62.94801     0.06234141      0.1007427
      4551.5000         1.0307        11.8532        2188.41       103.7738        35.1994       32.43516         0.3866      -103.5728      -62.65937              0      0.1048662
      4552.0000         1.0289        12.6974       2184.418       111.4596        34.0704       31.02316         0.3731      -103.2845      -62.37042              0       0.108994
      4552.5000         1.0204        14.0857        2193.75       118.7258        34.0323       30.97477         0.3596      -103.5759      -62.66117              0      0.1048404
      4553.0000           1.02        14.7968       2338.711       120.1302        33.9363       30.85402         0.3462      -103.9166      -63.00123              0     0.09998246
      4553.5000         1.0026         14.498       2488.348       118.6573        34.3871       31.41677         0.3354      -104.2573      -63.34128              0      0.0951246
      4554.0000         0.9674        13.6931       2597.129        120.851         35.275       32.52589         0.3247      -104.8345      -63.91784              0     0.08688807
      4554.5000          0.938        13.2513       2763.996       112.6554        36.1895       33.66826          0.314       -105.486      -64.56868     0.01421827     0.07759029
      4555.0000         0.9036        12.4106       2798.359        112.084        37.1372       34.85213         0.3098      -106.1586      -65.24064     0.03940712     0.06799088
      4555.5000         0.8867        12.1916       3096.883       115.9615        38.3492       36.36638         0.3096       -106.948      -66.02939     0.07162516     0.05672302
      4556.0000         0.8657        13.4291        3182.84       120.0131        38.9662       37.13688         0.3094      -107.5677      -66.64845      0.0880187     0.04787925
      4556.5000         0.8479        13.7936       3298.363        120.876        38.1489        36.1145         0.3111      -107.9113      -66.99139     0.06626592     0.04298009
      4557.0000         0.8334        12.8929       3372.434       124.0917        38.1597       36.12724         0.3203      -107.5995      -66.67896     0.06653709      0.0474435
      4557.5000         0.8527        11.2924       3305.105        120.382        39.6251       37.95824         0.3294      -106.8256       -65.9044      0.1054945     0.05850852
      4558.0000          0.882        10.9948         3173.5       114.7175        41.2142       39.94386         0.3386      -105.5847      -64.66286      0.1477418      0.0762449
      4558.5000         0.9117        10.7311       3086.445         107.75        43.3828       42.65386         0.3477      -104.2644      -63.34191      0.2054013     0.09511561
      4559.0000         0.9322          10.49         2644.5        107.646        45.7872       45.65861         0.3713      -101.2859      -60.36276      0.2693321      0.1376748
      4559.5000         0.9266        10.8323       2004.645       112.8961        48.5883       49.15923         0.4069       -94.7623      -53.83852      0.3438133      0.2308783
