#------------------------------------------------------------------------------
# Created by    : vladimir.rabinovich
# Created on    : 09/19/2023 17:22:42
#------------------------------------------------------------------------------
~Version Information Section
VERS.           2.0     :   CWLS log ASCII Standard - VERSION 2.0
WRAP.           NO      :   One line per depth step
~Well Information Section
#MNEM       .UNIT                                         VALUE :DESCRIPTION
#------------------------------------------------------------------------------
STRT        .FT                                              96 :START DEPTH
STOP        .FT                                            7107 :STOP DEPTH
STEP        .FT                                             0.5 :STEP      
NULL        .                                           -999.25 :NULL      
COMP        .                                  XTO OFFSHORE INC :COMPANY   
WELL        .                               OCS G23162 ST00BP00 :WELL      
FLD         .                                 BRAZOS BLOCK 0398 :FIELD     
LOC         .                                                   :LOCATION  
CNTY        .                                BRAZOS LARGE BLOCK :LOCATION  
STAT        .                                             TEXAS :STATE     
CTRY        .                                     UNITED STATES :COUNTRY   
SRVC        .                                                   :SERVICE COMPANY
DATE        .                             9/13/2023 11:18:28 AM :LOG DATE  
API         .                                    42704403370000 :API NUMBER
UWI         .                                    42704403370000 :UNIQUE WELL ID
XCOORD      .                                  864551.184430364 :SURFACE X 
YCOORD      .                                  10381025.1526549 :SURFACE Y 
LAT         .                                        28.5842785 :LATITUDE  
LON         .                                       -95.4179199 :LONGITUDE 
ELEV        .FT                                             100 :ELEVATION VALUE
ELEV_TYPE   .                                                KB :ELEVATION REFERENCE TYPE
~Curve Information Section
#MNEM       .UNIT                                      API CODE :CURVE DESCRIPTION
#------------------------------------------------------------------------------
DEPT        .FT                                                 :DEPTH     
DCAL        .IN                                                 :          
DPHI        .FRAC                                               :          
DT          .US/F                                               :          
GR          .GAPI                                               :          
GR_NORM     .GAPI                                               :GammaRay Normalized
HT01        .OHMM                                               :          
HT02        .OHMM                                               :          
HT03        .OHMM                                               :          
HT06        .OHMM                                               :          
HT09        .OHMM                                               :          
HT12        .OHMM                                               :          
NPHI        .FRAC                                               :          
RWA         .OHMM                                               :          
SP          .MV                                                 :          
TENS        .LB                                                 :          
VSH_GR      .V/V                                                :Volume of Shale from GR
~A        DEPTH           DCAL           DPHI             DT             GR        GR_NORM           HT01           HT02           HT03           HT06           HT09           HT12           NPHI            RWA             SP           TENS         VSH_GR
# ...
      3824.0000         1.8542        -999.25        117.925        67.0803       64.19967         0.7545         0.6798         0.6378         0.5855         0.5699         0.5641        -999.25        -999.25        -999.25       2360.019      0.6638228
      3824.5000         1.9551        -999.25       117.2859        69.0285       66.36293         0.8152         0.7291         0.6823         0.6207         0.6033         0.5977        -999.25        -999.25        -999.25        2354.61      0.7098496
      3825.0000         2.0611        -999.25       119.5641        70.0387       67.48396         0.8657         0.7711          0.721         0.6504         0.6314          0.626        -999.25        -999.25        -999.25       2350.474      0.7337013
      3825.5000         2.2162        -999.25       114.8875        64.4587       61.28257         0.8873         0.7917         0.7415          0.665          0.645         0.6396        -999.25        -999.25        -999.25       2355.246      0.6017568
      3826.0000         2.2796        -999.25        98.5672        69.1247       66.46561         0.8724         0.7846         0.7378         0.6601           0.64         0.6348        -999.25        -999.25        -999.25       2365.746      0.7120342
      3826.5000         2.2452        -999.25       102.3203         73.454       71.27454          0.834         0.7589         0.7179         0.6425          0.623          0.618        -999.25        -999.25        -999.25       2374.018      0.8143519
      3827.0000         2.2971        -999.25       126.4797         71.578       69.18869         0.7942         0.7319         0.6971         0.6248         0.6061         0.6014        -999.25        -999.25        -999.25       2376.563      0.7699721
      3827.5000         2.3536        -999.25       136.7062        69.5737       66.96028         0.7707         0.7186         0.6895         0.6184         0.6002          0.596        -999.25        -999.25        -999.25       2372.427      0.7225592
      3828.0000         2.3467        -999.25       129.1219        66.2305       63.24421         0.7697         0.7252         0.7011         0.6285         0.6104         0.6066        -999.25        -999.25        -999.25       2373.381      0.6434939
      3828.5000         2.3522        -999.25       123.6641        64.3304       61.13158         0.7774         0.7402         0.7217         0.6466         0.6286         0.6253        -999.25        -999.25        -999.25       2382.607      0.5985444
      3829.0000         2.3587        -999.25       124.9469        68.8361       66.13652         0.7657         0.7376         0.7263         0.6521         0.6348          0.632        -999.25        -999.25        -999.25       2391.833      0.7050323
      3829.5000         2.4837        -999.25       126.0406        80.3088       78.88256         0.7201         0.7026         0.6983         0.6311         0.6157         0.6135        -999.25        -999.25        -999.25       2390.879      0.9762247
      3830.0000          2.966        -999.25       132.0703        88.7269        88.2346         0.6552         0.6467         0.6483         0.5911         0.5782         0.5767        -999.25        -999.25        -999.25        2380.38              1
      3830.5000         3.2947        -999.25        141.775        92.3827       92.29519         0.5947         0.5926         0.5983         0.5501         0.5396         0.5389        -999.25        -999.25        -999.25       2369.245              1
      3831.0000         3.3164        -999.25       145.7609        100.392        101.193         0.5523         0.5545         0.5632         0.5215         0.5129         0.5129        -999.25        -999.25        -999.25       2365.746              1
      3831.5000         3.2983        -999.25       142.6187       100.6806       101.5123         0.5327         0.5382         0.5493         0.5115         0.5042         0.5048        -999.25        -999.25        -999.25       2367.654              1
      3832.0000         3.3175        -999.25       138.2594        89.0396       88.57642         0.5338         0.5425         0.5561         0.5199         0.5136         0.5148        -999.25        -999.25        -999.25       2370.836              1
      3832.5000         3.2772        -999.25       134.8734        83.4114       82.32146         0.5499         0.5621         0.5785         0.5425         0.5368         0.5387        -999.25        -999.25        -999.25       2374.335              1
      3833.0000         3.2747        -999.25       131.3469        86.7787       86.06152         0.5726         0.5886          0.608         0.5716         0.5666         0.5692        -999.25        -999.25        -999.25       2377.835              1
      3833.5000         3.3197        -999.25        129.275         88.342        87.7971         0.5908         0.6102         0.6324         0.5963         0.5921         0.5955        -999.25        -999.25        -999.25       2379.744              1
      3834.0000         3.3603        -999.25       132.4875        88.7028       88.19658         0.5961         0.6179         0.6423         0.6079         0.6048         0.6089        -999.25        -999.25        -999.25       2374.335              1
      3834.5000         3.3138        -999.25       136.7859        89.8092       89.42451         0.5929         0.6159         0.6418         0.6099          0.608         0.6129        -999.25        -999.25        -999.25       2368.608              1
      3835.0000         3.2898        -999.25       138.4187        85.8888       85.06711         0.5924         0.6164         0.6436         0.6139         0.6133         0.6189        -999.25        -999.25        -999.25       2370.199              1
      3835.5000         3.2428        -999.25       133.1062        82.8342       81.67171         0.6029         0.6282         0.6567         0.6288         0.6293         0.6359        -999.25        -999.25        -999.25       2375.926              1
      3836.0000         3.0509        -999.25       121.0953        83.6279       82.55219         0.6199         0.6466         0.6765         0.6502         0.6521         0.6597        -999.25        -999.25        -999.25       2380.062              1
      3836.5000         3.0627        -999.25       117.2812        83.9406       82.89822         0.6279         0.6549         0.6854         0.6616         0.6648         0.6733        -999.25        -999.25        -999.25       2379.744              1
      3837.0000         3.2794        -999.25       124.4703        86.1774       85.38216         0.6172         0.6424         0.6723         0.6518         0.6562         0.6651        -999.25        -999.25        -999.25       2377.199              1
      3837.5000         3.4173        -999.25       136.4828        91.4207       91.20665         0.5909         0.6129         0.6408          0.624         0.6291          0.638        -999.25        -999.25        -999.25       2380.699              1
      3838.0000         3.4934        -999.25       143.6765        94.9322        95.1069         0.5627         0.5814         0.6067         0.5931         0.5986         0.6073        -999.25        -999.25        -999.25        2383.88              1
      3838.5000         3.4157        -999.25       141.2859          98.54       99.11418         0.5433         0.5592          0.582         0.5708         0.5767         0.5852        -999.25        -999.25        -999.25       2384.516              1
      3839.0000         3.4066        -999.25       141.4641       103.9035       105.0722         0.5326          0.546         0.5665         0.5572         0.5633         0.5718        -999.25        -999.25        -999.25       2382.926              1
      3839.5000         3.4124        -999.25       146.4141       105.6353        106.995         0.5248         0.5359          0.554         0.5461         0.5523         0.5607        -999.25        -999.25        -999.25       2377.835              1
