#------------------------------------------------------------------------------
# Created by    : vladimir.rabinovich
# Created on    : 09/19/2023 17:20:32
#------------------------------------------------------------------------------
~Version Information Section
VERS.           2.0     :   CWLS log ASCII Standard - VERSION 2.0
WRAP.           NO      :   One line per depth step
~Well Information Section
#MNEM       .UNIT                                         VALUE :DESCRIPTION
#------------------------------------------------------------------------------
STRT        .FT                                             530 :START DEPTH
STOP        .FT                                           15895 :STOP DEPTH
STEP        .FT                                             0.5 :STEP      
NULL        .                                           -999.25 :NULL      
COMP        .                                      SHELL OIL CO :COMPANY   
WELL        .                                OCS 00708 ST00BP00 :WELL      
FLD         .                                FEDERAL BLOCK 0288 :FIELD     
LOC         .                                                   :LOCATION  
CNTY        .                             GALVESTON LARGE BLOCK :LOCATION  
STAT        .                                             TEXAS :STATE     
CTRY        .                                     UNITED STATES :COUNTRY   
SRVC        .                                                   :SERVICE COMPANY
DATE        .                             9/13/2023 11:19:24 AM :LOG DATE  
API         .                                    42706000930000 :API NUMBER
UWI         .                                    42706000930000 :UNIQUE WELL ID
XCOORD      .                                  1077631.85251343 :SURFACE X 
YCOORD      .                                  10490946.9562601 :SURFACE Y 
LAT         .                                         28.896779 :LATITUDE  
LON         .                                        -94.759235 :LONGITUDE 
ELEV        .FT                                              76 :ELEVATION VALUE
ELEV_TYPE   .                                                KB :ELEVATION REFERENCE TYPE
~Curve Information Section
#MNEM       .UNIT                                      API CODE :CURVE DESCRIPTION
#------------------------------------------------------------------------------
DEPT        .FT                                                 :DEPTH     
ASN         .OHMM                                               :          
CILD        .MMHO                                               :          
SP          .MV                                                 :          
SP_NORM     .MV                                                 :SP Normalized
VSH_SP      .V/V                                                :Volume of Shale from SP
~A        DEPTH            ASN           CILD             SP        SP_NORM         VSH_SP
# ...
      1542.0000         1.0145       1060.793       -69.8346      -1.450905              1
      1542.5000         1.0191       1044.828       -69.7938      -1.412018              1
      1543.0000         1.0236       1028.891       -69.7531      -1.373222              1
      1543.5000         1.0282       1016.262       -69.7123      -1.334343              1
      1544.0000         1.0327       1003.637       -69.6627      -1.286644              1
      1544.5000         1.0373       991.0117       -69.6022      -1.228058              1
      1545.0000         1.0418       978.3828       -69.5417      -1.169472              1
      1545.5000         1.0464       965.7578       -69.4813      -1.110977              1
      1546.0000         1.0509       953.1328       -69.4208      -1.052383              1
      1546.5000         1.0555       940.5039       -69.3604     -0.9938965              1
      1547.0000         1.0594       927.8789       -69.2998     -0.9352036              1
      1547.5000         1.0621       922.9922       -69.2394     -0.8767242              1
      1548.0000         1.0649       920.0352       -69.1864     -0.8256302              1
      1548.5000         1.0676       917.0781       -69.2733     -0.9144363              1
      1549.0000         1.0704       914.1211       -69.3602       -1.00325              1
      1549.5000         1.0731       911.1641       -69.3834      -1.028358              1
      1550.0000         1.0759        908.207       -69.2275     -0.8743668              1
      1550.5000         1.0787       905.2979       -69.0718     -0.7205811              1
      1551.0000         1.0814       902.4814        -68.916     -0.5666885              1
      1551.5000         1.0842        899.666       -68.8912     -0.5438004              1
      1552.0000         1.0864       896.8496       -69.0219     -0.6764069              1
      1552.5000         1.0874       894.0332       -69.1526      -0.809021              1
      1553.0000         1.0884       891.2178       -69.2803     -0.9386292              1
      1553.5000         1.0894       888.4014       -69.3715      -1.031738              1
      1554.0000         1.0904       885.3477       -69.4626      -1.124756              1
      1554.5000         1.0914       881.6797       -69.5537      -1.217766              1
      1555.0000         1.0915       878.0117       -69.6349      -1.300873              1
      1555.5000         1.0915       874.3437       -69.6139      -1.281784              1
      1556.0000         1.0915       870.6758       -69.5929      -1.262695              1
      1556.5000         1.0915       867.0088        -69.572      -1.243698              1
      1557.0000         1.0915       865.2432       -69.6226      -1.296211              1
      1557.5000         1.0915       866.1045        -69.746      -1.421524              1
      1558.0000         1.0915       866.9648       -69.8695      -1.546936              1
      1558.5000         1.0917       867.8252       -69.9929      -1.672241              1
      1559.0000         1.0933       868.6855       -69.8436      -1.524849              1
      1559.5000         1.0949       869.5469       -69.6682      -1.351364              1
      1560.0000         1.0965       868.7607       -69.4927      -1.177773              1
      1560.5000         1.0981       867.5791       -69.3173      -1.004288              1
      1561.0000         1.0998       866.3975       -69.1417     -0.8305969              1
      1561.5000         1.1014       865.2158       -68.9725     -0.6633072              1
      1562.0000          1.103       864.0352       -68.8094      -0.502121              1
      1562.5000         1.1046       862.8535       -68.6465     -0.3411255              1
      1563.0000         1.1063       861.6719       -68.4834     -0.1799316              1
      1563.5000          1.105       860.4902       -68.3203    -0.01874542              1
      1564.0000         1.1033        860.626       -68.6646     -0.3649521              1
      1564.5000         1.1016       861.1826       -69.0422     -0.7444687              1
      1565.0000         1.1004       861.7393       -69.2187     -0.9228745              1
      1565.5000         1.1034       862.2959       -69.3953      -1.101387              1
      1566.0000         1.1065       862.8525       -69.5717      -1.279701              1
      1566.5000         1.1095       863.4082       -69.5847      -1.294609              1
      1567.0000         1.1126       853.2227       -69.5858      -1.297615              1
      1567.5000         1.1157       842.3516        -69.587      -1.300728              1
      1568.0000         1.1188       831.4844       -69.5547       -1.27034              1
      1568.5000          1.122       820.6016       -69.4935      -1.211052              1
      1569.0000         1.1252       809.3477       -69.4325      -1.151962              1
      1569.5000         1.1231        803.543       -69.3715      -1.092865              1
      1570.0000         1.1145       818.1719       -69.3103      -1.033585              1
      1570.5000         1.1058       832.8047       -69.2493     -0.9744873              1
      1571.0000         1.0972       847.4336       -69.1931     -0.9202042              1
      1571.5000         1.0948       862.0625       -69.1658     -0.8948135              1
      1572.0000         1.0987       865.9238       -69.1385     -0.8694153              1
      1572.5000         1.1128       864.8438       -69.1112     -0.8440323              1
      1573.0000         1.1281       830.3281       -69.0839     -0.8186417              1
      1573.5000         1.1434       795.8203       -69.0566      -0.793251              1
      1574.0000         1.1588        767.543       -69.0293     -0.7678604              1
      1574.5000         1.1741       752.0781       -69.0021      -0.742569              1
      1575.0000         1.1852       736.6133       -68.9747     -0.7170868              1
      1575.5000         1.1962       721.1484       -69.1373     -0.8815918              1
      1576.0000         1.1964        720.332       -69.3613      -1.107498              1
      1576.5000         1.1928        728.668       -69.5853      -1.333412              1
      1577.0000         1.1892        737.002       -69.8093      -1.559326              1
      1577.5000         1.1856        749.332       -70.0332      -1.785133              1
      1578.0000         1.1743       763.8555       -70.3173      -2.071144      0.9945274
      1578.5000         1.1626        778.375        -70.694      -2.449753      0.9654036
      1579.0000          1.151       792.8984       -71.0707      -2.828369      0.9362793
      1579.5000         1.1393       807.4727       -71.1571      -2.916672      0.9294868
      1580.0000         1.1276       822.3594       -70.8481      -2.609581      0.9531091
      1580.5000         1.1158       837.2422       -70.5392      -2.302597      0.9767233
      1581.0000         1.1038       852.1289       -70.2302      -1.995506              1
      1581.5000         1.0917       867.0117       -69.9213      -1.688522              1
      1582.0000         1.0796       899.4844       -69.7264      -1.495529              1
      1582.5000         1.0692       942.1094       -69.5599      -1.330933              1
      1583.0000         1.0627       958.6777       -69.3936       -1.16655              1
      1583.5000         1.0561       967.1113       -69.2272       -1.00206              1
      1584.0000         1.0496       965.8516       -69.0608     -0.8375626              1
      1584.5000          1.043       957.6973       -68.8943     -0.6729813              1
      1585.0000         1.0429        949.543       -68.7279     -0.5084839              1
      1585.5000         1.0432       941.3906       -68.5615     -0.3440018              1
