#------------------------------------------------------------------------------
# Created by    : vladimir.rabinovich
# Created on    : 09/19/2023 17:20:57
#------------------------------------------------------------------------------
~Version Information Section
VERS.           2.0     :   CWLS log ASCII Standard - VERSION 2.0
WRAP.           NO      :   One line per depth step
~Well Information Section
#MNEM       .UNIT                                         VALUE :DESCRIPTION
#------------------------------------------------------------------------------
STRT        .FT                                             727 :START DEPTH
STOP        .FT                                            8206 :STOP DEPTH
STEP        .FT                                             0.5 :STEP      
NULL        .                                           -999.25 :NULL      
COMP        .                              PHOENIX RESOURCES CO :COMPANY   
WELL        .                                          BLK 335L :WELL      
FLD         .                                 BRAZOS BLOCK 0309 :FIELD     
LOC         .                                                   :LOCATION  
CNTY        .                                BRAZOS LARGE BLOCK :LOCATION  
STAT        .                                             TEXAS :STATE     
CTRY        .                                     UNITED STATES :COUNTRY   
SRVC        .                                                   :SERVICE COMPANY
DATE        .                             9/13/2023 11:18:52 AM :LOG DATE  
API         .                                    42704300210000 :API NUMBER
UWI         .                                    42704300210000 :UNIQUE WELL ID
XCOORD      .                                  898426.347293712 :SURFACE X 
YCOORD      .                                  10460523.5569112 :SURFACE Y 
LAT         .                                        28.8046676 :LATITUDE  
LON         .                                       -95.3172337 :LONGITUDE 
ELEV        .FT                                              70 :ELEVATION VALUE
ELEV_TYPE   .                                                DF :ELEVATION REFERENCE TYPE
~Curve Information Section
#MNEM       .UNIT                                      API CODE :CURVE DESCRIPTION
#------------------------------------------------------------------------------
DEPT        .FT                                                 :DEPTH     
ASN         .OHMM                                               :          
CALI        .IN                                                 :          
DT          .US/F                                               :          
ILD         .OHMM                                               :          
SP          .MV                                                 :          
SP_NORM     .MV                                                 :SP Normalized
VSH_SP      .V/V                                                :Volume of Shale from SP
~A        DEPTH            ASN           CALI             DT            ILD             SP        SP_NORM         VSH_SP
       727.0000          0.036        -999.25        -999.25         0.5106       -96.7485       3.251503              1
       727.5000         0.0571        -999.25        -999.25         0.9061       -95.5353       3.767746              1
       728.0000         0.0826        -999.25        -999.25         1.0663       -94.8469       3.759193              1
       728.5000         1.2297        -999.25        -999.25         1.1159       -94.4338       3.475349              1
       729.0000         1.5433        -999.25       110.2751         1.1656       -93.9574       3.254799              1
       729.5000         1.6488        -999.25       165.1885         1.2277       -93.4484       3.066841              1
       730.0000         1.6949        -999.25        199.384         1.3039       -92.8342       2.984093              1
       730.5000         1.7331        -999.25       200.3955         1.3801        -92.236       2.885345              1
       731.0000         1.7714        -999.25       200.4458         1.4577       -91.7719       2.652496              1
       731.5000         1.8063        -999.25       200.1948         1.4636       -91.3169       2.410538              1
       732.0000         1.8326        -999.25       199.9551         1.4335       -91.0194       2.011086              1
       732.5000         1.8588        -999.25       199.8118         1.4035       -90.9222       1.411331              1
       733.0000          1.885        -999.25       199.7539         1.3734       -90.8009      0.8356857              1
       733.5000         1.9113        -999.25       199.7776         1.3433        -90.368        0.57164              1
       734.0000         1.9322        -999.25       199.8293         1.3133       -89.7152      0.5274811              1
       734.5000         1.9515        -999.25       200.0034         1.2832       -90.2395     -0.6937714              1
       735.0000         1.9708        -999.25       200.6497         1.2895        -90.045      -1.196213              1
       735.5000         1.9902        -999.25       200.9609         1.2977       -89.8954      -1.743568              1
       736.0000          2.011        -999.25       200.3662         1.3058       -89.8318      -2.376923      0.9836121
       736.5000         2.0317        -999.25       199.8284         1.3125       -89.7638      -3.005875      0.9562663
       737.0000         2.0464        -999.25       199.9236         1.3081       -89.6895      -3.628525      0.9291946
       737.5000         2.0536        -999.25       200.4443         1.3036       -89.6948      -4.330772      0.8986621
       738.0000         2.0398        -999.25       201.0303         1.2992       -89.6964      -5.029327      0.8682901
       738.5000          2.022        -999.25       201.4155          1.291       -89.4609      -5.490776      0.8482271
       739.0000         2.0041        -999.25       200.9163         1.2793       -88.9253       -5.65213      0.8412117
       739.5000         1.9859        -999.25       200.2314         1.2675        -88.186      -5.609772      0.8430534
       740.0000         1.9621        -999.25       199.1272         1.2558       -87.4111       -5.53183      0.8464422
       740.5000         1.9384        -999.25       197.1931         1.2472       -86.5197      -5.337379      0.8548965
       741.0000         1.9146        -999.25        198.989          1.265        -84.907      -4.421631      0.8947117
       741.5000         1.8908        -999.25       200.9219         1.2829       -82.5906      -2.802185      0.9651224
       742.0000         1.8883        -999.25       201.0298         1.3007       -80.2666      -1.175133              1
       742.5000         1.8882        -999.25        200.269         1.3185       -77.4794      0.9151154              1
       743.0000         1.8881        -999.25       198.9163         1.3363       -74.1838        3.39669              1
       743.5000         1.8998        -999.25       197.5352         1.3427       -71.9027        4.74852              1
       744.0000         1.9243        -999.25       196.7876         1.3465       -70.4304       5.291557              1
       744.5000         1.9372        -999.25       196.6709         1.3503       -69.4839       5.308784              1
       745.0000         1.9115        -999.25       197.3828         1.3542       -68.7992       5.064217              1
       745.5000         1.8744        -999.25       197.2241          1.358       -68.1829       4.751251              1
       746.0000         1.8352        -999.25       196.4387         1.3504       -67.3867       4.618179              1
       746.5000         1.7961        -999.25       197.1506         1.3395       -67.1284       3.947212              1
       747.0000         1.7718        -999.25       198.3552         1.3287       -66.9514       3.194946              1
       747.5000         2.0041        -999.25       199.9438         1.3178       -66.1953       3.021782              1
       748.0000         1.9975        -999.25        200.908          1.307       -65.6807       2.607101              1
       748.5000         1.9833        -999.25       200.9094         1.2961        -65.425       1.933533              1
       749.0000         1.9658        -999.25         200.95         1.2869       -65.4882      0.9410706              1
       749.5000         1.9342        -999.25        201.438         1.2847       -65.7052     -0.2052002              1
       750.0000         1.9317        -999.25       201.0383         1.2826       -65.8008      -1.230064              1
       750.5000         1.9412        -999.25       200.9172         1.2805        -65.476      -1.834534              1
       751.0000         1.9517        -999.25        201.259         1.2784       -65.4742      -2.059563      0.9974103
       751.5000          1.963        -999.25        201.729         1.2763       -65.9178      -2.503166      0.9781232
       752.0000         1.9743        -999.25       202.1836         1.2783       -65.7849      -2.370262      0.9839016
       752.5000         1.9831        -999.25       202.4558         1.2877        -65.343      -1.928368              1
       753.0000         1.7296        -999.25       202.2488         1.2971       -64.7087      -1.294067              1
       753.5000         1.7356        -999.25       201.4089         1.3066       -63.8533     -0.4386635              1
       754.0000         1.7478        -999.25       200.8069          1.316       -63.2363      0.1783333              1
       754.5000         1.7599        -999.25       200.6409         1.3254        -63.031      0.3836365              1
       755.0000         1.7721        -999.25       200.6777         1.3348       -62.7073      0.7073364              1
       755.5000         1.7843        -999.25       200.9272         1.3442        -62.154       1.260635              1
       756.0000         1.7965        -999.25       201.5762         1.3527       -61.5091       1.905533              1
       756.5000         1.8123        -999.25       201.2764           1.36       -61.0925       2.322136              1
       757.0000         1.8292        -999.25        200.822         1.3673        -61.149       2.265636              1
       757.5000         1.8461        -999.25       200.1716         1.3746       -61.2892       2.125435              1
       758.0000         1.8334        -999.25       199.5828          1.382       -61.1696       2.245033              1
       758.5000         1.7947        -999.25       199.2246         1.3893       -61.6287       1.785934              1
       759.0000         1.7559        -999.25       199.0684         1.3881       -62.2123       1.202335              1
       759.5000         1.7237        -999.25       198.9673         1.3814       -62.6805      0.7341347              1
       760.0000         1.6916        -999.25       198.9189         1.3748       -62.8474       0.567234              1
