#------------------------------------------------------------------------------
# Created by    : vladimir.rabinovich
# Created on    : 09/19/2023 17:21:45
#------------------------------------------------------------------------------
~Version Information Section
VERS.           2.0     :   CWLS log ASCII Standard - VERSION 2.0
WRAP.           NO      :   One line per depth step
~Well Information Section
#MNEM       .UNIT                                         VALUE :DESCRIPTION
#------------------------------------------------------------------------------
STRT        .FT                                            4296 :START DEPTH
STOP        .FT                                         10848.5 :STOP DEPTH
STEP        .FT                                             0.5 :STEP      
NULL        .                                           -999.25 :NULL      
COMP        .                                 CHEVRON U S A INC :COMPANY   
WELL        .                               OCS G07271 ST00BP00 :WELL      
FLD         .                                           WILDCAT :FIELD     
LOC         .                                                   :LOCATION  
CNTY        .                           HIGH ISLAND LARGE BLOCK :LOCATION  
STAT        .                                             TEXAS :STATE     
CTRY        .                                     UNITED STATES :COUNTRY   
SRVC        .                                                   :SERVICE COMPANY
DATE        .                             9/13/2023 11:19:59 AM :LOG DATE  
API         .                                    42708403180000 :API NUMBER
UWI         .                                    42708403180000 :UNIQUE WELL ID
XCOORD      .                                  1325118.04890174 :SURFACE X 
YCOORD      .                                  10672078.9744079 :SURFACE Y 
LAT         .                                          29.40291 :LATITUDE  
LON         .                                        -93.990507 :LONGITUDE 
ELEV        .FT                                              89 :ELEVATION VALUE
ELEV_TYPE   .                                                KB :ELEVATION REFERENCE TYPE
~Curve Information Section
#MNEM       .UNIT                                      API CODE :CURVE DESCRIPTION
#------------------------------------------------------------------------------
DEPT        .FT                                                 :DEPTH     
CALI        .IN                                                 :          
DRHO        .G/C3                                               :          
DTLN        .US/F                                               :          
GR          .GAPI                                               :          
GR_1        .GAPI                                               :          
GR_NORM     .GAPI                                               :GammaRay Normalized
ILD         .OHMM                                               :          
ILM         .OHMM                                               :          
NPHI        .%                                                  :          
RHOB        .G/C3                                               :          
SFL         .OHMM                                               :          
SP          .MV                                                 :          
SP_NORM     .MV                                                 :SP Normalized
VSH_GR      .V/V                                                :Volume of Shale from GR
VSH_SP      .V/V                                                :Volume of Shale from SP
~A        DEPTH           CALI           DRHO           DTLN             GR           GR_1        GR_NORM            ILD            ILM           NPHI           RHOB            SFL             SP        SP_NORM         VSH_GR         VSH_SP
# ...
      7050.0000        15.2987        -0.0008       113.1055        46.9823        58.7921       73.72523         0.6324         0.6364        44.1161         2.2486         0.6488       -38.2314     -0.4955482      0.8664942      0.9929208
      7050.5000        15.2159         0.0012       109.9764        46.6214         59.205       74.23499         0.6564         0.6576        41.8554         2.2553         0.6839       -38.5164     -0.7805481      0.8773401      0.9888493
      7051.0000        15.1522         0.0024       105.2753        46.2391        60.5351       75.87708         0.6737         0.6733        39.1847         2.2759         0.7277       -38.8008      -1.064949      0.9122784      0.9847865
      7051.5000        15.0969          0.002       105.0918        45.8299        61.8959       77.55708         0.6845         0.6802         38.628         2.3027         0.7763       -39.0894       -1.35355      0.9480229      0.9806636
      7052.0000        15.1085        -0.0007       106.8275        45.4332        62.8785       78.77016          0.686         0.6797        43.0783           2.31         0.8068       -39.3884       -1.65255      0.9738333      0.9763921
      7052.5000        15.1348         -0.005       109.4136        45.5129        63.0906       79.03201         0.6826         0.6791        44.5054         2.3011         0.7826        -39.635      -1.899147      0.9794045      0.9728693
      7053.0000        15.1629        -0.0091       112.6592        47.3214        63.7289       79.82005         0.6781         0.6793        45.0681         2.2733         0.7405       -39.8286      -2.092751      0.9961712      0.9701036
      7053.5000        15.1923        -0.0115       114.2251        49.4388        65.2582       81.70807         0.6729         0.6799        45.1702         2.2528         0.6988       -39.9252       -2.18935              1      0.9687236
      7054.0000        15.2156        -0.0124       113.9628        50.3014        67.0321       83.89806         0.6679         0.6787        44.6268         2.2451         0.6709       -39.9429       -2.20705              1      0.9684707
      7054.5000        15.2215        -0.0126       113.4178        49.0303         68.005       85.09917         0.6629         0.6773         43.709         2.2524         0.6654       -39.9265      -2.190647              1      0.9687051
      7055.0000        15.2273        -0.0122       112.9043          48.51        67.9749       85.06202         0.6578         0.6772        42.7363          2.267         0.6709       -39.8923      -2.156448              1      0.9691936
      7055.5000        15.2304        -0.0114        112.578        49.4501        67.9108       84.98287         0.6545         0.6774        41.7192         2.2761         0.6788       -39.8387      -2.102848              1      0.9699593
      7056.0000        15.2329        -0.0104       112.3514        50.5931          68.04       85.14239         0.6537          0.678         41.415         2.2786          0.687       -39.8177      -2.081848              1      0.9702593
      7056.5000        15.2405        -0.0092       112.1124        50.3593        69.3628       86.77547         0.6546         0.6792         42.267         2.2844         0.6955        -39.865       -2.12915              1      0.9695836
      7057.0000        15.2637        -0.0076       111.8726        49.7895        71.3212       89.19325         0.6578         0.6804         45.225         2.2932         0.7023        -40.082      -2.346149              1      0.9664836
      7057.5000        15.2868        -0.0055       112.0771        49.8776        72.3734       90.49226         0.6636         0.6803         46.165          2.296         0.7029       -40.1841       -2.44825              1       0.965025
      7058.0000        15.2986         -0.004       112.5135        49.8947        72.3009       90.40276         0.6707         0.6788        46.8274         2.2883         0.6991       -40.2568       -2.52095              1      0.9639864
      7058.5000        15.3067        -0.0032        113.152         49.044        71.6101       89.54991          0.678         0.6752        46.2598         2.2784         0.6965       -40.3469       -2.61105              1      0.9626993
      7059.0000        15.3134        -0.0048       113.8915        47.0648        70.1189       87.70892         0.6827          0.671        44.4277         2.2707         0.6974       -40.3725       -2.63665              1      0.9623336
      7059.5000        15.3017        -0.0076       114.0032        44.1428        68.5497       85.77164          0.684         0.6569        44.0576         2.2654         0.7018        -40.358       -2.62215              1      0.9625407
      7060.0000        15.2899        -0.0085       113.5878        41.2183        68.0601        85.1672         0.6822         0.6483        44.6964         2.2675         0.7082       -40.3147       -2.57885              1      0.9631593
      7060.5000        15.2861        -0.0093       112.7893        40.1975        67.5607       84.55066         0.6746         0.6377        45.4063         2.2738         0.7133       -40.2621      -2.526249              1      0.9639108
      7061.0000        15.2826        -0.0068        112.811        41.8336        66.1273       82.78102         0.6642         0.6255        45.5318          2.279         0.7153       -40.1589       -2.42305              1       0.965385
      7061.5000        15.2795        -0.0045       114.2238         44.666        63.9034       80.03548         0.6512          0.613        44.7083         2.2782         0.7094       -40.0369      -2.301048              1      0.9671279
      7062.0000        15.2775        -0.0042       115.8589        47.7947        62.1517       77.87287         0.6365         0.5971        42.1086         2.2676         0.6892       -39.8412       -2.10535       0.954742      0.9699236
      7062.5000        15.2754        -0.0039       116.9995        49.5547        61.1786       76.67152         0.6169         0.5787        41.9561         2.2574         0.6539       -39.6455      -1.909649      0.9291813      0.9727193
      7063.0000        15.2776        -0.0051       117.3916        48.5034        61.4731        77.0351         0.6009         0.5611        43.5017         2.2522         0.6259        -39.517      -1.781147      0.9369171       0.974555
      7063.5000        15.2684        -0.0071        117.424        47.5331        61.6981       77.31287         0.5863         0.5469        44.2963         2.2516         0.6159       -39.3461      -1.610249      0.9428271      0.9769964
      7064.0000        15.2602        -0.0096       117.4274        47.9971        61.3243       76.85141         0.5728         0.5344        43.7149         2.2505         0.6146        -39.149      -1.413147      0.9330087      0.9798122
      7064.5000        15.1904        -0.0127       117.5093        48.8721        59.7532       74.91177         0.5581         0.5227        43.2223         2.2464         0.6136       -38.9769      -1.241047      0.8917397      0.9822708
      7065.0000        15.0985        -0.0158       117.8016        47.8994        59.2296       74.26535         0.5439         0.5123        44.0465         2.2383         0.6103       -38.9119      -1.176048      0.8779862      0.9831993
      7065.5000        15.0968        -0.0168       119.0537        46.6239        61.2973       76.81805         0.5306         0.5047        46.2376         2.2366         0.6032       -38.9386      -1.202747       0.932299      0.9828179
      7066.0000        15.2183        -0.0162         120.25        45.0997        64.0361        80.1993         0.5188         0.4995        46.9467         2.2419         0.5932       -39.0021      -1.266251              1      0.9819107
      7066.5000        15.1965         -0.013       121.1873        45.4108        70.4532       88.12165         0.5097         0.4952        47.5493          2.248         0.5803       -39.0344       -1.29855              1      0.9814493
