#------------------------------------------------------------------------------
# Created by    : vladimir.rabinovich
# Created on    : 09/19/2023 17:19:43
#------------------------------------------------------------------------------
~Version Information Section
VERS.           2.0     :   CWLS log ASCII Standard - VERSION 2.0
WRAP.           NO      :   One line per depth step
~Well Information Section
#MNEM       .UNIT                                         VALUE :DESCRIPTION
#------------------------------------------------------------------------------
STRT        .FT                                            1054 :START DEPTH
STOP        .FT                                           13910 :STOP DEPTH
STEP        .FT                                             0.5 :STEP      
NULL        .                                           -999.25 :NULL      
COMP        .                                            MTS LP :COMPANY   
WELL        .                                ST TR 00061-L SW/4 :WELL      
FLD         .                                           WILDCAT :FIELD     
LOC         .                                                   :LOCATION  
CNTY        .                           HIGH ISLAND LARGE BLOCK :LOCATION  
STAT        .                                             TEXAS :STATE     
CTRY        .                                     UNITED STATES :COUNTRY   
SRVC        .                                                   :SERVICE COMPANY
DATE        .                             9/13/2023 11:19:15 AM :LOG DATE  
API         .                                    42708302730000 :API NUMBER
UWI         .                                    42708302730000 :UNIQUE WELL ID
XCOORD      .                                  1164861.29381137 :SURFACE X 
YCOORD      .                                   10674042.082625 :SURFACE Y 
LAT         .                                        29.4036169 :LATITUDE  
LON         .                                       -94.4939126 :LONGITUDE 
ELEV        .FT                                              78 :ELEVATION VALUE
ELEV_TYPE   .                                                KB :ELEVATION REFERENCE TYPE
~Curve Information Section
#MNEM       .UNIT                                      API CODE :CURVE DESCRIPTION
#------------------------------------------------------------------------------
DEPT        .FT                                                 :DEPTH     
ASFL        .OHMM                                               :          
CILD        .MMHO                                               :          
ILD         .OHMM                                               :          
SP          .MV                                                 :          
SP_NORM     .MV                                                 :SP Normalized
VSH_SP      .V/V                                                :Volume of Shale from SP
~A        DEPTH           ASFL           CILD            ILD             SP        SP_NORM         VSH_SP
# ...
      8730.0000         0.8863       1471.498         0.7229       -56.0329       4.273201              1
      8730.5000         0.8279       1432.738          0.744        -55.248       5.032074              1
      8731.0000         0.8074       1399.137         0.7651       -54.6617       5.592342              1
      8731.5000         0.8073       1372.854         0.7862        -54.202       6.026016              1
      8732.0000         0.8135       1346.523         0.7994       -54.2985       5.903484              1
      8732.5000         0.8198       1319.602         0.8088       -54.4716       5.704357              1
      8733.0000         0.8266       1292.141         0.8181       -54.7986       5.351326              1
      8733.5000         0.8393       1264.189         0.8275       -55.1263       4.997597              1
      8734.0000         0.8531       1234.518         0.8368        -55.454       4.643867              1
      8734.5000         0.8688       1209.832         0.8461       -55.8581       4.213734              1
      8735.0000         0.8902       1195.168         0.8555       -56.6919       3.353909              1
      8735.5000         0.9021        1180.48         0.8648       -57.5258       2.493977              1
      8736.0000         0.9121       1164.316         0.8742       -58.3522       1.641548              1
      8736.5000          0.918       1147.344          0.884       -59.0333      0.9344177              1
      8737.0000         0.9224       1130.371         0.8939       -59.7143      0.2273903              1
      8737.5000         0.9267       1116.604         0.9037       -60.3953     -0.4796448              1
      8738.0000         0.9327       1105.219         0.9135       -60.9699      -1.080269      0.9988367
      8738.5000         0.9389       1094.666         0.9233       -61.3746      -1.511002      0.9925942
      8739.0000         0.9451       1093.701         0.9331       -60.2321     -0.3945313              1
      8739.5000         0.9526       1093.951         0.9429       -59.8243    -0.01276016              1
      8740.0000         0.9611       1096.451         0.9527        -59.416      0.3695068              1
      8740.5000         0.9686       1098.947         0.9584       -59.1224      0.6370811              1
      8741.0000         0.9588       1101.664         0.9625       -59.0087      0.7247467              1
      8741.5000         0.9489       1104.975         0.9667        -58.895      0.8124199              1
      8742.0000         0.9442       1108.283         0.9708       -58.7811      0.9002876              1
      8742.5000         0.9413       1111.594          0.975       -58.2367       1.418663              1
      8743.0000         0.9386       1104.471         0.9791       -57.6578       1.971531              1
      8743.5000         0.9383       1097.359         0.9783       -56.7861       2.817204              1
      8744.0000          0.938       1090.236         0.9773       -55.7407       3.836571              1
      8744.5000          0.941       1083.113         0.9763       -55.2247       4.326542              1
      8745.0000         0.9497       1073.104         0.9771        -54.878       4.647213              1
      8745.5000         0.9701       1062.248          0.982       -54.7245       4.774681              1
      8746.0000         0.9877       1051.402         0.9868       -55.0334       4.439751              1
      8746.5000         1.0054       1040.547         0.9916       -55.4381       4.009022              1
      8747.0000         1.0237        1026.35         0.9965       -55.8434       3.577694              1
      8747.5000         1.0437       1009.475         1.0013       -56.2157       3.179363              1
      8748.0000         1.0666       992.5762         1.0059       -56.4884       2.880634              1
      8748.5000         1.0852       975.7012         1.0103       -56.4586       2.884403              1
      8749.0000         1.1011       951.0156         1.0146       -56.4287       2.888275              1
      8749.5000         1.1171       925.5195          1.019       -56.4818       2.809143              1
      8750.0000         1.1364       901.3506         1.0085       -56.6163       2.648617              1
      8750.5000         1.1571       936.5244         0.9961       -57.0782       2.160683              1
      8751.0000         1.1805       971.6484         0.9809       -57.6389       1.573952              1
      8751.5000         1.1434       1009.573         0.9612       -58.3266      0.8602257              1
      8752.0000         1.0824       1066.264         0.9416       -59.3756     -0.2148056              1
      8752.5000           1.04       1127.572         0.9219       -60.7339      -1.599133      0.9913169
      8753.0000         1.0026       1160.092         0.9023       -62.7171      -3.608364      0.9621976
      8753.5000         0.9776       1188.266         0.8827       -64.5535      -5.470791      0.9352059
      8754.0000          0.966       1203.838         0.8727       -66.3165      -7.259823      0.9092779
      8754.5000          0.998       1219.412         0.8649       -66.4302      -7.399551      0.9072529
      8755.0000         1.0386       1211.133         0.8571        -65.567      -6.562386      0.9193857
      8755.5000         1.0676       1201.395         0.8493        -64.573       -5.59441      0.9334143
      8756.0000         1.0938       1191.668         0.8416       -63.5656      -4.613045       0.947637
      8756.5000         1.1118       1181.941         0.8472       -62.6645      -3.737976      0.9603192
      8757.0000         1.1268       1171.072         0.8558       -61.9102      -3.009701      0.9708739
      8757.5000         1.1149       1159.762         0.8643       -61.1558      -2.281334      0.9814299
      8758.0000         1.1029       1148.449         0.8729         -59.01     -0.1615601              1
      8758.5000         1.0891       1137.127         0.8817       -57.4304       1.392006              1
      8759.0000         1.0741       1126.232         0.8915       -56.0341        2.76228              1
      8759.5000          1.062       1118.814         0.9014       -54.5988       4.171547              1
      8760.0000         1.0565       1111.385         0.9112       -54.5951        4.14922              1
      8760.5000         1.0509       1103.967          0.921       -55.1294        3.58889              1
      8761.0000         1.0453        1101.51         0.9203       -55.6637       3.028561              1
      8761.5000         1.0371        1112.33         0.9166       -56.1979        2.46833              1
      8762.0000         1.0277        1123.15         0.9128       -56.7322       1.908001              1
      8762.5000         1.0146       1133.971         0.9101       -57.2708       1.343369              1
      8763.0000         1.0003       1138.404         0.9078       -57.8106      0.7775383              1
      8763.5000         0.9868       1120.768         0.9056       -58.3498      0.2123108              1
      8764.0000         0.9842       1103.156         0.9033       -59.1298     -0.5937195              1
      8764.5000         1.0048       1087.363          0.901       -59.9099      -1.399849      0.9942051
      8765.0000         1.0283       1073.166         0.9034       -60.7083      -2.224281      0.9822568
      8765.5000         1.0567       1068.117         0.9077       -61.5446      -3.086609      0.9697593
      8766.0000         1.0924       1075.205         0.9121       -62.3809       -3.94894      0.9572617
      8766.5000          1.128       1082.291         0.9161       -62.5123      -4.106365      0.9549802
      8767.0000         1.1305        1088.32         0.9124       -62.1492      -3.769299      0.9598652
      8767.5000         1.0923        1092.35         0.9087        -61.786      -3.432125      0.9647518
