#------------------------------------------------------------------------------
# Created by    : vladimir.rabinovich
# Created on    : 09/19/2023 17:22:51
#------------------------------------------------------------------------------
~Version Information Section
VERS.           2.0     :   CWLS log ASCII Standard - VERSION 2.0
WRAP.           NO      :   One line per depth step
~Well Information Section
#MNEM       .UNIT                                         VALUE :DESCRIPTION
#------------------------------------------------------------------------------
STRT        .FT                                            3080 :START DEPTH
STOP        .FT                                           13004 :STOP DEPTH
STEP        .FT                                             0.5 :STEP      
NULL        .                                           -999.25 :NULL      
COMP        .                                     INEXCO OIL CO :COMPANY   
WELL        .                                     ST TR 00006-L :WELL      
FLD         .                                           WILDCAT :FIELD     
LOC         .                                                   :LOCATION  
CNTY        .                           HIGH ISLAND LARGE BLOCK :LOCATION  
STAT        .                                             TEXAS :STATE     
CTRY        .                                     UNITED STATES :COUNTRY   
SRVC        .                                                   :SERVICE COMPANY
DATE        .                             9/13/2023 11:19:15 AM :LOG DATE  
API         .                                    42708302350000 :API NUMBER
UWI         .                                    42708302350000 :UNIQUE WELL ID
XCOORD      .                                  1306008.37969423 :SURFACE X 
YCOORD      .                                  10751503.0860356 :SURFACE Y 
LAT         .                                          29.62091 :LATITUDE  
LON         .                                         -94.05279 :LONGITUDE 
ELEV        .FT                                              84 :ELEVATION VALUE
ELEV_TYPE   .                                                KB :ELEVATION REFERENCE TYPE
~Curve Information Section
#MNEM       .UNIT                                      API CODE :CURVE DESCRIPTION
#------------------------------------------------------------------------------
DEPT        .FT                                                 :DEPTH     
DT          .US/F                                               :          
GR          .GAPI                                               :          
GR_NORM     .GAPI                                               :GammaRay Normalized
ILD         .OHMM                                               :          
SFL         .OHMM                                               :          
SP          .MV                                                 :          
SP_NORM     .MV                                                 :SP Normalized
VSH_GR      .V/V                                                :Volume of Shale from GR
VSH_SP      .V/V                                                :Volume of Shale from SP
~A        DEPTH             DT             GR        GR_NORM            ILD            SFL             SP        SP_NORM         VSH_GR         VSH_SP
# ...
      5067.5000        95.4896        40.2022       57.58537         0.4574         0.5255       -90.6292      -41.91303      0.5230929      0.4821136
      5068.0000       117.7074        37.7016        50.4651         0.3828         0.6318      -102.8693      -54.15494      0.3715979      0.3271527
      5068.5000       122.6733        33.0558       37.23355         0.3203         0.7006      -113.0219      -64.30934     0.09007555      0.1986159
      5069.0000       120.4363         31.263       32.12968         0.2859         0.7098        -116.66      -67.94926              0       0.152541
      5069.5000        121.153        30.7862       30.77483         0.2525         0.6653      -119.9323      -71.22337              0      0.1110965
      5070.0000        127.687        30.7073       30.55349         0.2144         0.6157      -122.2808      -73.57368              0     0.08134577
      5070.5000       131.6606        31.5778       33.03683         0.1775         0.5818       -123.608      -74.90269   0.0007837174     0.06452285
      5071.0000       133.5396         32.681       36.18311         0.1631         0.5702      -123.7207      -75.01721     0.06772565     0.06307327
      5071.5000       132.9282        33.1548        37.5363         0.1584         0.5692      -122.5173      -73.81562     0.09651712     0.07828329
      5072.0000       118.2104        33.1653       37.56967         0.1605         0.5681      -119.7465      -71.04663     0.09722698      0.1133338
      5072.5000        93.4927        33.2209       37.73152         0.1752         0.5616       -116.371      -67.67294      0.1006706      0.1560387
      5073.0000       107.1846        33.7617       39.27559         0.1966         0.5498      -109.5977      -60.90145      0.1335231      0.2417537
      5073.5000       127.4607        35.7517       44.94821          0.226         0.5406      -104.1459      -55.45146      0.2542172       0.310741
      5074.0000        129.968        38.0283       51.43726         0.2615         0.5579       -100.915      -52.22238      0.3922821      0.3516155
      5074.5000       125.4286        38.2473       52.06459         0.2916         0.6264      -102.0452      -53.35439      0.4056296      0.3372863
      5075.0000        116.631        36.5251        47.1618         0.3154         0.7004      -104.5476       -55.8586       0.301315      0.3055873
      5075.5000       108.8796        34.4976       41.38931         0.3261         0.7627      -107.4594      -58.77221      0.1784959      0.2687062
      5076.0000         103.08        33.5659       38.73853           0.33         0.7192      -110.2866      -61.60122      0.1220964      0.2328959
      5076.5000       100.5146        33.4633       38.44968           0.33         0.6856      -112.9298      -64.24624      0.1159507      0.1994147
      5077.0000       131.3552        32.8243       36.63276          0.326         0.6715      -115.0043      -66.32256     0.07729275      0.1731322
      5077.5000       125.9668        31.7505       33.57717         0.3208         0.6674      -115.8955      -67.21556     0.01228016      0.1618283
      5078.0000       121.5931        30.9852       31.40044         0.3215         0.6688       -116.005      -67.32687              0      0.1604194
      5078.5000       122.9236        31.1166       31.77821         0.3264         0.6812      -115.4877      -66.81139              0      0.1669445
      5079.0000       139.1858        32.2661       35.05637         0.3362         0.6879      -114.0319      -65.35739     0.04375263      0.1853495
      5079.5000       147.8977        33.7905       39.40255         0.3501         0.6802       -110.694      -62.02131      0.1362245      0.2275784
      5080.0000       152.8223        35.3074       43.72733         0.3623          0.665      -104.0632      -55.39232       0.228241      0.3114896
      5080.5000       149.4973        36.7717       47.90233         0.3696         0.6485       -97.8794      -49.21033      0.3170708      0.3897426
      5081.0000       132.7522         38.052        51.5531         0.3647         0.6344       -95.1892      -46.52194      0.3947468      0.4237729
      5081.5000       128.5447        39.2698       55.02582         0.3535         0.6347       -94.2068      -45.54136      0.4686344      0.4361854
      5082.0000       125.9064        40.2717       57.88351         0.3383         0.6298       -94.6344      -45.97076      0.5294363      0.4307498
      5082.5000       126.4691        40.9512       59.82273         0.3257         0.6261       -96.4714      -47.80957      0.5706965      0.4074737
      5083.0000       128.3584        41.2321        60.6264         0.3139         0.6378       -99.0527      -50.39268      0.5877957      0.3747762
      5083.5000        130.959        41.5113       61.42522         0.3027         0.6523      -100.5123       -51.8541       0.604792      0.3562773
      5084.0000       131.2786        41.8755       62.46624         0.2947         0.6322       -98.3036      -49.64721      0.6269414      0.3842126
      5084.5000       129.7744        42.4381       64.07245         0.2905         0.6064          -93.4      -44.74542      0.6611159      0.4462605
      5085.0000       127.3727        43.0369       65.78175          0.291         0.5821       -88.8495      -40.19674      0.6974841      0.5038388
      5085.5000       125.2249        43.4437       66.94411         0.3008          0.584         -85.29      -36.63905      0.7222151      0.5488728
      5086.0000        123.712         43.351       66.68348         0.3186         0.6106       -83.4409      -34.79176      0.7166698      0.5722562
      5086.5000       125.4487        43.1536       66.12457         0.3359         0.6352          -82.2      -33.55267       0.704778      0.5879409
      5087.0000       128.3284        43.4512       66.97581         0.3533         0.6193       -79.9171      -31.27158      0.7228895      0.6168154
      5087.5000        130.363        44.6827       71.59484         0.3702         0.5775        -77.165      -28.52129      0.8211668      0.6516292
      5088.0000       129.4663        45.3038       73.16132         0.3758         0.5388       -79.8458      -31.20391      0.8544961      0.6176721
      5088.5000       127.9474        45.0394       72.49881          0.371         0.5276       -89.4276      -40.78751      0.8404002      0.4963606
      5089.0000        126.261        42.8955       67.10525         0.3605         0.5887       -96.3962      -47.75793      0.7256436      0.4081275
      5089.5000       124.3596         39.241       57.90914         0.3496         0.6818      -102.5126      -53.87614      0.5299817      0.3306817
      5090.0000       125.2927        35.6716        48.9273         0.3401         0.7746      -107.1759      -58.54125      0.3388787      0.2716297
      5090.5000       133.9646         33.186       42.67357         0.3336          0.777      -109.9412      -61.30836      0.2058206       0.236603
      5091.0000       141.0518        31.8262        39.2537         0.3305         0.7443       -110.511      -61.87997      0.1330574      0.2293674
      5091.5000       148.0588        34.5677        46.1577         0.3323         0.7083      -106.5676      -57.93838      0.2799511       0.279261
      5092.0000       153.4434        37.7141       54.08089         0.3379         0.6716       -99.0245      -50.39709      0.4485295      0.3747203
      5092.5000       153.6975        40.8906       62.07983         0.3468          0.635       -91.3425      -42.71691      0.6187199      0.4719379
      5093.0000       145.3123         43.664        69.0641         0.3596         0.6015       -83.6155      -34.99172      0.7673213       0.569725
      5093.5000       123.5272        46.1195       75.24818         0.3729         0.5716       -78.0736      -29.45163      0.8988973      0.6398528
