#------------------------------------------------------------------------------
# Created by    : vladimir.rabinovich
# Created on    : 09/19/2023 17:20:01
#------------------------------------------------------------------------------
~Version Information Section
VERS.           2.0     :   CWLS log ASCII Standard - VERSION 2.0
WRAP.           NO      :   One line per depth step
~Well Information Section
#MNEM       .UNIT                                         VALUE :DESCRIPTION
#------------------------------------------------------------------------------
STRT        .FT                                            3530 :START DEPTH
STOP        .FT                                           11780 :STOP DEPTH
STEP        .FT                                             0.5 :STEP      
NULL        .                                           -999.25 :NULL      
COMP        .                                        TEXACO INC :COMPANY   
WELL        .                                     ST TR 00820-L :WELL      
FLD         .                                           WILDCAT :FIELD     
LOC         .                                                   :LOCATION  
CNTY        .                        MUSTANG ISLAND LARGE BLOCK :LOCATION  
STAT        .                                             TEXAS :STATE     
CTRY        .                                     UNITED STATES :COUNTRY   
SRVC        .                                                   :SERVICE COMPANY
DATE        .                             9/13/2023 11:18:55 AM :LOG DATE  
API         .                                    42702302010000 :API NUMBER
UWI         .                                    42702302010000 :UNIQUE WELL ID
XCOORD      .                                  295719.314319733 :SURFACE X 
YCOORD      .                                  9994218.17259751 :SURFACE Y 
LAT         .                                        27.4796405 :LATITUDE  
LON         .                                       -97.1466422 :LONGITUDE 
ELEV        .FT                                              78 :ELEVATION VALUE
ELEV_TYPE   .                                                KB :ELEVATION REFERENCE TYPE
~Curve Information Section
#MNEM       .UNIT                                      API CODE :CURVE DESCRIPTION
#------------------------------------------------------------------------------
DEPT        .FT                                                 :DEPTH     
ASFL        .OHMM                                               :          
CILD        .MMHO                                               :          
GR          .GAPI                                               :          
GR_NORM     .GAPI                                               :GammaRay Normalized
ILD         .OHMM                                               :          
SP          .MV                                                 :          
SP_NORM     .MV                                                 :SP Normalized
VSH_GR      .V/V                                                :Volume of Shale from GR
VSH_SP      .V/V                                                :Volume of Shale from SP
~A        DEPTH           ASFL           CILD             GR        GR_NORM            ILD             SP        SP_NORM         VSH_GR         VSH_SP
# ...
      8459.0000         0.5969       2183.145        55.8237       80.96996         0.4985        -38.064     -0.3209839              1              1
      8459.5000         0.5847       2194.367        54.8561       79.56933          0.507       -37.9235     -0.1773186      0.9908368              1
      8460.0000          0.573       2184.914        53.8834       78.16132         0.5154       -37.7831    -0.03375626      0.9608791              1
      8460.5000          0.561       2168.008        52.8701       76.69444         0.5239       -37.6428      0.1097107      0.9296688              1
      8461.0000         0.5729       2113.973         51.858       75.22932         0.5323       -37.5551       0.200573      0.8984961              1
      8461.5000         0.5878        2059.23        50.8459       73.76418         0.5394       -37.5129      0.2459373       0.867323              1
      8462.0000         0.6045       1994.145        50.6243       73.44489         0.5392       -37.4708      0.2912025      0.8605297              1
      8462.5000         0.6212       1932.426        50.4392       73.17854         0.5391       -37.4285      0.3366623      0.8548626              1
      8463.0000         0.6379       1902.809         50.254       72.91205         0.5389       -37.5491      0.2192307      0.8491925              1
      8463.5000         0.6494       1889.818        50.1754       72.80005         0.5388       -37.7268     0.04469299      0.8468096              1
      8464.0000         0.6582        1896.93        50.1295       72.73549         0.5386       -37.9672      -0.192543      0.8454359              1
      8464.5000         0.6544       1904.053        50.0836       72.67091         0.5384       -38.2289     -0.4510803       0.844062              1
      8465.0000         0.6488       1911.178        49.9612       72.49542         0.5383       -38.4905     -0.7095146      0.8403282              1
      8465.5000         0.6431        1927.01        49.7094       72.13239         0.5341       -38.7519     -0.9677505      0.8326041              1
      8466.0000         0.6375       1964.139        49.3413       71.60075         0.5278       -39.0135      -1.226185      0.8212926      0.9971369
      8466.5000         0.6318       2001.268        48.4427       70.30015         0.5214       -39.2752      -1.484722      0.7936202      0.9938643
      8467.0000          0.626       2038.006        47.5442       68.99969          0.515       -39.2746      -1.480957      0.7659508      0.9939119
      8467.5000         0.6192       2068.402         46.616       67.65617         0.5087       -39.0527      -1.255894      0.7373652      0.9967608
      8468.0000         0.6123       2098.797        44.2215       64.18717         0.5023       -38.8398      -1.039833      0.6635569      0.9994958
      8468.5000         0.6055       2122.801        48.9512       71.04507         0.4954        -38.642     -0.8388634      0.8094695              1
      8469.0000         0.5986       2138.441        53.7501       78.00325         0.4874       -38.4443     -0.6380043       0.957516              1
      8469.5000         0.5918       2155.246        54.4697       79.04832         0.4794       -38.2465     -0.4370346      0.9797514              1
      8470.0000         0.5866       2172.324        53.7834       78.05544         0.4714       -38.2236     -0.4109726      0.9586263              1
      8470.5000         0.5826       2195.695        53.0491         76.993         0.4634       -38.2078     -0.3920097      0.9360212              1
      8471.0000         0.5787        2222.48        52.4344        76.1039         0.4554       -38.2041     -0.3851471      0.9171042              1
      8471.5000         0.5786       2257.074        51.9635       75.42328         0.4474       -38.2214     -0.3992805      0.9026229              1
      8472.0000         0.5786       2301.813        52.3332       75.96111         0.4393       -38.2388      -0.413517      0.9140663              1
      8472.5000         0.5727       2346.504        53.1947       77.21185         0.4314       -38.2562     -0.4277496      0.9406777              1
      8473.0000         0.5593       2392.953        54.0563       78.46275         0.4236       -38.2736     -0.4419899      0.9672925              1
      8473.5000         0.5464       2439.402        54.9178       79.71348         0.4157       -38.4476     -0.6128235      0.9939038              1
      8474.0000         0.5352       2485.848        55.7916       80.98206         0.4078       -38.6263     -0.7883606              1              1
      8474.5000         0.5239       2538.836        56.7556       82.38137            0.4        -38.805     -0.9638977              1              1
      8475.0000         0.5127       2594.457        57.7208       83.78242         0.3921       -38.9836      -1.139332              1      0.9982363
      8475.5000         0.5015       2643.586        58.5565       84.99576         0.3842       -38.9995      -1.152069              1      0.9980751
      8476.0000         0.4902       2689.547        58.0905       84.32224         0.3764       -38.9707      -1.120102              1      0.9984797
      8476.5000         0.4862       2720.578         57.624       83.64796         0.3685       -38.9418      -1.088039              1      0.9988856
      8477.0000          0.485       2743.215         57.158       82.97443         0.3616        -38.913      -1.056072              1      0.9992902
      8477.5000         0.4839       2763.121        56.6921       82.30104         0.3642       -38.7723     -0.9122124              1              1
      8478.0000         0.4827       2779.418        56.3314       81.78015         0.3667       -38.5516     -0.6883469              1              1
      8478.5000         0.4824       2796.348        56.0675       81.39956         0.3692        -38.331     -0.4645844              1              1
      8479.0000         0.4827       2791.273        55.8922       81.14741         0.3718       -38.1107     -0.2411156              1              1
      8479.5000         0.4861       2724.336        56.3144       81.76137         0.3743       -37.8901    -0.01735306              1              1
      8480.0000         0.4943       2657.492        56.7365       82.37518         0.3768       -37.6992      0.1767082              1              1
      8480.5000         0.5024       2584.309        57.0482       82.82896         0.3793       -37.5576       0.321476              1              1
      8481.0000         0.5108       2502.145        57.1228       82.93905         0.3912       -37.6826      0.1996384              1              1
      8481.5000         0.5267       2405.734        57.1443       82.97215         0.4057       -37.9919     -0.1064987              1              1
      8482.0000         0.5426       2275.953        57.1449         82.975         0.4202       -38.3511     -0.4625359              1              1
      8482.5000         0.5581       2162.422        56.9136       82.64166         0.4347       -38.7103     -0.8185692              1              1
      8483.0000         0.5677       2124.023        56.1866       81.58978         0.4492        -39.029      -1.134106              1      0.9983025
      8483.5000         0.5772       2090.992        55.4596       80.53793         0.4637       -39.3212      -1.423141              1      0.9946438
      8484.0000         0.5868       2064.402        54.7339       79.48795         0.4782       -39.6134      -1.712177      0.9891052      0.9909851
      8484.5000         0.5918       2042.885        51.9974       75.52319         0.4903       -39.9056      -2.001213      0.9047488      0.9873264
      8485.0000         0.5948        2025.98        49.6635       72.14206         0.4959       -39.9677       -2.06015      0.8328097      0.9865804
