#------------------------------------------------------------------------------
# Created by    : vladimir.rabinovich
# Created on    : 09/19/2023 17:19:44
#------------------------------------------------------------------------------
~Version Information Section
VERS.           2.0     :   CWLS log ASCII Standard - VERSION 2.0
WRAP.           NO      :   One line per depth step
~Well Information Section
#MNEM       .UNIT                                         VALUE :DESCRIPTION
#------------------------------------------------------------------------------
STRT        .FT                                            3520 :START DEPTH
STOP        .FT                                           13769 :STOP DEPTH
STEP        .FT                                             0.5 :STEP      
NULL        .                                           -999.25 :NULL      
COMP        .                           WILLIAMS EXPLORATION CO :COMPANY   
WELL        .                                          SL 73414 :WELL      
FLD         .                                           WILDCAT :FIELD     
LOC         .                                                   :LOCATION  
CNTY        .                           HIGH ISLAND LARGE BLOCK :LOCATION  
STAT        .                                             TEXAS :STATE     
CTRY        .                                     UNITED STATES :COUNTRY   
SRVC        .                                                   :SERVICE COMPANY
DATE        .                             9/13/2023 11:19:15 AM :LOG DATE  
API         .                                    42708301040000 :API NUMBER
UWI         .                                    42708301040000 :UNIQUE WELL ID
XCOORD      .                                  1272749.25589155 :SURFACE X 
YCOORD      .                                  10699068.0748216 :SURFACE Y 
LAT         .                                        29.4758188 :LATITUDE  
LON         .                                       -94.1558378 :LONGITUDE 
ELEV        .FT                                             106 :ELEVATION VALUE
ELEV_TYPE   .                                                KB :ELEVATION REFERENCE TYPE
~Curve Information Section
#MNEM       .UNIT                                      API CODE :CURVE DESCRIPTION
#------------------------------------------------------------------------------
DEPT        .FT                                                 :DEPTH     
ASFL        .OHMM                                               :          
CILD        .MMHO                                               :          
ILD         .OHMM                                               :          
SP          .MV                                                 :          
SP_NORM     .MV                                                 :SP Normalized
VSH_SP      .V/V                                                :Volume of Shale from SP
~A        DEPTH           ASFL           CILD            ILD             SP        SP_NORM         VSH_SP
# ...
      4204.0000         0.5166       3203.266         0.3662      -117.1412      -38.35332              0
      4204.5000         0.5218       3186.527         0.3635      -117.5469      -38.75902              0
      4205.0000         0.5271       3139.617         0.3608      -117.8734      -39.08552              0
      4205.5000         0.5401       3068.625         0.3581      -118.2002      -39.41232              0
      4206.0000         0.5559       2991.629         0.3553      -118.5271      -39.73922              0
      4206.5000         0.5716       2939.773         0.3526      -117.6337      -38.84582              0
      4207.0000         0.5874       3494.547         0.3499       -116.588      -37.80012     0.00540223
      4207.5000         0.5994       3662.168         0.3421       -115.113      -36.32512     0.04526705
      4208.0000         0.5992       3818.145         0.3337      -113.5662      -34.77832     0.08707242
      4208.5000         0.5845        4310.43         0.3252      -112.0203      -33.23242      0.1288535
      4209.0000         0.5697       4503.828         0.3167      -105.9113      -27.12342      0.2939616
      4209.5000          0.555       4711.469         0.3082      -100.3235      -21.53562      0.4449832
      4210.0000         0.5425       4920.695         0.2997      -100.9253      -22.13742      0.4287184
      4210.5000         0.5339       5118.281         0.2912      -103.4275      -24.63962      0.3610914
      4211.0000         0.5254       5207.039         0.2852      -105.9297      -27.14182      0.2934642
      4211.5000         0.5168       5248.477         0.2858      -108.1241      -29.33622      0.2341562
      4212.0000         0.5083       5246.086         0.2863      -110.2947      -31.50682      0.1754913
      4212.5000         0.4997       5096.383         0.2869      -111.8218      -33.03392      0.1342184
      4213.0000         0.4912       4991.172         0.2874      -112.7306      -33.94272      0.1096563
      4213.5000         0.4826       4888.148          0.288       -113.639      -34.85112     0.08510487
      4214.0000          0.474       4765.914         0.2988      -114.6156      -35.82772     0.05871025
      4214.5000         0.4686       4213.875         0.3143      -116.4489      -37.66102    0.009161666
      4215.0000         0.4643       3207.676         0.3298      -118.2822      -39.49432              0
      4215.5000         0.4599       3085.941         0.3453      -119.6071      -40.81922              0
      4216.0000         0.4556       2827.246         0.3826       -120.847      -42.05912              0
      4216.5000         0.4649       2647.879         0.4222      -121.5181      -42.73022              0
      4217.0000         0.5378       2476.074         0.4619      -121.4397      -42.65182              0
      4217.5000         0.5979       2273.914         0.4993      -121.3612      -42.57332              0
      4218.0000         0.6418       2133.367         0.5366      -121.2161      -42.42822              0
      4218.5000         0.6802       2006.457         0.5739       -120.967      -42.17912              0
      4219.0000         0.7158       1920.406          0.607      -120.7184      -41.93052              0
      4219.5000         0.7489       1907.316         0.5769      -120.4694      -41.68152              0
      4220.0000         0.7795        2348.07         0.5267      -120.2203      -41.43242              0
      4220.5000         0.8218       2665.992         0.4765      -119.9714      -41.18352              0
      4221.0000         0.7906       3011.789         0.4263      -119.7224      -40.93452              0
      4221.5000         0.7571       3576.664         0.3761       -119.459      -40.67112              0
      4222.0000          0.726       3701.781         0.3534      -119.1805      -40.39262              0
      4222.5000         0.6995       4256.977         0.3328       -118.902      -40.11412              0
      4223.0000         0.6731           4360         0.3121      -118.6238      -39.83592              0
      4223.5000         0.6467       4544.641         0.2915      -118.3516      -39.56372              0
      4224.0000         0.6202       4679.563         0.2709      -118.2449      -39.45702              0
      4224.5000         0.6122       4635.648         0.2591      -118.1382      -39.35032              0
      4225.0000         0.6186       4591.727         0.2554      -118.1949      -39.40702              0
      4225.5000         0.6249       4547.828         0.2516      -118.2911      -39.50322              0
      4226.0000         0.6309       4500.992         0.2478      -118.3873      -39.59942              0
      4226.5000         0.6331       4450.281         0.2441      -118.4834      -39.69552              0
      4227.0000         0.6352       4510.602         0.2403      -118.5796      -39.79172              0
      4227.5000         0.6374       4626.164         0.2366      -118.6758      -39.88792              0
      4228.0000         0.6207       4741.828         0.2372      -118.4077      -39.61982              0
      4228.5000         0.5846       4826.234         0.2382      -118.0045      -39.21662              0
      4229.0000         0.5521       4909.945         0.2391      -117.1583      -38.37042              0
      4229.5000         0.5216       4992.961           0.24      -112.2719      -33.48402      0.1220536
      4230.0000         0.4961       5069.109          0.241      -108.2623      -29.47442      0.2304211
      4230.5000         0.4889        5145.25         0.2419      -102.9282      -24.14032       0.374586
      4231.0000         0.4816        5216.82         0.2429      -101.3159      -22.52802      0.4181615
      4231.5000         0.4743         5285.5         0.2491      -102.3846      -23.59672      0.3892779
      4232.0000         0.4664       5354.828         0.2572      -103.9747      -25.18682      0.3463021
      4232.5000          0.458       5426.992         0.2652      -105.9408      -27.15292      0.2931642
      4233.0000         0.4497       5507.773         0.2733      -107.9067      -29.11882      0.2400319
      4233.5000         0.4413       5662.055         0.2813       -109.871      -31.08312      0.1869426
      4234.0000         0.4329        5701.25         0.2894      -110.9562      -32.16832       0.157613
      4234.5000         0.4237       5622.633          0.308      -111.9973      -33.20942      0.1294752
      4235.0000         0.4131       5495.727          0.327      -112.9423      -34.15442      0.1039346
      4235.5000         0.4025       5366.031          0.346      -113.1981      -34.41022     0.09702116
      4236.0000         0.3954       5234.539          0.365      -113.4542      -34.66632     0.09009944
      4236.5000         0.4047       5028.594          0.384      -113.7103      -34.92242     0.08317792
      4237.0000         0.4418       3936.293         0.4043      -114.0349      -35.24702     0.07440495
      4237.5000         0.4792       2987.996         0.4295      -114.3917      -35.60382      0.0647616
      4238.0000         0.5189       2893.836         0.4547      -114.7487      -35.96082     0.05511289
      4238.5000         0.5932       2808.629         0.4799      -115.1057      -36.31782     0.04546439
      4239.0000         0.6131       2732.188         0.5039      -115.4626      -36.67472     0.03581836
      4239.5000         0.6276       2534.402         0.5272      -115.8197      -37.03182     0.02616697
      4240.0000          0.642       2349.289           0.54      -116.1766      -37.38872     0.01652114
      4240.5000         0.6578       2319.777         0.5382       -116.693      -37.90512    0.002564301
      4241.0000         0.6808       2291.035         0.5358      -117.3168      -38.52892              0
      4241.5000         0.7038       2339.109         0.5131      -117.9404      -39.15252              0
