#------------------------------------------------------------------------------
# Created by    : vladimir.rabinovich
# Created on    : 09/19/2023 17:20:32
#------------------------------------------------------------------------------
~Version Information Section
VERS.           2.0     :   CWLS log ASCII Standard - VERSION 2.0
WRAP.           NO      :   One line per depth step
~Well Information Section
#MNEM       .UNIT                                         VALUE :DESCRIPTION
#------------------------------------------------------------------------------
STRT        .FT                                             222 :START DEPTH
STOP        .FT                                            9192 :STOP DEPTH
STEP        .FT                                             0.5 :STEP      
NULL        .                                           -999.25 :NULL      
COMP        .                                      PAN AMERICAN :COMPANY   
WELL        .                                     ST TR 00060-L :WELL      
FLD         .                                           WILDCAT :FIELD     
LOC         .                                                   :LOCATION  
CNTY        .                             GALVESTON LARGE BLOCK :LOCATION  
STAT        .                                             TEXAS :STATE     
CTRY        .                                     UNITED STATES :COUNTRY   
SRVC        .                                                   :SERVICE COMPANY
DATE        .                             9/13/2023 11:19:24 AM :LOG DATE  
API         .                                    42706000830000 :API NUMBER
UWI         .                                    42706000830000 :UNIQUE WELL ID
XCOORD      .                                  1150669.84230747 :SURFACE X 
YCOORD      .                                  10684730.4394491 :SURFACE Y 
LAT         .                                        29.4325033 :LATITUDE  
LON         .                                       -94.5389235 :LONGITUDE 
ELEV        .FT                                              11 :ELEVATION VALUE
ELEV_TYPE   .                                                KB :ELEVATION REFERENCE TYPE
~Curve Information Section
#MNEM       .UNIT                                      API CODE :CURVE DESCRIPTION
#------------------------------------------------------------------------------
DEPT        .FT                                                 :DEPTH     
ASN         .OHMM                                               :          
CILD        .MMHO                                               :          
ILD         .OHMM                                               :          
SP          .MV                                                 :          
SP_NORM     .MV                                                 :SP Normalized
VSH_SP      .V/V                                                :Volume of Shale from SP
~A        DEPTH            ASN           CILD            ILD             SP        SP_NORM         VSH_SP
# ...
      4402.0000         0.6668       1378.389         0.7119       -58.0127      -1.803547      0.9793962
      4402.5000         0.6829       1354.234         0.7402       -57.2187      -1.009548      0.9997552
      4403.0000          0.699       1330.057         0.7687       -56.4253     -0.2161484              1
      4403.5000         0.7151       1303.689         0.7972       -55.6312      0.5779533              1
      4404.0000         0.7312       1247.857         0.8256       -55.0187       1.190453              1
      4404.5000         0.7473       1106.824         0.8541       -54.4393       1.769852              1
      4405.0000         0.7543       1058.643         0.8826       -53.8596       2.349552              1
      4405.5000         0.7558       1027.258          0.911       -53.2492       2.959953              1
      4406.0000         0.7573       1014.757         0.9395       -52.8127       3.396454              1
      4406.5000         0.7588        1003.72          0.968       -53.1993       3.009853              1
      4407.0000          0.759       1005.669         0.9893       -53.6129       2.596252              1
      4407.5000         0.7477       1011.818         1.0044       -54.0267       2.182453              1
      4408.0000         0.7364       1017.967         0.9599       -54.4402       1.768951              1
      4408.5000          0.725       1035.988         0.8967       -55.2113      0.9978523              1
      4409.0000         0.7137       1087.443         0.8367       -56.1186     0.09055328              1
      4409.5000         0.7024        1143.08         0.7795       -57.2242      -1.015049      0.9996141
      4410.0000         0.6911       1185.777         0.7223       -58.5147       -2.30555      0.9665244
      4410.5000         0.6798       1272.258         0.6651       -61.0051      -4.795948       0.902668
      4411.0000         0.6697       1394.449         0.6079       -63.9853      -7.776146      0.8262526
      4411.5000         0.6603       1516.641         0.5507       -66.9875      -10.77835      0.7492731
      4412.0000          0.651       1638.834         0.4982        -69.353      -13.14384      0.6886194
      4412.5000         0.6417       1761.125         0.4541       -71.7087      -15.49955      0.6282167
      4413.0000         0.6323       1852.645           0.41       -74.0669      -17.85775        0.56775
      4413.5000         0.6274       1880.291         0.3659       -76.0126      -19.80345      0.5178602
      4414.0000         0.6465           2021         0.3218       -77.4952      -21.28605      0.4798449
      4414.5000         0.6655       2809.645         0.2777       -78.9792      -22.77005      0.4417936
      4415.0000         0.6846       2841.141         0.2367       -79.9778      -23.76865      0.4161886
      4415.5000         0.6999       2896.973         0.2174       -80.7037      -24.49454      0.3975758
      4416.0000         0.7082       2914.695         0.1981       -80.2631      -24.05395      0.4088731
      4416.5000         0.7165       2919.934         0.1802       -79.6501      -23.44095      0.4245911
      4417.0000         0.6944       2925.168         0.1908       -78.9297      -22.72055      0.4430628
      4417.5000         0.6701       2930.406         0.2015       -78.2085      -21.99935      0.4615551
      4418.0000         0.6457       2935.645         0.2121       -77.4873      -21.27814      0.4800476
      4418.5000         0.6218       2943.516         0.2227       -76.7667      -20.55755      0.4985244
      4419.0000         0.6418       2953.563         0.2334       -76.6467      -20.43755      0.5016014
      4419.5000         0.6619       2945.125          0.244       -78.0156      -21.80645      0.4665013
      4420.0000          0.682       2936.684         0.2546       -79.5756      -23.36645      0.4265013
      4420.5000         0.7021       2927.422         0.2652       -81.1366      -24.92744      0.3864758
      4421.0000         0.7221        2907.07         0.2704       -82.3879      -26.17875       0.354391
      4421.5000          0.737       2886.715          0.274       -83.2383      -27.02914      0.3325861
      4422.0000         0.7515       2853.043         0.2776       -84.0886      -27.87945      0.3107834
      4422.5000         0.7659       2814.109         0.2812        -83.994      -27.78485      0.3132089
      4423.0000         0.7804       2774.262         0.2847       -83.7257      -27.51655      0.3200885
      4423.5000         0.7676        2726.57         0.2883       -83.4575      -27.24834      0.3269655
      4424.0000         0.7546       2684.465         0.2919       -83.1771      -26.96795      0.3341551
      4424.5000         0.7444       2658.492         0.2955       -82.8557      -26.64655      0.3423963
      4425.0000         0.7344       2642.223         0.2991       -82.5345      -26.32535      0.3506321
      4425.5000         0.7244       2653.266         0.2977       -82.2135      -26.00435      0.3588628
      4426.0000         0.7144       2675.633         0.2924       -82.5282      -26.31905      0.3507937
      4426.5000         0.7044       2787.719         0.2871       -83.2567      -27.04755      0.3321142
      4427.0000         0.6944       2850.438         0.2819       -84.0366      -27.82745      0.3121168
      4427.5000         0.6844       2922.996         0.2766       -84.8582      -28.64905        0.29105
      4428.0000         0.6744       3023.789         0.2714       -85.6797      -29.47055      0.2699859
      4428.5000         0.6644        3097.23         0.2661       -86.5007      -30.29155      0.2489346
      4429.0000         0.6439       3146.227         0.2609       -87.3223      -31.11315      0.2278679
      4429.5000         0.6225       3172.594         0.2501       -88.1438      -31.93465      0.2068039
      4430.0000         0.5938       3198.887         0.2379       -88.7166      -32.50745      0.1921168
      4430.5000         0.5402       3229.582         0.2256       -89.2305      -33.02135      0.1789398
      4431.0000         0.4983       3290.359         0.2133       -89.7448      -33.53564      0.1657527
      4431.5000         0.4808       3356.129         0.2011       -90.2587      -34.04955      0.1525758
      4432.0000         0.4661       3428.195         0.1888       -90.7726      -34.56345      0.1393988
      4432.5000         0.4558       3431.145         0.1766       -91.2865      -35.07735      0.1262219
      4433.0000         0.4472        3371.77         0.1643       -91.8115      -35.60235      0.1127603
      4433.5000         0.4386       3325.801          0.152       -92.3549      -36.14574     0.09882707
      4434.0000          0.415       3280.125         0.1419       -92.8982      -36.68905     0.08489618
      4434.5000          0.384        3226.41         0.1326       -93.4415      -37.23235      0.0709655
      4435.0000         0.3718       3160.641         0.1234       -93.9851      -37.77595     0.05702699
      4435.5000          0.361       3099.988         0.1141       -94.5128      -38.30365     0.04349616
      4436.0000           0.37        3040.27         0.1049       -94.8499      -38.64075     0.03485264
      4436.5000         0.3884       2980.551         0.0956       -95.1871      -38.97795     0.02620638
      4437.0000         0.4067       2920.832         0.0864       -95.5242      -39.31505     0.01756287
      4437.5000         0.4251       2861.113         0.0822       -95.8615      -39.65235    0.008914067
      4438.0000         0.4376       2801.395         0.0884       -95.6632      -39.45405     0.01399877
      4438.5000         0.4339       2741.676         0.0947       -95.3735      -39.16434     0.02142706
      4439.0000         0.4232       2681.957         0.1009       -94.6423      -38.43315     0.04017561
      4439.5000         0.3989       2622.285         0.1072       -93.8293      -37.62015     0.06102185
