#------------------------------------------------------------------------------
# Created by    : vladimir.rabinovich
# Created on    : 09/19/2023 17:20:30
#------------------------------------------------------------------------------
~Version Information Section
VERS.           2.0     :   CWLS log ASCII Standard - VERSION 2.0
WRAP.           NO      :   One line per depth step
~Well Information Section
#MNEM       .UNIT                                         VALUE :DESCRIPTION
#------------------------------------------------------------------------------
STRT        .FT                                             617 :START DEPTH
STOP        .FT                                           12396 :STOP DEPTH
STEP        .FT                                             0.5 :STEP      
NULL        .                                           -999.25 :NULL      
COMP        .                                        SUN OIL CO :COMPANY   
WELL        .                               OCS G01781 ST00BP00 :WELL      
FLD         .                                           WILDCAT :FIELD     
LOC         .                                                   :LOCATION  
CNTY        .                             GALVESTON LARGE BLOCK :LOCATION  
STAT        .                                             TEXAS :STATE     
CTRY        .                                     UNITED STATES :COUNTRY   
SRVC        .                                                   :SERVICE COMPANY
DATE        .                             9/13/2023 11:19:24 AM :LOG DATE  
API         .                                    42706001390000 :API NUMBER
UWI         .                                    42706001390000 :UNIQUE WELL ID
XCOORD      .                                  1010631.41746955 :SURFACE X 
YCOORD      .                                  10491097.5822315 :SURFACE Y 
LAT         .                                         28.894296 :LATITUDE  
LON         .                                        -94.968586 :LONGITUDE 
ELEV        .FT                                              65 :ELEVATION VALUE
ELEV_TYPE   .                                                KB :ELEVATION REFERENCE TYPE
~Curve Information Section
#MNEM       .UNIT                                      API CODE :CURVE DESCRIPTION
#------------------------------------------------------------------------------
DEPT        .FT                                                 :DEPTH     
ASN         .OHMM                                               :          
CILD        .MMHO                                               :          
DT          .US/F                                               :          
ILD         .OHMM                                               :          
SP          .MV                                                 :          
SP_NORM     .MV                                                 :SP Normalized
VSH_SP      .V/V                                                :Volume of Shale from SP
~A        DEPTH            ASN           CILD             DT            ILD             SP        SP_NORM         VSH_SP
# ...
     12375.5000          0.511       2270.801       133.4922         0.4359       -40.1469       2.075325              1
     12376.0000         0.5112       2297.512       133.2192          0.436       -40.1409       2.081326              1
     12376.5000         0.5113       2324.223       133.0298         0.4361       -40.1349       2.087326              1
     12377.0000         0.5103       2346.605       133.4116         0.4362        -40.129       2.093224              1
     12377.5000         0.5088        2351.18       133.6221         0.4364        -40.123       2.099224              1
     12378.0000         0.5073       2341.184       132.5945         0.4378       -40.1171       2.105125              1
     12378.5000         0.5058        2331.16         131.52         0.4392       -40.1131       2.109127              1
     12379.0000         0.5043       2321.137       131.7532         0.4405        -40.123       2.099224              1
     12379.5000         0.5028       2311.113       132.1069         0.4419       -40.1329       2.089325              1
     12380.0000         0.5014       2301.094       131.7195         0.4433       -40.1428       2.079426              1
     12380.5000         0.5005        2288.93       130.6785         0.4447       -40.1528       2.069424              1
     12381.0000          0.501        2274.93       131.7988         0.4461       -40.1627       2.059525              1
     12381.5000         0.5016       2260.926       133.9622         0.4475       -40.1726       2.049625              1
     12382.0000         0.5021       2246.922       134.9873         0.4489       -40.1825       2.039726              1
     12382.5000         0.5026       2232.922       135.3105         0.4504        -40.176       2.046227              1
     12383.0000         0.5031       2222.363       134.0847          0.452       -40.1667       2.055527              1
     12383.5000         0.5037        2216.32       133.9465         0.4537       -40.1575       2.064724              1
     12384.0000         0.5042       2234.191       134.4417         0.4553       -40.1483       2.073925              1
     12384.5000          0.505       2252.246       134.0342         0.4569        -40.139       2.083225              1
     12385.0000         0.5065       2270.301       133.5552         0.4585       -40.1298       2.092426              1
     12385.5000         0.5081        2287.34       133.4443         0.4602       -40.1205       2.101727              1
     12386.0000         0.5097       2301.168       133.4844         0.4618       -40.1113       2.110924              1
     12386.5000         0.5113       2295.867       133.9934         0.4634       -40.1021       2.120125              1
     12387.0000         0.5129       2290.199       135.4475          0.465         -40.09       2.132225              1
     12387.5000         0.5144       2284.031       139.7888         0.4667       -40.0634       2.158825              1
     12388.0000         0.5148       2277.863       157.5552         0.4664       -40.0369       2.185326              1
     12388.5000         0.5142       2271.707        157.687         0.4658       -40.0104       2.211826              1
     12389.0000         0.5137       2265.539       157.5691         0.4652       -39.9839       2.238327              1
     12389.5000         0.5131       2259.371       157.6243         0.4645       -39.9573       2.264927              1
     12390.0000         0.5125       2253.215        157.658         0.4639       -39.9308       2.291424              1
     12390.5000         0.5119       2247.047       157.6797         0.4632       -39.9044       2.317825              1
     12391.0000         0.5113       2240.895       157.6436         0.4626       -39.8777       2.344524              1
     12391.5000         0.5107       2235.781       157.5776          0.462       -39.8513       2.370926              1
     12392.0000         0.5096       2231.441       157.6038         0.4613       -39.8248       2.397427              1
     12392.5000         0.5083        2227.09       157.5515         0.4607       -39.7963       2.425926              1
     12393.0000          0.507       2223.906       157.5244         0.4601       -39.7617       2.460526              1
     12393.5000         0.5057       2223.375         157.54         0.4598       -39.7271       2.495125              1
     12394.0000         0.5044       2222.848       157.5642         0.4594       -39.6925       2.529724              1
     12394.5000         0.5031       2222.621       157.5591         0.4591       -39.6579       2.564323              1
     12395.0000         0.5022       2222.723        157.582         0.4587       -39.6234       2.598824              1
     12395.5000         0.5014       2222.828       157.6221         0.4583       -39.5888       2.633427              1
     12396.0000         0.5006       2222.934        157.624          0.458       -39.5542       2.668026              1
