#------------------------------------------------------------------------------
# Created by    : vladimir.rabinovich
# Created on    : 09/19/2023 17:20:03
#------------------------------------------------------------------------------
~Version Information Section
VERS.           2.0     :   CWLS log ASCII Standard - VERSION 2.0
WRAP.           NO      :   One line per depth step
~Well Information Section
#MNEM       .UNIT                                         VALUE :DESCRIPTION
#------------------------------------------------------------------------------
STRT        .FT                                             945 :START DEPTH
STOP        .FT                                           12004 :STOP DEPTH
STEP        .FT                                             0.5 :STEP      
NULL        .                                           -999.25 :NULL      
COMP        .                                    EXXON CO U S A :COMPANY   
WELL        .                                     ST TR 00819-L :WELL      
FLD         .                                           WILDCAT :FIELD     
LOC         .                                                   :LOCATION  
CNTY        .                        MUSTANG ISLAND LARGE BLOCK :LOCATION  
STAT        .                                             TEXAS :STATE     
CTRY        .                                     UNITED STATES :COUNTRY   
SRVC        .                                                   :SERVICE COMPANY
DATE        .                             9/13/2023 11:18:55 AM :LOG DATE  
API         .                                    42702301310000 :API NUMBER
UWI         .                                    42702301310000 :UNIQUE WELL ID
XCOORD      .                                  274042.524369281 :SURFACE X 
YCOORD      .                                  9990401.22532542 :SURFACE Y 
LAT         .                                        27.4671591 :LATITUDE  
LON         .                                       -97.2129423 :LONGITUDE 
ELEV        .FT                                              93 :ELEVATION VALUE
ELEV_TYPE   .                                                KB :ELEVATION REFERENCE TYPE
~Curve Information Section
#MNEM       .UNIT                                      API CODE :CURVE DESCRIPTION
#------------------------------------------------------------------------------
DEPT        .FT                                                 :DEPTH     
ASFL        .OHMM                                               :          
CILD        .MMHO                                               :          
GR          .GAPI                                               :          
GR_NORM     .GAPI                                               :GammaRay Normalized
ILD         .OHMM                                               :          
SP          .MV                                                 :          
SP_NORM     .MV                                                 :SP Normalized
VSH_GR      .V/V                                                :Volume of Shale from GR
VSH_SP      .V/V                                                :Volume of Shale from SP
~A        DEPTH           ASFL           CILD             GR        GR_NORM            ILD             SP        SP_NORM         VSH_GR         VSH_SP
       945.0000         0.2042        -19.812        32.3181       65.09748         1.0844       -48.3454      -10.25016      0.6829251              0
       945.5000         0.2726       -20.1201        32.8663       66.11526          1.023       -47.0703      -8.975063      0.7045799    0.003562382
       946.0000         0.4052       -20.4287        33.4146       67.13326         0.9486       -46.0112      -7.915962      0.7262394      0.1548625
       946.5000         0.4573       354.2563        33.9628       68.15104         0.8609       -44.9521      -6.856861      0.7478945      0.3061627
       947.0000         0.5311       1078.412        34.4564       69.06747         0.7732       -44.3056      -6.210361      0.7673931      0.3985198
       947.5000         0.6056       1714.504        34.9274       69.94191         0.6707       -43.8893      -5.794064      0.7859981      0.4579909
       948.0000         0.6621       1802.072        35.3983       70.81621          0.619       -43.4731      -5.377861      0.8046002      0.5174484
       948.5000         0.7135       1838.473        35.8693       71.69067         0.5976       -43.0569      -4.961662      0.8232058      0.5769054
       949.0000         0.7636        1496.48        36.3402       72.56493         0.6979       -42.6406      -4.545361      0.8418071       0.636377
       949.5000         0.7978       846.7139        36.8112       73.43944         0.7998       -42.1552      -4.059963      0.8604136      0.7057195
       950.0000         0.8294       770.1914         36.873       73.55415         0.9016       -41.6111      -3.515862      0.8628543      0.7834483
       950.5000          0.861       717.8711         36.858        73.5263         1.0034       -41.0671      -2.971863      0.8622617      0.8611625
       951.0000          0.902       677.9736        36.4158       72.70531         1.0846       -40.6085      -2.513264      0.8447937      0.9266766
       951.5000         0.9518       638.0762        35.7131       71.40068         1.1599       -40.4319      -2.336662      0.8170357      0.9519054
       952.0000         0.9943        603.665        35.0105       70.09621         1.2352       -40.2551      -2.159863       0.789281      0.9771625
       952.5000         1.0283       582.0176        34.3079       68.79176         1.3105       -40.0784      -1.983162      0.7615269              1
       953.0000         1.0314       560.3672        33.6052       67.48711         1.3617       -39.9018      -1.806561      0.7337684              1
       953.5000         1.0048       559.5703        32.9025       66.18247         1.3892        -39.725      -1.629761        0.70601              1
       954.0000         0.9726        588.583        32.3539       65.16395         1.4167       -39.5511      -1.455864      0.6843393              1
       954.5000         0.9261       666.8154        31.8717       64.25207         1.4162       -39.4244      -1.329163      0.6649376              1
       955.0000         0.8411       794.8643        31.3896       63.33678         1.3533       -39.2977      -1.202461      0.6454633              1
       955.5000         0.7856       920.8184         31.748       63.98191         1.2905        -39.171      -1.075764      0.6591896              1
       956.0000         0.7547       979.6729        32.1146       64.64232         1.2246       -39.0443     -0.9490623      0.6732408              1
       956.5000         0.7412       1034.986        32.4813       65.30289         1.1536       -38.9176      -0.822361      0.6872956              1
       957.0000         0.7278       1068.555         32.848       65.96346         1.0826       -38.7909     -0.6956635      0.7013503              1
       957.5000         0.7144       1102.117        33.2146       66.62386         1.0116       -38.6642     -0.5689621      0.7154014              1
       958.0000         0.7025        1135.68        33.5814       67.28462         0.9405       -38.5375     -0.4422607      0.7294601              1
       958.5000         0.6907       1157.879        33.9806       68.00552         0.9008       -38.4108     -0.3155632      0.7447984              1
       959.0000         0.6788       1147.891        34.6691       69.26358          0.864       -38.2841     -0.1888618      0.7715656              1
       959.5000          0.667       1104.938        35.3577        70.5218         0.8271       -38.1938    -0.09856415      0.7983361              1
       960.0000         0.6551       1061.979        36.0462       71.77985         0.8216       -38.1466    -0.05136108      0.8251031              1
       960.5000         0.6446       1019.024        36.7347       73.03788         0.8651       -38.0994   -0.004161835      0.8518698              1
       961.0000         0.6344       975.4941        37.4233        74.2961         0.9085       -38.0523     0.04293823      0.8786404              1
       961.5000         0.6242       914.7305          38.11        75.5508          0.952       -38.0051     0.09013748      0.9053361              1
       962.0000         0.6241       853.9668        38.7829       76.77985         1.0237       -37.9579      0.1373367      0.9314861              1
       962.5000         0.6717       793.2031        39.4559       78.00912         1.1118       -37.9108      0.1844368      0.9576409              1
       963.0000         0.7365       732.4395        40.1288       79.23818         1.1999       -37.8636       0.231636      0.9837911              1
       963.5000         0.8036       681.5195        40.8017       80.46727         1.2881       -37.8165      0.2787361              1              1
       964.0000         0.8868       639.5391        41.0695       80.94423         1.3762       -37.7693      0.3259392              1              1
       964.5000         0.9942       597.5654        40.9203       80.64696         1.3722       -37.7222      0.3730392              1              1
       965.0000         0.9592       555.5908        40.5721       79.98026         1.3468        -37.675      0.4202385      0.9995799              1
       965.5000         0.9211       617.4951        40.1211       79.12267         1.2834       -37.6378      0.4574394      0.9813335              1
       966.0000          0.883       680.5527        39.6701       78.26511         1.2184       -37.6031      0.4921379      0.9630874              1
       966.5000         0.8381       743.6221        39.2191       77.40752         1.1533       -37.5684      0.5268364       0.944841              1
       967.0000         0.7898       823.6904        38.7682       76.55012         1.0882       -37.5338      0.5614395      0.9265983              1
       967.5000         0.7413       855.6279         38.347       75.74788         1.0274       -37.4991       0.596138      0.9095293              1
       968.0000         0.6901       799.8857        38.5262       76.06034          1.002       -37.4644      0.6308365      0.9161775              1
       968.5000         0.6833       743.6348        38.7055       76.37299         0.9766       -37.4297      0.6655388      0.9228295              1
       969.0000         0.7177       687.3965        38.8848       76.68565         1.0045        -37.395      0.7002373      0.9294818              1
       969.5000         0.7522       631.1455        39.0641       76.99829         1.0631       -37.3603      0.7349396      0.9361339              1
       970.0000         0.7902       574.8945        39.2433       77.31076         1.1217       -37.3256      0.7696381      0.9427822              1
       970.5000         0.8299       528.8545        39.4226       77.62341         1.1889       -37.2909      0.8043365      0.9494342              1
       971.0000         0.8697        497.561        39.6019       77.93604         1.3297       -37.2562      0.8390388      0.9560859              1
