#------------------------------------------------------------------------------
# Created by    : vladimir.rabinovich
# Created on    : 09/19/2023 17:21:34
#------------------------------------------------------------------------------
~Version Information Section
VERS.           2.0     :   CWLS log ASCII Standard - VERSION 2.0
WRAP.           NO      :   One line per depth step
~Well Information Section
#MNEM       .UNIT                                         VALUE :DESCRIPTION
#------------------------------------------------------------------------------
STRT        .FT                                            4495 :START DEPTH
STOP        .FT                                            9058 :STOP DEPTH
STEP        .FT                                             0.5 :STEP      
NULL        .                                           -999.25 :NULL      
COMP        .                          SEAGULL ENERGY E & P INC :COMPANY   
WELL        .                               OCS G11322 ST00BP00 :WELL      
FLD         .                                           WILDCAT :FIELD     
LOC         .                                                   :LOCATION  
CNTY        .                             GALVESTON LARGE BLOCK :LOCATION  
STAT        .                                             TEXAS :STATE     
CTRY        .                                     UNITED STATES :COUNTRY   
SRVC        .                                                   :SERVICE COMPANY
DATE        .                             9/13/2023 11:19:34 AM :LOG DATE  
API         .                                    42706402570000 :API NUMBER
UWI         .                                    42706402570000 :UNIQUE WELL ID
XCOORD      .                                  1032943.49501878 :SURFACE X 
YCOORD      .                                  10418025.6284813 :SURFACE Y 
LAT         .                                         28.694364 :LATITUDE  
LON         .                                        -94.895236 :LONGITUDE 
ELEV        .FT                                              97 :ELEVATION VALUE
ELEV_TYPE   .                                                KB :ELEVATION REFERENCE TYPE
~Curve Information Section
#MNEM       .UNIT                                      API CODE :CURVE DESCRIPTION
#------------------------------------------------------------------------------
DEPT        .FT                                                 :DEPTH     
CALI        .IN                                                 :          
DCAL        .IN                                                 :          
DPHI        .%                                                  :          
DRHO        .G/C3                                               :          
GR          .GAPI                                               :          
GR_1        .GAPI                                               :          
GR_NORM     .GAPI                                               :GammaRay Normalized
ILD         .OHMM                                               :          
ILM         .OHMM                                               :          
NPHI        .%                                                  :          
SGRD        .OHMM                                               :          
SP          .MV                                                 :          
SP_NORM     .MV                                                 :SP Normalized
VSH_GR      .V/V                                                :Volume of Shale from GR
VSH_SP      .V/V                                                :Volume of Shale from SP
~A        DEPTH           CALI           DCAL           DPHI           DRHO             GR           GR_1        GR_NORM            ILD            ILM           NPHI           SGRD             SP        SP_NORM         VSH_GR         VSH_SP
# ...
      6909.0000        -999.25         1.0123         21.924        -0.0432        -999.25        60.6526       64.05421         0.5469         0.5634        47.7224         0.7747       -44.4634      -2.241177       0.660728      0.9626471
      6909.5000        -999.25         0.9927        21.9688        -0.0421        -999.25        60.0042       63.23885         0.5415         0.5597         48.247         0.7635       -43.9662      -1.743977      0.6433799      0.9709337
      6910.0000        -999.25         0.9632        22.2267        -0.0411        -999.25        59.7846       62.96272         0.5359         0.5556        48.5274         0.7509       -43.4658      -1.243576      0.6375046      0.9792737
      6910.5000        -999.25         0.9276        22.5639        -0.0405        -999.25        60.1378       63.40686         0.5329         0.5502        48.5458         0.7408       -43.0281     -0.8058739      0.6469545      0.9865687
      6911.0000        -999.25         0.9013        22.8053        -0.0406        -999.25        61.6351       65.28969         0.5301         0.5446        48.3227          0.731       -42.6453     -0.4230766      0.6870146      0.9929487
      6911.5000        -999.25         0.8809        22.8621        -0.0411        -999.25         64.889       69.38142         0.5289         0.5428        48.3696         0.7256       -42.5714     -0.3491745      0.7740727      0.9941804
      6912.0000        -999.25         0.8644        22.4634        -0.0435        -999.25        67.1252       72.19339         0.5305         0.5489         48.682         0.7248       -42.9331     -0.7108765      0.8339019      0.9881521
      6912.5000        -999.25         0.8579        21.7525        -0.0474        -999.25        66.5179       71.42973         0.5356         0.5576        48.9117         0.7294       -43.5558      -1.333576      0.8176537      0.9777737
      6913.0000        -999.25         0.8266        21.1933        -0.0528        -999.25         65.707       70.41003         0.5418         0.5665        48.9026         0.7388       -44.0728      -1.850574      0.7959582      0.9691571
      6913.5000        -999.25         0.7739        21.0657        -0.0594        -999.25        64.4445       68.82246         0.5464         0.5751        48.6719         0.7506       -44.4937      -2.271473      0.7621799      0.9621421
      6914.0000        -999.25         0.7133        21.1596        -0.0675        -999.25        63.1266       67.16522         0.5496         0.5846        48.0344         0.7647       -44.7774      -2.555176      0.7269196      0.9574137
      6914.5000        -999.25         0.6435        21.2509        -0.0755        -999.25        62.7143       66.64676         0.5511         0.5897        46.9774         0.7778        -44.976      -2.753777      0.7158885      0.9541037
      6915.0000        -999.25          0.572        20.9818        -0.0837        -999.25         63.292       67.37321         0.5475         0.5893        45.9654         0.7889       -45.0353      -2.813076       0.731345      0.9531154
      6915.5000        -999.25         0.5369         20.647        -0.0901        -999.25        63.3691       67.47015         0.5422         0.5833        45.2273         0.7932       -45.0826      -2.860374      0.7334076      0.9523271
      6916.0000        -999.25         0.5303        19.9807        -0.0931        -999.25        63.2939        67.3756         0.5362         0.5733         44.849         0.7898       -45.0182      -2.795975      0.7313958      0.9534004
      6916.5000        -999.25         0.5571        18.7856        -0.0856        -999.25        63.1917       67.24709          0.529         0.5647        44.8436         0.7736       -44.9538      -2.731575      0.7286614      0.9544737
      6917.0000        -999.25         0.5948        18.2505        -0.0714        -999.25        63.4337       67.55139         0.5236          0.559        45.4842         0.7546       -44.9236      -2.701374       0.735136      0.9549771
      6917.5000        -999.25         0.6136        18.3164        -0.0593        -999.25        63.6385       67.80894         0.5202         0.5571        46.6204         0.7308       -44.9277      -2.705475      0.7406157      0.9549087
      6918.0000        -999.25         0.6182        18.5033        -0.0488        -999.25        61.8824       65.60066         0.5197         0.5572        47.8326         0.7098        -45.173      -2.950775      0.6936311      0.9508204
      6918.5000        -999.25         0.6094        18.6272        -0.0421        -999.25         57.379       59.93772         0.5184         0.5602        48.3572         0.6937       -46.5934      -4.371174      0.5731429      0.9271471
      6919.0000        -999.25         0.5554        18.8872        -0.0378        -999.25        53.4491       54.99594         0.5168         0.5644        47.3934         0.7258       -49.7421      -7.519875      0.4679987      0.8746688
      6919.5000        -999.25         0.4857        19.2679        -0.0377        -999.25        50.9186       51.81388         0.5153         0.5701         45.582         0.8058       -54.4612      -12.23898      0.4002953      0.7960171
      6920.0000        -999.25         0.4201        21.0657        -0.0384        -999.25        50.7739       51.63192         0.5139          0.576        44.3806         0.9481       -58.2464      -16.02417      0.3964239      0.7329304
      6920.5000        -999.25         0.3571        22.7249         -0.039        -999.25         53.136       54.60223         0.5126         0.5773        43.4943         0.9827       -55.7737      -13.55148      0.4596218      0.7741421
      6921.0000        -999.25         0.4246        23.7439        -0.0384        -999.25        56.1769        58.4261         0.5116         0.5647        43.5363         0.9001       -52.6435      -10.42128      0.5409809      0.8263121
      6921.5000        -999.25         0.6004        24.1971        -0.0374        -999.25        59.0967       62.09769         0.5111         0.5501        44.6072         0.8141       -49.3054      -7.083176      0.6190998      0.8819471
      6922.0000        -999.25          0.831        24.1153        -0.0358        -999.25        61.8561       65.56759         0.5105         0.5386        45.8645         0.7508       -46.3632      -4.140976      0.6929274      0.9309837
      6922.5000        -999.25         1.0546        23.1704        -0.0319        -999.25        63.2798       67.35787         0.5094         0.5326        46.9805         0.7164       -45.2308      -3.008575      0.7310185      0.9498571
      6923.0000        -999.25         1.2172        22.7079        -0.0276        -999.25        62.8504       66.81791         0.5077         0.5284        47.8396         0.7046       -44.6127      -2.390476        0.71953      0.9601587
      6923.5000        -999.25         1.3155        22.4636        -0.0235        -999.25        64.3695       68.72815         0.5051         0.5275        48.0272         0.7037       -44.3632      -2.140976      0.7601734      0.9643171
      6924.0000        -999.25         1.3414        22.3128        -0.0197        -999.25        65.4572       70.09591         0.5021         0.5262         48.358         0.7084       -44.2829      -2.060677      0.7892746      0.9656554
      6924.5000        -999.25         1.3558        22.1399        -0.0146        -999.25        66.4081       71.29165          0.499         0.5235        49.1349         0.7122       -44.2286      -2.006374      0.8147159      0.9665604
      6925.0000        -999.25         1.3774        22.4203        -0.0111        -999.25        67.1788       72.26079         0.4962         0.5204        49.6385         0.7136       -44.1928      -1.970573      0.8353359      0.9671571
      6925.5000        -999.25         1.3933        22.7851        -0.0077        -999.25        67.4681       72.62457         0.4937         0.5169        49.8939         0.7129       -44.1877      -1.965473       0.843076      0.9672421
