#------------------------------------------------------------------------------
# Created by    : vladimir.rabinovich
# Created on    : 09/19/2023 17:20:30
#------------------------------------------------------------------------------
~Version Information Section
VERS.           2.0     :   CWLS log ASCII Standard - VERSION 2.0
WRAP.           NO      :   One line per depth step
~Well Information Section
#MNEM       .UNIT                                         VALUE :DESCRIPTION
#------------------------------------------------------------------------------
STRT        .FT                                             609 :START DEPTH
STOP        .FT                                           12866 :STOP DEPTH
STEP        .FT                                             0.5 :STEP      
NULL        .                                           -999.25 :NULL      
COMP        .                                        SUN OIL CO :COMPANY   
WELL        .                               OCS G01769 ST00BP00 :WELL      
FLD         .                                           WILDCAT :FIELD     
LOC         .                                                   :LOCATION  
CNTY        .                             GALVESTON LARGE BLOCK :LOCATION  
STAT        .                                             TEXAS :STATE     
CTRY        .                                     UNITED STATES :COUNTRY   
SRVC        .                                                   :SERVICE COMPANY
DATE        .                             9/13/2023 11:19:24 AM :LOG DATE  
API         .                                    42706001410000 :API NUMBER
UWI         .                                    42706001410000 :UNIQUE WELL ID
XCOORD      .                                  1110717.91749569 :SURFACE X 
YCOORD      .                                  10538856.4752018 :SURFACE Y 
LAT         .                                         29.029845 :LATITUDE  
LON         .                                        -94.657945 :LONGITUDE 
ELEV        .FT                                              65 :ELEVATION VALUE
ELEV_TYPE   .                                                KB :ELEVATION REFERENCE TYPE
~Curve Information Section
#MNEM       .UNIT                                      API CODE :CURVE DESCRIPTION
#------------------------------------------------------------------------------
DEPT        .FT                                                 :DEPTH     
ASN         .OHMM                                               :          
CALI        .IN                                                 :          
CILD        .MMHO                                               :          
DT          .US/F                                               :          
ILD         .OHMM                                               :          
SP          .MV                                                 :          
SP_NORM     .MV                                                 :SP Normalized
VSH_SP      .V/V                                                :Volume of Shale from SP
~A        DEPTH            ASN           CALI           CILD             DT            ILD             SP        SP_NORM         VSH_SP
# ...
     10403.0000          0.737         9.7908       1526.594       112.2441         0.6686       -62.5878     -0.3655739              1
     10403.5000         0.7211         9.7425       1571.334       111.9781         0.6601       -62.6097     -0.3874741              1
     10404.0000         0.6809         9.7215       1618.822        110.826           0.65       -62.6317     -0.4094734              1
     10404.5000         0.6758         9.7395       1644.135        109.135         0.6399       -62.6536     -0.4313736              1
     10405.0000         0.7001         9.7052        1671.02        108.527         0.6297       -62.6755     -0.4532738              1
     10405.5000         0.7075         9.6629       1709.578         107.73          0.622       -62.6974      -0.475174              1
     10406.0000         0.6954         9.5752        1716.52       106.5015         0.6167       -62.7194     -0.4971733              1
     10406.5000         0.6871         9.7043       1723.461        106.954         0.6114       -62.7413     -0.5190735              1
     10407.0000         0.6788          9.793       1730.402       109.0305          0.606       -62.7633     -0.5410767              1
     10407.5000         0.6705         9.7324       1737.346       107.2126         0.6007        -62.736     -0.5137749              1
     10408.0000         0.6667         9.4953       1737.693       107.2823         0.5954       -62.6792      -0.456974              1
     10408.5000         0.6698          9.721       1737.734       108.0333         0.5972       -62.6224     -0.4001732              1
     10409.0000         0.6746         9.9666       1737.775        110.177         0.6126       -62.5656     -0.3433762              1
     10409.5000         0.6819        10.0647       1708.842       112.1765          0.628       -62.5088     -0.2865753              1
     10410.0000         0.6893         9.9319       1679.016       113.1687         0.6433       -62.4519     -0.2296753              1
     10410.5000         0.6967         9.7583       1646.344       111.6368         0.6568       -62.3951     -0.1728745              1
     10411.0000          0.704         9.6131       1613.229       109.4707         0.6664       -62.3383     -0.1160736              1
     10411.5000         0.7119         9.7783       1572.707       108.7968         0.6759       -62.2815    -0.05927658              1
     10412.0000         0.7209         9.9719       1520.854         110.55         0.6855       -62.2405    -0.01827621              1
     10412.5000           0.73        10.0518       1495.932       111.4218         0.6951       -62.2426     -0.0203743              1
     10413.0000          0.739        10.0146       1471.061       112.0441         0.7046       -62.2446     -0.0223732              1
     10413.5000         0.7375         9.8007        1453.73        112.317         0.7142       -62.2467     -0.0244751              1
     10414.0000         0.7219         9.9711       1484.502       112.6042         0.7015       -62.3068    -0.08457565              1
     10414.5000         0.7063        10.1096       1534.443       114.0167         0.6868       -62.3921     -0.1698761              1
     10415.0000         0.6974        10.0694       1575.258       115.3584          0.672       -62.4773     -0.2550735              1
     10415.5000         0.6907        10.0133       1608.078       115.7041         0.6573       -62.5624     -0.3401756              1
     10416.0000         0.6839         9.9601       1638.248       115.9702         0.6426       -62.6476     -0.4253731              1
     10416.5000         0.6772         9.8925       1664.199       115.3423         0.6279       -62.7489     -0.5266762              1
     10417.0000         0.6704         9.8547       1679.629       114.8573         0.6132       -62.8508     -0.6295433              1
     10417.5000         0.6636         9.8512       1690.102       114.0627         0.6038       -62.9527     -0.7369118              1
     10418.0000         0.6568         9.6761       1700.602       112.3667         0.5977       -62.8901     -0.6797752              1
     10418.5000         0.6494         9.5409       1714.729       111.4019         0.5916       -62.6005     -0.3956413              1
     10419.0000         0.6416         9.4707       1728.955       109.7394         0.5855       -62.3103     -0.1109047              1
     10419.5000         0.6337         9.4993       1760.354       109.1848         0.5794       -62.0208      0.1731262              1
     10420.0000         0.6258         9.5523       1800.434       108.7782         0.5733       -61.8089      0.3795624              1
     10420.5000         0.6152         9.6016       1845.664       109.4409         0.5672       -61.7264      0.4565964              1
     10421.0000         0.6046         9.6208       1870.389       110.8236         0.5641       -61.6438      0.5337334              1
     10421.5000          0.597         9.7374       1877.428       110.8833         0.5691       -61.5613      0.6107674              1
     10422.0000         0.6115          9.719       1879.146       110.1248         0.5741       -61.4788      0.6877975              1
     10422.5000         0.6259         9.5244       1859.596       107.7897         0.5791       -61.3964      0.7647324              1
     10423.0000         0.6403         9.4673       1839.287        104.676         0.5841       -61.3138      0.8418655              1
     10423.5000         0.6514          9.415       1817.947       102.7836         0.5891       -61.2413       0.908905              1
     10424.0000         0.6572         9.3743       1796.656       101.5302         0.5965       -61.1841      0.9606361              1
     10424.5000          0.663         9.3707       1775.314       100.0828           0.61       -61.1268        1.01247              1
     10425.0000         0.6687         9.3735       1755.691       103.2883         0.6234       -61.0696       1.064205              1
     10425.5000          0.674         9.5805       1742.006       106.5312         0.6369       -61.0124        1.11594              1
     10426.0000         0.6794         9.7977       1728.342       109.7493         0.6503       -60.9551       1.167774              1
     10426.5000         0.6852         9.9082       1714.656       113.3403         0.6637       -60.8978       1.219608              1
     10427.0000         0.6939         9.9698       1695.646        115.014         0.6764       -60.8406       1.271343              1
     10427.5000         0.7026        10.0152       1671.361       115.8315         0.6868       -60.7833       1.323177              1
     10428.0000          0.721        10.0011       1647.078       115.6394         0.6972       -60.7261       1.374912              1
     10428.5000         0.7412         9.9681       1606.656       115.3065         0.7076       -60.6951       1.400448              1
     10429.0000         0.7629         9.9372        1540.23       115.2291          0.718       -60.6972       1.392879              1
     10429.5000         0.7844         9.9534       1441.135       114.2555         0.7284       -60.6993       1.385315              1
     10430.0000         0.8007         9.8776       1386.582       112.4252         0.7388         -60.78       1.299149              1
     10430.5000         0.7982         9.7314       1346.846        110.545         0.7432        -60.949       1.124683              1
     10431.0000         0.7788         9.6697       1356.119       108.9386         0.7297       -61.1184      0.9498177              1
     10431.5000         0.7592         9.8644       1474.494       109.8463         0.7163       -61.2875      0.7752533              1
     10432.0000          0.738         9.9664       1564.957       111.6791         0.6815       -61.4569      0.6003838              1
