#------------------------------------------------------------------------------
# Created by    : vladimir.rabinovich
# Created on    : 09/19/2023 17:22:15
#------------------------------------------------------------------------------
~Version Information Section
VERS.           2.0     :   CWLS log ASCII Standard - VERSION 2.0
WRAP.           NO      :   One line per depth step
~Well Information Section
#MNEM       .UNIT                                         VALUE :DESCRIPTION
#------------------------------------------------------------------------------
STRT        .FT                                             712 :START DEPTH
STOP        .FT                                            8940 :STOP DEPTH
STEP        .FT                                             0.5 :STEP      
NULL        .                                           -999.25 :NULL      
COMP        .                                      SHELL OIL CO :COMPANY   
WELL        .                               OCS G03086 ST00BP00 :WELL      
FLD         .                                           WILDCAT :FIELD     
LOC         .                                                   :LOCATION  
CNTY        .                      MATAGORDA ISLAND LARGE BLOCK :LOCATION  
STAT        .                                             TEXAS :STATE     
CTRY        .                                     UNITED STATES :COUNTRY   
SRVC        .                                                   :SERVICE COMPANY
DATE        .                             9/13/2023 11:19:05 AM :LOG DATE  
API         .                                    42703400050000 :API NUMBER
UWI         .                                    42703400050000 :UNIQUE WELL ID
XCOORD      .                                  597395.628989583 :SURFACE X 
YCOORD      .                                    10217429.66268 :SURFACE Y 
LAT         .                                         28.117488 :LATITUDE  
LON         .                                        -96.235866 :LONGITUDE 
ELEV        .FT                                              93 :ELEVATION VALUE
ELEV_TYPE   .                                                KB :ELEVATION REFERENCE TYPE
~Curve Information Section
#MNEM       .UNIT                                      API CODE :CURVE DESCRIPTION
#------------------------------------------------------------------------------
DEPT        .FT                                                 :DEPTH     
CALI        .IN                                                 :          
DRHO        .G/C3                                               :          
DT          .US/F                                               :          
GR          .GAPI                                               :          
GR_1        .GAPI                                               :          
GR_NORM     .GAPI                                               :GammaRay Normalized
ILD         .OHMM                                               :          
NPHI        .%                                                  :          
RHOB        .G/C3                                               :          
SFL         .OHMM                                               :          
SP          .MV                                                 :          
SP_NORM     .MV                                                 :SP Normalized
VSH_GR      .V/V                                                :Volume of Shale from GR
VSH_SP      .V/V                                                :Volume of Shale from SP
~A        DEPTH           CALI           DRHO             DT             GR           GR_1        GR_NORM            ILD           NPHI           RHOB            SFL             SP        SP_NORM         VSH_GR         VSH_SP
# ...
       730.0000        17.3062          0.046       136.4629        58.2496        44.5599       64.63276         1.8187        -999.25         1.9465         0.0646      -103.1705      -15.74535      0.6730374              1
       730.5000         17.919          0.009       156.9558        63.3371        46.8184       67.90657         2.1007        -999.25          1.781          0.369       -98.9762      -11.55104       0.742693              1
       731.0000        17.0197         -0.001        -999.25        65.0654        49.2505       71.43202         1.5088        -999.25         1.8167         0.6424       -95.8352      -8.410042      0.8177026              1
       731.5000        16.0705         0.0083        -999.25        65.0236        51.4911       74.67987         0.8747        -999.25          1.814         0.6283       -92.9364      -5.511246      0.8868058              1
       732.0000        16.3567        -0.0025        -999.25        63.8503        52.8535       76.65474         0.7019        -999.25         1.7999         0.5602       -90.3693      -2.944145      0.9288242              1
       732.5000        17.4244        -0.0077        -999.25        63.5118        52.8253       76.61385         0.7827        -999.25         1.7879         0.5425       -88.9387      -1.513542      0.9279543              1
       733.0000        17.2019         -0.015        -999.25        63.0562        51.9117       75.28957         0.8986        -999.25         1.7777         0.5356       -87.5787     -0.1535416      0.8997782              1
       733.5000        16.6732        -0.0064        -999.25        62.1892        50.7103       73.54807         0.9419        -999.25         1.7646         0.5397        -86.472      0.9531555       0.862725      0.8638349
       734.0000        18.1797         -0.016       201.1931        62.4448         49.537       71.84731         0.9247        -999.25         1.7218         0.5164        -85.231       2.194153      0.8265386      0.6865496
       734.5000        17.1148        -0.0228       201.2222        62.3524         48.398       70.19627         0.8943        -999.25         1.7214         0.5019       -84.6206       2.804558      0.7914101      0.5993489
       735.0000        17.4513        -0.0243       201.3042        61.8328        47.5347       68.94488         0.8616        -999.25         1.7375         0.5079       -84.5253       2.899857      0.7647846      0.5857348
       735.5000        18.6307        -0.0204        201.408        61.5717        46.6014       67.59201         0.8352        -999.25         1.7352         0.5104       -84.6754       2.749756      0.7360002      0.6071777
       736.0000        19.1803        -0.0166       201.4883        62.7337        46.4265       67.33849         0.8184        -999.25          1.709         0.4837       -85.5533       1.871857      0.7306061      0.7325919
       736.5000        19.2623        -0.0082       201.6101        63.7214        47.4109       68.76543         0.8146        -999.25         1.6656         0.4642       -82.9095       4.515656      0.7609665      0.3549064
       737.0000        19.3184        -0.0036       201.8005        64.8397         48.645       70.55431         0.8088        -999.25         1.6287         0.4488       -82.2411       5.184059       0.799028      0.2594201
       737.5000        19.6179         -0.011       201.9231        66.5242         49.633       71.98647         0.8159        -999.25         1.6609         0.4438       -83.0917       4.333458      0.8294994      0.3809346
       738.0000        19.6172        -0.0068       201.9202        68.0873        49.1459       71.28039         0.8378        -999.25         1.7128         0.4592       -83.1808       4.244354      0.8144763      0.3936637
       738.5000        19.6443        -0.0082        201.782        68.2719        48.3373       70.10828         0.8651        -999.25         1.7388         0.4696       -82.9028       4.522354       0.789538      0.3539494
       739.0000        19.4353        -0.0108        201.571        68.5327         47.601       69.04099         0.8892        -999.25         1.7674         0.4758       -82.4626       4.962555      0.7668296      0.2910636
       739.5000        18.7946        -0.0145       201.2297        67.6682        47.1369       68.36826         0.9144        -999.25         1.8011         0.4853       -82.2389       5.186256      0.7525161      0.2591062
       740.0000        18.7261        -0.0094       200.9453        65.3562        47.1685       68.41405         0.9444        -999.25         1.8505         0.5089       -82.1484       5.276756      0.7534904      0.2461777
       740.5000        18.7449        -0.0039       200.7056        65.3672        47.3094        68.6183         0.9706        -999.25         1.8641         0.5316       -82.1553       5.269859      0.7578362       0.247163
       741.0000        18.3398        -0.0038       200.5093        67.2479        47.8409       69.38873         0.9999        -999.25         1.8547         0.5388       -82.1926       5.232559      0.7742283      0.2524915
       741.5000        18.7725        -0.0064       200.2734        67.4027        48.1537       69.84214         1.0317        -999.25         1.8594         0.5379       -82.2588       5.166359      0.7838753      0.2619487
       742.0000        18.6611        -0.0042       199.9771        66.9889        48.4614       70.28819         1.0444        -999.25         1.8561          0.531       -82.3385       5.086655      0.7933657       0.273335
       742.5000        19.5484        -0.0062       199.6428        66.9591        48.7482        70.7039         1.0487        -999.25         1.8657         0.5167       -82.3263       5.098854      0.8022106      0.2715923
       743.0000        19.3394        -0.0052       199.2712        67.6431        48.6306       70.53345         1.0508        -999.25         1.8685         0.5095       -82.2584       5.166756       0.798584      0.2618921
       743.5000          19.61         0.0033       198.7437        68.8076        48.7124       70.65201         1.0368        -999.25         1.8749         0.5111       -82.2142       5.210953      0.8011066      0.2555782
       744.0000        18.9775         0.0035       198.1296        70.1997        48.9509       70.99773         1.0224        -999.25         1.8697         0.5238       -82.3418       5.083359      0.8084624      0.2738059
       744.5000        18.3723        -0.0028       197.8792        70.2809        49.1758       71.32374         1.0044        -999.25         1.8657         0.5272        -82.676       4.749153      0.8153987      0.3215496
       745.0000        19.0744        -0.0055       197.8547        69.2354        49.2062       71.36781         0.9921        -999.25         1.8644         0.5153       -82.4674       4.957756      0.8163365      0.2917491
       745.5000        18.6767         -0.001       197.8848        66.7885        49.2051       71.36621         0.9792        -999.25         1.8632          0.503       -81.8611       5.564056      0.8163024      0.2051348
       746.0000        19.4271         0.0011       198.0981        65.0571        48.1588       69.84954         0.9636        -999.25         1.8634         0.4947        -81.476       5.949158      0.7840328      0.1501203
       746.5000        19.4336         0.0057       198.2336        64.2347        47.0725        68.2749         0.9562        -999.25          1.855         0.4883       -81.4972       5.927956      0.7505298      0.1531492
       747.0000        19.3903         0.0052        198.301        63.6719        46.8701        67.9815         0.9487        -999.25         1.8477         0.4872       -82.0406       5.384552      0.7442872      0.2307783
       747.5000        17.9149         0.0027       198.2227        63.2358        46.7244       67.77032         0.9403        -999.25         1.8376         0.4871       -82.3168       5.108353       0.739794      0.2702353
