#------------------------------------------------------------------------------
# Created by    : vladimir.rabinovich
# Created on    : 09/19/2023 17:20:49
#------------------------------------------------------------------------------
~Version Information Section
VERS.           2.0     :   CWLS log ASCII Standard - VERSION 2.0
WRAP.           NO      :   One line per depth step
~Well Information Section
#MNEM       .UNIT                                         VALUE :DESCRIPTION
#------------------------------------------------------------------------------
STRT        .FT                                             507 :START DEPTH
STOP        .FT                                            6530 :STOP DEPTH
STEP        .FT                                             0.5 :STEP      
NULL        .                                           -999.25 :NULL      
COMP        .                                      SHELL OIL CO :COMPANY   
WELL        .                                ST TR 00692-L SE/4 :WELL      
FLD         .                                           WILDCAT :FIELD     
LOC         .                                                   :LOCATION  
CNTY        .                      MATAGORDA ISLAND LARGE BLOCK :LOCATION  
STAT        .                                             TEXAS :STATE     
CTRY        .                                     UNITED STATES :COUNTRY   
SRVC        .                                                   :SERVICE COMPANY
DATE        .                             9/13/2023 11:12:05 AM :LOG DATE  
API         .                                    42703000180000 :API NUMBER
UWI         .                                    42703000180000 :UNIQUE WELL ID
XCOORD      .                                  399042.886430441 :SURFACE X 
YCOORD      .                                  10159669.4462586 :SURFACE Y 
LAT         .                                        27.9430215 :LATITUDE  
LON         .                                       -96.8445442 :LONGITUDE 
ELEV        .FT                                              84 :ELEVATION VALUE
ELEV_TYPE   .                                                DF :ELEVATION REFERENCE TYPE
~Curve Information Section
#MNEM       .UNIT                                      API CODE :CURVE DESCRIPTION
#------------------------------------------------------------------------------
DEPT        .FT                                                 :DEPTH     
ASN         .OHMM                                               :          
CILD        .MMHO                                               :          
ILD         .OHMM                                               :          
SP          .MV                                                 :          
SP_NORM     .MV                                                 :SP Normalized
VSH_SP      .V/V                                                :Volume of Shale from SP
~A        DEPTH            ASN           CILD            ILD             SP        SP_NORM         VSH_SP
# ...
      3699.0000         0.7476       4579.688         0.1828      -100.5591       -62.7119              0
      3699.5000         0.7623       4340.102          0.204       -98.8894       -61.0455              0
      3700.0000          0.796       4100.313          0.246       -94.6752       -56.8347              0
      3700.5000         1.0241         3409.5          0.306       -89.5438       -51.7066     0.08256538
      3701.0000         1.2552           2406         0.4064       -84.4125       -46.5786      0.1811807
      3701.5000         1.4864       1921.424         0.5522       -79.2836        -41.453        0.27975
      3702.0000         1.7175       1783.297         0.7515       -74.1521       -36.3248      0.3783693
      3702.5000         1.9488        1645.07         0.9588       -69.0208       -31.1968      0.4769846
      3703.0000          1.943       1506.945         0.9845       -63.8918       -26.0711      0.5755557
      3703.5000         1.8761       1368.719         1.0102       -58.7902       -20.9728         0.6736
      3704.0000         1.8093       1230.592          1.016       -55.7039       -17.8898      0.7328885
      3704.5000         1.7425       1092.367         0.9583       -54.8233       -17.0125      0.7497596
      3705.0000         1.6756       954.2402         0.9006       -54.0307       -16.2232      0.7649385
      3705.5000         1.6088       974.2559         0.8509       -55.5875       -17.7833      0.7349365
      3706.0000          1.542       1068.932          0.814       -57.1839        -19.383      0.7041731
      3706.5000         1.4751       1163.609         0.7771       -58.7803       -20.9827      0.6734096
      3707.0000         1.4083       1258.236         0.7402       -52.9945       -15.2002      0.7846115
      3707.5000         1.3415       1352.914         0.7087        -49.731         -11.94      0.8473077
      3708.0000         1.2746       1286.131          0.711       -47.4504        -9.6627       0.891102
      3708.5000         1.2078       1208.348         0.7231       -45.1697        -7.3853      0.9348981
      3709.0000         1.1365       1123.975         0.7535        -42.816         -5.035      0.9800962
      3709.5000         1.0767       1098.633         0.7839       -40.7573        -2.9796              1
      3710.0000         1.0849       1075.076         0.8143         -39.91        -2.1356              1
      3710.5000         1.0931       1051.717         0.8447       -39.0629        -1.2918              1
      3711.0000         1.1013       1032.061          0.875       -38.4553        -0.6875              1
      3711.5000         1.1095       1019.271         0.9016       -38.3403        -0.5758              1
      3712.0000         1.1167       1006.489         0.9283       -38.7495        -0.9883              1
      3712.5000         1.1229       993.7012          0.955       -39.0959         -1.338              1
      3713.0000         1.1249       984.5547         0.9816       -39.4423        -1.6877              1
      3713.5000         1.1189       975.4199         0.9904       -39.6564        -1.9051              1
      3714.0000          1.113       965.5361         0.9971       -39.7874        -2.0394              1
      3714.5000         1.0986       988.1025          0.982       -39.8684        -2.1237              1
      3715.0000         1.0665       1142.256         0.9458       -39.7587        -2.0173              1
      3715.5000         0.9904       1203.938         0.9096        -39.649        -1.9109              1
      3716.0000         0.9504       1267.676         0.8733       -39.5393        -1.8034              1
      3716.5000         0.9229       1301.314         0.8368       -39.4296        -1.6937              1
      3717.0000         0.8954       1327.213         0.8004       -39.3157        -1.5798              1
      3717.5000          0.884       1341.457         0.7641       -39.2008         -1.465              1
      3718.0000         0.8748       1350.338         0.7322        -39.086        -1.3501              1
      3718.5000         0.8729       1357.781         0.7003       -38.9711        -1.2352              1
      3719.0000         0.8709       1359.977         0.6736       -39.0173        -1.2814              1
      3719.5000         0.8892       1362.111         0.6659       -39.1445        -1.4086              1
      3720.0000         0.9168       1364.205         0.6575       -39.2717        -1.5359              1
      3720.5000         0.9443       1366.289         0.6467       -39.7805        -2.0446              1
      3721.0000         0.9719       1368.375         0.6234       -43.4159          -5.68      0.9676923
      3721.5000         1.0009       1377.625          0.583       -49.7818       -12.0459      0.8452712
      3722.0000         1.0377       1413.703         0.5412       -57.5656       -19.8298      0.6955808
      3722.5000         1.0708        2007.74          0.494       -65.3445       -27.6086      0.5459884
      3723.0000         1.0948       2008.559         0.4544       -73.1234       -35.3875      0.3963942
      3723.5000         1.1175       2009.379         0.4279       -79.8909        -42.155        0.26625
      3724.0000         1.1252       2010.197         0.4052       -79.9702       -42.2343       0.264725
      3724.5000         1.1029       2065.629         0.4041       -78.2498        -40.514      0.2978077
      3725.0000         1.0806       2132.293          0.403       -76.9868       -39.2509      0.3220981
      3725.5000          1.061       2164.766          0.402        -75.818       -38.0821       0.344575
      3726.0000         1.0511       2172.637         0.4018       -74.6498        -36.914      0.3670384
      3726.5000         1.0586       2164.285         0.4019       -73.6489       -35.9131      0.3862865
      3727.0000         1.0575       2161.262         0.3927       -72.6976       -34.9618      0.4045808
      3727.5000         1.0532       2158.238         0.3764       -71.3002       -33.5644      0.4314539
      3728.0000         1.0488       2243.293         0.3602        -71.475       -33.7391      0.4280942
      3728.5000         1.0224       2329.797          0.344       -84.1801       -46.4442      0.1837654
      3729.0000         0.9867       2411.145         0.3284       -84.7356       -46.9998      0.1730807
      3729.5000         0.9688       2482.934         0.3128       -85.0326       -47.2967      0.1673712
      3730.0000         0.9813       2562.254         0.2972       -85.1473       -47.4114      0.1651654
      3730.5000         0.9949       2694.336         0.2983       -85.3262       -47.5904      0.1617231
      3731.0000         1.0086       2800.828         0.3002       -85.8112       -48.0754      0.1523961
      3731.5000         1.0209       2769.566         0.3102       -86.3826       -48.6467      0.1414096
      3732.0000         1.0295       2727.207         0.3226       -86.9542       -49.2183      0.1304173
      3732.5000         1.0165       2685.195          0.335       -87.5256       -49.7897      0.1194289
      3733.0000         1.0012       2641.941         0.3474       -88.1383       -50.4024      0.1076461
      3733.5000         0.9704        2593.59         0.3598        -86.812       -49.0761      0.1331519
      3734.0000          0.937        2552.27         0.3718       -85.7932       -48.0573      0.1527442
      3734.5000         0.9131       2527.016         0.3636       -84.7743       -47.0384      0.1723385
      3735.0000         0.9135       2552.891         0.3553       -82.5085       -44.7726      0.2159116
      3735.5000         0.9301       2623.438          0.347       -79.5239       -41.7881      0.2733057
      3736.0000         0.9485       2696.117         0.3388       -77.6995       -39.9636      0.3083923
      3736.5000         0.9743       2769.887         0.3305         -78.04       -40.3041      0.3018442
