#------------------------------------------------------------------------------
# Created by    : vladimir.rabinovich
# Created on    : 09/19/2023 17:22:10
#------------------------------------------------------------------------------
~Version Information Section
VERS.           2.0     :   CWLS log ASCII Standard - VERSION 2.0
WRAP.           NO      :   One line per depth step
~Well Information Section
#MNEM       .UNIT                                         VALUE :DESCRIPTION
#------------------------------------------------------------------------------
STRT        .FT                                            1000 :START DEPTH
STOP        .FT                                            7796 :STOP DEPTH
STEP        .FT                                             0.5 :STEP      
NULL        .                                           -999.25 :NULL      
COMP        .                                SHELL OFFSHORE INC :COMPANY   
WELL        .                               OCS G06060 ST00BP00 :WELL      
FLD         .                                           WILDCAT :FIELD     
LOC         .                                                   :LOCATION  
CNTY        .                                BRAZOS LARGE BLOCK :LOCATION  
STAT        .                                             TEXAS :STATE     
CTRY        .                                     UNITED STATES :COUNTRY   
SRVC        .                                                   :SERVICE COMPANY
DATE        .                             9/13/2023 11:19:08 AM :LOG DATE  
API         .                                    42704401260000 :API NUMBER
UWI         .                                    42704401260000 :UNIQUE WELL ID
XCOORD      .                                   881020.58603234 :SURFACE X 
YCOORD      .                                   10392321.681828 :SURFACE Y 
LAT         .                                         28.616238 :LATITUDE  
LON         .                                        -95.367327 :LONGITUDE 
ELEV        .FT                                              90 :ELEVATION VALUE
ELEV_TYPE   .                                                KB :ELEVATION REFERENCE TYPE
~Curve Information Section
#MNEM       .UNIT                                      API CODE :CURVE DESCRIPTION
#------------------------------------------------------------------------------
DEPT        .FT                                                 :DEPTH     
CALI        .IN                                                 :          
CILD        .MMHO                                               :          
DPHI        .%                                                  :          
DT          .US/F                                               :          
GR          .GAPI                                               :          
GR_NORM     .GAPI                                               :GammaRay Normalized
ILD         .OHMM                                               :          
ILM         .OHMM                                               :          
SFL         .OHMM                                               :          
SP          .MV                                                 :          
SP_NORM     .MV                                                 :SP Normalized
VSH_GR      .V/V                                                :Volume of Shale from GR
VSH_SP      .V/V                                                :Volume of Shale from SP
~A        DEPTH           CALI           CILD           DPHI             DT             GR        GR_NORM            ILD            ILM            SFL             SP        SP_NORM         VSH_GR         VSH_SP
      1000.0000        -999.25       532.1982        -999.25       180.8855        60.6096       74.99101         1.5731         1.6109         1.5352      -111.2198       5.543205      0.8934258              1
      1000.5000        -999.25       749.8281        -999.25       182.1724        64.2274       79.92055         1.3142         1.5724         1.4782      -111.3446       5.418411      0.9983095              1
      1001.0000        -999.25       850.3477        -999.25       183.6594        66.1309        82.5142         1.1522         1.2076         1.4486      -111.1891       5.573906              1              1
      1001.5000        -999.25       792.3994        -999.25       187.7986        65.6635       81.87733          1.271         1.2196         1.4586      -111.4072       5.355804              1              1
      1002.0000        -999.25       669.0264        -999.25       190.5447        64.8934       80.82803         1.5839         1.2826         1.5703      -112.8699       3.893105              1              1
      1002.5000        -999.25        543.582        -999.25       186.1018        65.2627       81.33123         1.7338         1.4009         1.8033      -120.5106      -3.747589              1      0.7502192
      1003.0000        -999.25       531.6807        -999.25       173.8049        65.9397       82.25368         1.8085         1.6124         1.8317      -122.8846       -6.12159              1      0.5344009
      1003.5000        -999.25       541.2471        -999.25        169.655         65.757       82.00475         1.8815         1.7704         1.7507       -123.098      -6.334991              1      0.5150008
      1004.0000        -999.25         531.25        -999.25       165.2368        61.3995       76.06731         1.9916         1.9389         1.7781      -122.7902      -6.027191      0.9163258      0.5429826
      1004.5000        -999.25       506.5073        -999.25       163.3264        56.7261       69.69945         2.0912         2.1053         1.9796      -122.2825      -5.519493      0.7808393       0.589137
      1005.0000        -999.25       477.4189        -999.25       164.2124        54.0678       66.07732         2.1547         2.2571         2.2508      -121.5227      -4.759689      0.7037727        0.65821
      1005.5000        -999.25       443.5156        -999.25        167.384        53.3545       65.10539         2.2326         2.4088         2.3293      -120.9194      -4.156395      0.6830934       0.713055
      1006.0000        -999.25       407.7588        -999.25       169.5889        53.4176       65.19136         2.3953         2.5635         2.3627      -121.5688      -4.805794      0.6849226      0.6540188
      1006.5000        -999.25       371.8154        -999.25       168.8354        53.0118       64.63844         2.5986         2.6956         2.3581       -122.955      -6.191994      0.6731583      0.5280006
      1007.0000        -999.25        344.373        -999.25       166.2341        51.9226       63.15432         2.7293         2.7831         2.3437      -125.2693      -8.506294      0.6415813      0.3176096
      1007.5000        -999.25       329.4771        -999.25       162.4204        47.8979       57.67036         2.8266         2.8514         2.3682      -124.6854      -7.922394      0.5249013      0.3706915
      1008.0000        -999.25         315.52        -999.25        159.082        45.5594       54.48398         2.9009         2.8973         2.4822      -124.2296      -7.466591      0.4571059      0.4121281
      1008.5000        -999.25       311.8496        -999.25       157.4021        45.8397        54.8659         2.9448         2.9195         2.7031       -124.678      -7.914993       0.465232      0.3713642
      1009.0000        -999.25       313.8369        -999.25       156.6162        45.8852        54.9279         2.9627         2.9297         2.8486      -125.3536      -8.590591      0.4665511      0.3099462
      1009.5000        -999.25       314.6279        -999.25       156.4517        45.3444       54.19102         2.9598         2.9363         2.8497       -125.948       -9.18499      0.4508728        0.25591
      1010.0000        -999.25       316.7778        -999.25       156.5439        45.8156       54.83307          2.936         2.9149         2.7556      -126.0488      -9.285789      0.4645333      0.2467464
      1010.5000        -999.25       323.6919        -999.25       157.4282        48.3625       58.30341         2.9049         2.8751         2.6983        -125.38      -8.616989      0.5383704      0.3075464
      1011.0000        -999.25       333.8467        -999.25       159.2581        51.7231       62.88248         2.7912         2.7905         2.6452      -124.2777      -7.514694      0.6357976      0.4077551
      1011.5000        -999.25       344.9048        -999.25       162.8521        54.8165        67.0975         2.6739         2.6463         2.5083      -123.4034      -6.640388      0.7254786      0.4872374
      1012.0000        -999.25       360.8164        -999.25         165.48        56.9243       69.96951         2.5903         2.5287         2.3389      -122.5905      -5.827492      0.7865854      0.5611371
      1012.5000        -999.25       376.0132        -999.25       167.7815        56.3879       69.23863         2.5303         2.4608         2.3127      -122.1891      -5.426094      0.7710347      0.5976278
      1013.0000        -999.25       386.5225        -999.25       168.5945        56.1279       68.88435         2.4764         2.4109         2.2478       -122.927      -6.163994      0.7634969       0.530546
      1013.5000        -999.25       395.1162        -999.25        169.092        57.1468       70.27268          2.416         2.3743         2.2319      -123.6387      -6.875694      0.7930358       0.465846
      1014.0000        -999.25       402.1582        -999.25       169.7434        57.9333       71.34435         2.3623         2.3583         2.2558      -123.4702      -6.707191      0.8158371      0.4811644
      1014.5000        -999.25       407.7837        -999.25       170.3188        57.0289       70.11204         2.3079         2.3368         2.2545      -122.4044      -5.641396      0.7896178       0.578055
      1015.0000        -999.25       409.6304        -999.25       170.5154        55.8876       68.55693           2.27         2.3058         2.2355      -121.8549      -5.091888      0.7565305      0.6280102
      1015.5000        -999.25       408.5786        -999.25        170.104        55.7965       68.43281         2.2526         2.2821         2.2166      -122.4563      -5.693291      0.7538895      0.5733372
      1016.0000        -999.25       408.1816        -999.25       169.7478        56.2049       68.98928         2.2476         2.2687         2.2036      -123.8411      -7.078094      0.7657294       0.447446
      1016.5000        -999.25        408.915        -999.25       168.8586        57.0839       70.18698         2.2534          2.266         2.1927      -123.2992      -6.536194      0.7912124      0.4967096
      1017.0000        -999.25       409.3135        -999.25       167.8777        58.1714       71.66879         2.2593         2.2577         2.1788      -122.5106      -5.747589      0.8227401       0.568401
      1017.5000        -999.25         408.96        -999.25       167.1467        59.4663       73.43318         2.2586         2.2482         2.1763      -122.1804      -5.417389      0.8602805      0.5984192
      1018.0000        -999.25       407.7515        -999.25       166.6741        60.6296       75.01826         2.2512         2.2434         2.1986      -122.1812       -5.41819      0.8940057      0.5983464
      1018.5000        -999.25       407.4238        -999.25        166.783        60.6334       75.02345         2.2369         2.2481         2.2237      -122.1138      -5.350792      0.8941159      0.6044735
