#------------------------------------------------------------------------------
# Created by    : vladimir.rabinovich
# Created on    : 09/19/2023 17:21:23
#------------------------------------------------------------------------------
~Version Information Section
VERS.           2.0     :   CWLS log ASCII Standard - VERSION 2.0
WRAP.           NO      :   One line per depth step
~Well Information Section
#MNEM       .UNIT                                         VALUE :DESCRIPTION
#------------------------------------------------------------------------------
STRT        .FT                                            1005 :START DEPTH
STOP        .FT                                            8973 :STOP DEPTH
STEP        .FT                                             0.5 :STEP      
NULL        .                                           -999.25 :NULL      
COMP        .                            MARITECH RESOURCES INC :COMPANY   
WELL        .                               OCS G06113 ST00BP00 :WELL      
FLD         .                              GALVESTON BLOCK 0343 :FIELD     
LOC         .                                                   :LOCATION  
CNTY        .                             GALVESTON LARGE BLOCK :LOCATION  
STAT        .                                             TEXAS :STATE     
CTRY        .                                     UNITED STATES :COUNTRY   
SRVC        .                                                   :SERVICE COMPANY
DATE        .                             9/13/2023 11:19:36 AM :LOG DATE  
API         .                                    42706402140000 :API NUMBER
UWI         .                                    42706402140000 :UNIQUE WELL ID
XCOORD      .                                  914498.553138379 :SURFACE X 
YCOORD      .                                  10427492.1426863 :SURFACE Y 
LAT         .                                         28.714711 :LATITUDE  
LON         .                                        -95.265111 :LONGITUDE 
ELEV        .FT                                              84 :ELEVATION VALUE
ELEV_TYPE   .                                                KB :ELEVATION REFERENCE TYPE
~Curve Information Section
#MNEM       .UNIT                                      API CODE :CURVE DESCRIPTION
#------------------------------------------------------------------------------
DEPT        .FT                                                 :DEPTH     
CALI        .IN                                                 :          
DPHI        .%                                                  :          
DRHO        .G/C3                                               :          
DT          .US/F                                               :          
GR          .GAPI                                               :          
ILD         .OHMM                                               :          
ILM         .OHMM                                               :          
NPHI        .%                                                  :          
SGRD        .OHMM                                               :          
SP          .MV                                                 :          
SP_NORM     .MV                                                 :SP Normalized
VSH_SP      .V/V                                                :Volume of Shale from SP
~A        DEPTH           CALI           DPHI           DRHO             DT             GR            ILD            ILM           NPHI           SGRD             SP        SP_NORM         VSH_SP
# ...
      3690.5000        -999.25        -999.25        -999.25        -999.25        -999.25         0.2497         0.2954        -999.25         0.3542       -103.402      -12.99521   0.0002854943
      3691.0000        -999.25        -999.25        -999.25        -999.25        -999.25         0.2403         0.2863        -999.25         0.3462      -103.3868      -12.96995              0
      3691.5000        -999.25        -999.25        -999.25        -999.25        -999.25         0.2333         0.2803        -999.25         0.3396      -103.3717      -12.94478              0
      3692.0000        -999.25        -999.25        -999.25        -999.25        -999.25         0.2316         0.2755        -999.25         0.3332      -103.4243      -12.98732              0
      3692.5000        -999.25        -999.25        -999.25        -999.25        -999.25         0.2409          0.274        -999.25         0.3294      -103.6914      -13.24435              0
      3693.0000        -999.25        -999.25        -999.25        -999.25        -999.25         0.2603         0.2811        -999.25         0.3297      -104.4819       -14.0248     0.01513909
      3693.5000        -999.25        -999.25        -999.25        -999.25        -999.25         0.2824         0.2981        -999.25         0.3299       -105.653      -15.18582     0.04752478
      3694.0000        -999.25        -999.25        -999.25        -999.25        -999.25         0.2989         0.3345        -999.25         0.3386      -106.4795      -16.00226      0.0729325
      3694.5000        -999.25        -999.25        -999.25        -999.25        -999.25          0.311         0.3629        -999.25         0.3932      -106.8809      -16.39359     0.09222136
      3695.0000        -999.25        -999.25        -999.25        -999.25        -999.25         0.3206         0.3826        -999.25         0.4593      -107.0726      -16.57523      0.1079156
      3695.5000        -999.25        -999.25        -999.25        -999.25        -999.25         0.3281         0.3909        -999.25         0.4794        -107.15      -16.64257      0.1204151
      3696.0000        -999.25        -999.25        -999.25        -999.25        -999.25         0.3356         0.3852        -999.25         0.4701      -107.1057       -16.5882      0.1331223
      3696.5000        -999.25        -999.25        -999.25        -999.25        -999.25          0.344         0.3761        -999.25         0.4355      -107.0131      -16.48554      0.1475993
      3697.0000        -999.25        -999.25        -999.25        -999.25        -999.25         0.3534         0.3663        -999.25         0.3925      -106.8853      -16.34768      0.1641044
      3697.5000        -999.25        -999.25        -999.25        -999.25        -999.25         0.3651         0.3589        -999.25         0.3814       -106.656      -16.10831      0.1850941
      3698.0000        -999.25        -999.25        -999.25        -999.25        -999.25         0.3829         0.3697        -999.25         0.3797      -106.2152      -15.65746      0.2179665
      3698.5000        -999.25        -999.25        -999.25        -999.25        -999.25         0.4175         0.4118        -999.25          0.417      -105.6851      -15.11729      0.2850574
      3699.0000        -999.25        -999.25        -999.25        -999.25        -999.25         0.4648         0.4563        -999.25         0.4644      -105.2448      -14.66692      0.3834426
      3699.5000        -999.25        -999.25        -999.25        -999.25        -999.25         0.5241         0.4976        -999.25          0.512       -105.276      -14.68806      0.5173541
      3700.0000        -999.25        -999.25        -999.25        -999.25        -999.25         0.6094         0.5543        -999.25         0.5466      -105.3304      -14.73239      0.7298749
      3700.5000        -999.25        -999.25        -999.25        -999.25        -999.25         0.6887         0.6341        -999.25         0.5747      -105.3595      -14.75143      0.9477456
      3701.0000        -999.25        -999.25        -999.25        -999.25        -999.25         0.7509         0.6985        -999.25         0.6174      -105.2292      -14.61107              1
      3701.5000        -999.25        -999.25        -999.25        -999.25        -999.25         0.7886         0.7324        -999.25         0.6505      -105.1637       -14.5355              1
      3702.0000        -999.25        -999.25        -999.25        -999.25        -999.25         0.7667         0.7271        -999.25         0.6817      -105.2092      -14.57094              1
      3702.5000        -999.25        -999.25        -999.25        -999.25        -999.25         0.6754         0.6673        -999.25         0.6841      -105.4268      -14.77848      0.9098704
      3703.0000        -999.25        -999.25        -999.25        -999.25        -999.25         0.5913         0.5824        -999.25         0.6184      -105.6951      -15.03671      0.6828597
      3703.5000        -999.25        -999.25        -999.25        -999.25        -999.25         0.5283         0.5124        -999.25         0.5351      -105.9063      -15.23785      0.5272748
      3704.0000        -999.25        -999.25        -999.25        -999.25        -999.25         0.4472         0.4638        -999.25           0.47       -106.082      -15.40349       0.345947
      3704.5000        -999.25        -999.25        -999.25        -999.25        -999.25         0.3581         0.4205        -999.25         0.3966      -106.1124      -15.42382      0.1724769
      3705.0000        -999.25        -999.25        -999.25        -999.25        -999.25         0.3027         0.3784        -999.25         0.3784      -106.1357      -15.43705     0.07893069
      3705.5000        -999.25        -999.25        -999.25        -999.25        -999.25         0.2767         0.3483        -999.25         0.3717      -106.1238      -15.41509     0.03899025
      3706.0000        -999.25        -999.25        -999.25        -999.25        -999.25         0.2593         0.3234        -999.25         0.3655      -106.1118      -15.39303      0.0137188
      3706.5000        -999.25        -999.25        -999.25        -999.25        -999.25         0.2507         0.3077        -999.25           0.36      -106.0807      -15.35187    0.001667741
      3707.0000        -999.25        -999.25        -999.25        -999.25        -999.25         0.2452          0.299        -999.25         0.3599      -106.0488       -15.3099              0
      3707.5000        -999.25        -999.25        -999.25        -999.25        -999.25          0.242         0.2931        -999.25         0.3597      -105.7351      -14.98614              0
      3708.0000        -999.25        -999.25        -999.25        -999.25        -999.25         0.2413         0.2885        -999.25         0.3596       -105.411      -14.65198              0
      3708.5000        -999.25        -999.25        -999.25        -999.25        -999.25         0.2429         0.2858        -999.25         0.3595      -105.1124      -14.34331              0
      3709.0000        -999.25        -999.25        -999.25        -999.25        -999.25         0.2452         0.2861        -999.25         0.3593       -104.816      -14.03685              0
      3709.5000        -999.25        -999.25        -999.25        -999.25        -999.25         0.2489         0.2882        -999.25         0.3589      -104.6281      -13.83888              0
      3710.0000        -999.25        -999.25        -999.25        -999.25        -999.25         0.2546         0.2909        -999.25         0.3583       -104.444      -13.64472    0.007096442
      3710.5000        -999.25        -999.25        -999.25        -999.25        -999.25         0.2611         0.2951        -999.25         0.3617      -104.2438      -13.43445     0.01627812
