#------------------------------------------------------------------------------
# Created by    : vladimir.rabinovich
# Created on    : 09/19/2023 17:21:44
#------------------------------------------------------------------------------
~Version Information Section
VERS.           2.0     :   CWLS log ASCII Standard - VERSION 2.0
WRAP.           NO      :   One line per depth step
~Well Information Section
#MNEM       .UNIT                                         VALUE :DESCRIPTION
#------------------------------------------------------------------------------
STRT        .FT                                            3434 :START DEPTH
STOP        .FT                                            9802 :STOP DEPTH
STEP        .FT                                             0.5 :STEP      
NULL        .                                           -999.25 :NULL      
COMP        .                                  UMC PETROLEUM CO :COMPANY   
WELL        .                               OCS G11352 ST00BP00 :WELL      
FLD         .                            HIGH ISLAND BLOCK 0093 :FIELD     
LOC         .                                                   :LOCATION  
CNTY        .                           HIGH ISLAND LARGE BLOCK :LOCATION  
STAT        .                                             TEXAS :STATE     
CTRY        .                                     UNITED STATES :COUNTRY   
SRVC        .                                                   :SERVICE COMPANY
DATE        .                             9/13/2023 11:19:57 AM :LOG DATE  
API         .                                    42708403880000 :API NUMBER
UWI         .                                    42708403880000 :UNIQUE WELL ID
XCOORD      .                                  1243413.75648782 :SURFACE X 
YCOORD      .                                  10663707.7269925 :SURFACE Y 
LAT         .                                         29.377731 :LATITUDE  
LON         .                                        -94.246854 :LONGITUDE 
ELEV        .FT                                              85 :ELEVATION VALUE
ELEV_TYPE   .                                                KB :ELEVATION REFERENCE TYPE
~Curve Information Section
#MNEM       .UNIT                                      API CODE :CURVE DESCRIPTION
#------------------------------------------------------------------------------
DEPT        .FT                                                 :DEPTH     
CALI        .IN                                                 :          
CALI_1      .IN                                                 :          
DPHI        .%                                                  :          
DRHO        .G/C3                                               :          
DT          .US/F                                               :          
GR          .GAPI                                               :          
GR_1        .GAPI                                               :          
GR_NORM     .GAPI                                               :GammaRay Normalized
ILD         .OHMM                                               :          
ILM         .OHMM                                               :          
NPHI        .%                                                  :          
RFOC        .OHMM                                               :          
SP          .MV                                                 :          
SP_NORM     .MV                                                 :SP Normalized
VSH_GR      .V/V                                                :Volume of Shale from GR
VSH_SP      .V/V                                                :Volume of Shale from SP
~A        DEPTH           CALI         CALI_1           DPHI           DRHO             DT             GR           GR_1        GR_NORM            ILD            ILM           NPHI           RFOC             SP        SP_NORM         VSH_GR         VSH_SP
# ...
      5994.0000        -999.25        12.6686        -999.25        -999.25       127.4515        51.9479        -999.25       73.40582         0.5366         0.5146        -999.25         0.7354       -40.8189     -0.8189011      0.8596984      0.9874015
      5994.5000        -999.25        12.5269        -999.25        -999.25       127.7186        52.2803        -999.25       73.92136         0.5479         0.5209        -999.25         0.7353        -40.295     -0.2949982      0.8706672      0.9954616
      5995.0000        -999.25        12.3925        -999.25        -999.25       127.7507         52.455        -999.25       74.19048         0.5584         0.5271        -999.25         0.7347       -40.0693    -0.06930161      0.8763933      0.9989338
      5995.5000        -999.25        12.3052        -999.25        -999.25       127.2289        52.3849        -999.25       74.07711         0.5679         0.5311        -999.25         0.7342       -40.2198      -0.219799      0.8739811      0.9966184
      5996.0000        -999.25        12.2404        -999.25        -999.25       126.9264        52.1288        -999.25       73.67311         0.5709         0.5325        -999.25          0.737       -40.8444     -0.8443985      0.8653854      0.9870092
      5996.5000        -999.25        12.2802        -999.25        -999.25       126.3212        52.1217        -999.25       73.65818         0.5714         0.5327        -999.25         0.7419       -41.5831      -1.583099      0.8650677      0.9756446
      5997.0000        -999.25        12.4042        -999.25        -999.25        126.463        53.2453        -999.25       75.40997         0.5666         0.5329        -999.25         0.7519       -42.3752      -2.375198      0.9023397      0.9634585
      5997.5000        -999.25        12.5534        -999.25        -999.25       126.7289        56.3491        -999.25       80.25581          0.559         0.5284        -999.25          0.763       -43.1673      -3.167301              1      0.9512723
      5998.0000        -999.25        12.7418        -999.25        -999.25       127.1405        59.1426        -999.25       84.61682         0.5506         0.5207        -999.25         0.7623       -43.9594        -3.9594              1      0.9390861
      5998.5000        -999.25        13.0705        -999.25        -999.25       127.6608        61.3277        -999.25       88.02719         0.5409         0.5128        -999.25          0.748       -44.2949      -4.294899              1      0.9339246
      5999.0000        -999.25        13.8228        -999.25        -999.25       128.2583        60.8162        -999.25       87.22414         0.5311         0.5053        -999.25         0.7347       -43.9255      -3.925499              1      0.9396077
      5999.5000        -999.25        14.2147        -999.25        -999.25       128.7041        59.0333        -999.25       84.43451         0.5229         0.5001        -999.25         0.7223       -43.4969      -3.496899              1      0.9462016
      6000.0000        -999.25        14.5936        -999.25        -999.25       129.0239        57.6416        -999.25       82.25616         0.5191         0.5038        -999.25         0.7133       -43.0289        -3.0289              1      0.9534016
      6000.5000        -999.25        14.9068        -999.25        -999.25       128.8821        57.8464        -999.25       82.57233         0.5215         0.5104        -999.25         0.7112       -42.5793        -2.5793              1      0.9603184
      6001.0000        -999.25        15.1415        -999.25        -999.25       127.9985        59.1923        -999.25       84.67144         0.5295         0.5182        -999.25         0.7149       -42.6935      -2.693501              1      0.9585615
      6001.5000        -999.25        15.3143        -999.25        -999.25       127.2406        60.4003        -999.25        86.5551         0.5376         0.5274        -999.25         0.7209        -42.553      -2.553001              1       0.960723
      6002.0000        -999.25        14.9905        -999.25        -999.25       126.6776        58.8546        -999.25       84.13611         0.5485         0.5358        -999.25          0.741       -41.9797      -1.979698              1      0.9695431
      6002.5000        -999.25        14.2582        -999.25        -999.25       127.0682        55.3584        -999.25       78.66945         0.5605         0.5447        -999.25         0.7543       -41.1448      -1.144798      0.9716904      0.9823877
      6003.0000        -999.25        13.6768        -999.25        -999.25       128.0066        52.3265        -999.25       73.92826         0.5761          0.552        -999.25         0.7561       -40.4099     -0.4099007      0.8708141      0.9936938
      6003.5000        -999.25          13.22        -999.25        -999.25       128.7627         50.139        -999.25       70.50645         0.5914         0.5457        -999.25         0.7587       -39.9436      0.0564003      0.7980097              1
      6004.0000        -999.25         12.977        -999.25        -999.25       128.9841         51.527        -999.25       72.67137         0.5908         0.5332        -999.25         0.7672       -39.8036      0.1963997      0.8440717              1
      6004.5000        -999.25        12.8699        -999.25        -999.25       128.0569        53.4911        -999.25       75.73645          0.578         0.5229        -999.25         0.7783       -39.7674      0.2326012      0.9092862              1
      6005.0000        -999.25        12.7999        -999.25        -999.25       126.9663        55.0232        -999.25       78.12651         0.5602         0.5165        -999.25         0.7799        -39.717      0.2830009      0.9601385              1
      6005.5000        -999.25        12.7591        -999.25        -999.25       126.9739        52.7909        -999.25        74.6347         0.5474         0.5095        -999.25         0.7741       -39.5372      0.4627991      0.8858448              1
      6006.0000        -999.25        12.7464        -999.25        -999.25       127.8029        50.8441        -999.25       71.58899         0.5357         0.5006        -999.25         0.7587       -39.3646      0.6353989      0.8210423              1
      6006.5000        -999.25        12.7752        -999.25        -999.25       129.0205        49.6398        -999.25       69.70345         0.5252         0.4913        -999.25         0.7389       -39.2378      0.7621994      0.7809244              1
      6007.0000        -999.25        12.8854        -999.25        -999.25       130.1943        50.8082        -999.25       71.52522         0.5149         0.4829        -999.25          0.718       -39.4082      0.5918007      0.8196856              1
      6007.5000        -999.25        13.3289        -999.25        -999.25       131.3416        51.9236        -999.25        73.2642         0.5048         0.4785        -999.25         0.7057       -39.5515      0.4485016       0.856685              1
      6008.0000        -999.25        14.1337        -999.25        -999.25       132.3303        52.5599        -999.25       74.25457         0.5017         0.4856        -999.25         0.7069       -39.7133      0.2867012      0.8777568              1
      6008.5000        -999.25        14.3531        -999.25        -999.25       133.1355        52.7291        -999.25       74.51511         0.5023         0.4957        -999.25         0.7191       -39.9952    0.004798889      0.8833003              1
      6009.0000        -999.25        14.4668        -999.25        -999.25       132.6272        52.8447        -999.25       74.69189         0.5057         0.5025        -999.25         0.7407       -40.7153     -0.7153015      0.8870616      0.9889954
      6009.5000        -999.25        14.5831        -999.25        -999.25       129.0647        53.1813        -999.25         75.214         0.5072         0.5045        -999.25         0.7528       -41.4769      -1.476898      0.8981702      0.9772785
