#------------------------------------------------------------------------------
# Created by    : vladimir.rabinovich
# Created on    : 09/19/2023 17:21:23
#------------------------------------------------------------------------------
~Version Information Section
VERS.           2.0     :   CWLS log ASCII Standard - VERSION 2.0
WRAP.           NO      :   One line per depth step
~Well Information Section
#MNEM       .UNIT                                         VALUE :DESCRIPTION
#------------------------------------------------------------------------------
STRT        .FT                                            1005 :START DEPTH
STOP        .FT                                            8973 :STOP DEPTH
STEP        .FT                                             0.5 :STEP      
NULL        .                                           -999.25 :NULL      
COMP        .                            MARITECH RESOURCES INC :COMPANY   
WELL        .                               OCS G06113 ST00BP00 :WELL      
FLD         .                              GALVESTON BLOCK 0343 :FIELD     
LOC         .                                                   :LOCATION  
CNTY        .                             GALVESTON LARGE BLOCK :LOCATION  
STAT        .                                             TEXAS :STATE     
CTRY        .                                     UNITED STATES :COUNTRY   
SRVC        .                                                   :SERVICE COMPANY
DATE        .                             9/13/2023 11:19:36 AM :LOG DATE  
API         .                                    42706402140000 :API NUMBER
UWI         .                                    42706402140000 :UNIQUE WELL ID
XCOORD      .                                  914498.553138379 :SURFACE X 
YCOORD      .                                  10427492.1426863 :SURFACE Y 
LAT         .                                         28.714711 :LATITUDE  
LON         .                                        -95.265111 :LONGITUDE 
ELEV        .FT                                              84 :ELEVATION VALUE
ELEV_TYPE   .                                                KB :ELEVATION REFERENCE TYPE
~Curve Information Section
#MNEM       .UNIT                                      API CODE :CURVE DESCRIPTION
#------------------------------------------------------------------------------
DEPT        .FT                                                 :DEPTH     
CALI        .IN                                                 :          
DPHI        .%                                                  :          
DRHO        .G/C3                                               :          
DT          .US/F                                               :          
GR          .GAPI                                               :          
ILD         .OHMM                                               :          
ILM         .OHMM                                               :          
NPHI        .%                                                  :          
SGRD        .OHMM                                               :          
SP          .MV                                                 :          
SP_NORM     .MV                                                 :SP Normalized
VSH_SP      .V/V                                                :Volume of Shale from SP
~A        DEPTH           CALI           DPHI           DRHO             DT             GR            ILD            ILM           NPHI           SGRD             SP        SP_NORM         VSH_SP
# ...
      3116.5000        -999.25        -999.25        -999.25        -999.25        -999.25         0.8381           0.71        -999.25         0.5257       -99.8158      -4.058228              1
      3117.0000        -999.25        -999.25        -999.25        -999.25        -999.25         0.8239         0.7176        -999.25         0.5345       -99.1162      -3.358627              1
      3117.5000        -999.25        -999.25        -999.25        -999.25        -999.25         0.8077         0.7165        -999.25         0.5405       -98.5847      -2.827126              1
      3118.0000        -999.25        -999.25        -999.25        -999.25        -999.25         0.7886         0.6973        -999.25         0.5352       -98.3815      -2.623924              1
      3118.5000        -999.25        -999.25        -999.25        -999.25        -999.25           0.77         0.6747        -999.25         0.5231       -98.1782      -2.420624              1
      3119.0000        -999.25        -999.25        -999.25        -999.25        -999.25         0.7565         0.6528        -999.25          0.512        -97.975      -2.217422              1
      3119.5000        -999.25        -999.25        -999.25        -999.25        -999.25         0.7397         0.6332        -999.25         0.4995        -97.759      -2.001427              1
      3120.0000        -999.25        -999.25        -999.25        -999.25        -999.25          0.718         0.6167        -999.25         0.4888       -97.4633      -1.705727              1
      3120.5000        -999.25        -999.25        -999.25        -999.25        -999.25         0.7014         0.6038        -999.25         0.4828       -97.0963      -1.338722       0.982675
      3121.0000        -999.25        -999.25        -999.25        -999.25        -999.25         0.6861         0.5965        -999.25         0.4792       -96.5492      -0.791626      0.9336662
      3121.5000        -999.25        -999.25        -999.25        -999.25        -999.25         0.6728         0.5857        -999.25          0.477       -96.5313     -0.7737274      0.8916983
      3122.0000        -999.25        -999.25        -999.25        -999.25        -999.25         0.6594         0.5767        -999.25         0.4753       -97.4132      -1.655624      0.8500154
      3122.5000        -999.25        -999.25        -999.25        -999.25        -999.25          0.646         0.5753        -999.25         0.4742       -98.6174      -2.859825      0.8089388
      3123.0000        -999.25        -999.25        -999.25        -999.25        -999.25         0.6379          0.578        -999.25         0.4737      -100.0433      -4.285721      0.7844041
      3123.5000        -999.25        -999.25        -999.25        -999.25        -999.25          0.631         0.5777        -999.25         0.4741      -101.3269      -5.569321      0.7636806
      3124.0000        -999.25        -999.25        -999.25        -999.25        -999.25         0.6251         0.5712        -999.25         0.4738      -102.2352      -6.477623      0.7460896
      3124.5000        -999.25        -999.25        -999.25        -999.25        -999.25         0.6278         0.5645        -999.25         0.4714      -102.8533      -7.095726      0.7541249
      3125.0000        -999.25        -999.25        -999.25        -999.25        -999.25         0.6363         0.5645        -999.25         0.4679      -102.9321      -7.174522      0.7795843
      3125.5000        -999.25        -999.25        -999.25        -999.25        -999.25         0.6505         0.5788        -999.25         0.4656      -102.8774      -7.119827      0.8226654
      3126.0000        -999.25        -999.25        -999.25        -999.25        -999.25         0.6743         0.5958        -999.25         0.4753      -102.4365      -6.678925      0.8964019
      3126.5000        -999.25        -999.25        -999.25        -999.25        -999.25          0.702          0.614        -999.25         0.4987      -101.9127      -6.155121      0.9846129
      3127.0000        -999.25        -999.25        -999.25        -999.25        -999.25          0.734         0.6336        -999.25         0.5195      -101.2395      -5.481926              1
      3127.5000        -999.25        -999.25        -999.25        -999.25        -999.25         0.7696         0.6551        -999.25         0.5332      -100.5527       -4.79512              1
      3128.0000        -999.25        -999.25        -999.25        -999.25        -999.25         0.8088         0.6743        -999.25         0.5401       -99.6918      -3.934227              1
      3128.5000        -999.25        -999.25        -999.25        -999.25        -999.25         0.8509         0.7055        -999.25         0.5414        -98.972      -3.214424              1
      3129.0000        -999.25        -999.25        -999.25        -999.25        -999.25         0.8952         0.7393        -999.25         0.5391       -98.4824      -2.724823              1
      3129.5000        -999.25        -999.25        -999.25        -999.25        -999.25            0.9         0.7706        -999.25         0.5391       -98.5796      -2.822021              1
      3130.0000        -999.25        -999.25        -999.25        -999.25        -999.25         0.9157         0.8028        -999.25         0.5439       -98.7863      -3.028725              1
      3130.5000        -999.25        -999.25        -999.25        -999.25        -999.25         0.9232          0.834        -999.25         0.5562       -99.0332      -3.275627              1
      3131.0000        -999.25        -999.25        -999.25        -999.25        -999.25          0.925         0.8636        -999.25         0.5665       -99.4413      -3.683723              1
      3131.5000        -999.25        -999.25        -999.25        -999.25        -999.25         0.9217         0.8796        -999.25         0.5773       -99.8657      -4.108124              1
      3132.0000        -999.25        -999.25        -999.25        -999.25        -999.25         0.9195         0.8795        -999.25         0.5875      -100.3698      -4.612221              1
      3132.5000        -999.25        -999.25        -999.25        -999.25        -999.25         0.9192         0.8613        -999.25         0.5895      -100.8779      -5.120323              1
      3133.0000        -999.25        -999.25        -999.25        -999.25        -999.25         0.9236         0.8387        -999.25         0.5646      -101.3911      -5.633522              1
      3133.5000        -999.25        -999.25        -999.25        -999.25        -999.25         0.9292          0.826        -999.25         0.5468      -101.8595      -6.101921              1
      3134.0000        -999.25        -999.25        -999.25        -999.25        -999.25         0.9313         0.8294        -999.25         0.5476      -102.2697      -6.512123              1
      3134.5000        -999.25        -999.25        -999.25        -999.25        -999.25         0.9256           0.84        -999.25          0.559      -102.6465      -6.888924              1
      3135.0000        -999.25        -999.25        -999.25        -999.25        -999.25         0.9151          0.844        -999.25         0.5731      -102.9274      -7.169823              1
      3135.5000        -999.25        -999.25        -999.25        -999.25        -999.25         0.9037         0.8321        -999.25         0.5807      -103.1696      -7.412025              1
      3136.0000        -999.25        -999.25        -999.25        -999.25        -999.25         0.8913         0.8209        -999.25         0.5765      -103.3457      -7.588127              1
      3136.5000        -999.25        -999.25        -999.25        -999.25        -999.25          0.888         0.8145        -999.25         0.5621      -103.2152      -7.457626              1
