#------------------------------------------------------------------------------
# Created by    : vladimir.rabinovich
# Created on    : 09/19/2023 17:19:46
#------------------------------------------------------------------------------
~Version Information Section
VERS.           2.0     :   CWLS log ASCII Standard - VERSION 2.0
WRAP.           NO      :   One line per depth step
~Well Information Section
#MNEM       .UNIT                                         VALUE :DESCRIPTION
#------------------------------------------------------------------------------
STRT        .FT                                             290 :START DEPTH
STOP        .FT                                         11377.5 :STOP DEPTH
STEP        .FT                                             0.5 :STEP      
NULL        .                                           -999.25 :NULL      
COMP        .                         SONAT EXPLORATION GOM INC :COMPANY   
WELL        .                               OCS G04571 ST00BP00 :WELL      
FLD         .                                           WILDCAT :FIELD     
LOC         .                                                   :LOCATION  
CNTY        .                           HIGH ISLAND LARGE BLOCK :LOCATION  
STAT        .                                             TEXAS :STATE     
CTRY        .                                     UNITED STATES :COUNTRY   
SRVC        .                                                   :SERVICE COMPANY
DATE        .                             9/13/2023 11:19:19 AM :LOG DATE  
API         .                                    42708401190000 :API NUMBER
UWI         .                                    42708401190000 :UNIQUE WELL ID
XCOORD      .                                  1324427.25220013 :SURFACE X 
YCOORD      .                                  10679041.7751219 :SURFACE Y 
LAT         .                                         29.422046 :LATITUDE  
LON         .                                        -93.992863 :LONGITUDE 
ELEV        .FT                                             116 :ELEVATION VALUE
ELEV_TYPE   .                                                KB :ELEVATION REFERENCE TYPE
~Curve Information Section
#MNEM       .UNIT                                      API CODE :CURVE DESCRIPTION
#------------------------------------------------------------------------------
DEPT        .FT                                                 :DEPTH     
ASFL        .OHMM                                               :          
CALI        .IN                                                 :          
CILD        .MMHO                                               :          
GR          .GAPI                                               :          
GR_NORM     .GAPI                                               :GammaRay Normalized
ILD         .OHMM                                               :          
RHOB        .G/C3                                               :          
SP          .MV                                                 :          
SP_NORM     .GAPI                                               :SP Normalized
VSH_GR      .V/V                                                :Volume of Shale from GR
VSH_SP      .V/V                                                :Volume of Shale from SP
~A        DEPTH           ASFL           CALI           CILD             GR        GR_NORM            ILD           RHOB             SP        SP_NORM         VSH_GR         VSH_SP
# ...
     11360.0000         1.3948         10.429       668.8437       220.1619       73.96159         1.4317         2.3093        -39.232         1.6164      0.8715233              1
     11360.5000         1.5022        10.6795       643.1445       220.1643       74.03574         1.4751         2.2226       -39.4567       1.406679      0.8731008              1
     11361.0000         1.5323        10.9669       617.4463       220.1667       74.10987         1.5184         2.1666       -39.5726       1.298504      0.8746781              1
     11361.5000         1.5615        11.2544       593.2939       220.1692       74.18402         1.5605         2.1273       -39.6888       1.190051      0.8762558              1
     11362.0000         1.5849        11.6028       608.4141       220.1575       74.25815         1.5946         2.1035       -39.7838       1.101387      0.8778329              1
     11362.5000         1.5863         11.587       631.2187       220.1345       74.33229         1.5506         2.0854       -39.8718       1.019253      0.8794104              1
     11363.0000         1.5712        11.3482        653.624       220.1113       74.40643         1.5067         2.1054       -39.9207       0.973612      0.8809878              1
     11363.5000         1.5561        10.7941       676.0293       220.0991       74.48056         1.4628         2.1958       -39.9692      0.9283453      0.8825651              1
     11364.0000         1.5357        10.6825       698.3848       220.1016       74.55471          1.422         2.2339       -40.0177      0.8830785      0.8841428              1
     11364.5000         1.4861        10.7857         720.79       220.1038       74.62884          1.385         2.1771       -40.0662      0.8378118        0.88572              1
     11365.0000         1.4054         11.044       742.3467       220.1062       74.70299         1.3478          1.979       -40.1146      0.7926376      0.8872976              1
     11365.5000         1.3165         11.444       757.4922       220.1309       74.77711         1.3124         1.9622       -40.1787      0.7328125      0.8888748              1
     11366.0000           1.31         11.824       772.6621       220.1577       74.85126         1.2813         1.9964       -40.2576      0.6591731      0.8904523              1
     11366.5000         1.3087        11.8434       789.7529       220.1846        74.9254         1.2503         2.0058       -40.3367       0.585345      0.8920298              1
     11367.0000         1.3075        11.9581       808.7646       220.2114       74.99953          1.222         2.0301       -40.3899      0.5356919      0.8936071              1
     11367.5000         1.3003        12.5582       828.4258        220.238       75.07369         1.1968         2.1408       -40.4244      0.5034917      0.8951849              1
     11368.0000         1.2826         14.177       857.3682        220.261       75.14782         1.1716         2.2437       -40.4431      0.4860387      0.8967621              1
     11368.5000         1.2525        14.7104       886.0605       220.2837       75.22195         1.1464         2.2428       -40.4407      0.4882782      0.8983395              1
     11369.0000         1.2164        15.1614        908.166       220.3064       75.29609         1.1212         2.2066       -40.4447      0.4845469      0.8999168              1
     11369.5000         1.1781        15.0398       930.2725       220.3254       75.37022          1.096         2.1562       -40.4649      0.4656911      0.9014941              1
     11370.0000         1.1358        14.3222       945.9658       220.3176       75.44437         1.0763         1.9469       -40.5325      0.4025975      0.9030718              1
     11370.5000         1.0941        13.9834       960.0127       220.3098       75.51852         1.0591         1.9973        -40.643      0.2994639      0.9046494              1
     11371.0000         1.0536        14.3089       972.4629        220.302       75.59265         1.0418         2.0116        -40.759      0.1911997      0.9062266              1
     11371.5000         1.0089        14.8299       984.8633       220.3032       75.66679         1.0259         2.0713       -40.8765      0.0815328      0.9078041              1
     11372.0000         0.9813        15.2442       996.3779       220.3369       75.74093         1.0111         2.1906       -40.9943    -0.02841542      0.9093814      0.9995941
     11372.5000         0.9652        15.5114       1003.626       220.3706       75.81506         1.0027          2.319       -41.1121     -0.1383601      0.9109586      0.9980235
     11373.0000         0.9524        17.7554       1010.861       220.4043        75.8892          0.995         2.3467       -41.1827     -0.2042557      0.9125361      0.9970821
     11373.5000         0.9425        19.1224       1012.493        220.438       75.96335         0.9874         2.3384       -41.1973     -0.2178813      0.9141138      0.9968874
     11374.0000         0.9307        19.1081       1012.429       220.4675       76.03749         0.9797         2.3248       -41.1932     -0.2140539      0.9156913      0.9969421
     11374.5000         0.9164        18.8592       1010.687       220.4697       76.11164          0.972         2.2712       -41.0375    -0.06873322      0.9172689      0.9990181
     11375.0000         0.9071         18.719       1008.463       220.4722       76.18575         0.9643         1.9988       -40.8442      0.1116786      0.9188458              1
     11375.5000        -999.25        -999.25        -999.25        -999.25       76.25991        -999.25        -999.25        -999.25        -999.25      0.9204236        -999.25
     11376.0000        -999.25        -999.25        -999.25        -999.25       76.33405        -999.25        -999.25        -999.25        -999.25      0.9220009        -999.25
     11376.5000        -999.25        -999.25        -999.25        -999.25        76.4082        -999.25        -999.25        -999.25        -999.25      0.9235786        -999.25
     11377.0000        -999.25        -999.25        -999.25        -999.25       76.48232        -999.25        -999.25        -999.25        -999.25      0.9251556        -999.25
     11377.5000        -999.25        -999.25        -999.25        -999.25       76.55647        -999.25        -999.25        -999.25        -999.25      0.9267333        -999.25
