#------------------------------------------------------------------------------
# Created by    : vladimir.rabinovich
# Created on    : 09/19/2023 17:20:33
#------------------------------------------------------------------------------
~Version Information Section
VERS.           2.0     :   CWLS log ASCII Standard - VERSION 2.0
WRAP.           NO      :   One line per depth step
~Well Information Section
#MNEM       .UNIT                                         VALUE :DESCRIPTION
#------------------------------------------------------------------------------
STRT        .FT                                             242 :START DEPTH
STOP        .FT                                            8116 :STOP DEPTH
STEP        .FT                                             0.5 :STEP      
NULL        .                                           -999.25 :NULL      
COMP        .                                       HUNT OIL CO :COMPANY   
WELL        .                                     ST TR 00005-L :WELL      
FLD         .                                           WILDCAT :FIELD     
LOC         .                                                   :LOCATION  
CNTY        .                           HIGH ISLAND LARGE BLOCK :LOCATION  
STAT        .                                             TEXAS :STATE     
CTRY        .                                     UNITED STATES :COUNTRY   
SRVC        .                                                   :SERVICE COMPANY
DATE        .                             9/13/2023 11:19:33 AM :LOG DATE  
API         .                                    42708000010000 :API NUMBER
UWI         .                                    42708000010000 :UNIQUE WELL ID
XCOORD      .                                  1328371.56215902 :SURFACE X 
YCOORD      .                                  10754892.1390607 :SURFACE Y 
LAT         .                                        29.6307718 :LATITUDE  
LON         .                                       -93.9824852 :LONGITUDE 
ELEV        .FT                                              11 :ELEVATION VALUE
ELEV_TYPE   .                                                KB :ELEVATION REFERENCE TYPE
~Curve Information Section
#MNEM       .UNIT                                      API CODE :CURVE DESCRIPTION
#------------------------------------------------------------------------------
DEPT        .FT                                                 :DEPTH     
ASN         .OHMM                                               :          
LAT         .OHMM                                               :          
LN          .OHMM                                               :          
SN          .OHMM                                               :          
SP          .MV                                                 :          
SP_NORM     .MV                                                 :SP Normalized
VSH_SP      .V/V                                                :Volume of Shale from SP
~A        DEPTH            ASN            LAT             LN             SN             SP        SP_NORM         VSH_SP
# ...
      8081.0000         0.9967         0.6454         0.8754         0.9645       -40.0801      -1.056778      0.9992529
      8081.5000         0.9721         0.6732         0.8712         0.9605       -39.6646     -0.6511345              1
      8082.0000         0.9583         0.6956         0.8671         0.9573       -39.3636     -0.3599968              1
      8082.5000         0.9486         0.7134         0.8629         0.9542       -39.0627    -0.06895065              1
      8083.0000         0.9453         0.7312         0.8558          0.951       -38.9548     0.03890991              1
      8083.5000         0.9441          0.749         0.8478         0.9479       -38.9785      0.0152092              1
      8084.0000         0.9386         0.7575         0.8397         0.9448       -39.0023   -0.008590698              1
      8084.5000         0.9229         0.7653         0.8317         0.9426        -39.026    -0.03229141              1
      8085.0000         0.9064          0.773         0.8247         0.9404       -39.0498    -0.05609131              1
      8085.5000         0.8947         0.7718          0.818         0.9382       -39.5722     -0.5784912              1
      8086.0000         0.8781          0.767         0.8113         0.9361       -40.1481      -1.154392      0.9979685
      8086.5000         0.8714         0.7622         0.8047         0.9339       -40.9086       -1.91489      0.9879619
      8087.0000         0.8667         0.7591          0.798         0.9317       -41.6691      -2.675392      0.9779553
      8087.5000         0.8651         0.7567         0.7945         0.9296       -42.0494      -3.055691      0.9729514
      8088.0000         0.8632         0.7544          0.791         0.9274       -42.4212       -3.42749      0.9680594
      8088.5000         0.8605          0.752         0.7874         0.9271       -43.0609      -4.067192      0.9596422
      8089.0000         0.8605         0.7501         0.7841         0.9267       -42.2349      -3.241192      0.9705107
      8089.5000         0.8618         0.7525         0.7851         0.9263       -41.4483       -2.45459      0.9808607
      8090.0000         0.8633         0.7549         0.7861          0.926       -40.7264      -1.732689      0.9903594
      8090.5000          0.865         0.7573         0.7871         0.9256       -40.0045      -1.010792       0.999858
      8091.0000         0.8695         0.7598         0.7881         0.9252       -39.4094     -0.4156914              1
      8091.5000          0.874         0.7622         0.7894         0.9248       -38.9385     0.05521011              1
      8092.0000         0.8813          0.764         0.7908         0.9247       -38.8724      0.1213112              1
      8092.5000         0.8899         0.7639         0.7921         0.9252       -38.9945  -0.0007896423              1
      8093.0000         0.8998         0.7639         0.7935         0.9257       -39.1166     -0.1228905              1
      8093.5000         0.8852         0.7639         0.7948         0.9262       -39.2388     -0.2450905              1
      8094.0000         0.8719         0.7638         0.7959         0.9267        -39.373     -0.3792915              1
      8094.5000         0.8625         0.7638         0.7967         0.9272       -39.5408     -0.5470886              1
      8095.0000         0.8628         0.7604         0.7974         0.9277       -39.7086     -0.7148895              1
      8095.5000         0.8689         0.7552         0.7981         0.9282       -39.8807     -0.8869896              1
      8096.0000         0.8775         0.7499         0.7989         0.9287       -40.1191      -1.125389      0.9983501
      8096.5000         0.8862         0.7447         0.7996         0.9297       -40.2328       -1.23909      0.9968541
      8097.0000         0.8948         0.7394         0.7992         0.9311       -39.9672     -0.9734917              1
      8097.5000         0.9016         0.7348         0.7985         0.9325       -39.6167     -0.6229897              1
      8098.0000          0.907         0.7303         0.7978          0.934        -39.249      -0.255291              1
      8098.5000         0.9123         0.7258         0.7971         0.9354       -39.0132    -0.01948929              1
      8099.0000         0.9177         0.7231         0.7982         0.9368       -39.2839     -0.2901917              1
      8099.5000         0.9229         0.7216         0.8025         0.9382        -39.555     -0.5612907              1
      8100.0000         0.9282         0.7231         0.8067         0.9396       -39.8262      -0.832489              1
      8100.5000         0.9334         0.7368         0.8109          0.941       -40.0969      -1.103191      0.9986422
      8101.0000         0.9386         0.7499         0.8164         0.9435        -40.368       -1.37429      0.9950751
      8101.5000         0.9469         0.7503         0.8226         0.9466       -40.2861      -1.292389      0.9961528
      8102.0000         0.9566         0.7339         0.8288         0.9498       -40.0121      -1.018391       0.999758
      8102.5000         0.9662         0.7177          0.835         0.9529       -39.7384     -0.7446899              1
      8103.0000          0.975         0.7024         0.8413         0.9561       -39.4644     -0.4706917              1
      8103.5000         0.9836         0.6872          0.849         0.9592       -39.5093     -0.5155907              1
      8104.0000         0.9921         0.6719         0.8568         0.9608       -39.8379     -0.8441887              1
      8104.5000         0.9992         0.6619         0.8646         0.9599       -40.4595       -1.46579      0.9938712
      8105.0000         1.0058         0.6542          0.868          0.959       -41.3022      -2.308491       0.982783
      8105.5000         1.0105         0.6465           0.87         0.9581       -42.1425      -3.148792      0.9717264
      8106.0000         1.0141         0.6425         0.8709         0.9572       -42.8426      -3.848892      0.9625146
      8106.5000         1.0101         0.6403         0.8688         0.9563       -43.9255      -4.931789      0.9482659
      8107.0000          1.006         0.6382         0.8668         0.9555       -45.6597      -6.665989      0.9254475
      8107.5000         1.0019         0.6525         0.8645         0.9546       -45.6614       -6.66769      0.9254251
      8108.0000         0.9977         0.6697         0.8612         0.9526       -44.2092      -5.215492       0.944533
      8108.5000         0.9934         0.6977          0.858         0.9502       -43.0911      -4.097389      0.9592449
      8109.0000          0.989         0.7223         0.8547         0.9479       -42.2693      -3.275589       0.970058
      8109.5000         0.9845         0.7363         0.8514         0.9455       -41.5675      -2.573792      0.9792922
      8110.0000         0.9795         0.7502         0.8472         0.9432       -41.0689      -2.075191      0.9858527
      8110.5000         0.9744         0.7638         0.8425         0.9409        -40.601      -1.607292      0.9920093
      8111.0000         0.9694         0.7665         0.8377         0.9385       -40.2412       -1.24749      0.9967436
      8111.5000         0.9632         0.7692          0.833         0.9369       -39.8815     -0.8877907              1
      8112.0000         0.9564         0.7718         0.8318         0.9366       -39.5427     -0.5489922              1
      8112.5000         0.9483         0.7745         0.8309         0.9364       -39.4449     -0.4511909              1
      8113.0000         0.9347         0.7772           0.83         0.9362        -39.347     -0.3532906              1
      8113.5000         0.9165         0.7796         0.8313         0.9359       -39.2783     -0.2845917              1
      8114.0000         0.9052         0.7819          0.833         0.9357       -39.2678     -0.2740898              1
