#------------------------------------------------------------------------------
# Created by    : vladimir.rabinovich
# Created on    : 09/19/2023 17:21:34
#------------------------------------------------------------------------------
~Version Information Section
VERS.           2.0     :   CWLS log ASCII Standard - VERSION 2.0
WRAP.           NO      :   One line per depth step
~Well Information Section
#MNEM       .UNIT                                         VALUE :DESCRIPTION
#------------------------------------------------------------------------------
STRT        .FT                                            4500 :START DEPTH
STOP        .FT                                            8225 :STOP DEPTH
STEP        .FT                                             0.5 :STEP      
NULL        .                                           -999.25 :NULL      
COMP        .                             WALTER OIL & GAS CORP :COMPANY   
WELL        .                               OCS G08132 ST00BP00 :WELL      
FLD         .                              GALVESTON BLOCK 0385 :FIELD     
LOC         .                                                   :LOCATION  
CNTY        .                             GALVESTON LARGE BLOCK :LOCATION  
STAT        .                                             TEXAS :STATE     
CTRY        .                                     UNITED STATES :COUNTRY   
SRVC        .                                                   :SERVICE COMPANY
DATE        .                             9/13/2023 11:19:34 AM :LOG DATE  
API         .                                    42706402490000 :API NUMBER
UWI         .                                    42706402490000 :UNIQUE WELL ID
XCOORD      .                                  1009947.10754335 :SURFACE X 
YCOORD      .                                  10405011.8756564 :SURFACE Y 
LAT         .                                         28.657556 :LATITUDE  
LON         .                                        -94.966279 :LONGITUDE 
ELEV        .FT                                             101 :ELEVATION VALUE
ELEV_TYPE   .                                                KB :ELEVATION REFERENCE TYPE
~Curve Information Section
#MNEM       .UNIT                                      API CODE :CURVE DESCRIPTION
#------------------------------------------------------------------------------
DEPT        .FT                                                 :DEPTH     
CALI        .IN                                                 :          
DPHI        .%                                                  :          
DRHO        .G/C3                                               :          
GR          .GAPI                                               :          
GR_NORM     .GAPI                                               :GammaRay Normalized
ILD         .OHMM                                               :          
ILM         .OHMM                                               :          
NPHI        .%                                                  :          
SFL         .OHMM                                               :          
SP          .MV                                                 :          
SP_NORM     .MV                                                 :SP Normalized
VSH_GR      .V/V                                                :Volume of Shale from GR
VSH_SP      .V/V                                                :Volume of Shale from SP
~A        DEPTH           CALI           DPHI           DRHO             GR        GR_NORM            ILD            ILM           NPHI            SFL             SP        SP_NORM         VSH_GR         VSH_SP
# ...
      7008.0000        10.3554        19.6277         0.0021         81.343       74.45452         0.6044         0.6139        40.0715         0.7095       -58.4758    -0.03720601      0.8820111      0.9993799
      7008.5000        10.4017         19.604         0.0023        82.5491       75.71088         0.6045          0.616        38.7467         0.7042       -58.3338      0.1201674      0.9087421              1
      7009.0000        10.4543        19.9326         0.0013        83.2124       76.40181         0.6025         0.6175        37.6425          0.686       -58.2497      0.2100004      0.9234428              1
      7009.5000        10.5145        20.2069         0.0003        83.3942       76.59119         0.6005         0.6163         37.093         0.6683       -58.4389    -0.01902135      0.9274721       0.999683
      7010.0000        10.5812        20.3409        -0.0002        83.1364       76.32264         0.5985         0.6135        37.4927         0.6602       -58.3963     0.02238592      0.9217583              1
      7010.5000        10.6189        20.4017        -0.0002        82.7401       75.90983         0.5961         0.6108        38.0121         0.6628       -58.0292      0.4423822      0.9129751              1
      7011.0000        10.5712        20.2214        -0.0001        82.1525       75.29774         0.5931         0.6091        38.5773         0.6691       -57.6899      0.8299478       0.899952              1
      7011.5000         10.476         20.024        -0.0001        81.3324       74.44347         0.5901         0.6075        39.1426         0.6872       -57.3798       1.183445       0.881776              1
      7012.0000        10.3658        19.7263        -0.0009        81.3762        74.4891         0.5857          0.606        39.4855         0.7058       -57.6924      0.8104503      0.8827468              1
      7012.5000        10.2737           19.6         -0.002        83.9524       77.17264         0.5782         0.6046        39.6865         0.7074       -58.3903     -0.0120519      0.9398434      0.9997991
      7013.0000        10.2171        19.5973        -0.0031        85.7592       79.05473         0.5687         0.6033        39.8314         0.7041       -58.7693     -0.4625028      0.9798878      0.9922916
      7013.5000        10.2665        20.1926        -0.0046         86.472       79.79723         0.5655          0.602        39.6816         0.6935       -58.9865      -0.724191      0.9956856      0.9879302
      7014.0000        10.3281        21.2118         -0.007        86.4326       79.75619         0.5623         0.6003        39.6778         0.6644       -58.9165      -0.650816      0.9948125      0.9891531
      7014.5000        10.3637        22.3273        -0.0094        85.6714       78.96327         0.5596         0.5984        39.9164         0.6339       -58.8254     -0.5528209      0.9779419      0.9907863
      7015.0000        10.3494         23.239        -0.0085        84.5963       77.84337         0.5571         0.5965        40.3601         0.6158       -58.1817      0.1898753      0.9541142              1
      7015.5000        10.3247        23.4221        -0.0071        82.6617       75.82816         0.5546         0.5945        40.4786         0.6211       -57.6248      0.8313007      0.9112375              1
      7016.0000        10.2673        23.2957        -0.0057        82.2495       75.39878         0.5521         0.5925        40.2197          0.651       -57.4858      0.9851806      0.9021017              1
      7016.5000         10.203        23.0872        -0.0035        83.0452       76.22764         0.5503         0.5906        39.4813         0.6817       -57.5897      0.8556805       0.919737              1
      7017.0000        10.1498        23.0437        -0.0007        83.8158       77.03035         0.5485         0.5889        40.3108         0.7001       -58.1473      0.1968581       0.936816              1
      7017.5000        10.1219        23.3205         0.0021        83.7142       76.92452         0.5468         0.5874        42.0089         0.6999       -58.7042     -0.4611498      0.9345643      0.9923142
      7018.0000         10.094        23.6585         0.0048        82.0027       75.14171         0.5451          0.586        43.2155         0.6887       -59.1478     -0.9869696      0.8966321      0.9835505
      7018.5000         10.086        23.7062         0.0074        84.4435        77.6842         0.5446         0.5841          42.45         0.6599       -59.5095      -1.417238      0.9507278      0.9763794
      7019.0000         10.084        23.1553         0.0099        87.1799       80.53462         0.5441         0.5821        41.3661         0.6539       -59.8713       -1.84763              1      0.9692062
      7019.5000        10.0738        22.7213         0.0125        89.6633        83.1215         0.5456         0.5805        41.1433         0.6513       -59.8812      -1.867466              1      0.9688756
      7020.0000          10.06        22.3849         0.0151        91.3297       84.85732         0.5516         0.5793        43.0115         0.6452       -59.6959      -1.659571              1      0.9723405
      7020.5000        10.0463        22.1371         0.0177        91.1519       84.67212         0.5593         0.5812        43.8244         0.6435       -59.4704      -1.404776              1      0.9765871
      7021.0000        10.0349        21.9796         0.0202        89.6533       83.11108         0.5744         0.5923        43.7085          0.679         -59.17      -1.062597              1        0.98229
      7021.5000        10.0237        21.7153         0.0224        88.2812       81.68181         0.5914         0.6179        41.7756         0.7205       -58.9176     -0.7764174              1      0.9870597
      7022.0000        10.0126        21.5799         0.0245        87.9594        81.3466         0.6194         0.6474        39.6951         0.7646        -58.987     -0.8656718              1      0.9855722
      7022.5000        10.0102        21.7231         0.0245        88.8364       82.26015         0.6488         0.6814        38.1927         0.7934       -58.9366     -0.8151633              1       0.986414
      7023.0000        10.0095        21.8058         0.0238         88.701       82.11909         0.6826          0.717        36.8755          0.822       -58.4292     -0.2314828              1       0.996142
      7023.5000        10.0089        21.7187         0.0213        85.7616       79.05722         0.7182         0.7515        35.6471         0.8426       -58.3545     -0.1526203      0.9799408      0.9974563
      7024.0000        10.0137        21.6317          0.016        83.8358       77.05119         0.7534         0.7878        36.5789         0.8545       -58.4934      -0.322958      0.9372593      0.9946173
      7024.5000        10.0198        21.6932         0.0085        85.3356       78.61348         0.7891         0.8218        38.2785         0.8747       -58.6985     -0.5705338      0.9704996      0.9904911
      7025.0000        10.0259        22.0352         0.0018        86.4432       79.76723         0.8217         0.8569        37.6839         0.9098       -58.2437     -0.0482165      0.9950474      0.9991964
      7025.5000        10.0359        22.9814        -0.0046          80.85       73.94097         0.8521         0.8868        35.0043         1.0123       -57.9843      0.2461293      0.8710845              1
      7026.0000        10.0466        23.7935        -0.0057        75.6127       68.48546         0.8758         0.9161        33.0773         1.0996       -58.1579     0.03530566      0.7550098              1
      7026.5000        10.0575        24.0997        -0.0062        76.3444       69.24764         0.8942         0.9348        33.3152         1.1207       -58.7374     -0.6490669      0.7712265      0.9891822
