#------------------------------------------------------------------------------
# Created by    : vladimir.rabinovich
# Created on    : 09/19/2023 17:19:50
#------------------------------------------------------------------------------
~Version Information Section
VERS.           2.0     :   CWLS log ASCII Standard - VERSION 2.0
WRAP.           NO      :   One line per depth step
~Well Information Section
#MNEM       .UNIT                                         VALUE :DESCRIPTION
#------------------------------------------------------------------------------
STRT        .FT                                             880 :START DEPTH
STOP        .FT                                            8374 :STOP DEPTH
STEP        .FT                                             0.5 :STEP      
NULL        .                                           -999.25 :NULL      
COMP        .                                        EXXON CORP :COMPANY   
WELL        .                               OCS G04552 ST00BP00 :WELL      
FLD         .                                 BRAZOS BLOCK 0451 :FIELD     
LOC         .                                                   :LOCATION  
CNTY        .                                BRAZOS LARGE BLOCK :LOCATION  
STAT        .                                             TEXAS :STATE     
CTRY        .                                     UNITED STATES :COUNTRY   
SRVC        .                                                   :SERVICE COMPANY
DATE        .                             9/13/2023 11:19:08 AM :LOG DATE  
API         .                                    42704401130000 :API NUMBER
UWI         .                                    42704401130000 :UNIQUE WELL ID
XCOORD      .                                  760277.642000753 :SURFACE X 
YCOORD      .                                  10343629.6463693 :SURFACE Y 
LAT         .                                         28.475327 :LATITUDE  
LON         .                                        -95.739931 :LONGITUDE 
ELEV        .FT                                              95 :ELEVATION VALUE
ELEV_TYPE   .                                                KB :ELEVATION REFERENCE TYPE
~Curve Information Section
#MNEM       .UNIT                                      API CODE :CURVE DESCRIPTION
#------------------------------------------------------------------------------
DEPT        .FT                                                 :DEPTH     
ASFL        .OHMM                                               :          
CALI        .IN                                                 :          
CILD        .MMHO                                               :          
DT          .US/F                                               :          
GR          .GAPI                                               :          
GR_NORM     .GAPI                                               :GammaRay Normalized
ILD         .OHMM                                               :          
ILM         .OHMM                                               :          
RHOB        .G/C3                                               :          
SP          .MV                                                 :          
SP_NORM     .MV                                                 :SP Normalized
VSH_GR      .V/V                                                :Volume of Shale from GR
VSH_SP      .V/V                                                :Volume of Shale from SP
~A        DEPTH           ASFL           CALI           CILD             DT             GR        GR_NORM            ILD            ILM           RHOB             SP        SP_NORM         VSH_GR         VSH_SP
# ...
      4433.0000          0.969        -999.25       1651.232       148.2915        55.0151        90.5652          0.651         0.6146         2.2536       -40.8735        -3.8117              1       0.923766
      4433.5000         0.9634        -999.25       1714.711       147.7476        55.1351       90.75078         0.6345         0.6073         2.2557       -42.0345         -4.972              1        0.90056
      4434.0000         0.9719        -999.25       1770.141       145.6465        55.8912       91.91908         0.6132          0.595         2.2576       -42.7477        -5.6845              1        0.88631
      4434.5000         1.0343        -999.25       1827.686       137.5696        57.5229       94.44019         0.5852         0.5851         2.2607       -43.1155        -6.0517              1       0.878966
      4435.0000         0.9916        -999.25       1901.676       134.2234         55.859       91.86917          0.562         0.5724         2.2649       -43.3302        -6.2657              1       0.874686
      4435.5000         0.9433        -999.25        1929.92       131.7244        54.3161        89.4853          0.545         0.5593         2.2599        -43.522        -6.4568              1       0.870864
      4436.0000         0.9026        -999.25       1811.992       130.1775        52.7858       87.12055         0.5581          0.546         2.2208       -43.7506        -6.6848              1       0.866304
      4436.5000         0.8526        -999.25       1728.945       129.0073        51.2781       84.79091          0.583         0.5448         2.1987       -44.0125         -6.946              1        0.86108
      4437.0000          0.945        -999.25       1610.539       128.1233        49.7138       82.37382         0.6335         0.5606          2.206       -44.2744        -7.2072              1       0.855856
      4437.5000         1.1059        -999.25       1477.143       127.1038        47.9213       79.60411         0.6721         0.5979         2.2379       -44.7448         -7.677      0.9915769        0.84646
      4438.0000         1.1532        -999.25       1355.518       125.4819         46.004        76.6417         0.6961         0.6868          2.285       -45.5105         -8.442      0.9285468        0.83116
      4438.5000          1.239        -999.25       1282.682       118.1123        43.9077       73.40257            0.8         0.7833         2.3067       -46.2757        -9.2065      0.8596292        0.81587
      4439.0000         1.3958        -999.25       1209.646       110.5051        41.4962       69.67641         1.1036         0.8483         2.3354       -48.0486       -10.9788      0.7803491       0.780424
      4439.5000          1.551        -999.25       1102.709       102.9381        38.7507       65.43414         1.4431         0.9232         2.3565       -50.1736       -13.1031      0.6900882       0.737938
      4440.0000         1.4002        -999.25       908.1475        99.5825        35.4632       60.35426         1.5774         1.0573         2.3514       -49.7391       -12.6679      0.5820055       0.746642
      4440.5000         1.3186        -999.25       582.7812         99.402        33.4274       57.20876          1.609         1.1961         2.3397       -48.9361       -11.8643        0.51508       0.762714
      4441.0000         1.3098        -999.25       568.3574        99.0511        33.1853       56.83453         1.6138         1.2433         2.3462       -47.8879       -10.8154      0.5071176       0.783692
      4441.5000         1.3126        -999.25        577.751        97.8301        33.2842       56.98734         1.5811         1.2535          2.365       -47.4688       -10.3956      0.5103688       0.792088
      4442.0000         1.3262        -999.25       592.5898        96.1283        33.2446        56.9263          1.513         1.2255         2.3908       -48.4158        -11.342      0.5090702        0.77316
      4442.5000           1.36        -999.25        609.792        93.9004        32.5904        55.9153         1.3725         1.1504         2.4315       -49.5594       -12.4849      0.4875596       0.750302
      4443.0000         1.3997        -999.25       676.1631        92.1448        31.3551       54.00656         1.1774         1.0308         2.4583       -50.9089       -13.8338       0.446948       0.723324
      4443.5000         1.2811        -999.25       898.6914        92.7571        30.1197       52.09782         0.9729         0.8748         2.4583       -66.6431       -29.5673      0.4063366       0.408654
      4444.0000         1.2077        -999.25       1421.209        95.3335        28.5554       49.68056         0.8128          0.692         2.3946       -76.5334       -39.4569      0.3549055       0.210862
      4444.5000         1.1452        -999.25       1719.992        99.3245        27.3957       47.88878         0.6242         0.5438         2.2837         -77.92       -40.8429      0.3167826       0.183142
      4445.0000         1.1017        -999.25       2226.211       103.9677        26.3872       46.33032         0.4727         0.4527         2.2252       -79.7756       -42.6978      0.2836239       0.146044
      4445.5000         1.0577        -999.25       2732.434       110.6702        25.4027       44.80911         0.3766         0.3836         2.1963       -81.4622       -44.3837      0.2512577       0.112326
      4446.0000         0.9985        -999.25       3238.656       115.1509        24.5909       43.55474         0.3162         0.3337         2.1711       -82.9509       -45.8718      0.2245689     0.08256401
      4446.5000         0.9723        -999.25       3566.211       117.6549        23.9626       42.58392         0.2711         0.2969         2.0997        -84.316       -47.2362      0.2039132     0.05527603
      4447.0000         0.9686        -999.25       4286.836       118.6367        23.5901       42.00834         0.2408          0.275         2.0832       -85.1853       -48.1048      0.1916667     0.03790398
      4447.5000         0.9649        -999.25       4450.914       119.0109        23.2519       41.48576         0.2162         0.2584         2.0802       -85.6428       -48.5617      0.1805481     0.02876602
      4448.0000         0.9596        -999.25       4534.766       119.2729        22.9135       40.96303         0.1999         0.2495         2.0837       -85.9027       -48.8209      0.1694262       0.023582
      4448.5000         0.9523        -999.25       4568.492       119.6125        22.5753       40.44031          0.194         0.2451         2.0814       -86.0814       -48.9989      0.1583045     0.02002197
      4449.0000         0.9449        -999.25       4596.984       119.8212        22.2723       39.97212         0.1937         0.2419          2.084       -86.1868       -49.1037       0.148343     0.01792603
      4449.5000         0.9375        -999.25        4558.18       119.8336        21.9787       39.51861         0.1992         0.2428         2.0745       -86.1591       -49.0753      0.1386939     0.01849403
      4450.0000         0.9312        -999.25       4480.594       119.8223        21.6677       39.03791          0.211         0.2449         2.0569       -85.9906       -48.9061      0.1284662     0.02187798
      4450.5000         0.9256        -999.25       3993.035       120.1208        21.3672       38.57359         0.2228         0.2525         2.0428       -85.8223       -48.7372      0.1185869     0.02525597
      4451.0000          0.922         8.0335       3725.156       120.7943        21.1039       38.16675         0.2336         0.2617         2.0445       -85.5316       -48.4458      0.1099308     0.03108398
      4451.5000         0.9237         8.0975       3615.906       121.9158        21.1841       38.29082         0.2435         0.2726         2.0668       -85.2256       -48.1391      0.1125707     0.03721802
