#------------------------------------------------------------------------------
# Created by    : vladimir.rabinovich
# Created on    : 09/19/2023 17:22:26
#------------------------------------------------------------------------------
~Version Information Section
VERS.           2.0     :   CWLS log ASCII Standard - VERSION 2.0
WRAP.           NO      :   One line per depth step
~Well Information Section
#MNEM       .UNIT                                         VALUE :DESCRIPTION
#------------------------------------------------------------------------------
STRT        .FT                                            3450 :START DEPTH
STOP        .FT                                            9344 :STOP DEPTH
STEP        .FT                                             0.5 :STEP      
NULL        .                                           -999.25 :NULL      
COMP        .                                  W&T OFFSHORE INC :COMPANY   
WELL        .                               OCS G04565 ST00BP00 :WELL      
FLD         .                              GALVESTON BLOCK 0303 :FIELD     
LOC         .                                                   :LOCATION  
CNTY        .                             GALVESTON LARGE BLOCK :LOCATION  
STAT        .                                             TEXAS :STATE     
CTRY        .                                     UNITED STATES :COUNTRY   
SRVC        .                                                   :SERVICE COMPANY
DATE        .                             9/13/2023 11:19:39 AM :LOG DATE  
API         .                                    42706403900000 :API NUMBER
UWI         .                                    42706403900000 :UNIQUE WELL ID
XCOORD      .                                  983096.827540607 :SURFACE X 
YCOORD      .                                  10485968.3003259 :SURFACE Y 
LAT         .                                        28.8789082 :LATITUDE  
LON         .                                       -95.0543314 :LONGITUDE 
ELEV        .FT                                              90 :ELEVATION VALUE
ELEV_TYPE   .                                                KB :ELEVATION REFERENCE TYPE
~Curve Information Section
#MNEM       .UNIT                                      API CODE :CURVE DESCRIPTION
#------------------------------------------------------------------------------
DEPT        .FT                                                 :DEPTH     
CDER        .MMHO                                               :          
DCAL        .IN                                                 :          
DPHI        .DEC                                                :          
DRHO        .G/CC                                               :          
DTLN        .US/F                                               :          
GR          .GAPI                                               :          
GR_NORM     .GAPI                                               :GammaRay Normalized
IDER        .OHMM                                               :          
IMER        .OHMM                                               :          
NPOR        .DEC                                                :          
RWA         .OHMM                                               :          
SFLA        .OHMM                                               :          
SP          .MV                                                 :          
SP_NORM     .MV                                                 :SP Normalized
TENS        .LB                                                 :          
VSH_GR      .V/V                                                :Volume of Shale from GR
VSH_SP      .V/V                                                :Volume of Shale from SP
~A        DEPTH           CDER           DCAL           DPHI           DRHO           DTLN             GR        GR_NORM           IDER           IMER           NPOR            RWA           SFLA             SP        SP_NORM           TENS         VSH_GR         VSH_SP
# ...
      9315.0000       1798.561        -999.25        -999.25        -999.25        -999.25        -999.25        -999.25          0.556          0.563        -999.25          0.196          0.649         -1.015      -4.258908       1930.002        -999.25      0.9391584
      9315.5000       1794.688        -999.25        -999.25        -999.25        -999.25        -999.25        -999.25          0.557          0.564        -999.25          0.193          0.648         -0.365      -3.532867       1927.682        -999.25      0.9495305
      9316.0000       1754.386        -999.25        -999.25        -999.25        -999.25        -999.25        -999.25           0.57          0.575        -999.25          0.191          0.646         -0.149      -3.240825       1940.002        -999.25      0.9537025
      9316.5000       1718.213        -999.25        -999.25        -999.25        -999.25        -999.25        -999.25          0.582           0.59        -999.25          0.187          0.643          0.125      -2.890784           1940        -999.25      0.9587031
      9317.0000       1718.213        -999.25        -999.25        -999.25        -999.25        -999.25        -999.25          0.582            0.6        -999.25          0.184          0.638          0.375      -2.564742           1940        -999.25      0.9633608
      9317.5000       1752.848        -999.25        -999.25        -999.25        -999.25        -999.25        -999.25          0.571          0.592        -999.25           0.18          0.634            0.4      -2.463701           1940        -999.25      0.9648043
      9318.0000       1792.757        -999.25        -999.25        -999.25        -999.25        -999.25        -999.25          0.558          0.581        -999.25          0.176           0.63            0.4      -2.387659           1960        -999.25      0.9658906
      9318.5000       1834.862        -999.25        -999.25        -999.25        -999.25        -999.25        -999.25          0.545          0.569        -999.25          0.172          0.627            0.3      -2.411618           1960        -999.25      0.9655483
      9319.0000       1875.117        -999.25        -999.25        -999.25        -999.25        -999.25        -999.25          0.533          0.558        -999.25          0.169          0.623          0.375      -2.260576           1960        -999.25      0.9677061
      9319.5000       1907.305        -999.25        -999.25        -999.25        -999.25        -999.25        -999.25          0.524          0.548        -999.25           0.17          0.617          0.275      -2.284534           1960        -999.25      0.9673638
      9320.0000       1922.707        -999.25        -999.25        -999.25        -999.25        -999.25        -999.25           0.52          0.539        -999.25           0.17          0.611         -0.075      -2.558493           1960        -999.25      0.9634501
      9320.5000       1933.488        -999.25        -999.25        -999.25        -999.25        -999.25        -999.25          0.517          0.529        -999.25           0.17          0.605         -0.125      -2.532451           1925        -999.25      0.9638221
      9321.0000       1939.488        -999.25        -999.25        -999.25        -999.25        -999.25        -999.25          0.516          0.523        -999.25           0.17          0.603          -0.05      -2.381409       1930.002        -999.25      0.9659799
      9321.5000       1929.757        -999.25        -999.25        -999.25        -999.25        -999.25        -999.25          0.518          0.523        -999.25           0.17          0.605          0.025      -2.230368       1934.998        -999.25      0.9681376
      9322.0000       1891.432        -999.25        -999.25        -999.25        -999.25        -999.25        -999.25          0.529          0.528        -999.25          0.171          0.613           0.25      -1.929326       1940.002        -999.25      0.9724382
      9322.5000       1827.819        -999.25        -999.25        -999.25        -999.25        -999.25        -999.25          0.547          0.546        -999.25          0.172          0.629          0.425      -1.678285           1940        -999.25      0.9760245
      9323.0000       1760.254        -999.25        -999.25        -999.25        -999.25        -999.25        -999.25          0.568          0.572        -999.25          0.175          0.646          0.775      -1.252243           1940        -999.25      0.9821108
      9323.5000       1745.505        -999.25        -999.25        -999.25        -999.25        -999.25        -999.25          0.573          0.584        -999.25          0.176          0.654            0.8      -1.151201       1932.684        -999.25      0.9835542
      9324.0000       1762.736        -999.25        -999.25        -999.25        -999.25        -999.25        -999.25          0.567          0.577        -999.25          0.176           0.65          1.075     -0.8001599           1920        -999.25      0.9885691
      9324.5000       1781.896        -999.25        -999.25        -999.25        -999.25        -999.25        -999.25          0.561          0.564        -999.25          0.175          0.642            1.2     -0.5991184           1925        -999.25      0.9914412
      9325.0000        1790.51        -999.25        -999.25        -999.25        -999.25        -999.25        -999.25          0.558          0.551        -999.25          0.175          0.632            1.2     -0.5230768           1950        -999.25      0.9925275
      9325.5000       1794.366        -999.25        -999.25        -999.25        -999.25        -999.25        -999.25          0.557          0.546        -999.25          0.176          0.614           0.85     -0.7970352       1947.623        -999.25      0.9886138
      9326.0000       1815.871        -999.25        -999.25        -999.25        -999.25        -999.25        -999.25          0.551          0.545        -999.25          0.176          0.598           0.15      -1.420994       1940.002        -999.25      0.9797001
      9326.5000       1850.481        -999.25        -999.25        -999.25        -999.25        -999.25        -999.25           0.54          0.545        -999.25          0.176          0.577         -0.396      -1.890952           1940        -999.25      0.9729864
      9327.0000       1858.391        -999.25        -999.25        -999.25        -999.25        -999.25        -999.25          0.538          0.542        -999.25          0.178          0.561         -1.213      -2.631911           1940        -999.25      0.9624013
      9327.5000       1833.181        -999.25        -999.25        -999.25        -999.25        -999.25        -999.25          0.545          0.523        -999.25          0.181          0.549         -1.732      -3.074869           1940        -999.25      0.9560733
      9328.0000       1796.945        -999.25        -999.25        -999.25        -999.25        -999.25        -999.25          0.557          0.503        -999.25          0.183          0.548         -2.451      -3.717827       1922.719        -999.25      0.9468882
      9328.5000       1767.409        -999.25        -999.25        -999.25        -999.25        -999.25        -999.25          0.566          0.503        -999.25          0.183          0.554         -3.052      -4.242786           1940        -999.25      0.9393888
      9329.0000       1740.947        -999.25        -999.25        -999.25        -999.25        -999.25        -999.25          0.574          0.504        -999.25          0.184           0.56         -3.881      -4.995744           1940        -999.25      0.9286322
      9329.5000       1716.443        -999.25        -999.25        -999.25        -999.25        -999.25        -999.25          0.583          0.507        -999.25          0.184          0.569         -4.863      -5.901702           1940        -999.25      0.9156899
