#------------------------------------------------------------------------------
# Created by    : vladimir.rabinovich
# Created on    : 09/19/2023 17:20:38
#------------------------------------------------------------------------------
~Version Information Section
VERS.           2.0     :   CWLS log ASCII Standard - VERSION 2.0
WRAP.           NO      :   One line per depth step
~Well Information Section
#MNEM       .UNIT                                         VALUE :DESCRIPTION
#------------------------------------------------------------------------------
STRT        .FT                                             540 :START DEPTH
STOP        .FT                                            8409 :STOP DEPTH
STEP        .FT                                             0.5 :STEP      
NULL        .                                           -999.25 :NULL      
COMP        .                                      SHELL OIL CO :COMPANY   
WELL        .                                OCS 00706 ST00BP00 :WELL      
FLD         .                                           WILDCAT :FIELD     
LOC         .                                                   :LOCATION  
CNTY        .                             GALVESTON LARGE BLOCK :LOCATION  
STAT        .                                             TEXAS :STATE     
CTRY        .                                     UNITED STATES :COUNTRY   
SRVC        .                                                   :SERVICE COMPANY
DATE        .                             9/13/2023 11:19:25 AM :LOG DATE  
API         .                                    42706000280000 :API NUMBER
UWI         .                                    42706000280000 :UNIQUE WELL ID
XCOORD      .                                  1100625.96198943 :SURFACE X 
YCOORD      .                                  10499283.7203345 :SURFACE Y 
LAT         .                                         28.920625 :LATITUDE  
LON         .                                        -94.687754 :LONGITUDE 
ELEV        .FT                                              78 :ELEVATION VALUE
ELEV_TYPE   .                                                KB :ELEVATION REFERENCE TYPE
~Curve Information Section
#MNEM       .UNIT                                      API CODE :CURVE DESCRIPTION
#------------------------------------------------------------------------------
DEPT        .FT                                                 :DEPTH     
ASN         .OHMM                                               :          
DT          .US/F                                               :          
ILD         .OHMM                                               :          
LAT         .OHMM                                               :          
LN          .OHMM                                               :          
SP          .MV                                                 :          
SP_NORM     .MV                                                 :SP Normalized
VSH_SP      .V/V                                                :Volume of Shale from SP
~A        DEPTH            ASN             DT            ILD            LAT             LN             SP        SP_NORM         VSH_SP
# ...
      7856.0000         1.2362        96.7838         0.8412        -999.25        -999.25       -41.9934      -2.969009      0.9666269
      7856.5000         1.2618        99.7215         0.8247        -999.25        -999.25        -41.791      -2.766609      0.9700575
      7857.0000         1.1636       108.6823         0.8128        -999.25        -999.25       -41.5872      -2.562809      0.9735117
      7857.5000         1.1272       113.6757         0.8009        -999.25        -999.25       -41.3545      -2.330109      0.9774558
      7858.0000          1.106       107.2882          0.789        -999.25        -999.25       -41.1218      -2.097408      0.9813998
      7858.5000         1.1541       100.9255         0.7914        -999.25        -999.25       -40.8889       -1.86451      0.9853473
      7859.0000         1.2051        94.5628         0.8072        -999.25        -999.25       -40.6563      -1.631908      0.9892897
      7859.5000           1.24        88.2002         0.8231        -999.25        -999.25       -40.3994      -1.375008      0.9936439
      7860.0000         1.2654        81.8375         0.8389        -999.25        -999.25       -42.9193      -3.894909      0.9509338
      7860.5000         1.3046        76.8223         0.8547        -999.25        -999.25       -48.6234       -9.59901      0.8542541
      7861.0000         1.3503        85.3429         0.8705        -999.25        -999.25       -52.2172      -13.19281      0.7933422
      7861.5000         1.3683       104.5599         0.8864        -999.25        -999.25       -55.5889      -16.56451      0.7361947
      7862.0000         1.3323       100.4764         0.8749        -999.25        -999.25       -57.1949      -18.17051      0.7089744
      7862.5000          1.287        79.3859         0.8546        -999.25        -999.25       -53.2078      -14.18341      0.7765524
      7863.0000         1.2375        77.4871         0.8344        -999.25        -999.25       -51.6952      -12.67081      0.8021896
      7863.5000         1.1879        86.0107         0.8077        -999.25        -999.25       -55.2513      -16.22691      0.7419168
      7864.0000         1.1394        95.8821          0.779        -999.25        -999.25       -61.9238      -22.89941      0.6288236
      7864.5000         1.0909       101.3717         0.7503        -999.25        -999.25       -68.6228      -29.59841      0.5152811
      7865.0000         1.0535       104.7808         0.7216        -999.25        -999.25       -76.4147      -37.39031       0.383215
      7865.5000         1.0175       106.7898          0.693        -999.25        -999.25        -79.973      -40.94861      0.3229049
      7866.0000         0.9687       104.9888         0.6643        -999.25        -999.25       -81.0625      -42.03811      0.3044388
      7866.5000         0.9501        96.8524         0.6356        -999.25        -999.25       -78.5826      -39.55821       0.346471
      7867.0000         0.9702         88.716         0.6081        -999.25        -999.25       -71.8036      -32.77921      0.4613694
      7867.5000         1.0009        80.4923         0.5852        -999.25        -999.25       -58.8052      -19.78081      0.6816812
      7868.0000         1.0315        79.1422         0.6401        -999.25        -999.25       -65.1134      -26.08901      0.5747625
      7868.5000         1.0598        89.9008         0.7118        -999.25        -999.25       -71.5459      -32.52151      0.4657372
      7869.0000         1.0717        97.7399         0.7835        -999.25        -999.25       -77.0455      -38.02111      0.3725235
      7869.5000         1.0583        99.1565         0.8236        -999.25        -999.25       -82.5718      -43.54741      0.2788575
      7870.0000         1.0431       104.3671         0.8579        -999.25        -999.25        -91.743      -52.71861      0.1234135
      7870.5000          1.131       101.2967         0.8922        -999.25        -999.25        -88.338      -49.31361      0.1811253
      7871.0000          1.214        91.1003         0.9264        -999.25        -999.25       -74.0603      -35.03591      0.4231201
      7871.5000         1.2948        85.7237         0.9607        -999.25        -999.25       -64.3048      -25.28041      0.5884676
      7872.0000          1.372        87.4772         0.9949        -999.25        -999.25       -62.1192      -23.09481      0.6255117
      7872.5000         1.4541        88.1348          1.028        -999.25        -999.25       -61.4384      -22.41401      0.6370507
      7873.0000         1.5233        86.4471         1.0488        -999.25        -999.25       -60.2579      -21.23351      0.6570592
      7873.5000          1.463        88.2805         1.0696        -999.25        -999.25        -57.728      -18.70361      0.6999388
      7874.0000         1.4317        91.2167         1.0904        -999.25        -999.25        -56.413      -17.38861       0.722227
      7874.5000         1.4005        94.1529         1.1112        -999.25        -999.25       -56.2709      -17.24651      0.7246354
      7875.0000         1.3781        94.3255         1.1296        -999.25        -999.25       -58.8452      -19.82081      0.6810033
      7875.5000         1.4433         91.737         1.1302        -999.25        -999.25       -62.8211      -23.79671      0.6136152
      7876.0000         1.5352        96.5389         1.1309        -999.25        -999.25       -66.0818      -27.05741       0.558349
      7876.5000         1.6547       100.7905         1.1315        -999.25        -999.25       -65.7886      -26.76421      0.5633186
      7877.0000         1.6994        98.2331         1.1322        -999.25        -999.25       -62.2258      -23.20141       0.623705
      7877.5000         1.6459        93.6572         1.1328        -999.25        -999.25       -58.6586      -19.63421       0.684166
      7878.0000         1.5464        91.3304         1.1299        -999.25        -999.25       -55.0958      -16.07141      0.7445524
      7878.5000         1.4474         99.708         1.1204        -999.25        -999.25       -54.1763      -15.15191      0.7601371
      7879.0000         1.3542         110.07          1.111        -999.25        -999.25       -53.4022      -14.37781      0.7732575
      7879.5000         1.3092       107.1983         1.1015        -999.25        -999.25       -52.5104      -13.48601      0.7883728
      7880.0000          1.262       102.2432          1.092        -999.25        -999.25       -49.7428      -10.71841      0.8352812
      7880.5000         1.3218       101.9615         1.0825        -999.25        -999.25       -46.8997      -7.875309      0.8834693
      7881.0000         1.3771        102.073         1.0731        -999.25        -999.25       -42.8127      -3.788307      0.9527406
      7881.5000         1.3638        94.7021         1.0807        -999.25        -999.25          -41.5      -2.475609      0.9749897
      7882.0000         1.3338        87.8717         1.0884        -999.25        -999.25       -40.3261      -1.301708      0.9948863
      7882.5000         1.4057        88.5722         1.0961        -999.25        -999.25       -40.0062     -0.9818077              1
      7883.0000         1.4699        98.4759         1.1038        -999.25        -999.25       -40.6448      -1.620407      0.9894846
      7883.5000         1.5206       104.4784         1.1115        -999.25        -999.25       -41.2845      -2.260109      0.9786422
      7884.0000         1.5342        94.4483         1.1192        -999.25        -999.25       -41.9232      -2.898808      0.9678168
      7884.5000         1.5017        84.5726         1.1271        -999.25        -999.25       -42.9038       -3.87941      0.9511964
      7885.0000         1.4781        76.3556         1.1406        -999.25        -999.25       -44.6185      -5.594109      0.9221337
