#------------------------------------------------------------------------------
# Created by    : vladimir.rabinovich
# Created on    : 09/19/2023 17:21:39
#------------------------------------------------------------------------------
~Version Information Section
VERS.           2.0     :   CWLS log ASCII Standard - VERSION 2.0
WRAP.           NO      :   One line per depth step
~Well Information Section
#MNEM       .UNIT                                         VALUE :DESCRIPTION
#------------------------------------------------------------------------------
STRT        .FT                                             930 :START DEPTH
STOP        .FT                                           10010 :STOP DEPTH
STEP        .FT                                             0.5 :STEP      
NULL        .                                           -999.25 :NULL      
COMP        .                 FAIRWAYS SPEC SALES & SERVICE INC :COMPANY   
WELL        .                               OCS G02357 ST00BP00 :WELL      
FLD         .                            HIGH ISLAND BLOCK 0154 :FIELD     
LOC         .                                                   :LOCATION  
CNTY        .                           HIGH ISLAND LARGE BLOCK :LOCATION  
STAT        .                                             TEXAS :STATE     
CTRY        .                                     UNITED STATES :COUNTRY   
SRVC        .                                                   :SERVICE COMPANY
DATE        .                             9/13/2023 11:20:04 AM :LOG DATE  
API         .                                    42708400540000 :API NUMBER
UWI         .                                    42708400540000 :UNIQUE WELL ID
XCOORD      .                                  1183911.52517142 :SURFACE X 
YCOORD      .                                  10615048.6542629 :SURFACE Y 
LAT         .                                         29.242029 :LATITUDE  
LON         .                                        -94.431816 :LONGITUDE 
ELEV        .FT                                              73 :ELEVATION VALUE
ELEV_TYPE   .                                                KB :ELEVATION REFERENCE TYPE
~Curve Information Section
#MNEM       .UNIT                                      API CODE :CURVE DESCRIPTION
#------------------------------------------------------------------------------
DEPT        .FT                                                 :DEPTH     
CALI        .IN                                                 :          
DRHO        .G/C3                                               :          
DT          .US/F                                               :          
GR          .GAPI                                               :          
GR_1        .GAPI                                               :          
GR_NORM     .GAPI                                               :GammaRay Normalized
ILD         .OHMM                                               :          
NPHI        .%                                                  :          
RHOB        .G/C3                                               :          
SFL         .OHMM                                               :          
SP          .MV                                                 :          
SP_NORM     .MV                                                 :SP Normalized
VSH_GR      .V/V                                                :Volume of Shale from GR
VSH_SP      .V/V                                                :Volume of Shale from SP
~A        DEPTH           CALI           DRHO             DT             GR           GR_1        GR_NORM            ILD           NPHI           RHOB            SFL             SP        SP_NORM         VSH_GR         VSH_SP
# ...
      9984.0000        10.0472        -0.0442        -999.25        77.9468        -999.25       83.10281         0.5412         37.775         2.3592         0.5714       -47.2589      0.6943169              1              1
      9984.5000         9.8043        -0.0333        -999.25        79.1919        -999.25       84.63997         0.5648        37.6865         2.3775         0.6302       -47.1742      0.7790184              1              1
      9985.0000         9.4975        -0.0219        -999.25         79.634        -999.25       85.18578         0.5844        37.8816         2.3908         0.6838       -48.2729     -0.3196831              1      0.9957376
      9985.5000         9.1116        -0.0142        -999.25        79.2178        -999.25       84.67194         0.6066        38.1121         2.3969         0.6907       -50.6614      -2.708183              1      0.9638909
      9986.0000         8.7562        -0.0232        -999.25        78.4001        -999.25       83.66244         0.6133        37.9312         2.3771         0.6394       -54.5607      -6.607483              1      0.9119002
      9986.5000         8.7069        -0.0289        -999.25        78.3519        -999.25       83.60293         0.6112        37.5977         2.3691          0.627       -58.6364      -10.68318              1      0.8575576
      9987.0000         8.9328        -0.0287        -999.25        78.5471        -999.25       83.84392         0.6067        37.4778         2.3675         0.6827       -62.9427      -14.98948              1      0.8001402
      9987.5000         8.8372        -0.0244        -999.25        79.7206        -999.25       85.29268         0.5991        37.8127         2.3684         0.7089       -62.7073      -14.75408              1      0.8032789
      9988.0000         8.7585        -0.0285        -999.25        80.8396        -999.25       86.67417         0.5894        38.5012         2.3283         0.6631       -60.4512      -12.49798              1      0.8333603
      9988.5000         8.8014        -0.0414        -999.25        81.8129        -999.25       87.87576         0.5757        39.2606         2.3112         0.6139       -58.3716      -10.41838              1      0.8610882
      9989.0000         8.9605        -0.0481        -999.25        82.6207        -999.25       88.87305          0.561        39.9964         2.3064         0.5699       -56.6476      -8.694382              1      0.8840749
      9989.5000         9.1838        -0.0505        -999.25        83.1135        -999.25       89.48145         0.5489        40.5338         2.3066         0.5473       -54.8966      -6.943382              1      0.9074216
      9990.0000          9.369        -0.0452        -999.25        83.2778        -999.25        89.6843         0.5375        40.9349         2.3187          0.567       -53.4939      -5.540684              1      0.9261242
      9990.5000         9.4259        -0.0274        -999.25        82.8282        -999.25       89.12923         0.5296        40.7869         2.3405         0.5778       -52.6172      -4.663982              1      0.9378136
      9991.0000         9.2559        -0.0186        -999.25        81.7413        -999.25       87.78738         0.5248        40.5115         2.3516          0.583       -52.5724      -4.619183              1      0.9384109
      9991.5000         9.1287        -0.0249        -999.25         80.705        -999.25         86.508         0.5269        40.6937         2.3388         0.6055       -53.3369      -5.383682              1      0.9282176
      9992.0000         9.1666        -0.0309        -999.25        79.9219        -999.25       85.54121         0.5374        41.0948         2.3228         0.6072       -54.8353      -6.882084              1      0.9082389
      9992.5000         9.4353        -0.0318        -999.25        79.3302        -999.25       84.81071         0.5448        41.6385         2.3177         0.5772       -54.8734      -6.920185              1      0.9077309
      9993.0000         9.3699        -0.0265        -999.25        78.8469        -999.25       84.21404         0.5462        40.7396         2.3198         0.5584       -54.1149      -6.161682              1      0.9178442
      9993.5000         9.3399        -0.0188        -999.25        78.7301        -999.25       84.06985         0.5454        39.6766         2.3337         0.5736        -54.541      -6.587784              1      0.9121629
      9994.0000         9.8982        -0.0089        -999.25        78.8954        -999.25       84.27392         0.5448        38.9985         2.3536         0.6346       -55.2963      -7.343082              1      0.9020922
      9994.5000        10.1728        -0.0013        -999.25        79.4352        -999.25       84.94035         0.5441        38.6332         2.3706         0.6653       -56.3386      -8.385384              1      0.8881949
      9995.0000        10.2428         0.0013        -999.25        79.9429        -999.25       85.56714         0.5456        38.4112         2.3743         0.6247       -57.1227      -9.169483              1      0.8777402
      9995.5000        10.3091        -0.0071        -999.25        80.3561        -999.25       86.07726         0.5478        38.3632         2.3656         0.5967       -57.1156      -9.162384              1      0.8778349
      9996.0000        10.5716        -0.0247        -999.25        80.6161        -999.25       86.39824         0.5468        38.3513          2.347          0.582       -56.3411      -8.387882              1      0.8881616
      9996.5000        10.8962        -0.0394        -999.25          80.63        -999.25        86.4154         0.5415        38.4695         2.3307         0.6004       -55.3601      -7.406883              1      0.9012415
      9997.0000        10.8004        -0.0467        -999.25        80.5117        -999.25       86.26936         0.5344        38.6684         2.3247         0.5792       -54.5226      -6.569382              1      0.9124082
      9997.5000        10.4768        -0.0506        -999.25        80.2628        -999.25       85.96207         0.5263        38.9364         2.3148         0.5529        -53.866      -5.912785              1      0.9211628
      9998.0000        10.4374        -0.0526        -999.25        80.4276        -999.25       86.16552         0.5174        39.2084         2.3016          0.534        -53.795      -5.841782              1      0.9221096
      9998.5000        10.5222        -0.0534        -999.25        80.7661        -999.25       86.58342         0.5092        39.4764         2.2873         0.5254       -54.1217      -6.168484              1      0.9177536
      9999.0000        10.5721        -0.0544        -999.25        81.2534        -999.25       87.18504         0.5006        39.7328         2.2806         0.5339       -54.6183      -6.665085              1      0.9111322
      9999.5000        10.3715          -0.06        -999.25        81.4208        -999.25       87.39169          0.491        39.9523         2.2758         0.5502       -55.3062      -7.352982              1      0.9019603
     10000.0000        10.1022         -0.073        -999.25         81.233        -999.25       87.15985         0.4801        40.1559         2.2542         0.5541       -56.0308      -8.077583              1      0.8922989
     10000.5000        10.0237        -0.0875        -999.25        80.9137        -999.25       86.76565         0.4657        40.4946         2.2452         0.5478        -56.688      -8.734783              1      0.8835362
     10001.0000        11.2475        -0.0887        -999.25        80.4808        -999.25        86.2312         0.4506        40.8565          2.249         0.5352       -57.0804      -9.127182              1      0.8783042
     10001.5000         11.366        -0.0845        -999.25        80.3267        -999.25       86.04095         0.4355        41.2347          2.248         0.5165       -56.8493      -8.896084              1      0.8813856
