#------------------------------------------------------------------------------
# Created by    : vladimir.rabinovich
# Created on    : 09/19/2023 17:20:37
#------------------------------------------------------------------------------
~Version Information Section
VERS.           2.0     :   CWLS log ASCII Standard - VERSION 2.0
WRAP.           NO      :   One line per depth step
~Well Information Section
#MNEM       .UNIT                                         VALUE :DESCRIPTION
#------------------------------------------------------------------------------
STRT        .FT                                             582 :START DEPTH
STOP        .FT                                            8015 :STOP DEPTH
STEP        .FT                                             0.5 :STEP      
NULL        .                                           -999.25 :NULL      
COMP        .                                CONTINENTAL OIL CO :COMPANY   
WELL        .                                OCS 00719 ST00BP00 :WELL      
FLD         .                                           WILDCAT :FIELD     
LOC         .                                                   :LOCATION  
CNTY        .                             GALVESTON LARGE BLOCK :LOCATION  
STAT        .                                             TEXAS :STATE     
CTRY        .                                     UNITED STATES :COUNTRY   
SRVC        .                                                   :SERVICE COMPANY
DATE        .                             9/13/2023 11:19:25 AM :LOG DATE  
API         .                                    42706000350000 :API NUMBER
UWI         .                                    42706000350000 :UNIQUE WELL ID
XCOORD      .                                  1010979.62119212 :SURFACE X 
YCOORD      .                                  10432235.4027546 :SURFACE Y 
LAT         .                                          28.73246 :LATITUDE  
LON         .                                        -94.964458 :LONGITUDE 
ELEV        .FT                                              63 :ELEVATION VALUE
ELEV_TYPE   .                                                KB :ELEVATION REFERENCE TYPE
~Curve Information Section
#MNEM       .UNIT                                      API CODE :CURVE DESCRIPTION
#------------------------------------------------------------------------------
DEPT        .FT                                                 :DEPTH     
ASN         .OHMM                                               :          
DT          .US/F                                               :          
LN          .OHMM                                               :          
SP          .MV                                                 :          
SP_NORM     .MV                                                 :SP Normalized
VSH_SP      .V/V                                                :Volume of Shale from SP
~A        DEPTH            ASN             DT             LN             SP        SP_NORM         VSH_SP
# ...
      5028.0000         0.8005        -999.25         0.7104        -51.425      -9.589591      0.8418835
      5028.5000         0.8033        -999.25         0.7164       -52.8912      -11.79559      0.7959251
      5029.0000         0.8062        -999.25         0.7224       -53.9287      -13.35525      0.7634323
      5029.5000          0.809        -999.25         0.7242       -54.9651      -14.91324      0.7309741
      5030.0000         0.8119        -999.25         0.7237       -55.7139      -16.03763      0.7075494
      5030.5000         0.8044        -999.25         0.7233       -56.1666      -16.71559      0.6934253
      5031.0000         0.7952        -999.25         0.7228       -56.6191      -17.39324      0.6793075
      5031.5000          0.786        -999.25         0.7223       -57.0743      -18.07496      0.6651049
      5032.0000          0.774        -999.25         0.7218       -57.5321      -18.76061      0.6508206
      5032.5000          0.755        -999.25         0.7213       -57.9899      -19.44625      0.6365364
      5033.0000         0.7361        -999.25         0.7208       -58.5439      -20.27694      0.6192303
      5033.5000          0.731        -999.25         0.7203       -59.3593      -21.50174      0.5937138
      5034.0000         0.7272        -999.25         0.7199       -60.1741      -22.72563      0.5682161
      5034.5000         0.7235        -999.25         0.7194       -60.7259        -23.553      0.5509792
      5035.0000         0.7197        -999.25         0.7189       -61.2318      -24.31116      0.5351841
      5035.5000         0.7178        -999.25         0.7184       -59.1522      -21.17119      0.6006002
      5036.0000         0.7195        -999.25         0.7179       -55.2998      -15.35839      0.7217003
      5036.5000         0.7211        -999.25          0.717       -52.9225      -11.76957      0.7964673
      5037.0000         0.7228        -999.25         0.7161       -50.5273      -8.153769      0.8717965
      5037.5000         0.7244        -999.25         0.7152       -49.5933      -6.741008       0.901229
      5038.0000         0.7254        -999.25         0.7143       -48.8703      -5.646369       0.924034
      5038.5000         0.7257        -999.25         0.7134       -48.1467      -4.550833      0.9468576
      5039.0000         0.7261        -999.25         0.7125       -48.0266      -4.365179      0.9507254
      5039.5000         0.7265        -999.25         0.7116        -48.041      -4.382311      0.9503685
      5040.0000         0.7304        -999.25         0.7107       -48.0038      -4.321652      0.9516323
      5040.5000         0.7353        -999.25         0.7098       -47.7866      -3.989601        0.95855
      5041.0000         0.7331        -999.25         0.7089       -47.5695      -3.657706      0.9654645
      5041.5000         0.7334        -999.25         0.7079       -47.3522      -3.325511      0.9723852
      5042.0000         0.7388        -999.25          0.707       -47.1248      -2.978087      0.9796232
      5042.5000         0.7466        -999.25         0.7061       -46.8856      -2.612868      0.9872319
      5043.0000         0.7544        -999.25         0.7052       -46.6461        -2.2472        0.99485
      5043.5000         0.7622        -999.25         0.7043       -46.4066      -1.881533              1
      5044.0000         0.7701        -999.25         0.7071        -46.191      -1.551903              1
      5044.5000         0.7779        -999.25          0.711       -46.0652      -1.357656              1
      5045.0000         0.7834        -999.25         0.7148       -46.2772      -1.672705              1
      5045.5000         0.7857        -999.25         0.7186       -46.4891      -1.987617              1
      5046.0000         0.7881        -999.25         0.7224       -46.6192       -2.17919      0.9962669
      5046.5000         0.7838        -999.25         0.7262       -46.7361      -2.350857      0.9926904
      5047.0000         0.7755        -999.25         0.7301       -46.8533      -2.522985      0.9891044
      5047.5000         0.7673        -999.25         0.7339       -46.9702      -2.694658      0.9855279
      5048.0000         0.7619        -999.25         0.7377       -47.0588      -2.823662      0.9828404
      5048.5000         0.7571        -999.25         0.7415       -47.1429      -2.945885       0.980294
      5049.0000         0.7522        -999.25         0.7453       -47.2272      -3.068407      0.9777415
      5049.5000         0.7473        -999.25         0.7492       -47.4505      -3.400504      0.9708228
      5050.0000         0.7424        -999.25          0.753       -47.6951      -3.764704      0.9632353
      5050.5000           0.74        -999.25         0.7568       -47.9396      -4.128762      0.9556508
      5051.0000         0.7437        -999.25         0.7606       -48.1839      -4.492514      0.9480726
      5051.5000         0.7475        -999.25         0.7575       -48.4816       -4.93678      0.9388171
      5052.0000         0.7512        -999.25          0.751       -48.8395      -5.471803      0.9276708
      5052.5000         0.7549        -999.25         0.7445        -48.243      -4.567892      0.9465023
      5053.0000         0.7555        -999.25         0.7379       -47.6867      -3.724583      0.9640712
      5053.5000         0.7487        -999.25         0.7314        -47.342      -3.200303      0.9749937
      5054.0000         0.7403        -999.25         0.7249       -47.0515      -2.757746      0.9842137
      5054.5000         0.7303        -999.25         0.7183       -47.3064      -3.137481      0.9763025
      5055.0000         0.7202        -999.25         0.7118        -47.561      -3.516768      0.9684007
      5055.5000         0.7102        -999.25         0.7053        -47.816      -3.896653      0.9604864
      5056.0000          0.702        -999.25         0.6987       -47.8812      -3.990372      0.9585339
      5056.5000         0.6938        -999.25         0.6926        -47.476      -3.374887      0.9713565
      5057.0000         0.6856        -999.25         0.6874       -47.0708       -2.75939      0.9841794
      5057.5000         0.6775        -999.25         0.6821       -46.8701      -2.452214      0.9905789
      5058.0000         0.6693        -999.25         0.6769       -46.6907      -2.177166       0.996309
      5058.5000          0.663        -999.25         0.6717       -46.5115       -1.90241              1
      5059.0000         0.6572        -999.25         0.6664       -46.3321       -1.62735              1
      5059.5000         0.6515        -999.25         0.6612       -46.3915      -1.712332              1
      5060.0000         0.6457        -999.25         0.6559       -46.3856      -1.698863              1
      5060.5000           0.64        -999.25         0.6507       -45.7493     -0.7349414              1
      5061.0000          0.638        -999.25         0.6455        -45.113      0.2289801              1
      5061.5000         0.6369        -999.25         0.6402       -44.4767       1.192901              1
      5062.0000         0.6358        -999.25          0.635       -43.8404       2.156817              1
      5062.5000         0.6346        -999.25         0.6298       -43.3281       2.933789              1
      5063.0000         0.6335        -999.25         0.6245       -42.9114       3.566621              1
      5063.5000         0.6324        -999.25         0.6193       -42.4951       4.198848              1
      5064.0000         0.6313        -999.25         0.6172       -42.1782       4.681211              1
      5064.5000         0.6307        -999.25         0.6199        -42.019       4.925812              1
      5065.0000         0.6302        -999.25         0.6226       -42.3568       4.421088              1
      5065.5000         0.6298        -999.25         0.6252       -43.0334       3.405559              1
