#------------------------------------------------------------------------------
# Created by    : vladimir.rabinovich
# Created on    : 09/19/2023 17:21:32
#------------------------------------------------------------------------------
~Version Information Section
VERS.           2.0     :   CWLS log ASCII Standard - VERSION 2.0
WRAP.           NO      :   One line per depth step
~Well Information Section
#MNEM       .UNIT                                         VALUE :DESCRIPTION
#------------------------------------------------------------------------------
STRT        .FT                                            4185 :START DEPTH
STOP        .FT                                            8075 :STOP DEPTH
STEP        .FT                                             0.5 :STEP      
NULL        .                                           -999.25 :NULL      
COMP        .                                         HESS CORP :COMPANY   
WELL        .                               OCS G07236 ST00BP00 :WELL      
FLD         .                              GALVESTON BLOCK 0210 :FIELD     
LOC         .                                                   :LOCATION  
CNTY        .                             GALVESTON LARGE BLOCK :LOCATION  
STAT        .                                             TEXAS :STATE     
CTRY        .                                     UNITED STATES :COUNTRY   
SRVC        .                                                   :SERVICE COMPANY
DATE        .                             9/13/2023 11:19:34 AM :LOG DATE  
API         .                                    42706402930000 :API NUMBER
UWI         .                                    42706402930000 :UNIQUE WELL ID
XCOORD      .                                   1127714.7472722 :SURFACE X 
YCOORD      .                                  10563055.4663979 :SURFACE Y 
LAT         .                                         29.097041 :LATITUDE  
LON         .                                        -94.605794 :LONGITUDE 
ELEV        .FT                                              89 :ELEVATION VALUE
ELEV_TYPE   .                                                KB :ELEVATION REFERENCE TYPE
~Curve Information Section
#MNEM       .UNIT                                      API CODE :CURVE DESCRIPTION
#------------------------------------------------------------------------------
DEPT        .FT                                                 :DEPTH     
CALI        .IN                                                 :          
DRHO        .G/CC                                               :          
DT          .US/F                                               :          
ILD         .OHMM                                               :          
ILM         .OHMM                                               :          
NPHI        .%                                                  :          
RFOC        .OHMM                                               :          
RHOB        .G/CC                                               :          
SP          .MV                                                 :          
SP_NORM     .MV                                                 :SP Normalized
VSH_SP      .V/V                                                :Volume of Shale from SP
~A        DEPTH           CALI           DRHO             DT            ILD            ILM           NPHI           RFOC           RHOB             SP        SP_NORM         VSH_SP
# ...
      7290.0000        11.7589         0.0011         115.95         0.2611         0.2664        37.3664         0.6853         2.0896      -120.3986      -73.89693     0.01470764
      7290.5000        11.7763         0.0013       108.5979         0.2669         0.2654          35.97         0.7251         2.0757      -122.9949      -76.49944              0
      7291.0000        11.7664         0.0013        95.8744         0.2662         0.2647        32.6554         0.8148         2.0712      -124.5459      -78.05666              0
      7291.5000        11.7586         0.0011        89.8938         0.2644         0.2657        31.4476         0.9301         2.0714      -125.7554      -79.27237              0
      7292.0000        11.7523         0.0009        90.5393         0.2667         0.2679        31.2469         1.0423         2.0773      -126.6503      -80.17348              0
      7292.5000        11.7428          0.001        94.9204         0.2731         0.2709        31.6008         0.9082         2.0915      -124.6974       -78.2268              0
      7293.0000         11.738         0.0021        97.2458         0.2848         0.2778        32.5823         0.7018         2.1122      -119.1917      -72.72731     0.03030253
      7293.5000        11.7552         0.0035       100.5096         0.3021         0.2877        34.1953         0.6413         2.1445      -107.5022      -61.04402      0.1860797
      7294.0000        11.7876         0.0041       103.5972         0.3275         0.3031        36.4164         0.6173         2.1941       -79.8092      -33.35723      0.5552369
      7294.5000        11.8226         0.0041        106.944         0.3595          0.335        39.0576         0.6425         2.2292       -67.9761      -21.53035      0.7129287
      7295.0000        11.8536         0.0031       110.3296          0.411         0.3789        40.5601         0.6755         2.2568       -60.5187      -14.07916      0.8122779
      7295.5000        11.8683         0.0026       113.8086         0.4765         0.4444        41.8021         0.6833         2.2659       -55.2235      -8.790176      0.8827977
      7296.0000        11.8645         0.0032       116.1573         0.5421         0.4964        41.4078         0.6802         2.2721       -52.0084      -5.581291      0.9255828
      7296.5000        11.8547         0.0039       117.6091         0.5887         0.5246        40.4201         0.7271         2.2775       -49.6253      -3.204407      0.9572746
      7297.0000        11.7985         0.0048       117.9385         0.6115         0.5388        39.4682         0.7611         2.2891       -49.4199      -3.005219      0.9599304
      7297.5000        11.6929         0.0056       117.5948         0.6083         0.5247        38.0932         0.7679         2.3079       -51.6386      -5.230133      0.9302649
      7298.0000        11.6301         0.0064       114.8612         0.5816         0.4819        33.1967         0.7808         2.3384       -55.5111      -9.108849      0.8785487
      7298.5000        11.5936         0.0055       104.8752         0.4691          0.432        26.9189         0.8411          2.362       -65.4081      -19.01206      0.7465059
      7299.0000        11.5766         0.0024         92.411         0.4094         0.3826        25.3231         0.9569         2.3664       -75.3307      -28.94088      0.6141216
      7299.5000        11.5869         0.0016        83.6383         0.3404         0.3349         24.825         1.0964         2.3259       -92.8854      -46.50179      0.3799762
      7300.0000        11.6227         0.0015        76.7322         0.3103         0.2962        26.7074         0.8589         2.1892      -106.9733       -60.5959      0.1920546
      7300.5000        11.6967         0.0016        78.6816         0.2796         0.2729        35.1192         0.7283         2.1401      -121.9291      -75.55792              0
      7301.0000        11.7286         0.0017        88.2839         0.2537          0.261        37.4554         0.6304         2.1185      -122.7662      -76.40123              0
      7301.5000        11.7212         0.0017        97.3469         0.2357         0.2567        37.8871         0.6339         2.1158      -119.7284      -73.36964     0.02173808
      7302.0000        11.7152         0.0016       106.5448         0.2239           0.26        37.1164         0.7481         2.1137      -117.2118      -70.85926     0.05520986
      7302.5000        11.7099         0.0014       112.6213         0.2205         0.2634        36.0463         0.8252         2.1105      -117.2772      -70.93088     0.05425496
      7303.0000         11.709         0.0012       115.4315         0.2231         0.2651         35.728         0.8698         2.1052      -119.3792      -73.03909     0.02614543
      7303.5000        11.7081          0.001       116.8223         0.2298         0.2655        35.5997         0.8992         2.1007      -122.3553      -76.02141              0
      7304.0000        11.7073         0.0009       117.7698         0.2379         0.2655        35.5733         0.9119         2.0989      -124.8951      -78.56742              0
      7304.5000        11.6992         0.0008       118.2397         0.2474         0.2664        35.6156         0.8871         2.0985      -126.4791      -80.15763              0
      7305.0000        11.6897          0.001       118.5155         0.2567         0.2694        35.6827         0.8375         2.1012      -126.1226      -79.80734              0
      7305.5000        11.6962         0.0014       118.5192         0.2654         0.2744        35.7851         0.8064         2.1065      -124.4354      -78.12636              0
      7306.0000        11.7307          0.002       118.2494          0.271         0.2804         35.942         0.8038         2.1132      -122.7625      -76.45967              0
      7306.5000        11.7827          0.003        117.843           0.27         0.2863        35.9529         0.7861         2.1224      -121.8688      -75.57218              0
      7307.0000        11.8295         0.0045       117.1425         0.2713         0.2922        33.3522         0.7016         2.1418       -119.017      -72.72659     0.03031209
      7307.5000        11.8769         0.0075       116.0575         0.2735         0.2958        26.9376         0.6425         2.2104      -112.5355      -66.25131      0.1166492
      7308.0000        11.9162         0.0105       114.2338         0.2761         0.2984        21.6833         0.5778         2.3046      -101.8835      -55.60553       0.258593
      7308.5000        11.9313         0.0113       101.0385         0.2821         0.2993        19.9312         0.5844         2.4277       -93.9022      -47.63044      0.3649275
      7309.0000        11.9144           0.01         92.131         0.2896         0.2998         19.715         0.7307         2.4827       -93.6353      -47.36975      0.3684033
      7309.5000        11.8991         0.0057        90.3494         0.2965         0.2999        24.0383         1.0196         2.4793      -100.5585      -54.29917       0.276011
      7310.0000        11.8982         0.0028        90.4557         0.2998         0.3001        27.6375         1.1432         2.3994      -112.8436      -66.59048      0.1121269
      7310.5000        11.8974          0.002        91.1848         0.3005         0.2995        30.0267         1.0497         2.1894       -119.469       -73.2221     0.02370534
      7311.0000        11.8944         0.0024        91.5146         0.2987         0.2969        31.6817         0.9899         2.1214      -121.7234      -75.48271              0
      7311.5000        11.8915          0.003        90.3448         0.2955         0.2915        32.6772         0.9827         2.1045      -121.4451      -75.21062              0
      7312.0000        11.8907         0.0032         90.236         0.2888         0.2839        33.8266         0.9765         2.1071       -120.823      -74.59474    0.005403442
