#------------------------------------------------------------------------------
# Created by    : vladimir.rabinovich
# Created on    : 09/19/2023 17:20:01
#------------------------------------------------------------------------------
~Version Information Section
VERS.           2.0     :   CWLS log ASCII Standard - VERSION 2.0
WRAP.           NO      :   One line per depth step
~Well Information Section
#MNEM       .UNIT                                         VALUE :DESCRIPTION
#------------------------------------------------------------------------------
STRT        .FT                                            3530 :START DEPTH
STOP        .FT                                           11780 :STOP DEPTH
STEP        .FT                                             0.5 :STEP      
NULL        .                                           -999.25 :NULL      
COMP        .                                        TEXACO INC :COMPANY   
WELL        .                                     ST TR 00820-L :WELL      
FLD         .                                           WILDCAT :FIELD     
LOC         .                                                   :LOCATION  
CNTY        .                        MUSTANG ISLAND LARGE BLOCK :LOCATION  
STAT        .                                             TEXAS :STATE     
CTRY        .                                     UNITED STATES :COUNTRY   
SRVC        .                                                   :SERVICE COMPANY
DATE        .                             9/13/2023 11:18:55 AM :LOG DATE  
API         .                                    42702302010000 :API NUMBER
UWI         .                                    42702302010000 :UNIQUE WELL ID
XCOORD      .                                  295719.314319733 :SURFACE X 
YCOORD      .                                  9994218.17259751 :SURFACE Y 
LAT         .                                        27.4796405 :LATITUDE  
LON         .                                       -97.1466422 :LONGITUDE 
ELEV        .FT                                              78 :ELEVATION VALUE
ELEV_TYPE   .                                                KB :ELEVATION REFERENCE TYPE
~Curve Information Section
#MNEM       .UNIT                                      API CODE :CURVE DESCRIPTION
#------------------------------------------------------------------------------
DEPT        .FT                                                 :DEPTH     
ASFL        .OHMM                                               :          
CILD        .MMHO                                               :          
GR          .GAPI                                               :          
GR_NORM     .GAPI                                               :GammaRay Normalized
ILD         .OHMM                                               :          
SP          .MV                                                 :          
SP_NORM     .MV                                                 :SP Normalized
VSH_GR      .V/V                                                :Volume of Shale from GR
VSH_SP      .V/V                                                :Volume of Shale from SP
~A        DEPTH           ASFL           CILD             GR        GR_NORM            ILD             SP        SP_NORM         VSH_GR         VSH_SP
# ...
     10658.5000         0.9652       1555.668        41.8319       51.93119         0.6872       -63.0379      -24.44141      0.4027914      0.3105468
     10659.0000         0.9661       1572.477        43.8759       54.89177         0.6682       -62.7392      -24.14271      0.4657823       0.319332
     10659.5000          0.973       1565.279        45.3546        57.0329          0.658        -60.562      -21.96551      0.5113384      0.3833673
     10660.0000           0.98        1549.57        46.7493       59.05229         0.6566       -57.9255      -19.32901       0.554304      0.4609115
     10660.5000         0.9869       1533.836        42.8095       53.33905         0.6552       -56.1703      -17.57381      0.4327457       0.512535
     10661.0000         0.9939       1473.262        39.1856       48.08372         0.6647        -55.262      -16.66551      0.3209302      0.5392497
     10661.5000         1.0148       1411.201        37.7087       45.94057         0.6787       -55.7557      -17.15921      0.2753314      0.5247291
     10662.0000         1.0385       1341.969        37.6315       45.82637         0.6926       -56.2494      -17.65291      0.2729015      0.5102085
     10662.5000         1.0535       1364.705        37.7736       46.03004         0.7044       -56.7431      -18.14661       0.277235      0.4956879
     10663.0000         1.0561       1387.393        39.2523       48.17118          0.712        -57.238      -18.64151      0.3227912      0.4811321
     10663.5000         1.0359       1411.787        40.7334       50.31581         0.7196       -57.7318      -19.13531      0.3684215      0.4666085
     10664.0000         0.9896       1466.334        43.6093       54.48226         0.7067       -54.8546      -16.25811      0.4570694       0.551232
     10664.5000         0.8947       1520.783        46.5913       58.80251         0.6869       -52.2479      -13.65141      0.5489895      0.6278997
     10665.0000         0.8568        1575.33        50.3287       64.21775         0.6671       -50.8827      -12.28621      0.6642075      0.6680526
     10665.5000         0.8189       1645.979        52.9293       67.98514         0.6479       -49.4559      -10.85941      0.7443646      0.7100174
     10666.0000         0.7646       1724.434        51.0643       65.27944         0.6287        -48.034      -9.437511      0.6867966      0.7518379
     10666.5000         0.7147       1770.344        47.8651       60.63973         0.6095       -50.0508      -11.45431      0.5880793      0.6925203
     10667.0000         0.7023       1800.838         46.853       59.17034         0.5902       -52.2972      -13.70071      0.5568157      0.6264497
     10667.5000         0.7346       1831.332        45.8409       57.70094          0.571       -54.2054      -15.60891       0.525552      0.5703262
     10668.0000         0.7743       1856.605        44.8287        56.2314         0.5518       -55.7482      -17.15171      0.4942852      0.5249497
     10668.5000         0.8143       1879.635        43.8142       54.75854         0.5472       -57.3331      -18.73661      0.4629476       0.478335
     10669.0000         0.8543       1891.369        43.1317        53.7669          0.552       -59.2635      -20.66701       0.441849      0.4215585
     10669.5000         0.8702       1878.951        42.4811       52.82153         0.5568       -60.2398      -21.64331      0.4217346      0.3928438
     10670.0000         0.8668       1866.533        42.4639        52.7943         0.5616       -60.6644      -22.06791      0.4211552      0.3803556
     10670.5000         0.8574       1854.141        43.5451       54.35924         0.5664        -60.915      -22.31851      0.4544519      0.3729849
     10671.0000         0.8481       1841.725        47.4306       59.98915         0.5712       -59.0931      -20.49661      0.5742372      0.4265702
     10671.5000         0.8397       1829.307         49.519       63.01409          0.576       -52.1442      -13.54771      0.6385976      0.6309497
     10672.0000         0.8325       1810.012         50.973       65.11942         0.5808       -50.7136      -12.11711      0.6833918      0.6730261
     10672.5000         0.8307         1762.1        52.2789       67.01009         0.5897       -51.4048      -12.80831      0.7236189      0.6526967
     10673.0000         0.8289       1714.188        51.1779       65.41183         0.6035       -52.0577      -13.46121      0.6896135      0.6334938
     10673.5000          0.834       1666.275        50.0769       63.81358         0.6173       -52.7107      -14.11421      0.6556082      0.6142879
     10674.0000         0.8439       1614.363        48.9488       62.17603          0.631       -52.7909      -14.19441      0.6207666      0.6119291
     10674.5000          0.857       1560.303        49.3463       62.74991         0.6448       -51.8751      -13.27861      0.6329768      0.6388644
     10675.0000         0.8721       1519.467        52.5702       67.42081         0.6586       -50.8062      -12.20971      0.7323577      0.6703027
     10675.5000         0.8953       1492.486        55.5226       71.69817         0.6723       -49.4485      -10.85201      0.8233652      0.7102349
     10676.0000         0.8937       1467.762        58.2479       75.64632          0.679       -49.1918      -10.59531      0.9073684       0.717785
     10676.5000         0.8803       1462.895        55.1473       71.14954         0.6847       -51.3986      -12.80211      0.8116922      0.6528791
     10677.0000         0.8668        1478.02        51.8987       66.43822         0.6905        -54.198      -15.60151      0.7114516      0.5705438
     10677.5000         0.8481       1493.145        48.6205         61.684         0.6962       -57.0714      -18.47491      0.6102979       0.486032
     10678.0000         0.8266       1514.539        45.4805       57.13012         0.7008       -59.9152      -21.31871      0.5134069      0.4023909
     10678.5000          0.805        1536.25        42.4787       52.77655         0.6968       -62.1344      -23.53791      0.4207777      0.3371203
     10679.0000         0.7867        1558.01        40.2668         49.568         0.6928       -63.1391      -24.54261      0.3525106      0.3075703
     10679.5000         0.8031       1579.723        39.1042       47.88045         0.6875       -64.1438      -25.54731      0.3166053      0.2780203
     10680.0000         0.8643       1600.164        37.9415       46.19276         0.6734       -64.9819      -26.38541       0.280697      0.2533702
     10680.5000         1.0406        1615.07         36.174       43.62837         0.6593       -65.1805      -26.58401      0.2261355      0.2475292
     10681.0000         1.0781       1629.977        40.0101       49.18668         0.6452       -63.7563      -25.15981      0.3443974      0.2894173
     10681.5000         1.0451       1644.881        42.2615       52.44788         0.6311       -62.3319      -23.73541      0.4137848      0.3313114
     10682.0000         0.9416       1675.643        44.5128       55.70895          0.617       -61.6049      -23.00841      0.4831692      0.3526938
     10682.5000         0.8677       1709.797        46.3272       58.33671          0.603        -61.189      -22.59251       0.539079      0.3649262
     10683.0000         0.8071       1761.123        47.7021       60.32738         0.5889       -60.8884      -22.29191      0.5814337      0.3737673
     10683.5000         0.7512       1834.113        47.0196       59.33577          0.575       -60.6909      -22.09441      0.5603355      0.3795762
     10684.0000         0.7282       1907.104        46.1001        58.0006         0.5612       -60.3033      -21.70681      0.5319277      0.3909762
     10684.5000         0.7051       2013.465        45.1818       56.66717         0.5474       -62.4035      -23.80701      0.5035568      0.3292056
