#------------------------------------------------------------------------------
# Created by    : vladimir.rabinovich
# Created on    : 09/19/2023 17:22:33
#------------------------------------------------------------------------------
~Version Information Section
VERS.           2.0     :   CWLS log ASCII Standard - VERSION 2.0
WRAP.           NO      :   One line per depth step
~Well Information Section
#MNEM       .UNIT                                         VALUE :DESCRIPTION
#------------------------------------------------------------------------------
STRT        .FT                                            2877 :START DEPTH
STOP        .FT                                            8775 :STOP DEPTH
STEP        .FT                                             0.5 :STEP      
NULL        .                                           -999.25 :NULL      
COMP        .                                       APACHE CORP :COMPANY   
WELL        .                                  HIGH ISLAND 10-L :WELL      
FLD         .                                           WILDCAT :FIELD     
LOC         .                                                   :LOCATION  
CNTY        .                           HIGH ISLAND LARGE BLOCK :LOCATION  
STAT        .                                             TEXAS :STATE     
CTRY        .                                     UNITED STATES :COUNTRY   
SRVC        .                                                   :SERVICE COMPANY
DATE        .                             9/13/2023 11:19:15 AM :LOG DATE  
API         .                                    42708303590000 :API NUMBER
UWI         .                                    42708303590000 :UNIQUE WELL ID
XCOORD      .                                  1323081.96300683 :SURFACE X 
YCOORD      .                                  10736101.4448574 :SURFACE Y 
LAT         .                                        29.5789626 :LATITUDE  
LON         .                                       -93.9986282 :LONGITUDE 
ELEV        .FT                                             100 :ELEVATION VALUE
ELEV_TYPE   .                                                KB :ELEVATION REFERENCE TYPE
~Curve Information Section
#MNEM       .UNIT                                      API CODE :CURVE DESCRIPTION
#------------------------------------------------------------------------------
DEPT        .FT                                                 :DEPTH     
CNCSS       .%                                                  :          
DCAL        .IN                                                 :          
GRR         .GAPI                                               :          
ILD         .OHMM                                               :          
ILM         .OHMM                                               :          
PORZSS      .%                                                  :          
RFOC        .OHMM                                               :          
SP          .MV                                                 :          
SP_NORM     .MV                                                 :SP Normalized
TENR        .LB                                                 :          
VSH_SP      .V/V                                                :Volume of Shale from SP
ZCOR        .G/CM3                                              :          
~A        DEPTH          CNCSS           DCAL            GRR            ILD            ILM         PORZSS           RFOC             SP        SP_NORM           TENR         VSH_SP           ZCOR
# ...
      4537.5000        35.7624           -0.4        65.3465         0.6838         0.7296         19.572         1.0277          -23.4      -18.05025       1192.707      0.7801336         0.0275
      4538.0000          36.06           -0.4        69.0594          0.687         0.7398         20.348         1.0372          -24.6      -19.25175       1182.203      0.7636747         0.0294
      4538.5000        34.5743          -0.41        69.2079         0.6935         0.7535        20.5261         1.1259          -25.8      -20.45325       1191.748      0.7472158         0.0294
      4539.0000        33.3861          -0.41        66.5347         0.6967          0.764        19.0859         1.3267          -24.8      -19.45475       1201.242      0.7608939         0.0294
      4539.5000        32.6139          -0.41        64.0099         0.6935         0.7746         17.053         1.4802            -21      -15.65625       1210.737      0.8129281         0.0275
      4540.0000         34.396          -0.41        64.1584            0.7         0.7818        16.1592         1.2676       -16.4356      -11.09334       1220.231      0.8754336         0.0216
      4540.5000        37.3797        -0.4097        67.1306         0.7263         0.7927        17.7029         1.0419       -11.8788      -6.538044           1220       0.937835         0.0275
      4541.0000        39.4174        -0.4092        70.1067          0.757            0.8        20.2183            0.9       -10.2895      -4.950243           1210      0.9595857          0.051
      4541.5000        39.6553        -0.4187         72.491         0.7927         0.8333        20.4568         1.0231        -10.483      -5.145242           1220      0.9569145         0.0608
      4542.0000        38.3359        -0.4182          58.95         0.8295         0.9041        17.2859         1.4278       -11.4702      -6.133941           1220      0.9433706         0.0588
      4542.5000         37.736        -0.4177          50.85         0.9293         0.9774        12.9986          1.948        -11.863      -6.528241           1220      0.9379693         0.0333
      4543.0000        37.3762        -0.4172        43.2178         1.0138         1.0467        11.3251         1.6605       -10.8662       -5.53294           1220      0.9516035         0.0137
      4543.5000        36.1196        -0.4267         40.099         1.0857         1.0907        11.4421         1.3276        -9.4706      -4.138839           1220      0.9707009         0.0118
      4544.0000        33.4956        -0.4162        39.9505          1.116         1.1262        11.5591         1.2683        -9.6643      -4.334038           1220      0.9680269         0.0275
      4544.5000        31.2273        -0.4157         39.505         1.1263         1.1263        10.2418         1.6997       -11.0512      -5.722438           1210      0.9490077         0.0392
      4545.0000        30.0908        -0.4152        39.0594         1.0661         1.1367         9.2246          2.291       -11.6437      -6.316437           1210      0.9408707         0.0314
      4545.5000        30.3866        -0.4147        41.2871         1.0046          1.042        10.5958         1.9239       -11.0424      -5.716637           1200      0.9490871         0.0118
      4546.0000        34.2076        -0.4142        44.8515         0.9336         0.9552        14.3554          1.384        -8.8469      -3.522635           1220       0.979142         0.0098
      4546.5000        37.7292        -0.4137             54         0.8838         0.9083        17.5218         1.0517        -8.0445      -2.721735           1230      0.9901132         0.0294
      4547.0000        39.2183        -0.4332        61.3457         0.8838            0.9        20.6222         0.9422         -8.238      -2.916734           1230       0.987442         0.0392
      4547.5000        37.9657        -0.4227        63.8894         0.8798         0.9166        20.9188         1.0517        -9.2294      -3.909633           1230      0.9738407          0.049
      4548.0000        33.4257        -0.4222         63.592         0.9209         0.9465        18.6549         1.2012       -10.0223      -4.704032           1220      0.9629585         0.0471
      4548.5000         30.789        -0.4017        60.1497         0.9909         0.9909        16.5625         1.3349       -11.2153      -5.898531           1220      0.9465954          0.049
      4549.0000        28.4474        -0.4212          57.15         1.0517         1.0279        13.6253         1.5965       -12.6091      -7.293831           1220      0.9274818         0.0549
      4549.5000        26.8842        -0.4207          54.15         1.0422         1.0518        10.0425         2.1424       -14.0044       -8.69063           1210      0.9083475         0.0549
      4550.0000        27.8413        -0.4302           48.9         1.0185         1.0092         9.2681         2.0653       -13.6016       -8.28933           1200      0.9138448         0.0373
      4550.5000        32.7607        -0.4198        50.8538         0.9955         0.9042        12.4231         1.5186       -11.7966      -6.485829       1200.281      0.9385503         0.0118
      4551.0000        37.7285        -0.4194        58.6613         0.8882         0.8112        16.0864           1.18        -10.192      -4.882728       1220.782      0.9605106         0.0178
      4551.5000        40.3496        -0.4189        67.3596         0.7931         0.7267        18.9567         0.9824        -8.9885      -3.680727       1231.284      0.9769763         0.0376
      4552.0000        41.7236        -0.4185        73.3529         0.7136         0.7038        21.5686         0.9132        -8.7844      -3.478126       1221.786      0.9797517         0.0495
      4552.5000         43.105        -0.4081          79.05         0.6849         0.6849        23.2294         0.8571         -9.179      -3.874225       1192.289      0.9743257         0.0497
      4553.0000        44.2469        -0.4177          82.05         0.6851         0.6851         23.763         0.8458       -10.9693      -5.666025       1172.792      0.9497805         0.0498
      4553.5000        44.7901        -0.4073          84.15         0.6883         0.6883        23.8816         0.9307        -13.755      -8.453224       1253.292      0.9115997           0.05
      4554.0000        44.7349        -0.4169           82.8          0.698         0.6885        23.1122         1.0391       -17.5336      -12.23332       1303.794      0.8598175         0.0462
      4554.5000        44.2616        -0.4363          76.95         0.7046         0.6918        22.2253         1.1286       -17.9231      -12.62432       1364.296      0.8544614         0.0364
      4555.0000        43.8485        -0.4854        74.4029         0.7146         0.6951        22.0488         1.0491       -14.7296      -9.432322       1364.799      0.8981874         0.0445
      4555.5000        45.4652        -0.5245          75.75         0.7247         0.6985        22.6999         0.9887       -11.3402      -6.044421       1345.251      0.9445969         0.0526
      4556.0000        47.6764        -0.5734          77.85         0.7316         0.6986        23.4093         0.9755         -9.545       -4.25072       1315.754      0.9691682         0.0547
      4556.5000        49.8308        -0.6123           79.2         0.7284         0.6988             24         0.9757        -8.9439      -3.651119       1316.256      0.9773819         0.0548
      4557.0000        50.9113        -0.6611          81.75         0.7185          0.683          24.54         0.9714        -8.9395      -3.648219       1336.759      0.9774216          0.055
      4557.5000        51.3946        -0.6801          84.45         0.7088         0.6706          24.96         0.9497        -9.5306      -4.240818       1317.262      0.9693038         0.0532
