#------------------------------------------------------------------------------
# Created by    : vladimir.rabinovich
# Created on    : 09/19/2023 17:20:25
#------------------------------------------------------------------------------
~Version Information Section
VERS.           2.0     :   CWLS log ASCII Standard - VERSION 2.0
WRAP.           NO      :   One line per depth step
~Well Information Section
#MNEM       .UNIT                                         VALUE :DESCRIPTION
#------------------------------------------------------------------------------
STRT        .FT                                            2998 :START DEPTH
STOP        .FT                                           12526 :STOP DEPTH
STEP        .FT                                             0.5 :STEP      
NULL        .                                           -999.25 :NULL      
COMP        .                                 CALIFORNIA CO THE :COMPANY   
WELL        .                               OCS G01117 ST00BP00 :WELL      
FLD         .                                       HIGH ISLAND :FIELD     
LOC         .                                                   :LOCATION  
CNTY        .                           HIGH ISLAND LARGE BLOCK :LOCATION  
STAT        .                                             TEXAS :STATE     
CTRY        .                                     UNITED STATES :COUNTRY   
SRVC        .                                                   :SERVICE COMPANY
DATE        .                             9/13/2023 11:19:15 AM :LOG DATE  
API         .                                    42708000660000 :API NUMBER
UWI         .                                    42708000660000 :UNIQUE WELL ID
XCOORD      .                                  1214371.69372255 :SURFACE X 
YCOORD      .                                  10618355.5582238 :SURFACE Y 
LAT         .                                         29.252113 :LATITUDE  
LON         .                                        -94.336419 :LONGITUDE 
ELEV        .FT                                              77 :ELEVATION VALUE
ELEV_TYPE   .                                                KB :ELEVATION REFERENCE TYPE
~Curve Information Section
#MNEM       .UNIT                                      API CODE :CURVE DESCRIPTION
#------------------------------------------------------------------------------
DEPT        .FT                                                 :DEPTH     
ASN         .OHMM                                               :          
CILD        .OHMM                                               :          
ILD         .OHMM                                               :          
SP          .MV                                                 :          
SP_NORM     .MV                                                 :SP Normalized
VSH_SP      .V/V                                                :Volume of Shale from SP
~A        DEPTH            ASN           CILD            ILD             SP        SP_NORM         VSH_SP
# ...
      8698.0000         1.4687       1306.061         0.6191       -78.0479      -27.88543      0.6366835
      8698.5000         1.4121       1302.557         0.6209        -75.226      -25.05819      0.6748894
      8699.0000         1.3324       1328.256          0.637       -72.7433      -22.57015      0.7085115
      8699.5000         1.2707       1353.953          0.653       -70.3589      -20.18041      0.7408053
      8700.0000         1.2248       1379.699         0.6691       -67.9795      -17.79567      0.7730315
      8700.5000          1.179       1405.154         0.6852        -65.686      -15.49682       0.804097
      8701.0000         1.1184       1414.791         0.6842       -63.6188      -13.42429      0.8321043
      8701.5000         1.0625       1424.414         0.6795        -61.554      -11.35415      0.8600791
      8702.0000         1.0397       1434.051         0.6748       -60.3206       -10.1154      0.8768189
      8702.5000          1.061       1422.895         0.6702       -59.7786      -9.568062      0.8842154
      8703.0000         1.0822       1410.215         0.6655        -59.668      -9.452122      0.8857821
      8703.5000         1.1035       1397.537         0.6608       -59.9233      -9.702084      0.8824043
      8704.0000         1.1248       1375.174          0.657       -60.1786      -9.952042      0.8790265
      8704.5000         1.0674       1351.324          0.659        -58.764      -8.532101      0.8982149
      8705.0000         1.0249       1334.096         0.6609       -57.3456       -7.10836      0.9174546
      8705.5000         0.9824       1362.373         0.6629       -55.9274      -5.684818      0.9366916
      8706.0000         0.9655        1390.65         0.6642       -54.6172      -4.369278      0.9544692
      8706.5000         0.9548        1433.48         0.6616       -53.3217      -3.068439      0.9720481
      8707.0000          0.944       1477.574          0.659       -52.0263      -1.767696      0.9896258
      8707.5000         0.9333        1462.73         0.6565       -50.7309     -0.4669571              1
      8708.0000         0.9226       1452.121         0.6539       -50.4463     -0.1770172              1
      8708.5000         0.9194       1446.316         0.6514       -50.4044      -0.129776              1
      8709.0000         0.9163        1440.52         0.6496       -50.3623    -0.08233643              1
      8709.5000         0.9132       1434.721          0.668       -50.2982    -0.01289368              1
      8710.0000         0.9101       1422.164         0.6864       -50.2223     0.06834412              1
      8710.5000          0.911       1403.451         0.7048       -50.1462      0.1497879              1
      8711.0000         0.9161       1384.713         0.7232       -50.0703      0.2310257              1
      8711.5000         0.9211       1361.107         0.7416         -50.01       0.296669              1
      8712.0000         0.9262       1317.742           0.76       -49.9514      0.3606071              1
      8712.5000         0.9351       1274.377         0.7784       -49.8929      0.4244499              1
      8713.0000         0.9482       1232.643         0.7969       -49.8343      0.4883881              1
      8713.5000         0.9613       1210.838         0.8153       -49.8373      0.4907303              1
      8714.0000         0.9745       1189.035         0.8337       -50.1618      0.1715698              1
      8714.5000         1.0161        1167.23         0.8295       -50.4863     -0.1475906              1
      8715.0000         1.0655       1185.311         0.8212       -50.8108     -0.4667473              1
      8715.5000         1.0385       1217.652         0.8128       -51.1359     -0.7865067              1
      8716.0000         1.0075       1238.848         0.8047       -51.4603      -1.105568      0.9985734
      8716.5000         0.9765       1260.068         0.7984       -51.7289      -1.368828      0.9950159
      8717.0000         0.9506       1281.264         0.7921       -51.9734      -1.607986       0.991784
      8717.5000         0.9272       1302.484         0.7859        -52.218      -1.847244      0.9885508
      8718.0000         0.9088       1301.656         0.7828       -52.3882      -2.012104      0.9863229
      8718.5000         0.9568       1286.545         0.7854       -52.4324      -2.050964      0.9857978
      8719.0000         1.0042       1268.684          0.788       -52.4766      -2.089825      0.9852726
      8719.5000         1.0254       1248.607         0.7897       -52.5208      -2.128685      0.9847475
      8720.0000         1.0466       1228.506         0.7897       -52.5861      -2.188644      0.9839373
      8720.5000         1.0616       1208.404         0.7897       -53.1349      -2.732101      0.9765932
      8721.0000          1.061       1188.305         0.7885       -53.6843      -3.276161      0.9692411
      8721.5000         1.0604       1411.383         0.7866       -55.5045      -5.091022      0.9447159
      8722.0000         1.0599       1479.326         0.7847       -57.8348      -7.415981      0.9132975
      8722.5000         1.0593        1547.27         0.7828       -60.7428      -10.31864      0.8740724
      8723.0000         1.0587       1616.576         0.7662       -67.2617       -16.8322      0.7860513
      8723.5000         1.0876       1689.289         0.7327       -78.0774      -27.64256      0.6399654
      8724.0000          1.126       1760.057         0.6968       -84.9994      -34.55922      0.5464971
      8724.5000         1.1644       1828.777          0.646       -90.3876      -39.94208      0.4737557
      8725.0000         1.2316       1897.695         0.5952       -96.3756      -45.92474      0.3929089
      8725.5000         1.3139       1954.346         0.5445      -100.5348      -50.07859      0.3367757
      8726.0000         1.4906       1984.182         0.5025      -103.7549      -53.29335      0.2933331
      8726.5000         1.5426       1997.711         0.4825       -106.208      -55.74112      0.2602552
      8727.0000         1.3491       1993.648         0.4625      -108.6564      -58.18418      0.2272408
      8727.5000         1.1741       1989.584         0.4475      -105.1904      -54.71283      0.2741509
      8728.0000         1.0598        1985.52         0.4598       -98.3224       -47.8395      0.3670338
      8728.5000         0.9171       1972.891         0.4721       -91.0071      -40.51886      0.4659614
      8729.0000         0.8533         1939.6         0.4844       -83.2296      -32.73601       0.571135
      8729.5000         0.8293       1906.309         0.5222       -74.6066      -24.10767      0.6877342
      8730.0000         0.8608       1746.137         0.5608       -68.4219      -17.91763      0.7713834
      8730.5000         0.8923       1487.113         0.5995       -63.8105      -13.30089      0.8337717
      8731.0000         0.9783       1564.598          0.591       -60.8558      -10.34085      0.8737723
      8731.5000         1.0655       1641.496         0.5654       -64.9019      -14.38161      0.8191674
      8732.0000         1.1525       1709.439         0.5398        -69.415      -18.88937      0.7582518
      8732.5000         1.2592       1763.658         0.5142       -74.2133      -23.68233       0.693482
      8733.0000         1.3692       1817.779         0.4886       -79.0016      -28.46529      0.6288474
      8733.5000         1.4474       1871.996          0.463       -97.6243      -47.08265      0.3772615
      8734.0000         1.5205       1926.117         0.4374      -104.0745      -53.52751      0.2901688
      8734.5000         1.5999       1977.367         0.4283      -107.3535      -56.80117      0.2459302
      8735.0000         1.6894       2003.859         0.4258      -110.5171      -59.95942       0.203251
      8735.5000         1.7466       2001.086         0.4233      -112.2034      -61.64038      0.1805353
