#------------------------------------------------------------------------------
# Created by    : vladimir.rabinovich
# Created on    : 09/19/2023 17:22:33
#------------------------------------------------------------------------------
~Version Information Section
VERS.           2.0     :   CWLS log ASCII Standard - VERSION 2.0
WRAP.           NO      :   One line per depth step
~Well Information Section
#MNEM       .UNIT                                         VALUE :DESCRIPTION
#------------------------------------------------------------------------------
STRT        .FT                                            2877 :START DEPTH
STOP        .FT                                            8775 :STOP DEPTH
STEP        .FT                                             0.5 :STEP      
NULL        .                                           -999.25 :NULL      
COMP        .                                       APACHE CORP :COMPANY   
WELL        .                                  HIGH ISLAND 10-L :WELL      
FLD         .                                           WILDCAT :FIELD     
LOC         .                                                   :LOCATION  
CNTY        .                           HIGH ISLAND LARGE BLOCK :LOCATION  
STAT        .                                             TEXAS :STATE     
CTRY        .                                     UNITED STATES :COUNTRY   
SRVC        .                                                   :SERVICE COMPANY
DATE        .                             9/13/2023 11:19:15 AM :LOG DATE  
API         .                                    42708303590000 :API NUMBER
UWI         .                                    42708303590000 :UNIQUE WELL ID
XCOORD      .                                  1323081.96300683 :SURFACE X 
YCOORD      .                                  10736101.4448574 :SURFACE Y 
LAT         .                                        29.5789626 :LATITUDE  
LON         .                                       -93.9986282 :LONGITUDE 
ELEV        .FT                                             100 :ELEVATION VALUE
ELEV_TYPE   .                                                KB :ELEVATION REFERENCE TYPE
~Curve Information Section
#MNEM       .UNIT                                      API CODE :CURVE DESCRIPTION
#------------------------------------------------------------------------------
DEPT        .FT                                                 :DEPTH     
CNCSS       .%                                                  :          
DCAL        .IN                                                 :          
GRR         .GAPI                                               :          
ILD         .OHMM                                               :          
ILM         .OHMM                                               :          
PORZSS      .%                                                  :          
RFOC        .OHMM                                               :          
SP          .MV                                                 :          
SP_NORM     .MV                                                 :SP Normalized
TENR        .LB                                                 :          
VSH_SP      .V/V                                                :Volume of Shale from SP
ZCOR        .G/CM3                                              :          
~A        DEPTH          CNCSS           DCAL            GRR            ILD            ILM         PORZSS           RFOC             SP        SP_NORM           TENR         VSH_SP           ZCOR
# ...
      6833.5000           38.7         2.4455        70.9901         0.4887         0.5069         22.212          0.757          0.596       8.601384       1336.741              1         0.0667
      6834.0000        42.4158         2.4356        71.1386         0.5046         0.5233        22.3304         0.7535        -1.7932       6.213535       1326.236              1         0.0708
      6834.5000        46.6337         2.4356         74.703         0.5046         0.5233        22.3295         0.7466        -4.9788       3.029285       1285.733              1         0.0709
      6835.0000        43.8416         2.4455           81.9         0.4977         0.5162        22.5675          0.757        -8.9573     -0.9478655       1275.229              1          0.045
      6835.5000           41.7         2.4851           83.7          0.491         0.5115        22.9251         0.7675       -11.1412      -3.130415       1284.723      0.9863805         0.0331
      6836.0000          40.68         2.4455          81.45         0.4691         0.4887        23.1038         0.7605       -11.7321      -3.719964       1294.218      0.9792776         0.0392
      6836.5000          40.56         2.4455          77.55         0.4462          0.467        23.2229         0.7398       -12.9187      -4.905214       1303.712      0.9649974         0.0533
      6837.0000          40.32         2.4356           75.6         0.4244         0.4462        23.4019         0.7196       -16.6872      -8.672365       1313.206      0.9196101         0.0634
      6837.5000          38.82         2.4257          77.85         0.4074         0.4342        23.8205         0.7097       -25.8386      -17.82241       1322.701      0.8093685         0.0735
      6838.0000          37.62         2.4257          79.35         0.3874         0.4263          24.96         0.7229       -37.0067      -28.98916       1332.246      0.6748294         0.0616
      6838.5000          37.98          2.396        74.4059         0.3752         0.4092          26.34         0.7782          -45.4      -37.38111       1281.743      0.5737215         0.0277
      6839.0000           38.7         2.3564        64.3069         0.3552         0.3964          27.96          0.868          -49.6      -41.57976       1281.238      0.5231354        -0.0082
      6839.5000          38.64         2.3267           57.6         0.3332         0.3839          28.98         0.9774            -52      -43.97841       1260.734       0.494236        -0.0321
      6840.0000          37.62         2.3366          56.55         0.3213         0.3787           29.4         1.0467          -52.6      -44.57706       1260.229      0.4870234         -0.044
      6840.5000        37.5596         2.3466        58.9503         0.3257         0.3787        29.6985         1.0419       -50.9944      -42.97011           1250      0.5063842          -0.05
      6841.0000        38.1583         2.3468        62.6753         0.3302         0.3805        29.6954         0.9509       -46.1846      -38.15897           1250      0.5643498         -0.062
      6841.5000        40.1946         2.3569        66.8404          0.341         0.3876        29.0324         0.8371       -40.7747      -32.74771           1260      0.6295456        -0.0539
      6842.0000        41.6299         2.3769        69.8194         0.3473         0.3913        28.0094         0.7818       -36.7704      -28.74206           1270      0.6778064        -0.0359
      6842.5000         42.284          2.387        71.0146          0.349         0.3986        27.5264         0.8447       -36.1633      -28.13361           1260      0.6851372         -0.014
      6843.0000        41.8638         2.4071        69.9777         0.3588         0.4097        28.2433         0.9465       -37.3518      -29.32076           1250      0.6708342          -0.01
      6843.5000        41.6216         2.4172        67.5991         0.3671          0.425        28.9602         0.9422       -33.7549      -25.72252           1250      0.7141865         -0.012
      6844.0000        42.1564         2.4273         66.559         0.3792         0.4349        27.9372         0.8109       -26.3759      -18.34216           1250      0.8031065        -0.0179
      6844.5000        43.1676         2.4474         66.264         0.3935          0.441        26.1342         0.7263       -21.1949      -13.15981           1250      0.8655444          0.004
      6845.0000        42.4489         2.4576        65.9687         0.4082         0.4492        24.8712          0.733       -19.4031      -11.36666           1250      0.8871487          0.028
      6845.5000        41.1927         2.4678        65.6731         0.4235         0.4639        24.5685         0.7818       -21.1937      -13.15591           1250      0.8655914           0.04
      6846.0000        40.7128          2.468        66.4228         0.4373          0.479        24.3254         0.8371       -22.3862      -14.34706           1250      0.8512402          0.012
      6846.5000        40.4719         2.4682         67.771         0.4536         0.4946        23.6048         0.8719       -20.1988      -12.15831           1250      0.8776107        -0.0219
      6847.0000        40.1121         2.4685        67.7749         0.4706         0.5085        22.7081         0.8333       -15.6141      -7.572262           1250      0.9328643        -0.0199
      6847.5000        40.3483         2.4687        66.7317         0.4949         0.5251        22.0505            0.8       -10.6255      -2.582311           1250      0.9929842           0.01
      6848.0000        40.9417          2.469        66.4357         0.5064         0.5373        22.1675         0.7818        -7.0288       1.015739           1240              1          0.042
      6848.5000        41.6533         2.4692        67.7867         0.5205         0.5374        22.5822         0.7746        -5.2253        2.82059           1240              1          0.056
      6849.0000        41.2935         2.4694        68.9891         0.5254         0.5375        23.1151         0.7782        -5.8172       2.230039           1250              1          0.046
      6849.5000        41.2314         2.4697        69.2934         0.5208         0.5377        23.4098         0.7854        -7.8086      0.2399898           1250              1          0.044
      6850.0000        41.7041         2.4599        69.1482         0.5115         0.5378        23.5853         0.7963       -10.6019       -2.55196           1250      0.9933499           0.04
      6850.5000        41.7623         2.4501        69.0018         0.5023         0.5281        23.8218            0.8          -13.2      -5.148709           1250      0.9620637           0.04
      6851.0000        41.2271         2.4504        67.8057         0.4843         0.5162        23.9406         0.7818          -15.8       -7.74736           1250      0.9307547          0.036
      6851.5000        40.0966         2.4407        66.1615         0.4691         0.5069         23.703         0.7605          -18.8      -10.74601           1240      0.8946264          0.036
      6852.0000        39.1434          2.451        63.9199         0.4586         0.4955        23.5842         0.7782       -21.7822      -13.72686           1240      0.8587126          0.034
      6852.5000        38.1298         2.4413        62.8778         0.4503         0.4843        23.9406         0.8295       -24.9505      -16.89381           1240      0.8205565           0.01
      6853.0000        37.7109         2.4316        63.7813         0.4503         0.4691          24.36          0.864       -27.7228      -19.66476           1240      0.7871716          0.002
      6853.5000        37.7684         2.4319        65.7305         0.4503         0.4691          24.66         0.8838        -29.901      -21.84161           1240      0.7609445        -0.0079
