#------------------------------------------------------------------------------
# Created by    : vladimir.rabinovich
# Created on    : 09/19/2023 17:22:42
#------------------------------------------------------------------------------
~Version Information Section
VERS.           2.0     :   CWLS log ASCII Standard - VERSION 2.0
WRAP.           NO      :   One line per depth step
~Well Information Section
#MNEM       .UNIT                                         VALUE :DESCRIPTION
#------------------------------------------------------------------------------
STRT        .FT                                              96 :START DEPTH
STOP        .FT                                            7107 :STOP DEPTH
STEP        .FT                                             0.5 :STEP      
NULL        .                                           -999.25 :NULL      
COMP        .                                  XTO OFFSHORE INC :COMPANY   
WELL        .                               OCS G23162 ST00BP00 :WELL      
FLD         .                                 BRAZOS BLOCK 0398 :FIELD     
LOC         .                                                   :LOCATION  
CNTY        .                                BRAZOS LARGE BLOCK :LOCATION  
STAT        .                                             TEXAS :STATE     
CTRY        .                                     UNITED STATES :COUNTRY   
SRVC        .                                                   :SERVICE COMPANY
DATE        .                             9/13/2023 11:18:28 AM :LOG DATE  
API         .                                    42704403370000 :API NUMBER
UWI         .                                    42704403370000 :UNIQUE WELL ID
XCOORD      .                                  864551.184430364 :SURFACE X 
YCOORD      .                                  10381025.1526549 :SURFACE Y 
LAT         .                                        28.5842785 :LATITUDE  
LON         .                                       -95.4179199 :LONGITUDE 
ELEV        .FT                                             100 :ELEVATION VALUE
ELEV_TYPE   .                                                KB :ELEVATION REFERENCE TYPE
~Curve Information Section
#MNEM       .UNIT                                      API CODE :CURVE DESCRIPTION
#------------------------------------------------------------------------------
DEPT        .FT                                                 :DEPTH     
DCAL        .IN                                                 :          
DPHI        .FRAC                                               :          
DT          .US/F                                               :          
GR          .GAPI                                               :          
GR_NORM     .GAPI                                               :GammaRay Normalized
HT01        .OHMM                                               :          
HT02        .OHMM                                               :          
HT03        .OHMM                                               :          
HT06        .OHMM                                               :          
HT09        .OHMM                                               :          
HT12        .OHMM                                               :          
NPHI        .FRAC                                               :          
RWA         .OHMM                                               :          
SP          .MV                                                 :          
TENS        .LB                                                 :          
VSH_GR      .V/V                                                :Volume of Shale from GR
~A        DEPTH           DCAL           DPHI             DT             GR        GR_NORM           HT01           HT02           HT03           HT06           HT09           HT12           NPHI            RWA             SP           TENS         VSH_GR
# ...
      1488.0000        -999.25        -999.25        -999.25        73.4388       74.64302         1.6443         1.8942         1.9648         2.1195         2.1494         2.1541        -999.25        -999.25       112.1805       1375.295      0.8860217
      1488.5000        -999.25        -999.25        -999.25        67.5497       68.09531         1.6621         1.9178         1.9896         2.1459         2.1757         2.1801        -999.25        -999.25       112.7187       1387.135      0.7467086
      1489.0000        -999.25        -999.25        -999.25        60.6075       60.37747         1.6695         1.9285         2.0021         2.1593         2.1888          2.193        -999.25        -999.25       113.2982       1400.222      0.5824993
      1489.5000        -999.25        -999.25        -999.25        56.0054       55.25975          1.667         1.9272         2.0028         2.1602         2.1893         2.1932        -999.25        -999.25       113.6885       1398.976      0.4736116
      1490.0000        -999.25        -999.25        -999.25        55.1994       54.35991         1.6539         1.9131         1.9906         2.1475         2.1761         2.1798        -999.25        -999.25       113.7595       1381.215      0.4544662
      1490.5000        -999.25        -999.25        -999.25        61.3615       61.20241         1.6328         1.8892         1.9688         2.1245         2.1528         2.1563        -999.25        -999.25       113.5939       1358.781      0.6000512
      1491.0000        -999.25        -999.25        -999.25        66.4707       66.87502         1.6082         1.8615          1.943         2.0974         2.1254         2.1288        -999.25        -999.25         113.18       1341.643       0.720745
      1491.5000        -999.25        -999.25        -999.25        65.2616       65.52728         1.5846         1.8357         1.9187         2.0719         2.0998         2.1032        -999.25        -999.25       112.6063       1336.658      0.6920698
      1492.0000        -999.25        -999.25        -999.25        65.8727       66.20201         1.5607         1.8096         1.8933         2.0452         2.0732         2.0766        -999.25        -999.25       111.9677        1341.02      0.7064258
      1492.5000        -999.25        -999.25        -999.25        65.5216       65.80762         1.5298         1.7739         1.8574          2.007         2.0349         2.0385        -999.25        -999.25       111.6187       1344.448      0.6980344
      1493.0000        -999.25        -999.25        -999.25        63.0256          63.03         1.4935         1.7305         1.8131         1.9596         1.9875         1.9913        -999.25        -999.25       111.6069       1344.448      0.6389362
      1493.5000        -999.25        -999.25        -999.25        61.9725       61.85562         1.4629         1.6942         1.7758         1.9197         1.9476         1.9517        -999.25        -999.25       111.9085       1335.723      0.6139493
      1494.0000        -999.25        -999.25        -999.25        59.5935         59.208         1.4504         1.6812         1.7625         1.9058         1.9342         1.9386        -999.25        -999.25       112.3166       1326.999       0.557617
      1494.5000        -999.25        -999.25        -999.25        56.8244       56.12695         1.4553         1.6907         1.7724         1.9168          1.946         1.9509        -999.25        -999.25        112.559        1321.39      0.4920627
      1495.0000        -999.25        -999.25        -999.25        55.2644       54.38933         1.4621         1.7017         1.7836         1.9293         1.9593         1.9647        -999.25        -999.25       112.6655       1317.339      0.4550921
      1495.5000        -999.25        -999.25        -999.25        57.6044       56.98505         1.4578         1.6965         1.7774         1.9231         1.9535         1.9593        -999.25        -999.25       112.6063       1317.962      0.5103202
      1496.0000        -999.25        -999.25        -999.25        62.5576       62.48432         1.4457         1.6798         1.7585         1.9031         1.9336         1.9398        -999.25        -999.25       112.3106       1320.455       0.627326
      1496.5000        -999.25        -999.25        -999.25        67.0427       67.46349         1.4418         1.6729         1.7494         1.8938         1.9244         1.9309        -999.25        -999.25        111.944       1325.129      0.7332658
      1497.0000        -999.25        -999.25        -999.25        68.8757       69.49588         1.4568         1.6907         1.7655         1.9117         1.9428         1.9497        -999.25        -999.25       111.7193       1328.245      0.7765081
      1497.5000        -999.25        -999.25        -999.25        73.1268       74.21504         1.4857         1.7262         1.7996         1.9491         1.9809         1.9883        -999.25        -999.25       111.7666       1325.129      0.8769158
      1498.0000        -999.25        -999.25        -999.25         78.158       79.80099         1.5134         1.7593         1.8312         1.9835         2.0159         2.0237        -999.25        -999.25       112.2929       1324.506      0.9957657
      1498.5000        -999.25        -999.25        -999.25        77.4559        79.0166          1.527         1.7728         1.8424         1.9957         2.0281         2.0362        -999.25        -999.25       113.0026       1322.948      0.9790766
      1499.0000        -999.25        -999.25        -999.25        72.9318       73.98553         1.5286         1.7696         1.8365         1.9889          2.021         2.0292        -999.25        -999.25       113.5644       1325.752      0.8720326
      1499.5000        -999.25        -999.25        -999.25        72.3468       73.33126         1.5291         1.7649         1.8286         1.9797         2.0113         2.0196        -999.25        -999.25       113.6235        1333.23      0.8581119
      1500.0000        -999.25        -999.25        -999.25        74.9209       76.18709         1.5254         1.7547         1.8149         1.9638         1.9947         2.0029        -999.25        -999.25       114.0729       1332.919      0.9188742
      1500.5000        -999.25        -999.25        -999.25        73.8678        75.0127           1.51         1.7292         1.7854         1.9306         1.9604         1.9685        -999.25        -999.25       114.3627       1332.295      0.8938872
      1501.0000        -999.25        -999.25        -999.25        72.7758       73.79508         1.4895         1.6979         1.7502         1.8908         1.9195         1.9273        -999.25        -999.25       113.8955       1329.491      0.8679805
      1501.5000        -999.25        -999.25        -999.25        73.9458        75.0908         1.4806         1.6821         1.7311         1.8682         1.8959         1.9035        -999.25        -999.25       112.9138       1324.818      0.8955489
      1502.0000        -999.25        -999.25        -999.25        75.0119       76.27107         1.4934         1.6948         1.7414         1.8772         1.9043         1.9118        -999.25        -999.25       111.9558       1325.752      0.9206611
      1502.5000        -999.25        -999.25        -999.25        72.8668       73.88335          1.523         1.7294         1.7748         1.9108         1.9376          1.945        -999.25        -999.25       111.1752       1322.636      0.8698584
      1503.0000        -999.25        -999.25        -999.25        68.0957       68.57785         1.5559         1.7687         1.8137         1.9501         1.9768          1.984        -999.25        -999.25       110.7435       1316.405      0.7569755
      1503.5000        -999.25        -999.25        -999.25        67.4717       67.88024         1.5795         1.7963         1.8414         1.9772         2.0034         2.0105        -999.25        -999.25       110.8736       1312.977      0.7421328
