#------------------------------------------------------------------------------
# Created by    : vladimir.rabinovich
# Created on    : 09/19/2023 17:20:05
#------------------------------------------------------------------------------
~Version Information Section
VERS.           2.0     :   CWLS log ASCII Standard - VERSION 2.0
WRAP.           NO      :   One line per depth step
~Well Information Section
#MNEM       .UNIT                                         VALUE :DESCRIPTION
#------------------------------------------------------------------------------
STRT        .FT                                             712 :START DEPTH
STOP        .FT                                            9469 :STOP DEPTH
STEP        .FT                                             0.5 :STEP      
NULL        .                                           -999.25 :NULL      
COMP        .                                 MESA PETROLEUM CO :COMPANY   
WELL        .                                ST TR 00279-L SW/4 :WELL      
FLD         .                                           WILDCAT :FIELD     
LOC         .                                                   :LOCATION  
CNTY        .                             GALVESTON LARGE BLOCK :LOCATION  
STAT        .                                             TEXAS :STATE     
CTRY        .                                     UNITED STATES :COUNTRY   
SRVC        .                                                   :SERVICE COMPANY
DATE        .                             9/13/2023 11:18:53 AM :LOG DATE  
API         .                                    42706300950000 :API NUMBER
UWI         .                                    42706300950000 :UNIQUE WELL ID
XCOORD      .                                  947289.050530544 :SURFACE X 
YCOORD      .                                  10490529.0152507 :SURFACE Y 
LAT         .                                         28.889695 :LATITUDE  
LON         .                                        -95.166438 :LONGITUDE 
ELEV        .FT                                              84 :ELEVATION VALUE
ELEV_TYPE   .                                                KB :ELEVATION REFERENCE TYPE
~Curve Information Section
#MNEM       .UNIT                                      API CODE :CURVE DESCRIPTION
#------------------------------------------------------------------------------
DEPT        .FT                                                 :DEPTH     
ASFL        .OHMM                                               :          
CILD        .MMHO                                               :          
GR          .GAPI                                               :          
GR_NORM     .GAPI                                               :GammaRay Normalized
ILD         .OHMM                                               :          
SP          .MV                                                 :          
SP_NORM     .MV                                                 :SP Normalized
VSH_GR      .V/V                                                :Volume of Shale from GR
VSH_SP      .V/V                                                :Volume of Shale from SP
~A        DEPTH           ASFL           CILD             GR        GR_NORM            ILD             SP        SP_NORM         VSH_GR         VSH_SP
# ...
      6515.5000         0.7876       1486.623        80.2937       79.76768         0.6119       -35.8046       -3.03624       0.995057      0.9595168
      6516.0000         0.8108       1482.023        80.9762       80.62728         0.6161       -35.9244       -3.15604              1      0.9579195
      6516.5000         0.8151       1478.158        81.6593       81.48763         0.6204       -35.5334      -2.765041              1      0.9631328
      6517.0000         0.8085       1474.289        82.3418       82.34723         0.6246       -35.1423       -2.37394              1      0.9683475
      6517.5000         0.8018       1470.424        83.1971       83.42513         0.6288       -34.7507      -1.982342              1      0.9735688
      6518.0000         0.7952       1466.557        84.2894       84.80215          0.633       -34.3597      -1.591339              1      0.9787821
      6518.5000         0.7885       1462.691          84.88       85.54571         0.6373       -33.9838      -1.215439              1      0.9837942
      6519.0000         0.7857       1464.252        84.2493       84.74723         0.6415       -33.6131      -0.844738              1      0.9887368
      6519.5000         0.7828       1472.996        83.7007       84.05253         0.6449       -33.2429     -0.4745407              1      0.9936728
      6520.0000         0.7749       1481.727        83.1978       83.41541         0.6429       -33.0931     -0.3247414              1      0.9956701
      6520.5000         0.7657       1490.457        83.7001       84.04747         0.6409       -33.3215     -0.5531387              1      0.9926248
      6521.0000         0.7565       1499.201        84.4072       84.93813          0.639       -33.3734     -0.6050415              1      0.9919328
      6521.5000         0.7472       1506.164        85.1478       85.87122          0.637       -33.2894     -0.5210381              1      0.9930528
      6522.0000         0.7391       1506.555        85.8883       86.80405          0.635       -33.2053     -0.4369392              1      0.9941741
      6522.5000         0.7312       1506.945        86.6288       87.73687          0.633       -33.1213     -0.3529396              1      0.9952942
      6523.0000         0.7234       1507.336        87.3694       88.66995         0.6311       -33.5136     -0.7452393              1      0.9900635
      6523.5000         0.7155       1501.732        88.2487       89.77804         0.6291       -33.9084      -1.140041              1      0.9847994
      6524.0000         0.7127       1492.199        89.2299       91.01478         0.6271       -34.2861      -1.517738              1      0.9797635
      6524.5000         0.7103       1482.678         90.105       92.11755         0.6251       -34.6633      -1.894939              1      0.9747341
      6525.0000         0.7094       1473.145        90.5671       92.69899         0.6231        -35.041       -2.27264              1      0.9696981
      6525.5000         0.7091       1475.096        89.7927       91.71907         0.6215       -35.4186      -2.650238              1      0.9646635
      6526.0000         0.7088        1484.58        89.0182       90.73901         0.6201       -35.7963      -3.027939              1      0.9596275
      6526.5000         0.7085       1494.064         88.327       89.86414         0.6186       -35.7848      -3.016441              1      0.9597808
      6527.0000         0.7082       1503.549        87.9604       89.39925         0.6171       -35.6393      -2.870941              1      0.9617208
      6527.5000         0.7056        1511.92         87.594       88.93447         0.6157       -35.4939       -2.72554              1      0.9636595
      6528.0000          0.702        1520.01        87.2277       88.46983         0.6142       -35.3485      -2.580139              1      0.9655982
      6528.5000         0.6985       1528.098        86.8612       88.00492         0.6127       -35.2031      -2.434738              1      0.9675368
      6529.0000          0.695       1536.188        86.6256       87.70543         0.6113       -35.0576      -2.289238              1      0.9694768
      6529.5000         0.6915       1544.275        86.6149       87.68977         0.6098       -34.8621      -2.093739              1      0.9720835
      6530.0000         0.6879       1552.365        86.6042       87.67412         0.6083       -34.6288      -1.860439              1      0.9751942
      6530.5000         0.6869        1553.67        86.5936       87.65871         0.6069       -34.3955       -1.62714              1      0.9783048
      6531.0000         0.6869       1552.906        86.4198       87.43712         0.6054       -34.1623       -1.39394              1      0.9814141
      6531.5000         0.6869       1552.141        86.2417       87.21011         0.6041        -33.929      -1.160641              1      0.9845248
      6532.0000         0.6869       1551.375        85.7057       86.53119         0.6059       -33.6957     -0.9273415              1      0.9876354
      6532.5000         0.6908       1549.453        85.0614       85.71566         0.6077       -33.4625     -0.6941414              1      0.9907448
      6533.0000         0.6964       1545.459        84.4171       84.89999         0.6094       -33.2292     -0.4608383              1      0.9938555
      6533.5000          0.702       1541.463        83.7728       84.08434         0.6112        -32.996     -0.2276382              1      0.9969648
      6534.0000         0.7077       1537.475        82.8035       82.85834          0.613       -32.7627    0.005661011              1              1
      6534.5000         0.7138       1533.479        81.8025       81.59242         0.6148       -32.5294      0.2389603              1              1
      6535.0000         0.7198       1529.484        80.9608       80.52753         0.6166       -32.3031      0.4652596              1              1
      6535.5000         0.7259        1525.49        80.1462       79.49684         0.6183       -32.0782      0.6901588      0.9892945              1
      6536.0000         0.7282       1521.494        79.3341       78.46931         0.6201       -31.8532      0.9151592      0.9674322              1
      6536.5000         0.7264         1517.5        78.9138       77.93661         0.6208       -31.6283        1.14006      0.9560982              1
      6537.0000         0.7246       1523.652         78.493       77.40316         0.6209       -31.4034        1.36496      0.9447481              1
      6537.5000         0.7212       1530.352        78.1586       76.97878          0.621       -31.1785       1.589861      0.9357188              1
      6538.0000         0.7176       1537.057        78.0388       76.82539         0.6211       -30.9535       1.814859       0.932455              1
      6538.5000         0.7162       1543.764        78.2659       77.11009         0.6212       -30.7286       2.039761      0.9385126              1
      6539.0000         0.7215       1552.994        78.4933       77.39507         0.6213       -30.6403       2.128059       0.944576              1
      6539.5000         0.7268       1563.121        78.7203       77.67954         0.6214       -30.5703       2.198061      0.9506286              1
      6540.0000         0.7321        1573.26        78.9475       77.96439         0.6215       -30.5911       2.177259      0.9566892              1
      6540.5000         0.7372       1577.785        78.6189       77.54736          0.621       -30.8329       1.935461      0.9478161              1
      6541.0000         0.7372       1570.383        78.1635       76.97021          0.618        -31.075       1.693359      0.9355363              1
      6541.5000         0.7372       1562.984         77.708       76.39293         0.6151       -31.3168       1.451561      0.9232538              1
