#------------------------------------------------------------------------------
# Created by    : vladimir.rabinovich
# Created on    : 09/19/2023 17:22:54
#------------------------------------------------------------------------------
~Version Information Section
VERS.           2.0     :   CWLS log ASCII Standard - VERSION 2.0
WRAP.           NO      :   One line per depth step
~Well Information Section
#MNEM       .UNIT                                         VALUE :DESCRIPTION
#------------------------------------------------------------------------------
STRT        .FT                                            1705 :START DEPTH
STOP        .FT                                           10298 :STOP DEPTH
STEP        .FT                                             0.5 :STEP      
NULL        .                                           -999.25 :NULL      
COMP        .                            STANOLIND OIL & GAS CO :COMPANY   
WELL        .                                       ST TR 00219 :WELL      
FLD         .                                           WILDCAT :FIELD     
LOC         .                                                   :LOCATION  
CNTY        .                             GALVESTON LARGE BLOCK :LOCATION  
STAT        .                                             TEXAS :STATE     
CTRY        .                                     UNITED STATES :COUNTRY   
SRVC        .                                                   :SERVICE COMPANY
DATE        .                             9/13/2023 11:19:42 AM :LOG DATE  
API         .                                    42706000170000 :API NUMBER
UWI         .                                    42706000170000 :UNIQUE WELL ID
XCOORD      .                                  1024804.26554262 :SURFACE X 
YCOORD      .                                  10549089.4715911 :SURFACE Y 
LAT         .                                        29.0543948 :LATITUDE  
LON         .                                       -94.9272588 :LONGITUDE 
ELEV        .FT                                              60 :ELEVATION VALUE
ELEV_TYPE   .                                                GL :ELEVATION REFERENCE TYPE
~Curve Information Section
#MNEM       .UNIT                                      API CODE :CURVE DESCRIPTION
#------------------------------------------------------------------------------
DEPT        .FT                                                 :DEPTH     
LAT         .OHMM                                               :          
LN          .OHMM                                               :          
SN          .OHMM                                               :          
SP          .MV                                                 :          
SP_NORM     .MV                                                 :SP Normalized
VSH_SP      .V/V                                                :Volume of Shale from SP
~A        DEPTH            LAT             LN             SN             SP        SP_NORM         VSH_SP
# ...
      6265.0000         0.8699         0.6271         0.7147       -49.3323      0.9939651              1
      6265.5000         0.8634         0.6262         0.7083       -49.2424       1.078014              1
      6266.0000         0.8689         0.6254          0.723       -49.1526       1.161964              1
      6266.5000         0.8745         0.6245         0.7377       -49.0627       1.246017              1
      6267.0000         0.8954         0.6237         0.7524        -48.973       1.329865              1
      6267.5000         0.9171         0.6235         0.7671       -48.4291       1.867916              1
      6268.0000          0.939         0.6472         0.7818        -47.886       2.405163              1
      6268.5000         0.9608         0.6709         0.8021       -47.3428       2.942516              1
      6269.0000         0.9743         0.6946         0.8232       -46.7996       3.479866              1
      6269.5000         0.9473         0.7183         0.8443       -46.2558       4.017818              1
      6270.0000         0.9204          0.742         0.8654       -45.7126       4.555168              1
      6270.5000         0.8851         0.7656         0.8865       -46.0622       4.199718              1
      6271.0000         0.8469         0.7847         0.9076       -47.5472        2.70887              1
      6271.5000         0.8088         0.7987         0.9185       -49.2713      0.9789162              1
      6272.0000         0.7858         0.8128         0.9284        -50.282    -0.03763199              1
      6272.5000         0.7778         0.8268         0.9384       -50.1107      0.1278191              1
      6273.0000         0.7698         0.8409          0.943       -51.1844     -0.9517288              1
      6273.5000         0.7618         0.8378         0.9131       -56.1564      -5.929581      0.9461702
      6274.0000         0.7548         0.8277         0.8831       -60.9713      -10.75033      0.8801325
      6274.5000         0.7576         0.8176         0.8926       -63.2307      -13.01558      0.8491017
      6275.0000         0.7604         0.8089         0.9174       -65.4922      -15.28293       0.818042
      6275.5000         0.7632         0.8003         0.9247       -69.2616      -19.05817      0.7663264
      6276.0000         0.7661         0.7918         0.8982       -66.6743      -16.47673      0.8016886
      6276.5000         0.7689         0.7833         0.8717       -61.8504      -11.65868      0.8676894
      6277.0000         0.7776         0.7747         0.8452       -58.6026      -8.416729      0.9120996
      6277.5000          0.801         0.7662         0.8187       -67.4761      -17.29607      0.7904648
      6278.0000         0.8243         0.7611         0.8087       -72.6188      -22.44463      0.7199366
      6278.5000         0.8477         0.7642         0.8054       -69.5532      -19.38488       0.761851
      6279.0000          0.871         0.7672          0.802       -63.8228      -13.66032      0.8402695
      6279.5000         0.9029         0.7703         0.7987       -57.1176      -6.960976      0.9320414
      6280.0000         0.9427         0.7733         0.8019       -52.9826      -2.831825      0.9886051
      6280.5000         0.9826         0.7764         0.8077       -51.8803      -1.735374              1
      6281.0000         1.0128         0.7794         0.8135       -50.7791     -0.6400223              1
      6281.5000         1.0352         0.7825         0.8192       -49.6779      0.4553261              1
      6282.0000         1.0576         0.7855          0.851       -48.8562       1.271175              1
      6282.5000         1.0801         0.7886         0.8921       -48.3489       1.772625              1
      6283.0000          1.098         0.7916         0.9333       -48.7423       1.373379              1
      6283.5000         1.1127         0.7933         0.9743       -48.8531       1.256729              1
      6284.0000         1.1274         0.7945         0.9879       -48.5359       1.568077              1
      6284.5000         1.1421         0.7956          1.001       -48.2188        1.87933              1
      6285.0000         1.1568         0.7968         1.0142       -47.9016       2.190678              1
      6285.5000         1.0931          0.798         1.0271       -48.5801       1.506329              1
      6286.0000         1.0293         0.7991         0.9964       -49.8806      0.1999779              1
      6286.5000         0.9655         0.8003         0.9663       -51.1139      -1.039169              1
      6287.0000         0.9033         0.8014         0.9367       -52.0124      -1.943523              1
      6287.5000          0.854         0.8031         0.9071        -52.912      -2.848969      0.9883703
      6288.0000         0.8151         0.8056         0.8774       -53.8105      -3.753319       0.975982
      6288.5000         0.7871         0.8081         0.8471       -54.7034      -4.652069      0.9636703
      6289.0000         0.7799         0.8106         0.8167       -55.5859      -5.540417      0.9515011
      6289.5000          0.783         0.8131         0.8095       -56.4696       -6.42997      0.9393155
      6290.0000         0.7861         0.8156         0.8207       -57.3533      -7.319515      0.9271299
      6290.5000         0.7892         0.8181         0.8319        -58.237      -8.209068      0.9149443
      6291.0000         0.7923         0.8138          0.843       -59.1196      -9.097515      0.9027737
      6291.5000         0.8013         0.8075         0.8541       -58.3156       -8.29937      0.9137073
      6292.0000         0.8169         0.8011          0.863       -56.7484      -6.738018      0.9350957
      6292.5000         0.8325         0.7948         0.8617       -56.8436      -6.839066      0.9337114
      6293.0000         0.8481         0.7885         0.8604       -56.9388      -6.940117      0.9323272
      6293.5000         0.8638         0.7821         0.8591       -57.0341      -7.041264      0.9309416
      6294.0000         0.8794         0.7752         0.8578       -57.1293      -7.142315      0.9295573
      6294.5000          0.895         0.7654         0.8456       -57.2245      -7.243362      0.9281731
      6295.0000         0.9101         0.7557         0.8259       -57.3196      -7.344315      0.9267902
      6295.5000         0.9237         0.7459         0.8062       -57.0828      -7.113365      0.9299539
      6296.0000         0.9398         0.7361         0.7865       -56.4611      -6.497517      0.9383902
      6296.5000         0.9772         0.7264         0.7902       -55.9204      -5.962662       0.945717
      6297.0000         1.0145          0.715         0.8109       -56.2462      -6.294312      0.9411738
      6297.5000         1.0519         0.7007         0.8307       -56.5721      -6.626064      0.9366292
      6298.0000         1.0892         0.6864         0.8502       -56.1792       -6.23901      0.9419314
      6298.5000         1.1266         0.6722         0.8698       -54.9824      -5.048061      0.9582458
      6299.0000         1.1639         0.6579         0.8893       -53.7912      -3.862709      0.9744834
      6299.5000         1.2013         0.6436         0.9121       -52.6068      -2.684162      0.9906279
      6300.0000         1.2682         0.6281         0.9016       -51.4225      -1.505711              1
      6300.5000         1.2056         0.6102         0.8395       -50.3065     -0.3955574              1
      6301.0000         1.1428         0.5924         0.7722       -49.2098      0.6952896              1
      6301.5000           1.08         0.5745         0.7049       -48.0186       1.880642              1
      6302.0000         1.0172         0.5566         0.6377       -48.0858        1.80759              1
      6302.5000         0.9544         0.5388         0.5927       -49.0925      0.7950439              1
