#------------------------------------------------------------------------------
# Created by    : vladimir.rabinovich
# Created on    : 09/19/2023 17:22:46
#------------------------------------------------------------------------------
~Version Information Section
VERS.           2.0     :   CWLS log ASCII Standard - VERSION 2.0
WRAP.           NO      :   One line per depth step
~Well Information Section
#MNEM       .UNIT                                         VALUE :DESCRIPTION
#------------------------------------------------------------------------------
STRT        .FT                                             862 :START DEPTH
STOP        .FT                                           11792 :STOP DEPTH
STEP        .FT                                             0.5 :STEP      
NULL        .                                           -999.25 :NULL      
COMP        .                     FREEPORT-MCMORAN OIL & GAS CO :COMPANY   
WELL        .                               OCS G08155 ST00BP00 :WELL      
FLD         .                            HIGH ISLAND BLOCK 0262 :FIELD     
LOC         .                                                   :LOCATION  
CNTY        .                           HIGH ISLAND LARGE BLOCK :LOCATION  
STAT        .                                             TEXAS :STATE     
CTRY        .                                     UNITED STATES :COUNTRY   
SRVC        .                                                   :SERVICE COMPANY
DATE        .                             9/13/2023 11:19:59 AM :LOG DATE  
API         .                                    42708403380000 :API NUMBER
UWI         .                                    42708403380000 :UNIQUE WELL ID
XCOORD      .                                  1194111.75057656 :SURFACE X 
YCOORD      .                                  10524686.1808471 :SURFACE Y 
LAT         .                                         28.993839 :LATITUDE  
LON         .                                         -94.39647 :LONGITUDE 
ELEV        .FT                                              98 :ELEVATION VALUE
ELEV_TYPE   .                                                KB :ELEVATION REFERENCE TYPE
~Curve Information Section
#MNEM       .UNIT                                      API CODE :CURVE DESCRIPTION
#------------------------------------------------------------------------------
DEPT        .FT                                                 :DEPTH     
DT          .US/F                                               :          
GR          .GAPI                                               :          
GR_NORM     .GAPI                                               :GammaRay Normalized
ILD         .OHMM                                               :          
ILM         .OHMM                                               :          
SFL         .OHMM                                               :          
SP          .MV                                                 :          
SP_NORM     .MV                                                 :SP Normalized
VSH_GR      .V/V                                                :Volume of Shale from GR
VSH_SP      .V/V                                                :Volume of Shale from SP
~A        DEPTH             DT             GR        GR_NORM            ILD            ILM            SFL             SP        SP_NORM         VSH_GR         VSH_SP
# ...
       911.0000        -999.25         19.158        51.9225        -999.25        -999.25        -999.25        -999.25        -999.25      0.4026064        -999.25
       911.5000        -999.25        19.6164       52.49643        -999.25        -999.25        -999.25        -999.25        -999.25      0.4148177        -999.25
       912.0000        -999.25        19.9613       52.91806        -999.25        -999.25        -999.25        -999.25        -999.25      0.4237884        -999.25
       912.5000        -999.25        20.0826       53.03963        -999.25        -999.25        -999.25        -999.25        -999.25      0.4263752        -999.25
       913.0000        -999.25         19.813       52.63668        -999.25        -999.25        -999.25        -999.25        -999.25      0.4178017        -999.25
       913.5000        -999.25        19.3686       51.99917        -999.25        -999.25        -999.25        -999.25        -999.25      0.4042376        -999.25
       914.0000        -999.25         18.306        50.5321        -999.25        -999.25        -999.25        -999.25        -999.25      0.3730234        -999.25
       914.5000        -999.25        17.1092       48.88496        -999.25        -999.25        -999.25        -999.25        -999.25      0.3379779        -999.25
       915.0000        -999.25        16.6336       48.20559        -999.25        -999.25        -999.25        -999.25        -999.25      0.3235231        -999.25
       915.5000        -999.25        16.6722       48.21619        -999.25        -999.25        -999.25        -999.25        -999.25      0.3237487        -999.25
       916.0000        -999.25        17.2683       48.97489        -999.25        -999.25        -999.25        -999.25        -999.25      0.3398913        -999.25
       916.5000        -999.25        17.6349       49.42564        -999.25        -999.25        -999.25        -999.25        -999.25      0.3494816        -999.25
       917.0000        -999.25        17.4946       49.19618        -999.25        -999.25        -999.25        -999.25        -999.25      0.3445995        -999.25
       917.5000        -999.25        17.2008       48.76075        -999.25        -999.25        -999.25        -999.25        -999.25      0.3353352        -999.25
       918.0000        -999.25        16.8093       48.19422        -999.25        -999.25        -999.25        -999.25        -999.25      0.3232813        -999.25
       918.5000        -999.25        17.2589       48.75634        -999.25        -999.25        -999.25        -999.25        -999.25      0.3352413        -999.25
       919.0000        -999.25         18.297       50.10815        -999.25        -999.25        -999.25        -999.25        -999.25      0.3640033        -999.25
       919.5000        -999.25        20.1151       52.50663        -999.25        -999.25        -999.25        -999.25        -999.25      0.4150346        -999.25
       920.0000       169.3379        22.0697       55.08826         4.0034       1923.139         0.4592      -130.4561       1.412033       0.469963              1
       920.5000       163.4912        24.0927       57.76168         3.4795       680.5381         0.5613      -123.2607       8.607437      0.5268442              1
       921.0000       165.9463        25.6512       59.81181         1.6731       195.0186         0.6363      -118.1993       13.66883       0.570464              1
       921.5000       167.0549        27.0159       61.60187         0.3883         4.1658         0.6272      -114.7009       13.93867      0.6085504              1
       922.0000       167.1333        27.9607        62.8285         0.2797         0.7229         0.6065      -111.6075       13.40351      0.6346489              1
       922.5000       166.0442        28.0159       62.86138         0.3042         0.4715         0.6129      -109.2933       12.08913      0.6353484              1
       923.0000        164.113         27.452       62.06351         0.3664         0.4389         0.7221      -108.1172       9.636658      0.6183727              1
       923.5000       162.3022        26.8598       61.22765         0.4644         0.4692         0.8873      -107.1309       6.994392      0.6005884              1
       924.0000       161.5759        27.2155       61.66378         0.6242         0.5767         0.9408      -106.2542       4.242516      0.6098676              1
       924.5000       162.3906        28.2633        63.0286         0.7297         0.7234         0.9368       -105.407       1.461151      0.6389064              1
       925.0000       166.5112        29.3205       64.40605         0.8301         0.8198         0.8707      -104.5815      -1.293587      0.6682138      0.9816508
       925.5000        173.041        29.6242        64.7724         0.8657         0.8366         0.8166      -103.9015      -1.171829      0.6760085      0.9892607
       926.0000       185.1235        27.4504       61.81424         0.8701         0.8078         0.7717      -103.2214      -1.049973      0.6130688      0.9968767
       926.5000       194.3318        25.9074       59.70254         0.8549         0.7597         0.7337      -102.5414     -0.9282074      0.5681392              1
       927.0000       192.1606        25.6539       59.32118         0.8375         0.7358         0.7127      -101.8354     -0.7804565      0.5600252              1
       927.5000       186.6709        26.2784         60.118         0.8179         0.7352         0.7099      -101.1138     -0.6170959      0.5769788              1
       928.0000       173.5105        28.0686       62.47903         0.7987         0.7378         0.7268      -100.3922     -0.4537354      0.6272135              1
       928.5000       167.0364        29.8381       64.81229         0.8025         0.7495          0.744       -99.6978     -0.3175812      0.6768572              1
       929.0000       162.9651        31.5518       67.07067         0.8088         0.7614         0.7595       -99.0305     -0.2085266      0.7249079              1
       929.5000       160.5229        32.1217       67.79421         0.8403         0.7735         0.7575       -98.3632    -0.09946442      0.7403024              1
       930.0000       160.2236        30.3745       65.40851         0.8731         0.7851         0.7402       -97.7435    -0.03800964      0.6895427              1
       930.5000       161.8394        28.0916       62.30397         0.9058          0.781         0.7252       -97.1716     -0.0243454      0.6234887              1
       931.0000       164.3113        26.4739       60.09203         0.9306         0.7799         0.7129       -96.5997    -0.01068878      0.5764261              1
       931.5000       166.5137        25.0514       58.14202         0.9562         0.7876         0.7053       -96.1007    -0.06993103      0.5349366              1
       932.0000       166.4988        24.7898       57.74981         0.9795         0.8033         0.7151       -95.6045     -0.1319733      0.5265916              1
       932.5000       163.6387        27.6016       61.48169         0.9999         0.8236         0.7434       -95.0752     -0.1609192      0.6059934              1
       933.0000       161.4971          30.46       65.27612         1.0226         0.8452         0.7909       -94.5271     -0.1710587       0.686726              1
       933.5000       161.1372        31.4113       66.51146         1.0613         0.8764         0.8306        -93.979     -0.1811981      0.7130098              1
       934.0000       161.5815        31.3957       66.44933         1.1056         0.9088         0.8394       -93.5178     -0.2782364      0.7116879              1
       934.5000       161.9604        31.4978       66.54515         1.1547         0.9346         0.8487        -93.098     -0.4166794      0.7137266              1
       935.0000       161.4927        31.7741       66.87472         1.1969         0.9535         0.8608       -92.6783     -0.5552216      0.7207386              1
