#------------------------------------------------------------------------------
# Created by    : vladimir.rabinovich
# Created on    : 09/19/2023 17:22:48
#------------------------------------------------------------------------------
~Version Information Section
VERS.           2.0     :   CWLS log ASCII Standard - VERSION 2.0
WRAP.           NO      :   One line per depth step
~Well Information Section
#MNEM       .UNIT                                         VALUE :DESCRIPTION
#------------------------------------------------------------------------------
STRT        .FT                                             306 :START DEPTH
STOP        .FT                                           13139 :STOP DEPTH
STEP        .FT                                             0.5 :STEP      
NULL        .                                           -999.25 :NULL      
COMP        .                                    CITIES SERVICE :COMPANY   
WELL        .                                          SL 77337 :WELL      
FLD         .                                           WILDCAT :FIELD     
LOC         .                                                   :LOCATION  
CNTY        .                                BRAZOS LARGE BLOCK :LOCATION  
STAT        .                                             TEXAS :STATE     
CTRY        .                                     UNITED STATES :COUNTRY   
SRVC        .                                                   :SERVICE COMPANY
DATE        .                             9/13/2023 11:18:52 AM :LOG DATE  
API         .                                    42704301950000 :API NUMBER
UWI         .                                    42704301950000 :UNIQUE WELL ID
XCOORD      .                                   673900.18951543 :SURFACE X 
YCOORD      .                                   10333530.060148 :SURFACE Y 
LAT         .                                        28.4418955 :LATITUDE  
LON         .                                       -96.0077528 :LONGITUDE 
ELEV        .FT                                              82 :ELEVATION VALUE
ELEV_TYPE   .                                                KB :ELEVATION REFERENCE TYPE
~Curve Information Section
#MNEM       .UNIT                                      API CODE :CURVE DESCRIPTION
#------------------------------------------------------------------------------
DEPT        .FT                                                 :DEPTH     
DT          .US/F                                               :          
SP          .MV                                                 :          
SP_NORM     .MV                                                 :SP Normalized
VSH_SP      .V/V                                                :Volume of Shale from SP
~A        DEPTH             DT             SP        SP_NORM         VSH_SP
# ...
      7991.0000        98.8154       -95.9906      -40.05024     0.04755504
      7991.5000        97.6659        -93.583      -37.64071      0.1063243
      7992.0000        98.2861       -90.1357      -34.19146      0.1904522
      7992.5000        99.7225       -87.0642      -31.11803       0.265414
      7993.0000        101.488       -84.4913      -28.54319      0.3282149
      7993.5000       101.1588       -81.7931      -25.84305       0.394072
      7994.0000        97.8563       -78.8519      -22.89991      0.4658559
      7994.5000         96.251       -76.2263      -20.27238       0.529942
      7995.0000        95.2427       -73.7361      -17.78024       0.590726
      7995.5000        94.9749       -71.7568        -15.799      0.6390489
      7996.0000        95.9429       -70.2988      -14.33905      0.6746572
      7996.5000        97.3406       -69.3418      -13.38012       0.698046
      7997.0000         98.447       -68.4512      -12.48758       0.719815
      7997.5000        98.9894       -67.6934      -11.72784      0.7383454
      7998.0000        99.3523       -67.1803       -11.2128      0.7509072
      7998.5000        99.2498       -66.8934      -10.92397       0.757952
      7999.0000        98.7869       -66.6285      -10.65713      0.7644602
      7999.5000        98.1793        -66.123      -10.14969      0.7768368
      8000.0000        97.6121       -65.7677       -9.79245        0.78555
      8000.5000        97.8147       -66.3918      -10.41461      0.7703753
      8001.0000        98.2769       -67.1447      -11.16557      0.7520592
      8001.5000        98.6475       -67.4327      -11.45164       0.745082
      8002.0000        98.8837       -67.2681       -11.2851       0.749144
      8002.5000        98.8168       -66.9648      -10.97986      0.7565888
      8003.0000        98.2253       -66.5071      -10.52023      0.7677994
      8003.5000        97.3369       -65.8694      -9.880585      0.7834004
      8004.0000        95.9081       -65.2556      -9.264843      0.7984185
      8004.5000        94.5425       -64.6569      -8.664204      0.8130682
      8005.0000        94.3649       -64.0657      -8.071064       0.827535
      8005.5000        95.2495       -63.3592      -7.362629      0.8448139
      8006.0000        96.9915       -62.3082      -6.309692      0.8704953
      8006.5000        99.2653       -61.2497      -5.249252      0.8963597
      8007.0000         102.22       -60.1887      -4.186317       0.922285
      8007.5000       103.7892       -59.2599      -3.255577      0.9449859
      8008.0000       104.4526        -58.554      -2.547737      0.9622503
      8008.5000       103.4425       -58.6335      -2.625298      0.9603586
      8009.0000       101.6708       -58.7181      -2.707962      0.9583424
      8009.5000       100.1921       -58.7933      -2.781223      0.9565555
      8010.0000        99.2391       -59.0031      -2.989086      0.9514857
      8010.5000        98.6471       -59.5624      -3.546448      0.9378915
      8011.0000        98.3014       -60.3027      -4.284809      0.9198827
      8011.5000        98.6837       -61.0906       -5.07077      0.9007129
      8012.0000        99.3795       -61.5175      -5.495731       0.890348
      8012.5000       100.4668       -61.4332      -5.409492      0.8924514
      8013.0000       101.5043       -60.8677      -4.842052      0.9062914
      8013.5000       101.9901       -60.3347      -4.307117      0.9193386
      8014.0000       102.1974       -59.8561      -3.826576      0.9310591
      8014.5000       102.2681       -59.4402      -3.408741      0.9412502
      8015.0000       102.4287       -59.1954      -3.162003      0.9472682
      8015.5000       103.1021       -59.0455      -3.010166      0.9509715
      8016.0000       103.7419       -58.8531      -2.815823      0.9557117
      8016.5000       104.2346       -58.4989      -2.459686      0.9643979
      8017.0000       104.6857       -58.0724      -2.031246      0.9748477
      8017.5000       104.7422       -58.3107      -2.267609      0.9690827
      8018.0000       103.2512       -58.5077      -2.462673      0.9643251
      8018.5000         101.78       -58.6032      -2.556232      0.9620431
      8019.0000       100.7277       -58.7477      -2.698795       0.958566
      8019.5000       100.6122        -58.963      -2.912159       0.953362
      8020.0000       100.8401       -59.5912      -3.538418      0.9380873
      8020.5000       100.4668       -60.3309      -4.276176      0.9200932
      8021.0000        99.6578       -60.8251       -4.76844      0.9080868
      8021.5000        98.5906       -61.2735      -5.214901      0.8971975
      8022.0000        97.6613       -61.5153      -5.454765      0.8913472
      8022.5000        98.7708        -61.618      -5.555527      0.8888896
      8023.0000       100.5599       -61.6785       -5.61409      0.8874612
      8023.5000       101.9155       -61.7236      -5.657249      0.8864086
      8024.0000       102.8269       -61.7686       -5.70031      0.8853583
      8024.5000       103.3954       -61.6825       -5.61227      0.8875056
      8025.0000         103.86       -61.5309      -5.458733      0.8912504
      8025.5000       104.1389       -61.3925      -5.318398      0.8946732
      8026.0000       104.3009       -61.2128      -5.136757      0.8991035
      8026.5000       104.1365       -60.8865      -4.808521      0.9071093
      8027.0000       103.5358       -60.2914      -4.211483      0.9216712
      8027.5000       102.6871       -59.8201      -3.738243      0.9332136
      8028.0000       101.8198       -60.1781      -4.094303      0.9245292
      8028.5000        103.286       -60.6566      -4.570866      0.9129057
      8029.0000       104.9982       -61.0154      -4.927727      0.9042018
      8029.5000       106.3687       -60.7499       -4.66029      0.9107246
      8030.0000       107.5497          -60.6       -4.50845      0.9144281
      8030.5000       107.2079       -60.6031      -4.509613      0.9143997
      8031.0000       106.4022       -60.5421      -4.446674      0.9159348
      8031.5000       105.5573       -60.4865      -4.389137      0.9173381
      8032.0000       104.5881       -60.2714      -4.172096      0.9226318
      8032.5000       104.1656       -60.0315       -3.93026      0.9285303
      8033.0000       105.4156       -59.7791      -3.675919      0.9347337
      8033.5000       106.5463       -59.4221      -3.316982      0.9434882
      8034.0000       107.3446       -59.0469      -2.939846      0.9526867
      8034.5000       107.8584       -58.6548      -2.545807      0.9622974
      8035.0000       108.1394       -58.2208      -2.109867      0.9729301
      8035.5000       107.4037        -57.902      -1.789131      0.9807529
      8036.0000       106.4208       -57.4786      -1.363789      0.9911271
      8036.5000       105.5417       -57.0057     -0.8889503              1
      8037.0000        105.766        -56.605     -0.4863129              1
      8037.5000       106.6693       -56.5678     -0.4471741              1
      8038.0000       107.4154       -56.4778     -0.3552361              1
      8038.5000       107.9863       -56.1783    -0.05379868              1
      8039.0000       108.2721       -55.7249      0.4015388              1
      8039.5000       107.5763       -55.2696      0.8587761              1
      8040.0000       106.7128       -55.5251       0.605217              1
      8040.5000       105.8866       -56.6776     -0.5453453              1
      8041.0000       105.1802       -57.4091      -1.274906       0.993295
      8041.5000       105.4426       -57.8011       -1.66497      0.9837812
      8042.0000       105.6522       -57.9636      -1.825531      0.9798651
      8042.5000       105.7626       -58.1159      -1.975891      0.9761978
      8043.0000       105.6277        -58.321      -2.179054      0.9712426
      8043.5000       106.2369       -58.5631      -2.419216       0.965385
