#------------------------------------------------------------------------------
# Created by    : vladimir.rabinovich
# Created on    : 09/19/2023 17:20:10
#------------------------------------------------------------------------------
~Version Information Section
VERS.           2.0     :   CWLS log ASCII Standard - VERSION 2.0
WRAP.           NO      :   One line per depth step
~Well Information Section
#MNEM       .UNIT                                         VALUE :DESCRIPTION
#------------------------------------------------------------------------------
STRT        .FT                                            1664 :START DEPTH
STOP        .FT                                            5300 :STOP DEPTH
STEP        .FT                                             0.5 :STEP      
NULL        .                                           -999.25 :NULL      
COMP        .                       CORPUS CHRISTI OIL & GAS CO :COMPANY   
WELL        .                                ST TR 00597-L NE/4 :WELL      
FLD         .                                           WILDCAT :FIELD     
LOC         .                                                   :LOCATION  
CNTY        .                      MATAGORDA ISLAND LARGE BLOCK :LOCATION  
STAT        .                                             TEXAS :STATE     
CTRY        .                                     UNITED STATES :COUNTRY   
SRVC        .                                                   :SERVICE COMPANY
DATE        .                             9/13/2023 11:12:01 AM :LOG DATE  
API         .                                    42703301570000 :API NUMBER
UWI         .                                    42703301570000 :UNIQUE WELL ID
XCOORD      .                                   499677.54355151 :SURFACE X 
YCOORD      .                                  10240770.6634848 :SURFACE Y 
LAT         .                                        28.1741034 :LATITUDE  
LON         .                                       -96.5406837 :LONGITUDE 
ELEV        .FT                                              79 :ELEVATION VALUE
ELEV_TYPE   .                                                KB :ELEVATION REFERENCE TYPE
~Curve Information Section
#MNEM       .UNIT                                      API CODE :CURVE DESCRIPTION
#------------------------------------------------------------------------------
DEPT        .FT                                                 :DEPTH     
ASFL        .OHMM                                               :          
CILD        .MMHO                                               :          
ILD         .OHMM                                               :          
SP          .MV                                                 :          
SP_NORM     .MV                                                 :SP Normalized
VSH_SP      .V/V                                                :Volume of Shale from SP
~A        DEPTH           ASFL           CILD            ILD             SP        SP_NORM         VSH_SP
# ...
      3602.0000         1.0228       1110.572         0.9004       -62.9533      -6.762161      0.8892521
      3602.5000         1.0468       1110.589         0.9168       -65.6377      -9.419315      0.8274578
      3603.0000         1.0589       1238.157         0.8769       -68.6822      -12.43656      0.7572893
      3603.5000         1.0629       1397.613          0.857       -69.8799      -13.60702      0.7300693
      3604.0000         0.9793       1604.899         0.7972        -74.826      -18.52587      0.6156775
      3604.5000         0.8958       1812.184         0.7573       -79.7721      -23.44473      0.5012855
      3605.0000         0.8122       1804.228         0.6975        -86.049      -29.69438      0.3559447
      3605.5000         0.7286       2083.273         0.6378       -86.6478      -30.26592       0.342653
      3606.0000         0.6234       2155.019          0.464       -86.6479      -30.23878      0.3432842
      3606.5000         0.6234       2288.842         0.4369       -81.8925      -25.45613      0.4545085
      3607.0000         0.6234       2422.664         0.4128       -76.4672      -20.00359      0.5813119
      3607.5000         0.6566       2729.044         0.3664       -76.1678      -19.67694      0.5889084
      3608.0000         0.6993       2729.058         0.3664        -81.392      -24.87389      0.4680492
      3608.5000         0.7073        2649.34         0.3775       -86.6163      -30.07094      0.3471874
      3609.0000         0.7153       2561.665         0.3904         -91.47       -34.8974      0.2349443
      3609.5000         0.7232       2442.103         0.4095       -91.4702      -34.87035      0.2355734
      3610.0000         0.7312       2314.583          0.432       -91.4702       -34.8431       0.236207
      3610.5000         0.7498       2274.724         0.4783        -87.932      -31.27765      0.3191244
      3611.0000         0.7632       2135.451         0.5182       -82.9264       -26.2448      0.4361674
      3611.5000         0.8482       1996.177          0.558       -77.9209      -21.21205      0.5532081
      3612.0000         0.9332       1856.903         0.6178       -72.9153      -16.17921       0.670251
      3612.5000         1.0549        1717.63         0.6577       -68.0821      -11.31876      0.7832847
      3613.0000         1.0043       1578.356         0.7174       -73.1267      -16.33611       0.666602
      3613.5000         0.9537       1439.083         0.7772       -78.1713      -21.35347      0.5499194
      3614.0000         0.9031       1294.328         0.7726       -83.6551      -26.81001       0.423023
      3614.5000         0.8526       1294.344         0.7726       -83.9546      -27.08226      0.4166915
      3615.0000          0.802       1637.134         0.6108       -71.6756      -14.77602      0.7028832
      3615.5000         0.7392       1788.608         0.5591       -71.6756      -14.74877       0.703517
      3616.0000         0.7533       1908.195         0.5241       -72.7944      -15.84033      0.6781319
      3616.5000         0.7674       1900.239         0.5262       -73.9133      -16.93198      0.6527447
      3617.0000         0.7814        2051.71         0.4874       -75.0322      -18.02363      0.6273574
      3617.5000         0.7991       2059.711         0.4855        -76.151      -19.11518      0.6019725
      3618.0000         0.7811        2051.74         0.4874       -77.2699      -20.20683      0.5765853
      3618.5000          0.763       2051.755         0.4874       -78.3887      -21.29839      0.5512003
      3619.0000         0.7449       2003.942          0.499       -80.3613      -23.24374      0.5059596
      3619.5000         0.7232       1924.244         0.5197       -88.3263      -31.18149      0.3213606
      3620.0000         0.7192       1820.632         0.5493       -97.7336      -40.56154        0.10322
      3620.5000          0.904       1557.596          0.642       -97.1346      -39.93529      0.1177839
      3621.0000         1.0889       1382.245         0.7235       -95.9367      -38.71015      0.1462756
      3621.5000         1.2737       1167.039         0.8569       -94.7388        -37.485      0.1747674
      3622.0000         1.4585       967.7759         1.0333       -92.6423      -35.36126      0.2241568
      3622.5000         2.3714       768.5141         1.3012       -90.3964       -33.0881      0.2770208
      3623.0000         3.4077       585.1957         1.7088        -86.652      -29.31646      0.3647336
      3623.5000         3.8078       481.5896         2.0765       -90.2346       -32.8718      0.2820511
      3624.0000         4.3044       425.8105         2.3485        -92.026      -34.63596      0.2410241
      3624.5000         3.8064       409.8872         2.4397       -93.8174      -36.40011      0.1999974
      3625.0000         3.3083       346.1376          2.889       -95.6087      -38.16417      0.1589728
      3625.5000         2.8103       362.0988         2.7617       -97.4001      -39.92832      0.1179461
      3626.0000         1.7007        704.872         1.4187       -99.1915      -41.69247     0.07691938
      3626.5000         1.5521       928.0784         1.0775      -100.9829      -43.45662     0.03589249
      3627.0000         1.4036       1151.284         0.8686      -102.8293      -45.27578              0
      3627.5000          1.255       1151.301         0.8686      -102.8296      -45.24883              0
      3628.0000         1.0588       1215.086          0.823        -102.53      -44.92198    0.001814465
      3628.5000         1.0588       1525.969         0.6553       -102.231      -44.59573    0.009401543
      3629.0000         1.0628       1605.694         0.6228      -101.6321      -43.96959     0.02396313
      3629.5000         1.1121       2131.804         0.5181      -101.0332      -43.34344     0.03852472
      3630.0000         1.1615       2131.814         0.5181      -101.0335      -43.31649     0.03915139
      3630.5000         1.2306       2115.877         0.5181      -102.7441      -44.99984 0.000003637269
      3631.0000         1.2306       2091.979          0.538      -104.4547      -46.68319              0
      3631.5000         1.2346       2068.081          0.538      -106.1273      -48.32854              0
      3632.0000         1.0059       2036.213          0.538      -106.1276       -48.3016              0
      3632.5000         0.9309       2020.286          0.538      -105.8283      -47.97505              0
      3633.0000         0.9069       2155.804         0.4639       -105.529       -47.6485              0
      3633.5000          0.871       2227.555         0.4489      -105.2297      -47.32195              0
      3634.0000          0.839       2283.365          0.438      -104.9304       -46.9954              0
      3634.5000          0.819        2299.32         0.4349      -104.3315      -46.36926              0
      3635.0000          0.815       2259.481         0.4426      -103.7326      -45.74311              0
      3635.5000          0.875       2179.788         0.4588       -102.834      -44.81726    0.004249662
      3636.0000         1.0498       2068.214         0.4835      -101.9355      -43.89152     0.02577866
      3636.5000         1.0952       1940.699         0.5153      -102.2353      -44.16407     0.01944032
      3637.0000         1.1546       1837.096         0.5443      -103.7337      -45.63522              0
      3637.5000          1.115       1773.347         0.5639      -104.9325      -46.80677              0
      3638.0000         1.0753       1717.584         0.5822      -105.2324      -47.07942              0
      3638.5000         1.0356       1725.554         0.5795       -105.832      -47.65178              0
      3639.0000         0.9959        1833.72         0.5453      -106.4316      -48.22413              0
      3639.5000         0.9563       1941.886          0.515      -107.0312      -48.79648              0
