#------------------------------------------------------------------------------
# Created by    : vladimir.rabinovich
# Created on    : 09/19/2023 17:22:17
#------------------------------------------------------------------------------
~Version Information Section
VERS.           2.0     :   CWLS log ASCII Standard - VERSION 2.0
WRAP.           NO      :   One line per depth step
~Well Information Section
#MNEM       .UNIT                                         VALUE :DESCRIPTION
#------------------------------------------------------------------------------
STRT        .FT                                            2222 :START DEPTH
STOP        .FT                                            8603 :STOP DEPTH
STEP        .FT                                             0.5 :STEP      
NULL        .                                           -999.25 :NULL      
COMP        .                                    HRUBETZ OIL CO :COMPANY   
WELL        .                                     ST TR 00028-L :WELL      
FLD         .                                           WILDCAT :FIELD     
LOC         .                                                   :LOCATION  
CNTY        .                           HIGH ISLAND LARGE BLOCK :LOCATION  
STAT        .                                             TEXAS :STATE     
CTRY        .                                     UNITED STATES :COUNTRY   
SRVC        .                                                   :SERVICE COMPANY
DATE        .                             9/13/2023 11:19:15 AM :LOG DATE  
API         .                                    42708303040000 :API NUMBER
UWI         .                                    42708303040000 :UNIQUE WELL ID
XCOORD      .                                  1211101.11829014 :SURFACE X 
YCOORD      .                                  10709910.5532953 :SURFACE Y 
LAT         .                                         29.503814 :LATITUDE  
LON         .                                       -94.3499952 :LONGITUDE 
ELEV        .FT                                              60 :ELEVATION VALUE
ELEV_TYPE   .                                                KB :ELEVATION REFERENCE TYPE
~Curve Information Section
#MNEM       .UNIT                                      API CODE :CURVE DESCRIPTION
#------------------------------------------------------------------------------
DEPT        .FT                                                 :DEPTH     
CALI        .IN                                                 :          
GR          .GAPI                                               :          
GR_NORM     .GAPI                                               :GammaRay Normalized
ILD         .OHMM                                               :          
ILM         .OHMM                                               :          
RHOB        .G/C3                                               :          
SFL         .OHMM                                               :          
SP          .MV                                                 :          
SP_NORM     .MV                                                 :SP Normalized
VSH_GR      .V/V                                                :Volume of Shale from GR
VSH_SP      .V/V                                                :Volume of Shale from SP
~A        DEPTH           CALI             GR        GR_NORM            ILD            ILM           RHOB            SFL             SP        SP_NORM         VSH_GR         VSH_SP
# ...
      2649.5000        16.0139         27.191       26.67724         0.4363          0.608         1.6615         1.4035      -141.6484      -53.05438              0      0.1157603
      2650.0000        16.0115        27.2347       26.73535         0.4407         0.6105         1.6604         1.3776      -141.8586      -53.26849              0      0.1121918
      2650.5000        16.0081        27.2784       26.79346         0.4451         0.6131         1.6593         1.3523      -142.0688      -53.48262              0       0.108623
      2651.0000        15.9931         27.322       26.85144          0.455         0.6158         1.6582         1.3432      -142.3096      -53.72733              0      0.1045444
      2651.5000        15.9781        27.4284       26.99293         0.4649         0.6184         1.6571         1.3358      -142.5579      -53.97956              0      0.1003406
      2652.0000        15.9631        27.5556       27.16208          0.475         0.6203          1.657         1.3283      -142.8059      -54.23147              0      0.0961422
      2652.5000        15.9392        27.5307       27.12897          0.476         0.6214          1.657         1.3231      -143.0542       -54.4837              0      0.0919384
      2653.0000         15.914         27.211       26.70383         0.4768         0.6225          1.657         1.3195      -143.2466      -54.68002              0     0.08866641
      2653.5000        15.9094        26.9745       26.38934         0.4776         0.6237          1.657         1.3159      -143.3821      -54.81943              0     0.08634288
      2654.0000        15.9133        26.8782       26.26128         0.4778         0.6233         1.6571         1.3123      -143.5176      -54.95885              0     0.08401921
      2654.5000        15.9081        26.7819       26.13322          0.467         0.6224         1.6575         1.3137      -143.6531      -55.09828              0      0.0816953
      2655.0000        15.9009        27.4019       26.95769         0.4564         0.6188         1.6579         1.3214       -143.321       -54.7701              0     0.08716507
      2655.5000        15.8938        28.1188       27.91101         0.4417         0.5883         1.6583         1.3293      -142.9626      -54.41562              0     0.09307302
      2656.0000        15.8864        28.8361       28.86487         0.4192         0.5728         1.6587         1.3493      -142.6038      -54.06074              0     0.09898771
      2656.5000        15.8786        29.3516       29.55038         0.4007         0.5708         1.6591         1.3874      -141.8533      -53.31416              0      0.1114307
      2657.0000        15.8709        29.6786       29.98522         0.3855         0.5122         1.6596         1.4262      -140.9438      -52.40858              0      0.1265237
      2657.5000        15.8631        30.0059       30.42045         0.3704         0.4947           1.66         1.4608      -140.0349      -51.50359              0      0.1416068
      2658.0000        15.8547        30.3543       30.88375         0.3545         0.4909         1.6604         1.4585      -138.8315      -50.30412              0      0.1615981
      2658.5000        15.8445        30.8726       31.57298         0.3534         0.4875         1.6609         1.4272      -135.4685      -46.94504              0      0.2175827
      2659.0000        15.8343        31.4815       32.38268         0.3619         0.4858         1.6614         1.3835      -131.4155      -42.89595              0      0.2850675
      2659.5000        15.8242        33.5912       35.18814         0.3776         0.4897         1.6619         1.3197      -123.4124      -34.89677     0.04655619      0.4183871
      2660.0000        15.8169        39.4244       42.94505         0.4018          0.504         1.6771         1.2589      -116.9169       -28.4052      0.2115969        0.52658
      2660.5000         15.815         48.495       55.00702         0.4377         0.5339         1.8626         1.1981       -111.704      -23.19622      0.4682344      0.6133963
      2661.0000         15.813        53.9135       62.21247         0.4825         0.5644         2.0036         1.1291      -108.0829      -19.57903      0.6215419      0.6736828
      2661.5000         15.811        57.9754       67.61394         0.5318         0.5895         2.0525         1.0798       -105.943      -17.44305      0.7364668      0.7092825
      2662.0000        15.8091        60.3699       70.79812          0.587         0.6157         2.0919         1.0531      -104.6128      -16.11678      0.8042153      0.7313871
      2662.5000        15.8122        62.4601       73.57763         0.6482         0.6431         2.1349         1.0615      -103.8606       -15.3685      0.8633538      0.7438583
      2663.0000        15.8163        63.6177       75.11699         0.6965         0.6674         2.1599         1.0699      -103.3242      -14.83602      0.8961061       0.752733
      2663.5000        15.8205        63.6257       75.12764          0.724         0.6921         2.1639         1.0763       -103.334      -14.84973      0.8963327      0.7525045
      2664.0000        15.8246        64.2877       76.00795         0.7525         0.7121         2.1661         1.0802      -103.5006      -15.02026      0.9150628      0.7496624
      2664.5000        15.8288        64.9834       76.93308         0.7682         0.7244         2.1637         1.0841      -103.6675      -15.19108      0.9347464      0.7468154
      2665.0000        15.8345        65.4583        77.5646          0.779         0.7325         2.1612         1.0903      -103.7799       -15.3074      0.9481829      0.7448767
      2665.5000        15.8419        64.6118       76.43894           0.79         0.7304         2.1608         1.0987       -103.887      -15.41842      0.9242328      0.7430264
      2666.0000        15.8494        62.9084       74.17378         0.7924         0.7283         2.1632         1.1072      -103.9939      -15.52923      0.8760379      0.7411795
      2666.5000        15.8568        60.2784       70.67643         0.7897         0.7262         2.1769         1.1172      -104.1007      -15.63995      0.8016261      0.7393341
      2667.0000        15.8642        58.6168       68.46687          0.787         0.7241         2.1906         1.1279      -104.2322      -15.77538      0.7546142      0.7370771
      2667.5000        15.8717        59.3102       69.38893         0.7844         0.7215          2.194         1.1387      -104.4043      -15.95139      0.7742326      0.7341434
      2668.0000        15.8775        60.5657       71.05849         0.7794         0.7144         2.1844         1.1395      -104.5763      -16.12732      0.8097552      0.7312114
      2668.5000        15.8805        61.8483       72.76407         0.7633         0.7073         2.1748         1.1361      -104.7484      -16.30333       0.846044      0.7282779
      2669.0000        15.8836         63.367       74.78362         0.7477         0.7003          2.165         1.1301      -104.8093      -16.36816      0.8890132      0.7271974
      2669.5000        15.8866        65.4883       77.60449         0.7323         0.6875         2.1549         1.1145      -104.8585      -16.42127      0.9490318      0.7263121
      2670.0000        15.8897        66.5602        79.0299         0.7089         0.6733         2.1447         1.0992      -105.0046       -16.5713      0.9793596      0.7238117
      2670.5000         15.896        66.5175       78.97311         0.6773         0.6495         2.1346         1.0866        -105.34      -16.91061      0.9781514      0.7181565
      2671.0000        15.9043        66.4385       78.86806         0.6472         0.6219         2.1315          1.076      -105.4579      -17.03243      0.9759161      0.7161261
      2671.5000        15.9125        66.9868       79.59718         0.6338         0.6125         2.1288         1.0691      -104.8112      -16.38966      0.9914294      0.7268391
