#------------------------------------------------------------------------------
# Created by    : vladimir.rabinovich
# Created on    : 09/19/2023 17:20:10
#------------------------------------------------------------------------------
~Version Information Section
VERS.           2.0     :   CWLS log ASCII Standard - VERSION 2.0
WRAP.           NO      :   One line per depth step
~Well Information Section
#MNEM       .UNIT                                         VALUE :DESCRIPTION
#------------------------------------------------------------------------------
STRT        .FT                                             409 :START DEPTH
STOP        .FT                                           13135 :STOP DEPTH
STEP        .FT                                             0.5 :STEP      
NULL        .                                           -999.25 :NULL      
COMP        .                         ATLANTIC RICHFIELD CO THE :COMPANY   
WELL        .                               OCS G04547 ST00BP00 :WELL      
FLD         .                                           WILDCAT :FIELD     
LOC         .                                                   :LOCATION  
CNTY        .                      MATAGORDA ISLAND LARGE BLOCK :LOCATION  
STAT        .                                             TEXAS :STATE     
CTRY        .                                     UNITED STATES :COUNTRY   
SRVC        .                                                   :SERVICE COMPANY
DATE        .                             9/13/2023 11:12:03 AM :LOG DATE  
API         .                                    42703401300000 :API NUMBER
UWI         .                                    42703401300000 :UNIQUE WELL ID
XCOORD      .                                  517134.995430583 :SURFACE X 
YCOORD      .                                  10172294.5320476 :SURFACE Y 
LAT         .                                         27.987424 :LATITUDE  
LON         .                                        -96.480505 :LONGITUDE 
ELEV        .FT                                              99 :ELEVATION VALUE
ELEV_TYPE   .                                                KB :ELEVATION REFERENCE TYPE
~Curve Information Section
#MNEM       .UNIT                                      API CODE :CURVE DESCRIPTION
#------------------------------------------------------------------------------
DEPT        .FT                                                 :DEPTH     
ASFL        .OHMM                                               :          
CILD        .MMHO                                               :          
GR          .GAPI                                               :          
GR_NORM     .GAPI                                               :GammaRay Normalized
ILD         .OHMM                                               :          
SP          .MV                                                 :          
SP_NORM     .MV                                                 :SP Normalized
VSH_GR      .V/V                                                :Volume of Shale from GR
VSH_SP      .V/V                                                :Volume of Shale from SP
~A        DEPTH           ASFL           CILD             GR        GR_NORM            ILD             SP        SP_NORM         VSH_GR         VSH_SP
# ...
      2105.0000         0.5439       1649.416         63.071       85.04825         0.5161       -47.4297       -3.11832              1      0.9639251
      2105.5000         0.5503       1545.896          63.25       85.27664         0.5457       -47.6667       -3.35532              1        0.95628
      2106.0000         0.5591       1489.863        63.3181        85.3628         0.5807       -47.7303      -3.418922              1      0.9542283
      2106.5000         0.5687       1444.393         62.613       84.45736         0.6137        -47.711       -3.39962              1       0.954851
      2107.0000         0.5798       1390.521        61.8281       83.44958         0.6374       -47.4843       -3.17292              1      0.9621639
      2107.5000         0.5903        1348.82        59.1912       80.06667         0.6611       -47.1914       -2.88002              1      0.9716123
      2108.0000         0.6008       1313.494        58.1356       78.71171         0.6848       -46.8124      -2.501022      0.9725896       0.983838
      2108.5000         0.6134       1302.705          57.08       77.35677         0.7104       -46.4727       -2.16132       0.943761      0.9947962
      2109.0000         0.6261       1293.309         56.275       76.32321         0.7365       -46.1688      -1.857422      0.9217705              1
      2109.5000         0.6391       1289.404        55.5256       75.36095         0.7556       -45.9237       -1.61232      0.9012969              1
      2110.0000         0.6506       1296.033        54.8033       74.43346         0.7692       -45.7112      -1.399822      0.8815629              1
      2110.5000          0.654       1315.787        54.1246       73.56187         0.7644       -45.4986      -1.187222      0.8630185              1
      2111.0000          0.626       1376.693        53.4459       72.69028         0.7462       -45.2861       -0.97472      0.8444741              1
      2111.5000         0.6015       1443.793        55.3557       75.13837         0.7164       -45.1746     -0.8632202       0.896561              1
      2112.0000         0.5809       1501.135        57.1176       77.39677         0.6847       -45.2653     -0.9539223      0.9446122              1
      2112.5000          0.565       1537.711         58.334        78.9556         0.6531        -45.356      -1.044621      0.9777788              1
      2113.0000         0.5566       1566.584        59.4174       80.34385         0.6265       -45.4537      -1.142323              1              1
      2113.5000         0.5487       1588.203        60.5875       81.84329         0.6112       -45.7451       -1.43372              1              1
      2114.0000         0.5457       1603.352        62.3707       84.12903          0.596       -46.0366       -1.72522              1              1
      2114.5000         0.5464       1601.301        63.1073       85.07252         0.5858       -46.3281       -2.01672              1      0.9994606
      2115.0000         0.5471        1598.34        61.4166       82.90307         0.5756       -46.6276      -2.316223              1      0.9897993
      2115.5000         0.5478       1597.268        57.6735       78.10151         0.5654       -46.9309      -2.619522      0.9596066      0.9800154
      2116.0000         0.5478       1599.076        57.4058       77.75699         0.5552       -47.2775      -2.966122      0.9522763      0.9688348
      2116.5000         0.5448       1610.537        57.4191       77.77289         0.5451       -47.5538       -3.24242      0.9526147       0.959922
      2117.0000         0.5403       1627.125        57.8198       78.28561         0.5375       -47.6556      -3.344223      0.9635236       0.956638
      2117.5000          0.535       1648.834          59.52       80.46487         0.5313       -47.7574      -3.446022              1      0.9533541
      2118.0000         0.5297       1671.852         61.212       82.63363         0.5252       -47.8593       -3.54792              1      0.9500671
      2118.5000         0.5236        1701.68        62.8333       84.71174         0.5191       -47.9648      -3.653423              1      0.9466637
      2119.0000         0.5175       1733.334         63.566       85.65022          0.513       -48.0724      -3.761021              1      0.9431929
      2119.5000         0.5114       1771.506        63.9399       86.12856         0.5068       -48.1801      -3.868721              1      0.9397187
      2120.0000         0.5053        1813.17        62.5528       84.34848         0.5254       -48.3232      -4.011822              1      0.9351025
      2120.5000         0.4992       1861.713        61.2179       82.63535         0.5208       -48.6559      -4.344521              1      0.9243703
      2121.0000         0.4931       1904.051        60.0211        81.0993         0.5111        -49.683       -5.37162              1       0.891238
      2121.5000         0.4886        1935.32        59.3052       80.18001         0.5014       -49.9088       -5.59742              1      0.8839542
      2122.0000         0.4858       1929.762        58.8365       79.57773         0.4917       -50.1346      -5.823223      0.9910155      0.8766702
      2122.5000         0.4887       1922.473        58.9409       79.71046         0.4863       -50.2664      -5.955021      0.9938397      0.8724187
      2123.0000         0.4916        1915.18         59.665       80.63792         0.4819       -50.0411      -5.729721              1      0.8796864
      2123.5000         0.4945       1907.891        60.3888         81.565         0.4775       -49.8159       -5.50452              1       0.886951
      2124.0000         0.4974       1903.326        61.2597       82.68074         0.4731       -49.5072       -5.19582              1      0.8969091
      2124.5000         0.5003       1898.832        62.1451       83.81506         0.4687       -49.0276      -4.716221              1        0.91238
      2125.0000          0.503       1899.326        62.9231       84.81164         0.4652       -48.5481      -4.236721              1      0.9278477
      2125.5000         0.4987       1903.055        63.1546       85.10738         0.4631       -48.2547      -3.943321              1      0.9373122
      2126.0000         0.4942       1908.557        63.4974       85.54582          0.461       -47.9716      -3.660221              1      0.9464445
      2126.5000         0.4901       1929.533        63.9494       86.12432         0.4589       -47.8354      -3.524021              1       0.950838
      2127.0000          0.486       1959.314        65.7468       88.42827         0.4559       -47.7756      -3.464222              1       0.952767
      2127.5000         0.4859        2001.34         66.989       90.02017         0.4522       -47.7183      -3.406921              1      0.9546154
      2128.0000         0.4819       2037.592        67.6968       90.92673         0.4484       -47.6978      -3.386421              1      0.9552767
      2128.5000         0.4782       2055.887        68.2739       91.66567         0.4447       -47.6772      -3.365822              1      0.9559413
      2129.0000         0.4754        2062.18        68.2717       91.66167         0.4418       -47.6568      -3.345421              1      0.9565994
      2129.5000          0.474           2065        68.1641       91.52252         0.4417       -47.6465      -3.335121              1      0.9569316
      2130.0000         0.4735       2065.047        68.0564       91.38319         0.4416       -47.7233      -3.411922              1      0.9544541
      2130.5000         0.4735       2052.875        67.8075       91.06284         0.4415          -47.8      -3.488621              1        0.95198
      2131.0000         0.4741       2032.867        66.8795       89.87152          0.446       -47.9035      -3.592121              1      0.9486412
