#------------------------------------------------------------------------------
# Created by    : vladimir.rabinovich
# Created on    : 09/19/2023 17:21:04
#------------------------------------------------------------------------------
~Version Information Section
VERS.           2.0     :   CWLS log ASCII Standard - VERSION 2.0
WRAP.           NO      :   One line per depth step
~Well Information Section
#MNEM       .UNIT                                         VALUE :DESCRIPTION
#------------------------------------------------------------------------------
STRT        .FT                                            4500 :START DEPTH
STOP        .FT                                           11014 :STOP DEPTH
STEP        .FT                                             0.5 :STEP      
NULL        .                                           -999.25 :NULL      
COMP        .                              FIELDWOOD ENERGY LLC :COMPANY   
WELL        .                               OCS G06156 ST00BP00 :WELL      
FLD         .                            HIGH ISLAND BLOCK 0116 :FIELD     
LOC         .                                                   :LOCATION  
CNTY        .                           HIGH ISLAND LARGE BLOCK :LOCATION  
STAT        .                                             TEXAS :STATE     
CTRY        .                                     UNITED STATES :COUNTRY   
SRVC        .                                                   :SERVICE COMPANY
DATE        .                             9/13/2023 11:19:57 AM :LOG DATE  
API         .                                    42708404240000 :API NUMBER
UWI         .                                    42708404240000 :UNIQUE WELL ID
XCOORD      .                                  1333979.30181128 :SURFACE X 
YCOORD      .                                  10635798.2403082 :SURFACE Y 
LAT         .                                         29.303317 :LATITUDE  
LON         .                                        -93.961735 :LONGITUDE 
ELEV        .FT                                             101 :ELEVATION VALUE
ELEV_TYPE   .                                                KB :ELEVATION REFERENCE TYPE
~Curve Information Section
#MNEM       .UNIT                                      API CODE :CURVE DESCRIPTION
#------------------------------------------------------------------------------
DEPT        .FT                                                 :DEPTH     
AT10        .OHMM                                               :          
AT20        .OHMM                                               :          
AT30        .OHMM                                               :          
AT60        .OHMM                                               :          
AT90        .OHMM                                               :          
CALI        .IN                                                 :          
DCAL        .IN                                                 :          
DPHI        .DEC                                                :          
DRHO        .G/C3                                               :          
DT2R        .US/F                                               :          
DT4P        .US/F                                               :          
GR          .GAPI                                               :          
GR_NORM     .GAPI                                               :GammaRay Normalized
NPOR        .DEC                                                :          
SP          .MV                                                 :          
SP_NORM     .MV                                                 :SP Normalized
TENS        .LBF                                                :          
VSH_GR      .V/V                                                :Volume of Shale from GR
VSH_SP      .V/V                                                :Volume of Shale from SP
~A        DEPTH           AT10           AT20           AT30           AT60           AT90           CALI           DCAL           DPHI           DRHO           DT2R           DT4P             GR        GR_NORM           NPOR             SP        SP_NORM           TENS         VSH_GR         VSH_SP
# ...
     10980.0000         0.3023         0.2857         0.2935         0.2944         0.2851        -999.25        -999.25        -999.25        -999.25       340.4585       129.6204        -999.25       82.02646        -999.25        -49.416      -10.15957       3916.281              1      0.8548633
     10980.5000         0.3025         0.2858         0.2927         0.2932         0.2855        -999.25        -999.25        -999.25        -999.25       338.8579       129.5203        -999.25        -999.25        -999.25       -49.7244      -10.60932       4015.891        -999.25      0.8484383
     10981.0000         0.3026         0.2855         0.2925         0.2921         0.2858        -999.25        -999.25        -999.25        -999.25       337.6621       129.5203        -999.25        -999.25        -999.25       -49.7319      -10.62025       4105.789        -999.25      0.8482821
     10981.5000         0.3028         0.2864          0.292          0.291         0.2858        -999.25        -999.25        -999.25        -999.25       338.4614       129.7202        -999.25        -999.25        -999.25       -49.5908      -10.41448       4115.766        -999.25      0.8512216
     10982.0000         0.3029         0.2873         0.2902           0.29         0.2857        -999.25        -999.25        -999.25        -999.25       339.2607       129.7207        -999.25        -999.25        -999.25       -49.2401      -9.903048       4085.828        -999.25      0.8585279
     10982.5000         0.3031          0.288         0.2885         0.2902         0.2845        -999.25        -999.25        -999.25        -999.25       339.2607       129.8201        -999.25        -999.25        -999.25       -49.0819      -9.672339       4055.793        -999.25      0.8618237
     10983.0000         0.3032         0.2859          0.287         0.2905          0.283        -999.25        -999.25        -999.25        -999.25       340.0596       129.9199        -999.25        -999.25        -999.25       -48.9242      -9.442356       3976.047        -999.25      0.8651092
     10983.5000         0.3026         0.2831         0.2872         0.2908         0.2813        -999.25        -999.25        -999.25        -999.25       342.4531       130.3196        -999.25        -999.25        -999.25       -48.7663      -9.212088       3896.207        -999.25      0.8683987
     10984.0000         0.3013         0.2799         0.2885         0.2906         0.2791        -999.25        -999.25        -999.25        -999.25       346.0532       130.6194        -999.25        -999.25        -999.25       -48.6083      -8.981669       3856.285        -999.25      0.8716905
     10984.5000            0.3         0.2766         0.2871         0.2873         0.2777        -999.25        -999.25        -999.25        -999.25       346.4531       130.0195        -999.25        -999.25        -999.25       -48.4493      -8.749794       3816.367        -999.25      0.8750029
     10985.0000         0.2985         0.2735         0.2848         0.2834         0.2772        -999.25        -999.25        -999.25        -999.25       347.2524       129.8201        -999.25        -999.25        -999.25        -48.143       -8.30311       3806.387        -999.25      0.8813841
     10985.5000         0.2973         0.2705         0.2805         0.2783         0.2768        -999.25        -999.25        -999.25        -999.25       348.8511         129.72        -999.25        -999.25        -999.25       -47.9841       -8.07138       3796.406        -999.25      0.8846946
     10986.0000         0.2963         0.2713         0.2773         0.2739         0.2771        -999.25        -999.25        -999.25        -999.25       350.0498       129.8201        -999.25        -999.25        -999.25       -47.9766      -8.060443       3786.426        -999.25      0.8848508
     10986.5000         0.2955         0.2725         0.2742         0.2698         0.2775        -999.25        -999.25        -999.25        -999.25        -999.25        -999.25        -999.25        -999.25        -999.25       -47.9691      -8.049505       3786.426        -999.25      0.8850071
     10987.0000         0.2944          0.276         0.2734         0.2684         0.2777        -999.25        -999.25        -999.25        -999.25        -999.25        -999.25        -999.25        -999.25        -999.25       -47.9616      -8.038568       3786.426        -999.25      0.8851633
     10987.5000         0.2923         0.2794         0.2748         0.2709         0.2778        -999.25        -999.25        -999.25        -999.25        -999.25        -999.25        -999.25        -999.25        -999.25       -47.9542      -8.027776       3816.367        -999.25      0.8853175
     10988.0000         0.2906         0.2808          0.279         0.2775         0.2783        -999.25        -999.25        -999.25        -999.25        -999.25        -999.25        -999.25        -999.25        -999.25       -48.2476       -8.45565       3826.348        -999.25       0.879205
     10988.5000         0.2919         0.2821         0.2874         0.2851         0.2793        -999.25        -999.25        -999.25        -999.25        -999.25        -999.25        -999.25        -999.25        -999.25       -48.8411      -9.321169       3826.348        -999.25      0.8668404
     10989.0000         0.2951          0.282         0.2921         0.2902         0.2798        -999.25        -999.25        -999.25        -999.25        -999.25        -999.25        -999.25        -999.25        -999.25       -49.5875      -10.40967       3806.387        -999.25      0.8512904
     10989.5000         0.2968         0.2809         0.2937         0.2884           0.28        -999.25        -999.25        -999.25        -999.25        -999.25        -999.25        -999.25        -999.25        -999.25       -49.7289      -10.61588       3806.387        -999.25      0.8483446
     10990.0000         0.2971         0.2799         0.2902         0.2859         0.2789        -999.25        -999.25        -999.25        -999.25        -999.25        -999.25        -999.25        -999.25        -999.25       -49.2708      -9.947819       3816.367        -999.25      0.8578883
     10990.5000         0.2958         0.2787         0.2867          0.283         0.2775        -999.25        -999.25        -999.25        -999.25        -999.25        -999.25        -999.25        -999.25        -999.25       -48.5103      -8.838754       3826.348        -999.25      0.8737321
     10991.0000         0.2927         0.2773         0.2836           0.28         0.2763        -999.25        -999.25        -999.25        -999.25        -999.25        -999.25        -999.25        -999.25        -999.25       -48.5028      -8.827817       3856.285        -999.25      0.8738883
     10991.5000          0.291         0.2759         0.2806         0.2774          0.275        -999.25        -999.25        -999.25        -999.25        -999.25        -999.25        -999.25        -999.25        -999.25       -48.1944      -8.378068       3866.266        -999.25      0.8803133
     10992.0000         0.2902         0.2745         0.2776         0.2748         0.2741        -999.25        -999.25        -999.25        -999.25        -999.25        -999.25        -999.25        -999.25        -999.25       -47.7632      -7.749232       3866.266        -999.25      0.8892967
     10992.5000         0.2903          0.273         0.2758         0.2722         0.2736        -999.25        -999.25        -999.25        -999.25        -999.25        -999.25        -999.25        -999.25        -999.25       -47.3119      -7.091089       3846.305        -999.25      0.8986987
     10993.0000          0.291         0.2715         0.2741         0.2696         0.2734        -999.25        -999.25        -999.25        -999.25        -999.25        -999.25        -999.25        -999.25        -999.25       -47.3119      -7.091089       3846.305        -999.25      0.8986987
