#------------------------------------------------------------------------------
# Created by    : vladimir.rabinovich
# Created on    : 09/19/2023 17:20:36
#------------------------------------------------------------------------------
~Version Information Section
VERS.           2.0     :   CWLS log ASCII Standard - VERSION 2.0
WRAP.           NO      :   One line per depth step
~Well Information Section
#MNEM       .UNIT                                         VALUE :DESCRIPTION
#------------------------------------------------------------------------------
STRT        .FT                                             504 :START DEPTH
STOP        .FT                                            9762 :STOP DEPTH
STEP        .FT                                             0.5 :STEP      
NULL        .                                           -999.25 :NULL      
COMP        .                                      SHELL OIL CO :COMPANY   
WELL        .                                OCS 00703 ST00BP00 :WELL      
FLD         .                                           WILDCAT :FIELD     
LOC         .                                                   :LOCATION  
CNTY        .                             GALVESTON LARGE BLOCK :LOCATION  
STAT        .                                             TEXAS :STATE     
CTRY        .                                     UNITED STATES :COUNTRY   
SRVC        .                                                   :SERVICE COMPANY
DATE        .                             9/13/2023 11:19:25 AM :LOG DATE  
API         .                                    42706000420000 :API NUMBER
UWI         .                                    42706000420000 :UNIQUE WELL ID
XCOORD      .                                  1132503.99790541 :SURFACE X 
YCOORD      .                                  10523078.0194322 :SURFACE Y 
LAT         .                                         28.987276 :LATITUDE  
LON         .                                        -94.589113 :LONGITUDE 
ELEV        .FT                                              83 :ELEVATION VALUE
ELEV_TYPE   .                                                KB :ELEVATION REFERENCE TYPE
~Curve Information Section
#MNEM       .UNIT                                      API CODE :CURVE DESCRIPTION
#------------------------------------------------------------------------------
DEPT        .FT                                                 :DEPTH     
ASN         .OHMM                                               :          
CILD        .MMHO                                               :          
DT          .US/F                                               :          
ILD         .OHMM                                               :          
LAT         .OHMM                                               :          
LN          .OHMM                                               :          
SP          .MV                                                 :          
SP_NORM     .MV                                                 :SP Normalized
VSH_SP      .V/V                                                :Volume of Shale from SP
~A        DEPTH            ASN           CILD             DT            ILD            LAT             LN             SP        SP_NORM         VSH_SP
# ...
      1723.0000          0.917        -999.25        -999.25        -999.25         0.6678         1.0582       -47.3511       1.087524              1
      1723.5000         0.9186        -999.25        -999.25        -999.25          0.668         1.0071       -47.7267      0.7108765              1
      1724.0000         0.9194        -999.25        -999.25        -999.25         0.6783         0.9728        -47.936      0.5005226              1
      1724.5000         0.9201        -999.25        -999.25        -999.25         0.6989         0.9385       -48.0142      0.4212761              1
      1725.0000         0.9211        -999.25        -999.25        -999.25         0.7194         0.9104       -47.6092      0.8252258              1
      1725.5000         0.9232        -999.25        -999.25        -999.25         0.7581         0.8896       -47.1975       1.235874              1
      1726.0000         0.9253        -999.25        -999.25        -999.25         0.8017         0.8689       -46.7266       1.705723              1
      1726.5000         0.9285        -999.25        -999.25        -999.25         0.8432         0.8518       -46.2285        2.20277              1
      1727.0000         0.9188        -999.25        -999.25        -999.25         0.8975         0.8374       -45.7746       2.655621              1
      1727.5000         0.9031        -999.25        -999.25        -999.25         0.9581         0.8236       -45.5609       2.868267              1
      1728.0000         0.8884        -999.25        -999.25        -999.25         1.0402         0.8195       -45.7195       2.708618              1
      1728.5000         0.8738        -999.25        -999.25        -999.25         1.0944         0.8155        -46.662       1.765068              1
      1729.0000         0.8498        -999.25        -999.25        -999.25         1.1448         0.8114       -47.6046      0.8214188              1
      1729.5000         0.8097        -999.25        -999.25        -999.25         1.1765         0.8203       -48.5939     -0.1689339              1
      1730.0000          0.749        -999.25        -999.25        -999.25         1.1953           0.83       -49.9393      -1.515385              1
      1730.5000         0.7248        -999.25        -999.25        -999.25         1.2018         0.8398       -51.3395      -2.916634      0.9517561
      1731.0000         0.7082        -999.25        -999.25        -999.25         1.1717         0.8401       -52.7449      -4.323086      0.8777323
      1731.5000         0.6939        -999.25        -999.25        -999.25         1.1378         0.8377       -54.0544      -5.633636       0.808756
      1732.0000         0.6828        -999.25        -999.25        -999.25         0.9933         0.8352       -56.0404      -7.620689      0.7041742
      1732.5000         0.6756        -999.25        -999.25        -999.25         0.8466         0.8328        -59.636      -11.21734      0.5148769
      1733.0000         0.6684        -999.25        -999.25        -999.25         0.5112         0.8304       -61.3031      -12.88549      0.4270794
      1733.5000         0.6613        -999.25        -999.25        -999.25         0.4296         0.8273       -60.8619      -12.44534      0.4502453
      1734.0000         0.6584        -999.25        -999.25        -999.25         0.4084         0.8228       -59.6137      -11.19819      0.5158846
      1734.5000         0.6556        -999.25        -999.25        -999.25         0.3889         0.8183       -58.5145      -10.10004      0.5736821
      1735.0000         0.6527        -999.25        -999.25        -999.25         0.4041         0.8138       -57.4685      -9.055088      0.6286796
      1735.5000         0.6542        -999.25        -999.25        -999.25         0.4203         0.8106       -56.8263      -8.413944       0.662424
      1736.0000         0.6561        -999.25        -999.25        -999.25         0.4366         0.8085       -56.1841      -7.772793      0.6961688
      1736.5000         0.6579        -999.25        -999.25        -999.25         0.4588         0.8063       -55.6829      -7.272644      0.7224924
      1737.0000         0.6609        -999.25        -999.25        -999.25         0.4978         0.8041       -55.3043      -6.895092      0.7423636
      1737.5000         0.6693        -999.25        -999.25        -999.25         0.5368         0.8049       -54.8715      -6.463345      0.7650871
      1738.0000         0.6776        -999.25        -999.25        -999.25         0.5758          0.809       -54.4111      -6.003994      0.7892635
      1738.5000         0.6875        -999.25        -999.25        -999.25         0.6043          0.813       -53.7838      -5.377747      0.8222238
      1739.0000         0.6988        -999.25        -999.25        -999.25         0.6328         0.8139       -52.8477      -4.442696      0.8714371
      1739.5000           0.71        -999.25        -999.25        -999.25         0.6613         0.8137       -51.9067       -3.50275      0.9209079
      1740.0000         0.7213        -999.25        -999.25        -999.25         0.6897         0.8134       -50.9282      -2.525299      0.9723527
      1740.5000         0.7324        -999.25        -999.25        -999.25         0.6872         0.8132       -50.1766       -1.77475              1
      1741.0000         0.7436        -999.25        -999.25        -999.25         0.6825         0.8058       -49.6202      -1.219402              1
      1741.5000         0.7547        -999.25        -999.25        -999.25         0.6805         0.8012       -49.2313     -0.8315506              1
      1742.0000         0.7625        -999.25        -999.25        -999.25         0.6807         0.8017       -49.6442      -1.245502              1
      1742.5000         0.7522        -999.25        -999.25        -999.25          0.681         0.8023       -50.2331      -1.835453              1
      1743.0000         0.7419        -999.25        -999.25        -999.25         0.6812         0.8028        -50.822      -2.425404      0.9776103
      1743.5000         0.7312        -999.25        -999.25        -999.25         0.7077         0.8034        -51.411      -3.015453      0.9465551
      1744.0000         0.7179        -999.25        -999.25        -999.25         0.7342         0.8039       -51.9775      -3.583008      0.9166838
      1744.5000         0.7059        -999.25        -999.25        -999.25         0.7643         0.8044       -52.5245      -4.131058      0.8878391
      1745.0000         0.7078        -999.25        -999.25        -999.25         0.8035         0.8049       -52.2709      -3.878506      0.9011313
      1745.5000         0.7146        -999.25        -999.25        -999.25          0.825         0.8055       -51.8922      -3.500858      0.9210075
      1746.0000         0.7208        -999.25        -999.25        -999.25         0.8327          0.806       -51.5137      -3.123405      0.9408734
      1746.5000          0.727        -999.25        -999.25        -999.25         0.8404         0.8092        -51.135      -2.745758      0.9607496
      1747.0000         0.7333        -999.25        -999.25        -999.25          0.848         0.8156       -50.6064      -2.218208      0.9885154
      1747.5000         0.7396        -999.25        -999.25        -999.25         0.8397         0.8221       -50.0633      -1.676163              1
      1748.0000         0.7466        -999.25        -999.25        -999.25          0.828         0.8285       -49.5554      -1.169312              1
      1748.5000         0.7537        -999.25        -999.25        -999.25         0.7995         0.8364       -49.2435     -0.8584633              1
      1749.0000         0.7607        -999.25        -999.25        -999.25         0.7676         0.8475       -48.9315     -0.5475121              1
