#------------------------------------------------------------------------------
# Created by    : vladimir.rabinovich
# Created on    : 09/19/2023 17:19:48
#------------------------------------------------------------------------------
~Version Information Section
VERS.           2.0     :   CWLS log ASCII Standard - VERSION 2.0
WRAP.           NO      :   One line per depth step
~Well Information Section
#MNEM       .UNIT                                         VALUE :DESCRIPTION
#------------------------------------------------------------------------------
STRT        .FT                                             130 :START DEPTH
STOP        .FT                                            9502 :STOP DEPTH
STEP        .FT                                             0.5 :STEP      
NULL        .                                           -999.25 :NULL      
COMP        .            MOBIL PRODUCING TEXAS & NEW MEXICO INC :COMPANY   
WELL        .                               OCS G07243 ST00BP00 :WELL      
FLD         .                                           WILDCAT :FIELD     
LOC         .                                                   :LOCATION  
CNTY        .                             GALVESTON LARGE BLOCK :LOCATION  
STAT        .                                             TEXAS :STATE     
CTRY        .                                     UNITED STATES :COUNTRY   
SRVC        .                                                   :SERVICE COMPANY
DATE        .                             9/13/2023 11:19:36 AM :LOG DATE  
API         .                                    42706401330000 :API NUMBER
UWI         .                                    42706401330000 :UNIQUE WELL ID
XCOORD      .                                  993943.906145108 :SURFACE X 
YCOORD      .                                  10496155.9223708 :SURFACE Y 
LAT         .                                         28.907432 :LATITUDE  
LON         .                                        -95.020991 :LONGITUDE 
ELEV        .FT                                              92 :ELEVATION VALUE
ELEV_TYPE   .                                                KB :ELEVATION REFERENCE TYPE
~Curve Information Section
#MNEM       .UNIT                                      API CODE :CURVE DESCRIPTION
#------------------------------------------------------------------------------
DEPT        .FT                                                 :DEPTH     
ASFL        .OHMM                                               :          
CILD        .MMHO                                               :          
DT          .US/F                                               :          
GR          .GAPI                                               :          
GR_NORM     .GAPI                                               :GammaRay Normalized
ILD         .OHMM                                               :          
SP          .MV                                                 :          
SP_NORM     .GAPI                                               :SP Normalized
VSH_GR      .V/V                                                :Volume of Shale from GR
VSH_SP      .V/V                                                :Volume of Shale from SP
~A        DEPTH           ASFL           CILD             DT             GR        GR_NORM            ILD             SP        SP_NORM         VSH_GR         VSH_SP
# ...
      8876.5000         1.2558       1049.961         86.604        73.2972       66.32111         0.8805         75.485      -12.94322      0.7089597      0.7842798
      8877.0000         1.2199       1031.971        87.2894        75.9502       70.26449         0.9089        74.9026      -13.56954      0.7928615       0.773841
      8877.5000         1.1865       1013.979        90.8145        78.2377       73.66459         0.9373        74.2996      -14.21805       0.865204      0.7630325
      8878.0000         1.1523       1007.004        95.9543        79.2723       75.20239         0.9658        74.2823       -14.2358      0.8979232      0.7627367
      8878.5000         1.1149       1011.385         96.897        80.0851       76.41052         0.9873        74.5913      -13.90216      0.9236282      0.7682973
      8879.0000         1.1277       1020.331        92.7565        80.8978       77.61851         1.0087        74.9026      -13.56603        0.94933      0.7738994
      8879.5000         1.1434       1033.023        91.9799         81.756       78.89413         1.0301        75.2164      -13.22723      0.9764708      0.7795462
      8880.0000          1.159       1051.576        92.9806        82.6375       80.20437         1.0365        75.5303      -12.88831              1      0.7851949
      8880.5000         1.1747       1070.131        90.3387        83.5188       81.51433         1.0164        75.8441      -12.54948              1      0.7908419
      8881.0000         1.1888       1088.684        89.2213        84.3218        82.7079         0.9964         76.158      -12.21057              1      0.7964905
      8881.5000          1.197       1107.238        89.8917           84.1       82.37822         0.9765        76.4718      -11.87175              1      0.8021376
      8882.0000         1.1726       1125.791        89.9512        80.3768       76.84411         0.9564        76.7911      -11.52701      0.9328534      0.8078832
      8882.5000         1.1471       1148.727        91.3049        81.4839       78.48969         0.9364        77.1423      -11.14792      0.9678656      0.8142014
      8883.0000         1.1214       1172.715        97.0914        83.0334       80.79283         0.9164        77.4943      -10.76797              1      0.8205339
      8883.5000         1.0877       1196.654        97.6686        84.6589       83.20895         0.8906        77.8455      -10.38888              1       0.826852
      8884.0000         1.0463       1220.643        99.1721        86.2036       85.50498         0.8647        78.1973      -10.00914              1      0.8331811
      8884.5000         1.0904       1200.447       101.2493        87.7802        87.8484         0.8388        77.6414      -10.60692              1       0.823218
      8885.0000          1.147       1177.244       100.1754        88.6357       89.12001         0.8143         76.104      -12.26172              1       0.795638
      8885.5000         1.2016       1152.105        93.4749        89.2904       90.09314         0.7971        73.8385       -14.7006              1        0.75499
      8886.0000         1.2268       1120.971         89.556        89.6747       90.66437         0.8327        72.1714      -16.49506              1      0.7250823
      8886.5000          1.245       1089.785        85.9866        88.2606       88.56247         0.8679        71.0594      -17.69173              1      0.7051379
      8887.0000         1.2565        1058.65        85.3542        86.2428       85.56323         0.8982        70.3374      -18.46839              1      0.6921936
      8887.5000          1.268       1027.318        85.4149        78.3137       73.77755         0.9285        70.6622      -18.11773      0.8676074      0.6980378
      8888.0000         1.2785       995.1074         85.184        74.2142        67.6841         0.9588        71.3978      -17.32467      0.7379597      0.7112554
      8888.5000         1.2846       998.9746        82.9768        72.1425       64.60477         0.9784        72.1333      -16.53171      0.6724418      0.7244714
      8889.0000          1.274       1035.494        84.8247        77.9312         73.209         0.9718        72.8689      -15.73866      0.8555107       0.737689
      8889.5000         1.2576        1068.49        87.1284        80.7655       77.42188         0.9652        73.6019       -14.9484      0.9451463      0.7508601
      8890.0000         1.2175       1087.877        89.1423        83.4086       81.35053         0.9586        74.2996      -14.19615              1      0.7633976
      8890.5000         1.1227       1107.238        93.9009        86.2428       85.56323         0.9467        74.9971      -13.44412              1      0.7759313
      8891.0000         1.1711       1128.705         95.189          88.42       88.79939          0.931        75.6946      -12.69208              1      0.7884653
      8891.5000         1.3171       1153.328        92.9342        86.9661       86.63834         0.9152        76.2107      -12.13542              1      0.7977431
      8892.0000         1.3878        1140.43        95.4366        85.2866       84.14196          0.908        75.0951      -13.33595              1      0.7777341
      8892.5000         1.4319       1127.555        89.8879        82.8446        80.5122         0.9231        73.9807       -14.5352              1      0.7577466
      8893.0000          1.455       1114.654        85.8998        78.3529       73.83581         0.9383        72.7524      -15.85711       0.868847      0.7357149
      8893.5000         1.5024       1090.766        81.7334        73.9249       67.25409         0.9554        71.5192      -17.18429      0.7288104      0.7135952
      8894.0000         1.6572       1065.848        82.4913        71.3555       63.43498         0.9748        70.3226      -18.47206      0.6475527      0.6921324
      8894.5000         1.6691        1040.93        87.8567        68.6438       59.40434         0.9941        69.2635      -19.61176      0.5617945      0.6731373
      8895.0000         1.2906       1015.962         93.014        67.0746       57.07191         1.0134        70.4648      -18.31717      0.5121683      0.6947138
      8895.5000         1.1357       949.6289        93.5714        75.2343       69.20036         1.0277        71.7054      -16.98027      0.7702205      0.7169955
      8896.0000         1.1362       949.7754         89.016        78.4706       74.01076         1.0361        73.0588      -15.52188      0.8725693       0.741302
      8896.5000          1.169       968.3291        85.5022         81.604       78.66819         1.0445        74.4148      -14.06069      0.9716636      0.7656551
      8897.0000         1.1926       986.8828        83.0215        80.2285       76.62368         1.0499        75.7191      -12.65519      0.9281634      0.7890801
      8897.5000         1.2068       999.9785         82.739        78.1273       73.50048         1.0474        76.8297      -11.45829      0.8617123      0.8090285
      8898.0000         1.2612       1016.316        85.5134        70.0544       61.50105          0.915        77.5975      -10.63054      0.6064052      0.8228244
      8898.5000         1.2904       964.9805         88.808        68.7411       59.54896         0.8949        78.0254      -10.16886      0.5648715       0.830519
      8899.0000         1.3733       976.0088        93.7969        67.5782       57.82046         0.8703        78.4733      -9.685628      0.5280948      0.8385729
      8899.5000         1.4135       1221.322        97.1558         69.144       60.14783         0.8457        78.9054      -9.219404      0.5776134      0.8463433
      8900.0000         1.2837        1265.24        99.7271        70.7585       62.54761         0.8211        79.2775      -8.817817      0.6286725      0.8530364
      8900.5000         1.1538       1303.305        100.381        72.3292       64.88227         0.7965        79.6495      -8.416321      0.6783462       0.859728
