#------------------------------------------------------------------------------
# Created by    : vladimir.rabinovich
# Created on    : 09/19/2023 17:20:10
#------------------------------------------------------------------------------
~Version Information Section
VERS.           2.0     :   CWLS log ASCII Standard - VERSION 2.0
WRAP.           NO      :   One line per depth step
~Well Information Section
#MNEM       .UNIT                                         VALUE :DESCRIPTION
#------------------------------------------------------------------------------
STRT        .FT                                            1664 :START DEPTH
STOP        .FT                                            5300 :STOP DEPTH
STEP        .FT                                             0.5 :STEP      
NULL        .                                           -999.25 :NULL      
COMP        .                       CORPUS CHRISTI OIL & GAS CO :COMPANY   
WELL        .                                ST TR 00597-L NE/4 :WELL      
FLD         .                                           WILDCAT :FIELD     
LOC         .                                                   :LOCATION  
CNTY        .                      MATAGORDA ISLAND LARGE BLOCK :LOCATION  
STAT        .                                             TEXAS :STATE     
CTRY        .                                     UNITED STATES :COUNTRY   
SRVC        .                                                   :SERVICE COMPANY
DATE        .                             9/13/2023 11:12:01 AM :LOG DATE  
API         .                                    42703301570000 :API NUMBER
UWI         .                                    42703301570000 :UNIQUE WELL ID
XCOORD      .                                   499677.54355151 :SURFACE X 
YCOORD      .                                  10240770.6634848 :SURFACE Y 
LAT         .                                        28.1741034 :LATITUDE  
LON         .                                       -96.5406837 :LONGITUDE 
ELEV        .FT                                              79 :ELEVATION VALUE
ELEV_TYPE   .                                                KB :ELEVATION REFERENCE TYPE
~Curve Information Section
#MNEM       .UNIT                                      API CODE :CURVE DESCRIPTION
#------------------------------------------------------------------------------
DEPT        .FT                                                 :DEPTH     
ASFL        .OHMM                                               :          
CILD        .MMHO                                               :          
ILD         .OHMM                                               :          
SP          .MV                                                 :          
SP_NORM     .MV                                                 :SP Normalized
VSH_SP      .V/V                                                :Volume of Shale from SP
~A        DEPTH           ASFL           CILD            ILD             SP        SP_NORM         VSH_SP
# ...
      2158.0000         0.8197       2252.327          0.444      -112.2965      -30.49812      0.1364205
      2158.5000         0.7735       2276.241         0.4393       -112.595      -30.81408      0.1268461
      2159.0000         0.7121       2340.031         0.4273      -112.8935      -31.13004      0.1172717
      2159.5000         0.7081       2340.008         0.4273       -113.192      -31.44598      0.1076975
      2160.0000         0.7081       2332.022         0.4288      -111.9906      -30.26204      0.1435746
      2160.5000         0.7345       2316.033         0.4318      -109.8892      -28.17809      0.2067244
      2161.0000          0.761       2212.256          0.452      -106.8879      -25.19425      0.2971439
      2161.5000         0.7874       2188.285          0.457      -103.8865       -22.2103      0.3875668
      2162.0000         0.8161       2156.305         0.4638       -104.185      -22.52625      0.3779923
      2162.5000          0.794       2132.333          0.469      -103.2821      -21.64081       0.404824
      2163.0000         0.7719       2204.134         0.4537      -103.5232      -21.89937      0.3969888
      2163.5000         0.7498       2275.935         0.4394      -104.1806      -22.57422      0.3765388
      2164.0000         0.7278       2395.623         0.4174      -111.3789      -29.78997      0.1578797
      2164.5000         0.7041       2443.482         0.4093       -110.476      -28.90453      0.1847113
      2165.0000         0.7121       2507.331         0.3988       -110.176      -28.62198      0.1932734
      2165.5000         0.7161       2563.172         0.3901      -109.8745      -28.33793      0.2018809
      2166.0000         0.7201        2595.07         0.3853       -111.373      -29.85389      0.1559427
      2166.5000         0.7201       2642.905         0.3784      -113.7714      -32.26974       0.082735
      2167.0000         0.7161       2746.662         0.3641      -113.7699      -32.28569     0.08225181
      2167.5000         0.7041       2778.561         0.3599      -113.4685      -32.00175     0.09085615
      2168.0000         0.7001        2802.48         0.3568       -113.767       -32.3177     0.08128172
      2168.5000         0.7001       2858.324         0.3499      -113.7655      -32.33366     0.08079806
      2169.0000         0.7041       2930.132         0.3413       -114.364      -32.94961      0.0621331
      2169.5000         0.7161       2970.015         0.3367      -114.9625      -33.56557     0.04346767
      2170.0000         0.7201        2969.99         0.3367       -116.761      -35.38152              0
      2170.5000         0.7281       3065.744         0.3262      -116.7595      -35.39748              0
      2171.0000         0.7242       3097.646         0.3228      -116.7581      -35.41353              0
      2171.5000         0.7162       3147.089         0.3179      -115.8566      -34.52948     0.01425818
      2172.0000         0.7002       3178.992         0.3195      -115.5552      -34.24554     0.02286252
      2172.5000         0.6922       3065.624         0.3262      -113.7538      -32.46159      0.0769214
      2173.0000         0.6842       2937.892         0.3404      -113.7523      -32.47754     0.07643821
      2173.5000         0.6922       2810.158         0.3559      -113.4508       -32.1935     0.08504555
      2174.0000         0.7042       2690.405         0.3717      -113.1494      -31.90955     0.09364989
      2174.5000         0.7042       2690.379         0.3717      -112.5479      -31.32551      0.1113482
      2175.0000         0.7522       2522.707         0.3964       -111.645      -30.44006      0.1381801
      2175.5000         0.7642       2530.689         0.3951      -111.3436      -30.15611      0.1467845
      2176.0000         0.7682       2538.644         0.3939      -111.3421      -30.17207      0.1463008
      2176.5000         0.7602       2682.294         0.3728      -111.3406      -30.18803      0.1458174
      2177.0000         0.7522       2770.071          0.361      -111.3392      -30.20408       0.145331
      2177.5000         0.7402       2849.867         0.3509      -110.1377      -29.02003      0.1812111
      2178.0000         0.7242       2905.717         0.3441      -108.9363      -27.83609      0.2170882
      2178.5000         0.7042       2977.532         0.3358      -107.4649      -26.38213      0.2611475
      2179.0000         0.6842       2977.507         0.3359       -99.3623      -18.29699      0.5061519
      2179.5000         0.6682       2929.589         0.3413       -94.4373      -13.38945      0.6548651
      2180.0000         0.6402         2664.8         0.3753       -89.5123      -8.481903      0.8035787
      2180.5000         0.6282        2400.01         0.4167       -84.5873      -3.574356      0.9522923
      2181.0000         0.6282       2135.221         0.4683       -80.7271      0.2683945              1
      2181.5000         0.6442       1870.432         0.5346       -80.7257      0.2523346              1
      2182.0000         0.6682       1605.642         0.6228       -81.0242    -0.06362152              1
      2182.5000         0.7002       1380.807         0.7242       -79.8228       1.120331              1
      2183.0000         0.7082       1372.792         0.7284       -79.8213       1.104378              1
      2183.5000         0.7442         1308.9          0.764       -77.1199       3.788315              1
      2184.0000         0.7803       1117.251         0.8951       -74.7185       6.172264              1
      2184.5000         0.7963       1101.286          0.908       -74.1171        6.75621              1
      2185.0000         0.8563       1053.356         0.9493       -74.1156       6.740257              1
      2185.5000         0.8683       1013.409         0.9868       -73.2142       7.624199              1
      2186.0000         0.8723       989.4267         1.0107       -73.2127       7.608246              1
      2186.5000         0.8763       981.4098         1.0189       -72.9113       7.892197              1
      2187.0000         0.8683       981.3756          1.019       -71.7098       9.076241              1
      2187.5000         0.8403       981.3415          1.019       -71.1084       9.660187              1
      2188.0000         0.8363       1013.239         0.9869       -70.2355       10.51563              1
      2188.5000         0.8173       1037.154         0.9642       -70.8355       9.898178              1
      2189.0000         0.7982       1077.035         0.9285       -72.0039       8.712326              1
      2189.5000         0.7792       1108.933         0.9018       -72.3025       8.396271              1
      2190.0000         0.7602       1132.849         0.8827        -72.301       8.380318              1
      2190.5000         0.7411       1252.562         0.7984       -72.5995       8.064362              1
      2191.0000         0.7221       1292.445         0.7737        -72.898       7.748405              1
      2191.5000         0.7083       1324.345         0.7551       -73.1965       7.432449              1
      2192.0000         0.7123       1340.279         0.7461       -73.4951       7.116402              1
      2192.5000         0.7123       1356.213         0.7373       -73.7936       6.800446              1
      2193.0000         0.7123       1356.181         0.7374       -74.3921       6.184494              1
      2193.5000         0.7123       1340.149         0.7462       -74.6906       5.868538              1
      2194.0000         0.7163        1324.15         0.7552       -74.6891       5.852585              1
      2194.5000         0.7243       1316.134         0.7598       -74.6877       5.836533              1
      2195.0000         0.7363       1284.168         0.7787       -74.9862       5.520576              1
      2195.5000         0.7483       1268.168         0.7885       -74.9847       5.504616              1
