#------------------------------------------------------------------------------
# Created by    : vladimir.rabinovich
# Created on    : 09/19/2023 17:20:32
#------------------------------------------------------------------------------
~Version Information Section
VERS.           2.0     :   CWLS log ASCII Standard - VERSION 2.0
WRAP.           NO      :   One line per depth step
~Well Information Section
#MNEM       .UNIT                                         VALUE :DESCRIPTION
#------------------------------------------------------------------------------
STRT        .FT                                             642 :START DEPTH
STOP        .FT                                           11989 :STOP DEPTH
STEP        .FT                                             0.5 :STEP      
NULL        .                                           -999.25 :NULL      
COMP        .                       CORPUS CHRISTI OIL & GAS CO :COMPANY   
WELL        .                               OCS G05177 ST00BP00 :WELL      
FLD         .                              GALVESTON BLOCK 0151 :FIELD     
LOC         .                                                   :LOCATION  
CNTY        .                             GALVESTON LARGE BLOCK :LOCATION  
STAT        .                                             TEXAS :STATE     
CTRY        .                                     UNITED STATES :COUNTRY   
SRVC        .                                                   :SERVICE COMPANY
DATE        .                             9/13/2023 11:19:27 AM :LOG DATE  
API         .                                    42706401010000 :API NUMBER
UWI         .                                    42706401010000 :UNIQUE WELL ID
XCOORD      .                                   1130272.6689428 :SURFACE X 
YCOORD      .                                  10609756.0111422 :SURFACE Y 
LAT         .                                         29.225567 :LATITUDE  
LON         .                                        -94.599775 :LONGITUDE 
ELEV        .FT                                              83 :ELEVATION VALUE
ELEV_TYPE   .                                                KB :ELEVATION REFERENCE TYPE
~Curve Information Section
#MNEM       .UNIT                                      API CODE :CURVE DESCRIPTION
#------------------------------------------------------------------------------
DEPT        .FT                                                 :DEPTH     
ASN         .OHMM                                               :          
CILD        .MMHO                                               :          
DT          .US/F                                               :          
ILD         .OHMM                                               :          
RHOB        .G/CC                                               :          
SP          .MV                                                 :          
SP_NORM     .MV                                                 :SP Normalized
VSH_SP      .V/V                                                :Volume of Shale from SP
~A        DEPTH            ASN           CILD             DT            ILD           RHOB             SP        SP_NORM         VSH_SP
# ...
      4418.0000          0.422       4516.219       123.9687         0.2045        -999.25      -129.6221      -65.21532     0.06835262
      4418.5000         0.4346       4520.789       124.4421         0.2037        -999.25      -129.1733      -64.76651     0.07476414
      4419.0000         0.4472       4525.352       125.3795         0.2054        -999.25      -128.7251      -64.31831     0.08116695
      4419.5000         0.4597       4556.625        126.317          0.207        -999.25      -128.2769      -63.87012     0.08756975
      4420.0000          0.473       4756.148        126.481         0.2081        -999.25      -127.8287      -63.42191     0.09397267
      4420.5000         0.4864       4883.484        125.717         0.2072        -999.25      -127.3805      -62.97372      0.1003755
      4421.0000         0.4958       4806.328       124.7982         0.2062        -999.25      -127.6993      -63.29252     0.09582116
      4421.5000          0.493       4283.773       123.7249         0.2052        -999.25      -128.2922      -63.88542     0.08735112
      4422.0000           0.49       4065.078       122.8061         0.2043        -999.25      -128.8152      -64.40842     0.07987976
      4422.5000          0.487       4040.813       121.5781         0.2033        -999.25       -129.335      -64.92822     0.07245396
      4423.0000         0.4838       4016.547       119.8804         0.2032        -999.25       -129.219      -64.81221     0.07411128
      4423.5000         0.4788       3992.281       118.3204           0.21        -999.25      -128.6589      -64.25212     0.08211256
      4424.0000         0.4738       3766.293       117.0395         0.2168        -999.25      -126.4009      -61.99412      0.1143698
      4424.5000         0.4743       3248.207       115.8947         0.2309        -999.25       -121.754      -57.34721      0.1807541
      4425.0000         0.4766       2915.336         115.44         0.2489        -999.25      -118.8188      -54.41202      0.2226855
      4425.5000          0.479       2608.949        114.983         0.2699        -999.25      -117.3817      -52.97491      0.2432155
      4426.0000         0.5029        2486.48       115.9228         0.2953        -999.25      -115.1627      -50.75591      0.2749155
      4426.5000         0.5219       2416.777       116.5508         0.3197        -999.25      -113.0925      -48.68571      0.3044898
      4427.0000         0.5364       2351.496       116.4032         0.3399        -999.25      -111.2072      -46.80042      0.3314227
      4427.5000         0.5501       2277.219       115.4845         0.3602        -999.25      -109.4882      -45.08141      0.3559798
      4428.0000          0.557       2176.266       116.7336         0.3769        -999.25      -106.9948      -42.58801      0.3915998
      4428.5000         0.5639       2514.699       118.1351         0.3878        -999.25      -103.4219      -39.01511      0.4426412
      4429.0000         0.5712       2229.129       118.7674         0.3987        -999.25       -99.7251      -35.31831      0.4954527
      4429.5000         0.5785       2443.059       117.5192         0.4056        -999.25       -89.9841      -25.57732      0.6346098
      4430.0000         0.6054       3025.633       116.4617         0.4112        -999.25        -85.097      -20.69022      0.7044255
      4430.5000         0.6389        3121.07       118.1748         0.4015        -999.25       -82.4502      -18.04342      0.7422369
      4431.0000         0.6714       3190.824       120.6591         0.3741        -999.25       -87.7366      -23.32982      0.6667169
      4431.5000         0.6925       3276.875       122.3699          0.349        -999.25      -112.2312      -47.82442       0.316794
      4432.0000         0.6451       3364.414       122.2246         0.3289        -999.25      -116.8688      -52.46201      0.2505427
      4432.5000         0.6313       3464.922       120.9965         0.3088        -999.25      -119.3058      -54.89902      0.2157283
      4433.0000         0.6182       3576.109       120.3848         0.2887        -999.25      -120.9481      -56.54131       0.192267
      4433.5000         0.6056       3538.152       120.2395         0.2793        -999.25      -119.7144      -55.30762      0.2098912
      4434.0000         0.5933       3391.191       120.4058         0.2767        -999.25      -118.1276      -53.72082      0.2325598
      4434.5000          0.581       3276.477       121.3433         0.2741        -999.25      -116.5406      -52.13382      0.2552311
      4435.0000         0.5691       3200.465       122.5901         0.2875        -999.25      -114.4788      -50.07201      0.2846855
      4435.5000         0.5594       2996.816       123.5294         0.3019        -999.25      -111.4993      -47.09251      0.3272498
      4436.0000         0.5532       2729.922       124.0153         0.3164        -999.25      -101.1113      -36.70451      0.4756498
      4436.5000         0.5482       2586.738       124.8112         0.3309        -999.25       -95.9304      -31.52361      0.5496626
      4437.0000         0.5483       2463.824       125.2594         0.3411        -999.25       -93.2706      -28.86382      0.5876598
      4437.5000         0.5483       2385.277       125.2687         0.3458        -999.25       -90.9546      -26.54781      0.6207455
      4438.0000         0.5484       2330.105       126.2062         0.3505        -999.25       -88.5498      -24.14301      0.6550998
      4438.5000         0.5502       2379.566       127.4529         0.3552        -999.25        -86.049      -21.64222      0.6908255
      4439.0000         0.5526       2441.371       128.5451         0.3599        -999.25       -84.4076      -20.00082       0.714274
      4439.5000         0.5549       2503.223       129.0184         0.3549        -999.25       -83.4077      -19.00092      0.7285584
      4440.0000         0.5573       2565.027       128.8708         0.3486        -999.25       -86.2006      -21.79382      0.6886598
      4440.5000         0.5617       2660.965       128.7278         0.3423        -999.25       -87.7596      -23.35281      0.6663884
      4441.0000         0.5725       2792.523        126.881          0.336        -999.25       -89.2411      -24.83431      0.6452241
      4441.5000         0.5833       2811.898       124.8796         0.3302        -999.25       -90.7032      -26.29642      0.6243369
      4442.0000         0.5999       2706.621       123.0008         0.3298        -999.25       -91.6283      -27.22152      0.6111212
      4442.5000         0.6187       2644.969       119.6721         0.3293        -999.25       -92.5525      -28.14571      0.5979184
      4443.0000          0.645       2583.313       114.8558         0.3288        -999.25       -95.4886      -31.08182       0.555974
      4443.5000         0.6636       2527.566       110.5342         0.3284        -999.25      -102.9464      -38.53962       0.449434
      4444.0000         0.6737       2493.039       105.2844         0.3287        -999.25      -103.6271      -39.22031      0.4397098
      4444.5000         0.6838       2466.824       101.7362         0.3337        -999.25      -104.3636      -39.95682      0.4291883
      4445.0000         0.6914       2458.059       101.4338         0.3387        -999.25      -105.5679      -41.16112       0.411984
      4445.5000         0.6898       2446.688       101.7549         0.3437        -999.25      -107.6084      -43.20161      0.3828341
      4446.0000         0.6883       2419.359       101.6072         0.3487        -999.25       -109.649      -45.24222      0.3536826
      4446.5000         0.6867       2344.887       101.0002         0.3539        -999.25      -111.7081      -47.30132      0.3242669
      4447.0000         0.6748       2238.914       100.3909         0.3729        -999.25      -113.5297      -49.12292       0.298244
