#------------------------------------------------------------------------------
# Created by    : vladimir.rabinovich
# Created on    : 09/19/2023 17:22:33
#------------------------------------------------------------------------------
~Version Information Section
VERS.           2.0     :   CWLS log ASCII Standard - VERSION 2.0
WRAP.           NO      :   One line per depth step
~Well Information Section
#MNEM       .UNIT                                         VALUE :DESCRIPTION
#------------------------------------------------------------------------------
STRT        .FT                                            2877 :START DEPTH
STOP        .FT                                            8775 :STOP DEPTH
STEP        .FT                                             0.5 :STEP      
NULL        .                                           -999.25 :NULL      
COMP        .                                       APACHE CORP :COMPANY   
WELL        .                                  HIGH ISLAND 10-L :WELL      
FLD         .                                           WILDCAT :FIELD     
LOC         .                                                   :LOCATION  
CNTY        .                           HIGH ISLAND LARGE BLOCK :LOCATION  
STAT        .                                             TEXAS :STATE     
CTRY        .                                     UNITED STATES :COUNTRY   
SRVC        .                                                   :SERVICE COMPANY
DATE        .                             9/13/2023 11:19:15 AM :LOG DATE  
API         .                                    42708303590000 :API NUMBER
UWI         .                                    42708303590000 :UNIQUE WELL ID
XCOORD      .                                  1323081.96300683 :SURFACE X 
YCOORD      .                                  10736101.4448574 :SURFACE Y 
LAT         .                                        29.5789626 :LATITUDE  
LON         .                                       -93.9986282 :LONGITUDE 
ELEV        .FT                                             100 :ELEVATION VALUE
ELEV_TYPE   .                                                KB :ELEVATION REFERENCE TYPE
~Curve Information Section
#MNEM       .UNIT                                      API CODE :CURVE DESCRIPTION
#------------------------------------------------------------------------------
DEPT        .FT                                                 :DEPTH     
CNCSS       .%                                                  :          
DCAL        .IN                                                 :          
GRR         .GAPI                                               :          
ILD         .OHMM                                               :          
ILM         .OHMM                                               :          
PORZSS      .%                                                  :          
RFOC        .OHMM                                               :          
SP          .MV                                                 :          
SP_NORM     .MV                                                 :SP Normalized
TENR        .LB                                                 :          
VSH_SP      .V/V                                                :Volume of Shale from SP
ZCOR        .G/CM3                                              :          
~A        DEPTH          CNCSS           DCAL            GRR            ILD            ILM         PORZSS           RFOC             SP        SP_NORM           TENR         VSH_SP           ZCOR
# ...
      6444.0000        38.0324         1.2329        79.8567         0.5363         0.5412        21.2015         0.8485        -6.9242     0.02940512       1238.356              1         0.0367
      6444.5000        37.1352         1.2532        80.0142         0.5563         0.5692        20.5305         0.8879        -6.1143      0.8406558       1238.138              1         0.0349
      6445.0000        36.2986         1.2635        83.1716         0.5798         0.5986         20.407         0.8838        -4.9044       2.051906        1237.92              1         0.0369
      6445.5000        36.5372         1.2838        87.3791          0.596         0.6098         20.527         0.8601        -3.8944       3.063256       1237.702              1          0.043
      6446.0000        39.9374         1.2841        87.5366         0.5988         0.6099        20.1595         0.8447        -3.8845       3.074506       1237.484              1         0.0512
      6446.5000        42.7397         1.2745         85.144         0.5908         0.6017        19.7306          0.864        -4.2745       2.685856       1247.205              1         0.0512
      6447.0000        43.3949          1.255        82.3015         0.5803         0.5964        19.8505         0.8798        -4.4645       2.497206       1227.117              1         0.0393
      6447.5000         42.196         1.2455         79.759         0.5674         0.5778        20.7642         0.8524        -4.6546       2.308456       1216.977              1         0.0334
      6448.0000        41.0608         1.2359        78.1164         0.5547         0.5572         21.801         0.8036        -5.4446       1.519806        1216.77              1         0.0355
      6448.5000        39.8086         1.2462        76.4739         0.5423         0.5448        22.7777         0.7818        -8.2345      -1.268743       1226.481              1         0.0336
      6449.0000        37.6654         1.2169        74.6817         0.5302         0.5302        23.4497         0.8146       -12.8243      -5.857193       1236.183      0.9535278         0.0237
      6449.5000        36.5351         1.1974        72.4407         0.5184         0.5208        23.7553         0.8798       -17.6141      -10.64564       1245.876      0.8958356         0.0099
      6450.0000        39.1493         1.1978        72.8968         0.5138         0.5209        23.4491         0.9166        -19.604      -12.63419       1235.751      0.8718772         -0.002
      6450.5000          42.72         1.2079           75.3         0.5139         0.5209        22.8971         0.9126       -18.7944      -11.82324       1235.503      0.8816477        -0.0079
      6451.0000          44.64         1.2277          78.75         0.5162         0.5162        22.8347         0.8882       -15.5877      -8.615192       1235.222      0.9202989        -0.0098
      6451.5000          47.22         1.2376          83.85         0.5162         0.5162        23.6872         0.8606        -11.785      -4.811142       1234.941      0.9661308         0.0003
      6452.0000        50.0792         1.2277          88.05         0.5233         0.5162        25.6236         0.8153        -8.7845      -1.809292       1244.577              1         0.0044
      6452.5000        53.4059         1.2178        90.5954         0.5281         0.5209        28.0735         0.7826        -6.3856      0.5909581       1264.147              1         0.0105
      6453.0000         52.396         1.2079          89.25         0.5378         0.5209        29.9416          0.765        -4.9862       1.991708       1273.808              1         0.0086
      6453.5000        49.7228          1.198           89.1         0.5378         0.5209          31.14          0.783        -3.7877       3.191559       1253.679              1         0.0107
      6454.0000        48.6535         1.1782        91.6398         0.5329         0.5162          30.78         0.7977        -3.3873       3.593308        1233.53              1         0.0228
      6454.5000          46.86         1.1683        95.3694         0.5329         0.5139        29.7075         0.7979        -3.3856       3.596359       1233.247              1         0.0289
      6455.0000          45.54         1.1188        97.3119         0.5329         0.5233        28.4784         0.7908         -3.583       3.400309       1232.963              1          0.029
      6455.5000           47.7         1.0891        96.2705         0.5378         0.5305        27.4238         0.7873        -3.7801       3.204559       1222.727              1         0.0251
      6456.0000        51.0297         1.0891        93.7343         0.5527         0.5452         26.661         0.7948         -4.176       2.810009       1222.438              1         0.0192
      6456.5000           47.7          1.099         91.345            0.6         0.5681        25.8974         0.8059        -4.1739       2.813459       1222.149              1         0.0233
      6457.0000          43.92          1.099           89.7         0.6372         0.6112        25.0159         0.8283        -4.3705       2.618209       1211.891              1         0.0234
      6457.5000        41.5248         1.1287           87.3         0.6613         0.6552        24.0165         0.8708        -4.3683        2.62176       1211.597              1         0.0295
      6458.0000        41.1089         1.1287          84.15         0.6993         0.6864        23.0564          0.895        -4.5646        2.42681       1231.257              1         0.0196
      6458.5000          43.26         1.1287          81.45         0.7495         0.7059        22.4578         0.9076        -4.9591        2.03366       1230.972              1         0.0197
      6459.0000          45.24         1.1287          79.95         0.7566         0.7061        22.3975         0.8793        -5.5514        1.44271       1220.699              1         0.0218
      6459.5000          44.16         1.1089          78.75         0.7567         0.7095        22.3373         0.8406         -7.134     -0.1385393       1220.408              1         0.0279
      6460.0000        40.0396         1.0891          77.25         0.6838         0.6934         22.218         0.8219        -9.7054       -2.70859       1220.117      0.9914628          0.038
      6460.5000        36.2376         1.0594        72.9208         0.5973         0.6376        21.8614          0.822       -15.2475       -8.24934           1210      0.9247068          0.042
      6461.0000          34.38         1.0198        66.6832         0.5233         0.5707        22.2772         0.8371          -21.2      -14.20049           1210      0.8530061           0.04
      6461.5000          33.72           0.93         60.297         0.4756            0.5        25.1176         0.8798          -40.8      -33.79914           1220      0.6168779           0.01
      6462.0000          32.58           0.84           56.4         0.4186         0.4462        28.1765         0.9293          -57.2      -50.19779           1230      0.4193037         -0.018
      6462.5000          31.26           0.77           53.4         0.3874         0.4148        29.5882         0.9336       -64.7525      -57.74894           1230       0.328326         -0.034
      6463.0000          31.44           0.69          50.55         0.3634         0.4018        29.2941         0.8798       -68.1188      -61.11388           1230      0.2877845         -0.044
      6463.5000           32.4           0.63          47.25         0.3409            0.4        28.8235         0.8333        -69.901      -62.89474           1220      0.2663285         -0.048
      6464.0000          33.06            0.6        44.5545         0.3332         0.4167        29.1176         0.8719       -71.8812      -64.87359           1220      0.2424869         -0.064
