#------------------------------------------------------------------------------
# Created by    : vladimir.rabinovich
# Created on    : 09/19/2023 17:19:50
#------------------------------------------------------------------------------
~Version Information Section
VERS.           2.0     :   CWLS log ASCII Standard - VERSION 2.0
WRAP.           NO      :   One line per depth step
~Well Information Section
#MNEM       .UNIT                                         VALUE :DESCRIPTION
#------------------------------------------------------------------------------
STRT        .FT                                             816 :START DEPTH
STOP        .FT                                            7470 :STOP DEPTH
STEP        .FT                                             0.5 :STEP      
NULL        .                                           -999.25 :NULL      
COMP        .                                   KERR-MCGEE CORP :COMPANY   
WELL        .                               OCS G05003 ST00BP00 :WELL      
FLD         .                                 BRAZOS BLOCK 0412 :FIELD     
LOC         .                                                   :LOCATION  
CNTY        .                                BRAZOS LARGE BLOCK :LOCATION  
STAT        .                                             TEXAS :STATE     
CTRY        .                                     UNITED STATES :COUNTRY   
SRVC        .                                                   :SERVICE COMPANY
DATE        .                             9/13/2023 11:19:08 AM :LOG DATE  
API         .                                    42704401140000 :API NUMBER
UWI         .                                    42704401140000 :UNIQUE WELL ID
XCOORD      .                                  819493.037302503 :SURFACE X 
YCOORD      .                                  10380289.6446028 :SURFACE Y 
LAT         .                                         28.579682 :LATITUDE  
LON         .                                        -95.558179 :LONGITUDE 
ELEV        .FT                                              90 :ELEVATION VALUE
ELEV_TYPE   .                                                KB :ELEVATION REFERENCE TYPE
~Curve Information Section
#MNEM       .UNIT                                      API CODE :CURVE DESCRIPTION
#------------------------------------------------------------------------------
DEPT        .FT                                                 :DEPTH     
ASFL        .OHMM                                               :          
CALI        .IN                                                 :          
CILD        .MMHO                                               :          
GR          .GAPI                                               :          
GR_NORM     .GAPI                                               :GammaRay Normalized
ILD         .OHMM                                               :          
ILM         .OHMM                                               :          
RHOB        .G/C3                                               :          
SP          .MV                                                 :          
SP_NORM     .MV                                                 :SP Normalized
VSH_GR      .V/V                                                :Volume of Shale from GR
VSH_SP      .V/V                                                :Volume of Shale from SP
~A        DEPTH           ASFL           CALI           CILD             GR        GR_NORM            ILD            ILM           RHOB             SP        SP_NORM         VSH_GR         VSH_SP
# ...
      1718.0000         0.9712        -999.25       1018.227        67.3489       69.12827         0.9698         0.8587        -999.25       -59.7802     -0.2563896      0.7686865              1
      1718.5000         0.9526        -999.25       1028.816        67.3334       69.09766         0.9676         0.8739        -999.25       -59.6365       -0.11269      0.7680354              1
      1719.0000         0.9462        -999.25       1041.525        68.0793       70.04227         0.9655         0.8878        -999.25       -59.4928     0.03100967      0.7881333              1
      1719.5000         0.9397        -999.25       1064.859        70.8864       73.62689         0.9538         0.8975        -999.25       -59.3491      0.1747131      0.8644019              1
      1720.0000         0.9371        -999.25       1093.277        76.9149       81.33757         0.9416         0.8928        -999.25       -59.1951      0.3287125              1              1
      1720.5000         0.9463        -999.25       1111.176        81.8658       87.66802         0.9294          0.883        -999.25       -59.0333      0.4905128              1              1
      1721.0000         0.9555        -999.25       1122.541        84.4607       90.98087         0.9171         0.8727        -999.25       -58.8716      0.6522102              1              1
      1721.5000         0.9652        -999.25       1133.518        85.4786       92.27386         0.9051         0.8568        -999.25       -58.7802      0.7436104              1              1
      1722.0000          0.975        -999.25       1141.063        84.6801       91.24036         0.8974         0.8499        -999.25       -59.0115        0.51231              1              1
      1722.5000         0.9827        -999.25       1148.605        84.0829        90.4647         0.8898         0.8594        -999.25       -59.2429      0.2809105              1              1
      1723.0000         0.9892        -999.25       1158.078         86.011       92.92348         0.8821         0.8571        -999.25       -59.4742     0.04961014              1              1
      1723.5000         0.9928        -999.25       1169.021        89.0487       96.80348         0.8744         0.8425        -999.25       -59.6824     -0.1585884              1              1
      1724.0000         0.9946        -999.25       1179.906        91.0376       99.34014         0.8688         0.8244        -999.25        -59.889     -0.3651886              1              1
      1724.5000          0.995        -999.25       1190.629        90.7153       98.91659         0.8677         0.8097        -999.25       -60.0955     -0.5716896              1              1
      1725.0000         0.9935        -999.25       1201.354        89.1387       96.88649         0.8666         0.8003        -999.25       -60.3019     -0.7780876              1              1
      1725.5000          0.992        -999.25       1205.498        86.8818       93.98504         0.8655         0.7982        -999.25       -60.5085     -0.9846878              1              1
      1726.0000         0.9905        -999.25        1207.17        87.5652       94.84959         0.8683         0.7983        -999.25        -60.715      -1.191189              1      0.9726873
      1726.5000          0.989        -999.25       1204.822        88.7705        96.3826         0.8786         0.8018        -999.25       -60.7929      -1.269089              1      0.9615588
      1727.0000         0.9875        -999.25       1201.166        89.8729       97.78382         0.8889         0.8115        -999.25       -60.8386      -1.314789              1      0.9550301
      1727.5000          0.986        -999.25       1197.512        90.2677       98.27872         0.8992         0.8244        -999.25       -60.8843      -1.360489              1      0.9485016
      1728.0000         0.9845        -999.25       1189.395        87.5922       94.84113         0.9159          0.848        -999.25       -60.9299       -1.40609              1      0.9419872
      1728.5000         0.9829        -999.25       1173.561        83.8788       90.07416          0.938         0.8785        -999.25       -60.9756       -1.45179              1      0.9354586
      1729.0000         0.9814        -999.25       1157.727        79.5482       84.51669         0.9602         0.9076        -999.25       -60.9974      -1.473587              1      0.9323447
      1729.5000         0.9799        -999.25       1141.895        78.7556       83.49074         0.9824         0.9327        -999.25       -60.9982      -1.474388              1      0.9322303
      1730.0000         0.9837        -999.25       1093.895        78.6893       83.39507         1.0053         0.9532        -999.25        -60.999      -1.475189              1      0.9321159
      1730.5000          0.992        -999.25       1042.789        79.8298       84.84509         1.0302         0.9655        -999.25       -60.9998       -1.47599              1      0.9320014
      1731.0000         1.0173        -999.25       996.3184        78.9397       83.69427         1.0551          0.975        -999.25       -61.0005      -1.476688              1      0.9319016
      1731.5000         1.1103        -999.25       963.5361        76.6407        80.7389           1.08         0.9823        -999.25       -61.0013      -1.477489              1      0.9317872
      1732.0000         1.0925        -999.25       942.4307        75.6537       79.46397         1.1048         0.9874        -999.25       -61.0021      -1.478291       0.988595      0.9316728
      1732.5000         1.0683        -999.25       936.5908        78.0042       82.46378         1.1053         0.9903        -999.25       -60.9924       -1.46859              1      0.9330586
      1733.0000         1.0435        -999.25       933.7861        79.9285        84.9177         1.1059          0.991        -999.25       -60.9557      -1.431889              1      0.9383016
      1733.5000         1.0201        -999.25       933.4775        80.7466       85.95477         1.1065         0.9936        -999.25       -60.9189      -1.395088              1      0.9435588
      1734.0000         1.0293        -999.25       933.1689        79.2362       84.00947          1.107         0.9941        -999.25       -60.8822      -1.358387              1      0.9488019
      1734.5000         1.0385        -999.25       932.8604        77.0371       81.18205         1.1076         0.9912        -999.25       -60.8455       -1.32169              1      0.9540443
      1735.0000         1.0474        -999.25       934.1182        75.6689       79.41888         1.1058         0.9924        -999.25       -60.8087      -1.284889      0.9876357      0.9593015
      1735.5000         1.0542        -999.25       937.8047        74.0334       77.31334         1.0967         0.9948        -999.25        -60.772      -1.248188       0.942837      0.9645446
      1736.0000         1.0573        -999.25       941.4902        71.9497       74.63373         1.0876         0.9852        -999.25        -60.772      -1.248188       0.885824      0.9645446
      1736.5000         1.0566        -999.25       945.1768        71.3523        73.8578         1.0786         0.9713        -999.25       -60.7728      -1.248989       0.869315      0.9644302
      1737.0000         1.0548        -999.25       959.6104        71.5746       74.13177         1.0695          0.953        -999.25       -60.7736       -1.24979       0.875144      0.9643157
      1737.5000         1.0446        -999.25       986.4697        71.5198       74.05083         1.0604         0.9376        -999.25       -60.7743      -1.250488      0.8734218      0.9642159
      1738.0000         1.0344        -999.25       1013.329        70.8728       73.21137         1.0164         0.9236        -999.25       -60.7751      -1.251289      0.8555611      0.9641015
