#------------------------------------------------------------------------------
# Created by    : vladimir.rabinovich
# Created on    : 09/19/2023 17:22:54
#------------------------------------------------------------------------------
~Version Information Section
VERS.           2.0     :   CWLS log ASCII Standard - VERSION 2.0
WRAP.           NO      :   One line per depth step
~Well Information Section
#MNEM       .UNIT                                         VALUE :DESCRIPTION
#------------------------------------------------------------------------------
STRT        .FT                                             606 :START DEPTH
STOP        .FT                                           12703 :STOP DEPTH
STEP        .FT                                             0.5 :STEP      
NULL        .                                           -999.25 :NULL      
COMP        .                                       PURE OIL CO :COMPANY   
WELL        .                                OCS 00099 ST00BP00 :WELL      
FLD         .                                           WILDCAT :FIELD     
LOC         .                                                   :LOCATION  
CNTY        .                             GALVESTON LARGE BLOCK :LOCATION  
STAT        .                                             TEXAS :STATE     
CTRY        .                                     UNITED STATES :COUNTRY   
SRVC        .                                                   :SERVICE COMPANY
DATE        .                             9/13/2023 11:19:42 AM :LOG DATE  
API         .                                    42706000130000 :API NUMBER
UWI         .                                    42706000130000 :UNIQUE WELL ID
XCOORD      .                                  1105531.03723184 :SURFACE X 
YCOORD      .                                  10576678.2721464 :SURFACE Y 
LAT         .                                         29.133654 :LATITUDE  
LON         .                                        -94.675857 :LONGITUDE 
ELEV        .FT                                              66 :ELEVATION VALUE
ELEV_TYPE   .                                                KB :ELEVATION REFERENCE TYPE
~Curve Information Section
#MNEM       .UNIT                                      API CODE :CURVE DESCRIPTION
#------------------------------------------------------------------------------
DEPT        .FT                                                 :DEPTH     
LAT         .OHMM                                               :          
LN          .OHMM                                               :          
SN          .OHMM                                               :          
SP          .MV                                                 :          
SP_NORM     .MV                                                 :SP Normalized
VSH_SP      .V/V                                                :Volume of Shale from SP
~A        DEPTH            LAT             LN             SN             SP        SP_NORM         VSH_SP
# ...
      5432.0000         0.4051         0.4555         0.3934        -61.816      -5.186317       0.914565
      5432.5000         0.4254         0.4537         0.3971       -60.8119      -4.228359      0.9341151
      5433.0000         0.4457          0.452         0.4006       -59.8079        -3.2705      0.9536633
      5433.5000          0.466         0.4502         0.4036       -58.8038      -2.312542      0.9732134
      5434.0000         0.4843         0.4484         0.4067       -57.7998      -1.354687      0.9927615
      5434.5000         0.4806         0.4466         0.4097        -56.262      0.1369667              1
      5435.0000         0.4769         0.4449         0.4127       -56.7289     -0.3760757              1
      5435.5000         0.4731         0.4435         0.4157       -59.6396      -3.332916      0.9523895
      5436.0000         0.4694         0.4456         0.4187       -62.5481       -6.28756      0.8920906
      5436.5000         0.4657         0.4477         0.4217       -65.4565        -9.2421      0.8317939
      5437.0000         0.4613         0.4499         0.4248       -68.2937      -12.12545      0.7729501
      5437.5000           0.45         0.4542         0.4278       -71.1041      -14.98199      0.7146533
      5438.0000         0.4387         0.4596         0.4287       -73.9144      -17.83843      0.6563586
      5438.5000         0.4275          0.465         0.4287       -72.4458      -16.41597      0.6853883
      5439.0000         0.4162         0.4704         0.4287       -69.9072      -13.92352      0.7362546
      5439.5000         0.4049         0.4757         0.4287       -67.0724      -11.13486       0.793166
      5440.0000         0.3936         0.4811         0.4287       -64.9351      -9.043701      0.8358428
      5440.5000         0.3824         0.4865         0.4287       -70.3998      -14.55455      0.7233765
      5441.0000         0.3711         0.4919         0.4287       -75.8646      -20.06549      0.6109083
      5441.5000         0.3598         0.4973         0.4287       -80.3153      -24.56233      0.5191361
      5442.0000         0.3486          0.502         0.4287       -83.3887      -27.68188      0.4554719
      5442.5000         0.3434         0.5043         0.4287       -82.7714      -27.11072      0.4671282
      5443.0000         0.3408         0.5067         0.4287       -80.2775      -24.66296      0.5170825
      5443.5000         0.3381          0.509         0.4287       -77.7812       -22.2128      0.5670857
      5444.0000         0.3354         0.5114         0.4287       -78.2649      -22.74265      0.5562724
      5444.5000         0.3327         0.5137         0.4287       -78.8978      -23.42169      0.5424145
      5445.0000         0.3317         0.5161         0.4287       -78.6805      -23.25053      0.5459076
      5445.5000         0.3436         0.5184         0.4287        -79.464      -24.08017       0.528976
      5446.0000         0.3556         0.5208         0.4287       -81.7306      -26.39292      0.4817772
      5446.5000         0.3675         0.5231         0.4287       -83.9972      -28.70566      0.4345783
      5447.0000         0.3794         0.5255         0.4287       -86.4198       -31.1744      0.3841958
      5447.5000         0.3913         0.5278         0.4287       -84.0796      -28.88034      0.4310134
      5448.0000         0.4047         0.5302         0.4287       -76.1632      -21.01009      0.5916308
      5448.5000         0.4305         0.5325         0.4346       -62.0511      -6.944138      0.8786911
      5449.0000         0.4562         0.5349         0.4441       -56.2743      -1.213478      0.9956433
      5449.5000          0.482         0.5372         0.4536       -54.1637      0.8509789              1
      5450.0000         0.5078          0.537         0.4631       -54.6234      0.3451347              1
      5450.5000         0.5328         0.5359         0.4632       -55.0836     -0.1612053              1
      5451.0000         0.5485         0.5349         0.4609       -55.5438     -0.6675491              1
      5451.5000         0.5641         0.5339         0.4585       -56.7913      -1.961193      0.9803838
      5452.0000         0.5798         0.5329         0.4562       -59.2362      -4.452232      0.9295463
      5452.5000         0.6059         0.5319         0.4539       -61.6811      -6.943275      0.8787087
      5453.0000         0.6309         0.5309         0.4515         -65.51      -10.81832      0.7996261
      5453.5000          0.598         0.5258         0.4492       -73.4175      -18.77197      0.6373067
      5454.0000         0.5639         0.5176         0.4468       -80.1838      -25.58441      0.4982774
      5454.5000         0.5118         0.5093         0.4445       -86.0676      -31.51435      0.3772582
      5455.0000         0.4598         0.5011         0.4422       -90.2777       -35.7706       0.290396
      5455.5000         0.4078         0.4928         0.4398       -93.5627      -39.10173      0.2224136
      5456.0000         0.3558         0.4846         0.4375       -97.6034      -43.18858      0.1390086
      5456.5000         0.3267         0.4763         0.4386       -98.4414      -44.07272      0.1209649
      5457.0000         0.3455         0.4681         0.4456       -89.7495      -35.42696       0.297409
      5457.5000         0.3644         0.4598         0.4527       -83.6294      -29.35301      0.4213672
      5458.0000         0.3832          0.462         0.4598       -79.0918      -24.86155      0.5130296
      5458.5000          0.402         0.4675         0.4668       -74.5541         -20.37      0.6046939
      5459.0000         0.4209          0.473         0.4739       -70.0209      -15.88293      0.6962667
      5459.5000         0.4397         0.4785         0.4809       -66.1519      -12.06008      0.7742841
      5460.0000         0.4586          0.484          0.488       -62.3854      -8.339722      0.8502098
      5460.5000         0.4657         0.4896         0.4947       -62.2918      -8.292267      0.8511782
      5461.0000         0.4675         0.4951         0.4995       -64.6453      -10.69191      0.8022059
      5461.5000         0.4693         0.5006         0.5042       -66.9988      -13.09155      0.7532336
      5462.0000         0.4711         0.5061         0.5089       -69.3501      -15.48899      0.7043063
      5462.5000         0.4493         0.5116         0.5136       -71.7036      -17.88863       0.655334
      5463.0000         0.4245         0.5172         0.5183       -73.9144      -20.14558      0.6092739
      5463.5000         0.3997         0.5227         0.5231       -76.1075      -22.38482       0.563575
      5464.0000         0.3749         0.5314         0.5278       -78.3005      -24.62397      0.5178782
      5464.5000         0.3501         0.5404         0.5325       -80.4913      -26.86091      0.4722263
      5465.0000         0.3368         0.5495         0.5372       -82.6844      -29.10015      0.4265274
      5465.5000         0.3482         0.5585          0.542       -84.8752      -31.33709      0.3808756
      5466.0000         0.3596         0.5661         0.5467       -87.2578      -33.76583      0.3313095
      5466.5000         0.3709          0.557         0.5514       -89.6937      -36.24788      0.2806554
      5467.0000         0.3823         0.5479         0.5561       -88.9226      -35.52292      0.2954506
      5467.5000         0.3922         0.5389         0.5558       -86.1367      -32.78317      0.3513638
      5468.0000         0.4019         0.5282          0.542       -83.3486      -30.04121      0.4073222
      5468.5000         0.4117         0.5173         0.5283       -80.5627      -27.30145      0.4632356
      5469.0000         0.4214         0.5064         0.5145        -77.623       -24.4079      0.5222878
      5469.5000         0.4311         0.4955         0.5008       -74.3424      -21.17344      0.5882972
