#------------------------------------------------------------------------------
# Created by    : vladimir.rabinovich
# Created on    : 09/19/2023 17:20:39
#------------------------------------------------------------------------------
~Version Information Section
VERS.           2.0     :   CWLS log ASCII Standard - VERSION 2.0
WRAP.           NO      :   One line per depth step
~Well Information Section
#MNEM       .UNIT                                         VALUE :DESCRIPTION
#------------------------------------------------------------------------------
STRT        .FT                                             520 :START DEPTH
STOP        .FT                                           11478 :STOP DEPTH
STEP        .FT                                             0.5 :STEP      
NULL        .                                           -999.25 :NULL      
COMP        .                                      SHELL OIL CO :COMPANY   
WELL        .                                OCS 00730 ST00BP00 :WELL      
FLD         .                                           WILDCAT :FIELD     
LOC         .                                                   :LOCATION  
CNTY        .                             GALVESTON LARGE BLOCK :LOCATION  
STAT        .                                             TEXAS :STATE     
CTRY        .                                     UNITED STATES :COUNTRY   
SRVC        .                                                   :SERVICE COMPANY
DATE        .                             9/13/2023 11:19:42 AM :LOG DATE  
API         .                                    42706000260000 :API NUMBER
UWI         .                                    42706000260000 :UNIQUE WELL ID
XCOORD      .                                  961416.888637646 :SURFACE X 
YCOORD      .                                  10353223.2377546 :SURFACE Y 
LAT         .                                         28.512881 :LATITUDE  
LON         .                                        -95.114699 :LONGITUDE 
ELEV        .FT                                              72 :ELEVATION VALUE
ELEV_TYPE   .                                                KB :ELEVATION REFERENCE TYPE
~Curve Information Section
#MNEM       .UNIT                                      API CODE :CURVE DESCRIPTION
#------------------------------------------------------------------------------
DEPT        .FT                                                 :DEPTH     
ASN         .OHMM                                               :          
CILD        .MMHO                                               :          
ILD         .OHMM                                               :          
LAT         .OHMM                                               :          
LN          .OHMM                                               :          
SP          .MV                                                 :          
SP_NORM     .MV                                                 :SP Normalized
VSH_SP      .V/V                                                :Volume of Shale from SP
~A        DEPTH            ASN           CILD            ILD            LAT             LN             SP        SP_NORM         VSH_SP
# ...
      1257.5000         0.9358        -999.25        -999.25         0.6417         0.6342        -66.455      -12.18861      0.3207596
      1258.0000         0.9278        -999.25        -999.25         0.6442         0.6339       -67.3254      -13.06699      0.2622009
      1258.5000         0.9178        -999.25        -999.25         0.6468         0.6336       -68.1631      -13.91266      0.2058225
      1259.0000         0.9077        -999.25        -999.25         0.6493         0.6333       -69.0007      -14.75824      0.1494504
      1259.5000         0.8977        -999.25        -999.25         0.6519          0.633       -68.9159      -14.68142      0.1545718
      1260.0000         0.8876        -999.25        -999.25         0.6544         0.6327       -67.5667       -13.3402      0.2439865
      1260.5000         0.8927        -999.25        -999.25          0.657         0.6324       -66.6956      -12.47708      0.3015279
      1261.0000         0.8999        -999.25        -999.25         0.6596         0.6335       -65.8811      -11.67056      0.3552958
      1261.5000         0.9081        -999.25        -999.25         0.6621         0.6352       -65.0667      -10.86414      0.4090573
      1262.0000         0.9165        -999.25        -999.25         0.6647         0.6369       -64.2522      -10.05761      0.4628258
      1262.5000         0.9249        -999.25        -999.25         0.6672         0.6387       -63.4501      -9.263496      0.5157669
      1263.0000         0.9333        -999.25        -999.25         0.6698         0.6404       -62.8929      -8.714272      0.5523819
      1263.5000         0.9416        -999.25        -999.25         0.6723         0.6421       -62.3358      -8.165154      0.5889898
      1264.0000           0.95        -999.25        -999.25         0.6749         0.6438       -61.7785      -7.615833      0.6256111
      1264.5000         0.9584        -999.25        -999.25         0.6774          0.644       -62.3141      -8.159409      0.5893728
      1265.0000         0.9668        -999.25        -999.25           0.68         0.6436       -63.2547       -9.10799       0.526134
      1265.5000         0.9751        -999.25        -999.25         0.6825         0.6432       -64.1953      -10.05657      0.4628955
      1266.0000         0.9855        -999.25        -999.25         0.6851         0.6428       -65.1154      -10.98465      0.4010234
      1266.5000         0.9965        -999.25        -999.25         0.6876         0.6424       -65.7426      -11.61983      0.3586782
      1267.0000         1.0076        -999.25        -999.25         0.6902          0.642       -66.3698        -12.255       0.316333
      1267.5000         1.0187        -999.25        -999.25         0.6927         0.6434       -66.9969      -12.89009      0.2739942
      1268.0000         1.0298        -999.25        -999.25         0.6953         0.6463       -66.6045      -12.50566      0.2996224
      1268.5000         1.0424        -999.25        -999.25         0.6978         0.6492       -66.0153      -11.92444      0.3383705
      1269.0000         1.0557        -999.25        -999.25         0.7004         0.6521       -65.4631      -11.38022      0.3746521
      1269.5000         1.0689        -999.25        -999.25         0.7029          0.655       -64.9957       -10.9208      0.4052801
      1270.0000         1.0822        -999.25        -999.25         0.7055         0.6578       -65.6305      -11.56358      0.3624278
      1270.5000         1.0657        -999.25        -999.25         0.7081         0.6607       -66.3439      -12.28496      0.3143359
      1271.0000         1.0525        -999.25        -999.25         0.7106         0.6668       -67.0574      -13.00644      0.2662371
      1271.5000          1.043        -999.25        -999.25          0.706         0.6729       -67.6427      -13.59972      0.2266853
      1272.0000         1.0335        -999.25        -999.25         0.7009         0.6791       -68.1722       -14.1372      0.1908534
      1272.5000          1.024        -999.25        -999.25         0.6958         0.6852       -68.2793      -14.25227      0.1831818
      1273.0000         1.0144        -999.25        -999.25         0.6906         0.6914       -68.1927      -14.17366      0.1884227
      1273.5000         1.0049        -999.25        -999.25         0.6855         0.6975       -68.1061      -14.09504      0.1936643
      1274.0000         1.0087        -999.25        -999.25         0.6804         0.7037       -68.0195      -14.01641      0.1989057
      1274.5000          1.022        -999.25        -999.25         0.6753         0.7098       -67.9329      -13.93779      0.2041471
      1275.0000         1.0353        -999.25        -999.25         0.6702         0.7156       -67.8143      -13.82717      0.2115219
      1275.5000         1.0439        -999.25        -999.25         0.6651         0.7214       -67.6848      -13.70565      0.2196233
      1276.0000          1.033        -999.25        -999.25         0.6599         0.7272       -67.5553      -13.58413      0.2277247
      1276.5000         1.0221        -999.25        -999.25         0.6548          0.733       -67.4258       -13.4626      0.2358264
      1277.0000         1.0112        -999.25        -999.25         0.6497         0.7388       -67.2963      -13.34109      0.2439273
      1277.5000         1.0003        -999.25        -999.25         0.6435         0.7446       -67.1666      -13.21937      0.2520419
      1278.0000         0.9894        -999.25        -999.25         0.6357         0.7513       -67.0371      -13.09785      0.2601433
      1278.5000         0.9785        -999.25        -999.25          0.628          0.761       -66.9351      -13.00382      0.2664118
      1279.0000         0.9675        -999.25        -999.25         0.6202         0.7708       -67.4994       -13.5761      0.2282598
      1279.5000         0.9687        -999.25        -999.25         0.6124         0.7787       -68.0638      -14.14848      0.1901011
      1280.0000         0.9771        -999.25        -999.25         0.6047         0.7805       -68.6282      -14.72086      0.1519427
      1280.5000         0.9904        -999.25        -999.25         0.5969         0.7819       -69.1882      -15.28885       0.114077
      1281.0000         1.0198        -999.25        -999.25         0.5891         0.7715       -69.3961      -15.50473     0.09968491
      1281.5000         1.0492        -999.25        -999.25         0.5814         0.7612       -69.2321       -15.3487      0.1100866
      1282.0000         1.0785        -999.25        -999.25         0.5902         0.7508       -69.0679      -15.19248      0.1205012
      1282.5000          1.065        -999.25        -999.25         0.6077         0.7404       -68.9038      -15.03636      0.1309092
      1283.0000         1.0438        -999.25        -999.25         0.6252         0.7301       -68.7397      -14.88024      0.1413175
      1283.5000         1.0301        -999.25        -999.25         0.6427         0.7197       -68.3098      -14.45832      0.1694455
      1284.0000         1.0382        -999.25        -999.25         0.6601         0.7131       -67.7511       -13.9076      0.2061602
      1284.5000         1.0462        -999.25        -999.25         0.6776          0.717       -67.1924      -13.35687      0.2428752
      1285.0000         1.0543        -999.25        -999.25         0.6951         0.7209       -65.3589      -11.53136      0.3645762
      1285.5000         1.0691        -999.25        -999.25         0.7126         0.7247       -62.9973      -9.177734      0.5214844
      1286.0000         1.0848        -999.25        -999.25         0.7301         0.7286       -59.3426      -5.531013      0.7645991
      1286.5000         1.0917        -999.25        -999.25         0.7614         0.7325       -56.6673      -2.863693      0.9424204
