#------------------------------------------------------------------------------
# Created by    : vladimir.rabinovich
# Created on    : 09/19/2023 17:22:29
#------------------------------------------------------------------------------
~Version Information Section
VERS.           2.0     :   CWLS log ASCII Standard - VERSION 2.0
WRAP.           NO      :   One line per depth step
~Well Information Section
#MNEM       .UNIT                                         VALUE :DESCRIPTION
#------------------------------------------------------------------------------
STRT        .FT                                            1202 :START DEPTH
STOP        .FT                                           11047 :STOP DEPTH
STEP        .FT                                             0.5 :STEP      
NULL        .                                           -999.25 :NULL      
COMP        .                                 MESA PETROLEUM CO :COMPANY   
WELL        .                               OCS G03305 ST00BP00 :WELL      
FLD         .                                           WILDCAT :FIELD     
LOC         .                                                   :LOCATION  
CNTY        .                      MATAGORDA ISLAND LARGE BLOCK :LOCATION  
STAT        .                                             TEXAS :STATE     
CTRY        .                                     UNITED STATES :COUNTRY   
SRVC        .                                                   :SERVICE COMPANY
DATE        .                             9/13/2023 11:12:09 AM :LOG DATE  
API         .                                    42703400870000 :API NUMBER
UWI         .                                    42703400870000 :UNIQUE WELL ID
XCOORD      .                                  540264.325087739 :SURFACE X 
YCOORD      .                                   10226560.637492 :SURFACE Y 
LAT         .                                         28.138272 :LATITUDE  
LON         .                                        -96.413655 :LONGITUDE 
ELEV        .FT                                              80 :ELEVATION VALUE
ELEV_TYPE   .                                                KB :ELEVATION REFERENCE TYPE
~Curve Information Section
#MNEM       .UNIT                                      API CODE :CURVE DESCRIPTION
#------------------------------------------------------------------------------
DEPT        .FT                                                 :DEPTH     
CILD        .MMHO                                               :          
DPHI        .%                                                  :          
GR          .GAPI                                               :          
GR_NORM     .GAPI                                               :GammaRay Normalized
ILD         .OHMM                                               :          
ILM         .OHMM                                               :          
SFL         .OHMM                                               :          
SP          .MV                                                 :          
SP_NORM     .MV                                                 :SP Normalized
VSH_GR      .V/V                                                :Volume of Shale from GR
VSH_SP      .V/V                                                :Volume of Shale from SP
~A        DEPTH           CILD           DPHI             GR        GR_NORM            ILD            ILM            SFL             SP        SP_NORM         VSH_GR         VSH_SP
# ...
      2507.0000       1231.072        -999.25        52.6465       70.54398         0.8824        -999.25         0.7808      -115.6895       1.220772      0.7988082              1
      2507.5000       1268.545        -999.25        53.5559       72.06757         0.8584        -999.25         0.7751       -115.126        1.77652       0.831225              1
      2508.0000        1318.17        -999.25        55.1393       74.72044          0.835        -999.25         0.7773      -115.1309        1.76387       0.887669              1
      2508.5000       1351.225        -999.25        56.6106       77.18546         0.8266        -999.25          0.773      -115.1736       1.713417      0.9401162              1
      2509.0000       1376.506        -999.25        56.6801        77.3019         0.8183        -999.25         0.7577      -115.2187       1.660568      0.9425937              1
      2509.5000        1382.49        -999.25        54.9125       74.34044         0.8101        -999.25         0.7612      -115.2856       1.585915      0.8795838              1
      2510.0000       1385.361        -999.25         53.256       71.56514         0.8041        -999.25         0.7749      -115.5713       1.292473      0.8205349              1
      2510.5000       1383.084        -999.25        52.7109       70.65186         0.7994        -999.25          0.779      -114.9695        1.88652      0.8011035              1
      2511.0000       1379.844        -999.25        53.3069       71.65042         0.7946        -999.25         0.7699      -114.3795       2.468765      0.8223494              1
      2511.5000       1375.684        -999.25        53.9734       72.76708         0.7947        -999.25          0.748      -114.7128       2.127716      0.8461081              1
      2512.0000       1371.521        -999.25        54.7041       73.99129         0.7953        -999.25         0.7405      -114.3142       2.518562      0.8721551              1
      2512.5000       1364.512        -999.25        54.2431       73.21891         0.7958        -999.25         0.7334      -114.1792       2.645813      0.8557215              1
      2513.0000       1357.064        -999.25        53.7149       72.33398         0.8036        -999.25         0.7316      -114.7842       2.033066      0.8368931              1
      2513.5000       1348.135        -999.25        53.2804         71.606         0.8141        -999.25         0.7408       -115.363       1.446518      0.8214043              1
      2514.0000       1338.094        -999.25         53.656       72.23528         0.8248        -999.25         0.7501      -115.6519       1.149864      0.8347933              1
      2514.5000       1326.301        -999.25        54.2676       73.25996         0.8356        -999.25         0.7614      -115.2795       1.514511      0.8565948              1
      2515.0000       1309.051        -999.25        53.7778       72.43938         0.8497        -999.25         0.7757       -115.542       1.244263      0.8391357              1
      2515.5000       1291.799        -999.25        53.2878       71.61842         0.8642        -999.25         0.7903      -115.4209        1.35762      0.8216686              1
      2516.0000       1272.707        -999.25         51.835       69.18435         0.8789        -999.25         0.8034      -114.1799       2.590866      0.7698798              1
      2516.5000        1250.98        -999.25        50.3903       66.76392           0.89        -999.25         0.8137      -113.3566       3.406418      0.7183813              1
      2517.0000       1229.268        -999.25        49.2575         64.866         0.8969        -999.25         0.8242      -112.1499       4.605362      0.6779999              1
      2517.5000       1208.236        -999.25        48.1691        63.0425         0.9037        -999.25         0.8358      -111.6145       5.133011      0.6392021              1
      2518.0000       1187.688        -999.25        47.7841       62.39746         0.9132        -999.25         0.8484      -111.9563       4.783463      0.6254779              1
      2518.5000       1169.283        -999.25        47.5528       62.00995         0.9232        -999.25         0.8595      -112.3237       4.408318       0.617233              1
      2519.0000       1155.801        -999.25        47.4393        61.8198         0.9348        -999.25         0.8659      -112.0605       4.663765      0.6131873              1
      2519.5000       1142.316        -999.25        47.3847       61.72831         0.9489        -999.25         0.8726      -111.5088       5.207718      0.6112406              1
      2520.0000       1132.936        -999.25        47.4823       61.89183         0.9633        -999.25         0.8808      -110.9451       5.763664      0.6147198              1
      2520.5000       1124.984        -999.25        47.9308       62.64327         0.9765        -999.25         0.8891      -110.7808       5.920212      0.6307079              1
      2521.0000       1118.111        -999.25        48.3207       63.29649         0.9874        -999.25         0.8995      -110.8406       5.852669      0.6446062              1
      2521.5000       1116.273        -999.25        48.6498       63.84786         0.9985        -999.25         0.9104      -110.8975       5.788017      0.6563374              1
      2522.0000       1114.436        -999.25        48.4416       63.49903         1.0048        -999.25         0.9118      -111.3521       5.325668      0.6489155              1
      2522.5000       1109.553        -999.25        47.9462       62.66906         1.0041        -999.25         0.9115      -111.7488       4.921211      0.6312566              1
      2523.0000       1103.012        -999.25         47.361       61.68862         1.0034        -999.25         0.9053       -112.109       4.553261      0.6103962              1
      2523.5000       1096.428        -999.25        47.4959       61.91462         1.0102        -999.25         0.9075      -112.2124       4.442108      0.6152047              1
      2524.0000       1082.137        -999.25        47.7586       62.35472         1.0187        -999.25         0.9199      -112.5826       4.064163      0.6245685              1
      2524.5000       1067.836        -999.25        47.6655       62.19878         1.0316        -999.25         0.9365      -113.4209       3.218117      0.6212506              1
      2525.0000        1052.42        -999.25        47.2944       61.57702         1.0596        -999.25         0.9581      -114.1936        2.43766      0.6080217              1
      2525.5000       1035.064        -999.25        46.4547       60.17017         1.0883        -999.25         0.9801       -114.853       1.770515      0.5780887              1
      2526.0000       1017.715        -999.25        45.7336       58.96204          1.113        -999.25         1.0002      -115.4248       1.190964      0.5523838              1
      2526.5000       1000.408        -999.25        45.1283       57.94792         1.1231        -999.25          1.019      -116.4875      0.1205139      0.5308068              1
      2527.0000       983.1504        -999.25        45.3212       58.27111         1.1334        -999.25         1.0377      -117.6384      -1.038132      0.5376832      0.9991333
      2527.5000       965.8994        -999.25        45.4891       58.55241         1.1403        -999.25         1.0521      -118.2651      -1.672585      0.5436683       0.984714
      2528.0000       957.8701        -999.25        45.4546       58.49461          1.143        -999.25         1.0666      -118.7644      -2.179634      0.5424385      0.9731901
      2528.5000       955.2529        -999.25          45.42       58.43664         1.1458        -999.25         1.0729      -119.3203      -2.743286      0.5412052      0.9603798
      2529.0000       952.6387        -999.25        45.3599       58.33595         1.1485        -999.25          1.078      -119.9539      -3.384644      0.5390627      0.9458036
