#------------------------------------------------------------------------------
# Created by    : vladimir.rabinovich
# Created on    : 09/19/2023 17:20:35
#------------------------------------------------------------------------------
~Version Information Section
VERS.           2.0     :   CWLS log ASCII Standard - VERSION 2.0
WRAP.           NO      :   One line per depth step
~Well Information Section
#MNEM       .UNIT                                         VALUE :DESCRIPTION
#------------------------------------------------------------------------------
STRT        .FT                                             501 :START DEPTH
STOP        .FT                                            8659 :STOP DEPTH
STEP        .FT                                             0.5 :STEP      
NULL        .                                           -999.25 :NULL      
COMP        .                                      SHELL OIL CO :COMPANY   
WELL        .                                OCS 00705 ST00BP00 :WELL      
FLD         .                                           WILDCAT :FIELD     
LOC         .                                                   :LOCATION  
CNTY        .                             GALVESTON LARGE BLOCK :LOCATION  
STAT        .                                             TEXAS :STATE     
CTRY        .                                     UNITED STATES :COUNTRY   
SRVC        .                                                   :SERVICE COMPANY
DATE        .                             9/13/2023 11:19:25 AM :LOG DATE  
API         .                                    42706000440000 :API NUMBER
UWI         .                                    42706000440000 :UNIQUE WELL ID
XCOORD      .                                  1104214.94625617 :SURFACE X 
YCOORD      .                                  10500066.5450575 :SURFACE Y 
LAT         .                                         28.922918 :LATITUDE  
LON         .                                        -94.676571 :LONGITUDE 
ELEV        .FT                                              41 :ELEVATION VALUE
ELEV_TYPE   .                                                KB :ELEVATION REFERENCE TYPE
~Curve Information Section
#MNEM       .UNIT                                      API CODE :CURVE DESCRIPTION
#------------------------------------------------------------------------------
DEPT        .FT                                                 :DEPTH     
ASN         .OHMM                                               :          
CILD        .MMHO                                               :          
DT          .US/F                                               :          
ILD         .OHMM                                               :          
LAT         .OHMM                                               :          
SP          .MV                                                 :          
SP_NORM     .MV                                                 :SP Normalized
VSH_SP      .V/V                                                :Volume of Shale from SP
~A        DEPTH            ASN           CILD             DT            ILD            LAT             SP        SP_NORM         VSH_SP
# ...
      4837.5000         0.9703       1076.557       142.4091          1.045        -999.25       -49.4181      -2.551399      0.9569056
      4838.0000         0.9663       1094.016       139.8166         1.0497        -999.25        -48.145      -1.277538      0.9922906
      4838.5000         0.9605       1111.473       135.4574         1.0463        -999.25       -48.0314      -1.163174      0.9954674
      4839.0000         0.9415       1138.191       131.0982         1.0365        -999.25       -48.8923      -2.023312      0.9715747
      4839.5000         0.9225       1177.898        126.739         1.0267        -999.25       -50.2001      -3.330353       0.935268
      4840.0000         0.9036       1202.543       121.9839         1.0169        -999.25        -51.509      -4.638489      0.8989308
      4840.5000         0.8846       1225.227       121.4034         1.0071        -999.25       -52.8481      -5.976826      0.8617548
      4841.0000         0.8663        1243.51       122.6056         0.9973        -999.25       -50.2616      -3.389565      0.9336232
      4841.5000         0.8522       1251.104       125.5228         0.9874        -999.25       -47.9352      -1.062401      0.9982666
      4842.0000         0.8381       1255.621         128.44         0.9776        -999.25        -47.283     -0.4094429              1
      4842.5000         0.8239       1260.139       130.5345         0.9678        -999.25       -46.8129     0.06142044              1
      4843.0000         0.8098       1276.055       131.2818         0.9541        -999.25       -46.5553      0.3197823              1
      4843.5000         0.7957       1302.838       130.8593         0.9401        -999.25        -46.588      0.2878456              1
      4844.0000         0.7856       1383.301       131.1066         0.9261        -999.25       -46.9186    -0.04198837              1
      4844.5000          0.779       1465.123       137.3498         0.9121        -999.25       -47.2489     -0.3715324              1
      4845.0000         0.7724       1546.945       145.1523         0.8981        -999.25       -47.5792     -0.7010689              1
      4845.5000         0.7745         1624.4       153.8691         0.8841        -999.25       -49.2559      -2.377007      0.9617498
      4846.0000           0.78       1664.867       154.9588         0.8719        -999.25       -51.1879      -4.308243      0.9081044
      4846.5000         0.7856       1680.053       151.7971         0.8786        -999.25       -59.0011      -12.12068      0.6910922
      4847.0000         0.7911       1669.613       144.0778         0.8853        -999.25       -64.5209      -17.63972      0.5377856
      4847.5000         0.7966       1659.174       136.3584         0.8921        -999.25       -65.2251      -18.34315      0.5182457
      4848.0000         0.8031       1613.928        130.045         0.9042        -999.25       -64.9771      -18.09439      0.5251558
      4848.5000          0.812       1575.066       131.0682         0.9172        -999.25       -64.6591      -17.77563      0.5340102
      4849.0000         0.8209       1530.857       131.5654         0.9301        -999.25       -63.2623      -16.37807      0.5728314
      4849.5000         0.8298       1486.604       131.8678         0.9431        -999.25        -61.525      -14.64001      0.6211108
      4850.0000         0.8387       1442.395       131.9408          0.956        -999.25         -59.65      -12.76425      0.6732153
      4850.5000         0.8477       1398.186       130.6341         0.9689        -999.25       -57.5535      -10.66698      0.7314727
      4851.0000         0.8566       1353.932       126.0344         0.9819        -999.25       -55.6013      -8.714024      0.7857215
      4851.5000         0.8655       1309.723        122.937         0.9948        -999.25       -53.8706      -6.982563      0.8338177
      4852.0000         0.8742       1265.471       123.9846         1.0031        -999.25         -53.12      -6.231197      0.8546889
      4852.5000         0.8825       1221.262       126.5269         1.0103        -999.25       -53.2044      -6.314835      0.8523657
      4853.0000         0.8909       1177.008       127.1532         1.0176        -999.25       -52.5601      -5.669773      0.8702841
      4853.5000         0.8992       1132.799       131.0359         1.0248        -999.25       -51.9151      -5.024014      0.8882219
      4854.0000         0.9076       1105.613       138.4002         1.0321        -999.25       -51.2701       -4.37825      0.9061597
      4854.5000          0.916        1092.01       145.7645         1.0393        -999.25       -50.6258      -3.733189      0.9240781
      4855.0000         0.9206       1078.406       153.1287         1.0466        -999.25       -50.0206      -3.127224      0.9409105
      4855.5000         0.9086        1066.73        158.452         1.0538        -999.25       -49.4478      -2.553661      0.9568427
      4856.0000         0.8919       1055.654       158.5249         1.0611        -999.25       -48.8749      -1.980003      0.9727777
      4856.5000         0.8753       1056.029       157.2638         1.0683        -999.25       -48.3016      -1.405941      0.9887239
      4857.0000         0.8587        1073.08       156.3272         1.0725        -999.25       -47.7288     -0.8323784              1
      4857.5000         0.8421       1095.943       154.2415         1.0713        -999.25       -47.3893      -0.492115              1
      4858.0000          0.814       1117.322       155.9613         1.0701        -999.25       -47.0738     -0.1758537              1
      4858.5000         0.7856       1129.729       157.5102         1.0689        -999.25       -46.8604     0.03830719              1
      4859.0000         0.7572       1123.428       157.6785         1.0677        -999.25       -47.1796     -0.2801285              1
      4859.5000         0.7309       1117.123       156.7848         1.0664        -999.25       -47.4987      -0.598465              1
      4860.0000         0.7274       1110.816       154.9697         1.0652        -999.25       -47.8177     -0.9167023              1
      4860.5000         0.7299       1104.082       155.2272          1.064        -999.25       -48.1176      -1.215843      0.9940044
      4861.0000         0.7324       1097.346       155.0195         1.0632        -999.25       -48.4096       -1.50708      0.9859145
      4861.5000         0.7349       1090.611       154.2446         1.0646        -999.25       -48.5192      -1.615917      0.9828912
      4862.0000          0.738       1083.877       154.1723         1.0661        -999.25       -48.1654      -1.261356      0.9927401
      4862.5000         0.7413       1077.141       154.9092         1.0675        -999.25       -47.8119      -0.907093              1
      4863.0000         0.7445       1071.488       154.8415          1.069        -999.25       -47.4581     -0.5525322              1
      4863.5000         0.7478       1069.385       149.4614         1.0704        -999.25       -47.1043     -0.1979713              1
      4864.0000         0.7511       1067.283       147.9052         1.0719        -999.25       -46.7765      0.1305923              1
      4864.5000         0.7544       1065.799       151.1721         1.0733        -999.25       -46.4904      0.4174576              1
      4865.0000         0.7577       1071.744       154.9038         1.0748        -999.25       -46.2043      0.7043152              1
      4865.5000          0.761       1077.682       156.1418         1.0762        -999.25       -45.9182      0.9911766              1
      4866.0000         0.7643       1083.625       156.4267         1.0777        -999.25       -45.6318       1.278339              1
      4866.5000         0.7676       1092.734       153.3045         1.0765        -999.25       -45.3456       1.565304              1
