#------------------------------------------------------------------------------
# Created by    : vladimir.rabinovich
# Created on    : 09/19/2023 17:22:30
#------------------------------------------------------------------------------
~Version Information Section
VERS.           2.0     :   CWLS log ASCII Standard - VERSION 2.0
WRAP.           NO      :   One line per depth step
~Well Information Section
#MNEM       .UNIT                                         VALUE :DESCRIPTION
#------------------------------------------------------------------------------
STRT        .FT                                             456 :START DEPTH
STOP        .FT                                           11667 :STOP DEPTH
STEP        .FT                                             0.5 :STEP      
NULL        .                                           -999.25 :NULL      
COMP        .                              PATRICK PETROLEUM CO :COMPANY   
WELL        .                                     ST TR 00693-L :WELL      
FLD         .                                           WILDCAT :FIELD     
LOC         .                                                   :LOCATION  
CNTY        .                      MATAGORDA ISLAND LARGE BLOCK :LOCATION  
STAT        .                                             TEXAS :STATE     
CTRY        .                                     UNITED STATES :COUNTRY   
SRVC        .                                                   :SERVICE COMPANY
DATE        .                             9/13/2023 11:12:01 AM :LOG DATE  
API         .                                    42703302660000 :API NUMBER
UWI         .                                    42703302660000 :UNIQUE WELL ID
XCOORD      .                                  384413.417453263 :SURFACE X 
YCOORD      .                                  10143960.4717662 :SURFACE Y 
LAT         .                                        27.8986234 :LATITUDE  
LON         .                                       -96.8882217 :LONGITUDE 
ELEV        .FT                                              92 :ELEVATION VALUE
ELEV_TYPE   .                                                KB :ELEVATION REFERENCE TYPE
~Curve Information Section
#MNEM       .UNIT                                      API CODE :CURVE DESCRIPTION
#------------------------------------------------------------------------------
DEPT        .FT                                                 :DEPTH     
CILD        .MMHO                                               :          
DPHI        .%                                                  :          
DT          .US/F                                               :          
GR          .GAPI                                               :          
GR_NORM     .GAPI                                               :GammaRay Normalized
ILD         .OHMM                                               :          
SN          .OHMM                                               :          
SP          .MV                                                 :          
SP_NORM     .MV                                                 :SP Normalized
VSH_GR      .V/V                                                :Volume of Shale from GR
VSH_SP      .V/V                                                :Volume of Shale from SP
~A        DEPTH           CILD           DPHI             DT             GR        GR_NORM            ILD             SN             SP        SP_NORM         VSH_GR         VSH_SP
# ...
     10896.0000           1604        -999.25       134.0546        83.1169       74.19065         0.6466         0.6616          -28.8      -2.609522      0.8763968       0.970736
     10896.5000           1604        -999.25         134.76        84.3878       75.53973         0.6487         0.6526         -28.16      -1.969522      0.9051007      0.9823723
     10897.0000           1604        -999.25         135.61        83.7449       74.85286         0.6535         0.6588         -27.83      -1.639523      0.8904864      0.9883723
     10897.5000           1604        -999.25         136.31        83.2653       74.33971         0.6578         0.6631         -27.66      -1.469522      0.8795682      0.9914632
     10898.0000           1604        -999.25          136.5        86.2167       77.47655         0.6627         0.6675       -27.4709      -1.280422      0.9463097      0.9949014
     10898.5000           1604        -999.25         136.36        85.3027       76.50127         0.6674         0.6737       -27.3038      -1.113323      0.9255589      0.9979396
     10899.0000         1600.4        -999.25         135.71        83.2184       74.28099         0.6706         0.6743       -27.3332      -1.142723       0.878319      0.9974051
     10899.5000         1594.4        -999.25         135.25        82.3695       73.37497         0.6712         0.6743       -27.5382      -1.347723      0.8590419      0.9936777
     10900.0000         1586.4        -999.25         134.88        82.2532        73.2483         0.6712         0.6743       -27.9471      -1.756622      0.8563468      0.9862432
     10900.5000         1582.8        -999.25         134.57        82.2626       73.25536         0.6712         0.6743       -28.3168      -2.126322      0.8564971      0.9795214
     10901.0000         1577.6        -999.25         134.59        82.8788       73.90795         0.6712         0.6797       -28.4158      -2.225323       0.870382      0.9777214
     10901.5000         1569.2        -999.25         134.48        83.8384       74.92587         0.6712         0.6838       -28.5149      -2.324423      0.8920397      0.9759196
     10902.0000       1557.818        -999.25            134        83.2966       74.34654         0.6672         0.6844       -28.3168      -2.126322      0.8797137      0.9795214
     10902.5000         1544.8        -999.25         133.44         82.596       73.59828         0.6628          0.687       -28.4158      -2.225323      0.8637933      0.9777214
     10903.0000         1539.6        -999.25         133.05        82.2222       73.19768         0.6603          0.687        -28.703      -2.512522      0.8552697      0.9724996
     10903.5000         1534.4        -999.25            133        82.5253       73.51719         0.6588          0.687       -29.0792      -2.888723      0.8620679      0.9656596
     10904.0000           1532        -999.25            133        83.0909       74.11595         0.6603         0.6877       -29.4555      -3.265022      0.8748075      0.9588178
     10904.5000         1530.4        -999.25            133        83.4343       74.47833         0.6643         0.6925       -29.8416      -3.651123      0.8825177      0.9517978
     10905.0000           1528        -999.25            133        83.5253        74.5722         0.6693         0.6977          -30.2      -4.009523      0.8845148      0.9452814
     10905.5000         1526.8        -999.25          132.9        83.7374       74.79489         0.6737            0.7         -30.58      -4.389523       0.889253      0.9383723
     10906.0000           1524        -999.25          132.9        83.1313       74.14718         0.6807         0.7032         -30.55      -4.359522      0.8754719      0.9389178
     10906.5000         1516.4        -999.25       132.7818        82.1313       73.08041         0.6899         0.7071         -30.22      -4.029522      0.8527746      0.9449178
     10907.0000         1513.2        -999.25         132.63        81.9899       72.92703         0.6967         0.7097       -29.9193      -3.728823      0.8495113       0.950385
     10907.5000         1499.6        -999.25         132.21        82.6364       73.61186         0.7013         0.7104       -29.5149      -3.324423      0.8640822      0.9577377
     10908.0000       1484.727        -999.25       132.1494        83.3872       74.40765         0.7074          0.713       -29.3993      -3.208822      0.8810138      0.9598396
     10908.5000         1476.4        -999.25       132.5437        83.8285       74.87418          0.711          0.713       -29.0822      -2.891722      0.8909399      0.9656051
     10909.0000         1466.8        -999.25       133.2041        83.9597        75.0108          0.713         0.7203       -28.6366      -2.446123      0.8938469      0.9737068
     10909.5000         1460.4        -999.25       133.5758        84.4112       75.48819          0.711         0.7246       -28.3984      -2.207922       0.904004      0.9780378
     10910.0000         1453.2        -999.25       132.9084        84.7057       75.79855         0.7075         0.7289       -28.0518      -1.861322      0.9106073      0.9843396
     10910.5000         1445.2        -999.25       132.0297          84.52       75.59805         0.7039         0.7283          -27.6      -1.409523      0.9063416      0.9925541
     10911.0000           1440        -999.25       131.0297          84.18       75.23341         0.7032         0.7223         -28.14      -1.949522      0.8985831       0.982736
     10911.5000         1449.6        -999.25       130.8218          83.51        74.5177         0.7032          0.718         -28.48      -2.289522      0.8833553      0.9765542
     10912.0000           1456        -999.25       132.0972        82.7545       73.71104         0.7032         0.7163       -28.9545      -2.764023      0.8661925      0.9679269
     10912.5000           1446        -999.25        133.604           82.1       73.01183         0.7032         0.7163         -29.76      -3.569523      0.8513154      0.9532814
     10913.0000         1448.4        -999.25       134.2574          82.31       73.23228         0.7032          0.716          -30.2      -4.009523      0.8560059      0.9452814
     10913.5000         1457.2        -999.25       134.3564          82.61       73.54849         0.7032         0.7176         -30.17      -3.979523      0.8627339      0.9458269
     10914.0000       1454.182        -999.25       133.8434        82.6545        73.5929         0.7032          0.722       -29.8636      -3.673122      0.8636788      0.9513978
     10914.5000         1449.6        -999.25       132.5842          81.03       71.86176         0.7032         0.7229         -29.55      -3.359522       0.826846      0.9570996
     10915.0000         1444.8        -999.25       131.2574        79.3434       70.06457         0.7032         0.7229         -29.52      -3.329523      0.7886078      0.9576451
     10915.5000           1444        -999.25       130.1683        77.8283       68.44982         0.7032         0.7243          -29.6      -3.409523      0.7542515      0.9561905
     10916.0000       1449.091        -999.25          129.8        76.3453       66.86922         0.7032         0.7263       -29.5727      -3.382223      0.7206216      0.9566869
     10916.5000         1448.4        -999.25       130.2474        75.6566       66.13362         0.7003         0.7233          -29.5      -3.309523      0.7049707      0.9580087
     10917.0000           1456        -999.25       131.4257             78       68.62366         0.6993         0.7173         -29.46      -3.269522      0.7579501      0.9587359
     10917.5000           1468        -999.25       132.9208        80.5892       71.37519         0.6945          0.712          -29.4      -3.209522      0.8164934      0.9598269
     10918.0000       1488.364        -999.25       134.0594        81.5636       72.40884          0.689         0.7039       -29.3455      -3.155024       0.838486      0.9608178
