#------------------------------------------------------------------------------
# Created by    : vladimir.rabinovich
# Created on    : 09/19/2023 17:19:36
#------------------------------------------------------------------------------
~Version Information Section
VERS.           2.0     :   CWLS log ASCII Standard - VERSION 2.0
WRAP.           NO      :   One line per depth step
~Well Information Section
#MNEM       .UNIT                                         VALUE :DESCRIPTION
#------------------------------------------------------------------------------
STRT        .FT                                            4496 :START DEPTH
STOP        .FT                                            7801 :STOP DEPTH
STEP        .FT                                             0.5 :STEP      
NULL        .                                           -999.25 :NULL      
COMP        .                             HELIS WM G CO LLC THE :COMPANY   
WELL        .                               OCS G12508 ST00BP00 :WELL      
FLD         .                              GALVESTON BLOCK 0395 :FIELD     
LOC         .                                                   :LOCATION  
CNTY        .                             GALVESTON LARGE BLOCK :LOCATION  
STAT        .                                             TEXAS :STATE     
CTRY        .                                     UNITED STATES :COUNTRY   
SRVC        .                                                   :SERVICE COMPANY
DATE        .                             9/13/2023 11:19:03 AM :LOG DATE  
API         .                                    42706404300000 :API NUMBER
UWI         .                                    42706404300000 :UNIQUE WELL ID
XCOORD      .                                  908236.382466376 :SURFACE X 
YCOORD      .                                  10386259.9403327 :SURFACE Y 
LAT         .                                         28.601028 :LATITUDE  
LON         .                                        -95.282181 :LONGITUDE 
ELEV        .FT                                             103 :ELEVATION VALUE
ELEV_TYPE   .                                                KB :ELEVATION REFERENCE TYPE
~Curve Information Section
#MNEM       .UNIT                                      API CODE :CURVE DESCRIPTION
#------------------------------------------------------------------------------
DEPT        .FT                                                 :DEPTH     
AHT10       .OHMM                                               :          
AHT20       .OHMM                                               :          
AHT30       .OHMM                                               :          
AHT60       .OHMM                                               :          
AHT90       .OHMM                                               :          
CPCHM       .MMHO                                               :          
DCAL        .IN                                                 :          
DPHZ        .FRAC                                               :          
GR          .GAPI                                               :          
GR_NORM     .GAPI                                               :GammaRay Normalized
GRAM        .GAPI                                               :          
HDRA        .G/CC                                               :          
NPOR        .FRAC                                               :          
RACHM       .OHMM                                               :          
ROPS        .F/HR                                               :          
RPCHM       .OHMM                                               :          
RWA         .OHMM                                               :          
SP          .MV                                                 :          
SP_NORM     .MV                                                 :SP Normalized
TENS        .LB/F                                               :          
VSH_GR      .V/V                                                :Volume of Shale from GR
VSH_SP      .V/V                                                :Volume of Shale from SP
~A        DEPTH          AHT10          AHT20          AHT30          AHT60          AHT90          CPCHM           DCAL           DPHZ             GR        GR_NORM           GRAM           HDRA           NPOR          RACHM           ROPS          RPCHM            RWA             SP        SP_NORM           TENS         VSH_GR         VSH_SP
# ...
      7784.0000         0.6837         0.8076         0.9002          0.998         0.8418       1002.122         2.8109         0.3221        75.6072       88.18414         64.238         0.0388         0.4208          1.047         41.076          0.998         0.1188         -5.125         -7.175           3577              1         0.8975
      7784.5000         0.6754         0.8014         0.9375         0.9904         0.8885       1005.677         1.0917         0.3267        75.6072       88.18414         65.034         0.0362          0.432          1.029         41.076          0.977         0.1293        -3.8125        -5.3375           3680              1        0.92375
      7785.0000         0.7502         0.8718         0.9804         1.0414         0.9504       1045.488         2.0415         0.3173        75.6072       88.18414         64.714         0.0297         0.4328          0.998         41.076          0.948           0.13         -3.375         -4.725           3696              1         0.9325
      7785.5000         0.7668         0.8797         1.0867         1.1895         1.0916       1056.631         2.4142         0.3291        75.6072       88.18414         64.761         0.0187         0.3988          0.967         28.383          0.937         0.1614        -2.4375        -3.4125           3520              1        0.95125
      7786.0000         0.7685         0.9092         1.1499         1.2699         1.2239       1078.005          1.765         0.3366        75.6072       88.18414         66.291         0.0141           0.42          0.944         28.383          0.926         0.1899        -2.5625        -3.5875           3516              1        0.94875
      7786.5000         0.8387         0.9477         1.0276         1.1433         1.1038       1114.365          0.671         0.2891        75.6072       88.18414         69.566         0.0414         0.4288          0.911         28.383          0.867         0.1235        -3.4375        -4.8125           3544              1        0.93125
      7787.0000          0.773         0.8957         1.0826         1.2504          1.232       1261.574         1.5005         0.2328        75.6072       88.18414         70.363         0.0852         0.4415        -999.25         28.383        -999.25         0.0866        -3.8125        -5.3375           3529              1        0.92375
      7787.5000         0.7618         0.7753         1.0324         1.2409         1.2114        -999.25         1.6087         0.2287        75.6072       88.18414         72.384         0.0931         0.4964        -999.25         25.193        -999.25         0.0819         -4.625         -6.475           3544              1         0.9075
      7788.0000         0.6414         0.7795         0.9345         1.0746         1.0647        -999.25           1.26         0.3026        75.6072       88.18414         72.631         0.0727         0.6018        -999.25         25.193        -999.25         0.1315        -5.8125        -8.1375           3539              1        0.88375
      7788.5000         0.5779         0.6888         0.8451         1.0317         1.0245        -999.25         2.2218         0.3761        75.6072       88.18414        -999.25         0.0308         1.1235        -999.25         25.193        -999.25         0.2018        -0.6875        -0.9625           3611              1        0.98625
      7789.0000         0.5483         0.6318         0.7433         0.8319         0.8659        -999.25         5.1071         0.4246        75.6072       88.18414        -999.25        -0.0095         0.9022        -999.25         25.193        -999.25         0.2214             -7           -9.8           3626              1           0.86
      7789.5000         0.6106         0.7065         0.7858         0.8734         0.8849        -999.25         6.0208         0.4482        75.6072       88.18414        -999.25        -0.0571         0.7025        -999.25         19.257        -999.25         0.2542        -5.3125        -7.4375           3514              1        0.89375
      7790.0000         0.6413         0.8443         0.9276         1.0063         1.0347        -999.25         6.8383         0.4267        75.6072       88.18414        -999.25        -0.0698         0.6993        -999.25         19.257        -999.25         0.2674          -6.25          -8.75           3514              1          0.875
      7790.5000         0.6897         0.9312           1.01         1.0766         1.1137        -999.25         6.5738         0.3862        75.6072       88.18414        -999.25        -0.0446         0.7003        -999.25         19.257        -999.25         0.2323        -6.0625        -8.4875           3491              1        0.87875
      7791.0000         0.7184         1.0332         1.1367          1.112         1.0866        -999.25         7.1829          0.369        75.6072       88.18414        -999.25        -0.0148          0.698        -999.25         19.257        -999.25         0.2055        -7.3125       -10.2375           3540              1        0.85375
      7791.5000         0.7656         1.2147         1.4798         1.5368         1.4529        -999.25         7.9684         0.3733        75.6072       88.18414        -999.25        -0.0064         0.6949        -999.25         27.652        -999.25         0.2816        -6.6875        -9.3625           3544              1        0.86625
      7792.0000         0.6186         1.0089         1.1788         1.3146         1.1667        -999.25         3.7126         0.4066        75.6072       88.18414        -999.25        -0.0269         0.7124        -999.25         27.652        -999.25         0.2717        -5.8125        -8.1375           3577              1        0.88375
      7792.5000         0.5513         0.7761         0.8886         0.9937         0.9104        -999.25         0.0578         0.4304        75.6072       88.18414        -999.25        -0.0567         0.7292        -999.25         27.652        -999.25         0.2397        -5.5625        -7.7875           3590              1        0.88875
      7793.0000         0.5117         0.7211          0.861         0.9848         0.8334        -999.25         1.1318         0.4646        75.6072       88.18414        -999.25        -0.0859         0.7242        -999.25         27.652        -999.25         0.2586         -5.375         -7.525           3582              1         0.8925
      7793.5000         0.4883         0.6794         0.8066         0.9357         0.7812        -999.25         1.7169         0.4782        75.6072       88.18414        -999.25        -0.0962         0.7214        -999.25         29.127        -999.25          0.258             -6           -8.4           3511              1           0.88
      7794.0000         0.4628         0.6293         0.7226           0.82         0.7335        -999.25         1.6287         0.4905        75.6072       88.18414        -999.25        -0.1021         0.7218        -999.25         29.127        -999.25         0.2558        -4.9375        -6.9125           3473              1        0.90125
      7794.5000         0.5116         0.7347         0.8594         1.0057         0.9626        -999.25         1.5726         0.5063        75.6072       88.18414        -999.25        -0.1158         0.7221        -999.25         29.127        -999.25         0.3593         -4.625         -6.475           3423              1         0.9075
      7795.0000         0.5473         0.8841         1.0643         1.2402         1.3376        -999.25         -0.928         0.5233        75.6072       88.18414        -999.25         -0.137         0.7294        -999.25         29.127        -999.25         0.5361        -4.1875        -5.8625           3471              1        0.91625
      7795.5000         0.5293         0.8366         0.9999         1.2427         1.4307        -999.25        -4.5026           0.53        75.6072       88.18414        -999.25        -0.1576         0.7294        -999.25         34.416        -999.25         0.5893          -4.25          -5.95           3566              1          0.915
