#------------------------------------------------------------------------------
# Created by    : vladimir.rabinovich
# Created on    : 09/19/2023 17:21:25
#------------------------------------------------------------------------------
~Version Information Section
VERS.           2.0     :   CWLS log ASCII Standard - VERSION 2.0
WRAP.           NO      :   One line per depth step
~Well Information Section
#MNEM       .UNIT                                         VALUE :DESCRIPTION
#------------------------------------------------------------------------------
STRT        .FT                                            3400 :START DEPTH
STOP        .FT                                            8653 :STOP DEPTH
STEP        .FT                                             0.5 :STEP      
NULL        .                                           -999.25 :NULL      
COMP        .                          KING RANCH OIL & GAS INC :COMPANY   
WELL        .                               OCS G13784 ST00BP00 :WELL      
FLD         .                                           WILDCAT :FIELD     
LOC         .                                                   :LOCATION  
CNTY        .                             GALVESTON LARGE BLOCK :LOCATION  
STAT        .                                             TEXAS :STATE     
CTRY        .                                     UNITED STATES :COUNTRY   
SRVC        .                                                   :SERVICE COMPANY
DATE        .                             9/13/2023 11:19:54 AM :LOG DATE  
API         .                                    42706403430000 :API NUMBER
UWI         .                                    42706403430000 :UNIQUE WELL ID
XCOORD      .                                   967589.17441186 :SURFACE X 
YCOORD      .                                  10424680.8833423 :SURFACE Y 
LAT         .                                         28.709654 :LATITUDE  
LON         .                                        -95.099391 :LONGITUDE 
ELEV        .FT                                             106 :ELEVATION VALUE
ELEV_TYPE   .                                                KB :ELEVATION REFERENCE TYPE
~Curve Information Section
#MNEM       .UNIT                                      API CODE :CURVE DESCRIPTION
#------------------------------------------------------------------------------
DEPT        .FT                                                 :DEPTH     
CALI        .IN                                                 :          
DPHI        .%                                                  :          
DRHO        .G/C3                                               :          
DTLN        .US/F                                               :          
GR          .GAPI                                               :          
GR_1        .GAPI                                               :          
GR_NORM     .GAPI                                               :GammaRay Normalized
ILD         .OHMM                                               :          
ILM         .OHMM                                               :          
NPHI        .%                                                  :          
SFL         .OHMM                                               :          
SP          .MV                                                 :          
SP_NORM     .MV                                                 :SP Normalized
VSH_GR      .V/V                                                :Volume of Shale from GR
VSH_SP      .V/V                                                :Volume of Shale from SP
~A        DEPTH           CALI           DPHI           DRHO           DTLN             GR           GR_1        GR_NORM            ILD            ILM           NPHI            SFL             SP        SP_NORM         VSH_GR         VSH_SP
# ...
      7582.0000         9.1364        20.1386         0.0164         112.55        68.1459        65.5916       80.05026         0.6982         0.7218        34.5626         0.7812       -46.0362      -2.835846              1      0.9484392
      7582.5000         9.1393        19.9576         0.0198       111.8417        69.6807        64.7384       78.91978          0.701         0.7182        35.5882         0.7746       -46.2635      -3.064354      0.9770165      0.9442845
      7583.0000         9.1635        19.9225         0.0241       111.4305        69.5795        62.7618       76.30077         0.7026          0.712        36.2856         0.7666       -46.4415      -3.243561      0.9212929      0.9410262
      7583.5000         9.1892        20.0552         0.0287       111.1663        67.3759        60.3362       73.08685         0.7026         0.7117        36.2249         0.7598       -46.4023      -3.205566      0.8529116       0.941717
      7584.0000         9.1882        20.4592         0.0338       111.0345        66.5364        58.6399       70.83926         0.7022         0.7111        35.6796         0.7547       -46.1136      -2.918072      0.8050905      0.9469442
      7584.5000         9.1385        20.9795         0.0371       110.9156        66.3817        59.3827       71.82347         0.7012         0.7055          35.95         0.7522       -46.0504      -2.856075      0.8260313      0.9480714
      7585.0000         9.1273        21.5938         0.0322       110.8102        65.8694        60.4901       73.29077         0.7001         0.7034        37.3089         0.7507       -46.3358      -3.142685      0.8572505      0.9428602
      7585.5000         9.1457        22.2058         0.0245        110.816        65.1748        61.6966       74.88938         0.6979         0.7031        38.5031         0.7495       -46.6002      -3.408291      0.8912634      0.9380311
      7586.0000           9.16        22.1818         0.0175       110.8882        64.3062        61.8119       75.04216         0.6953         0.7026        38.9173         0.7465       -46.6619      -3.471195       0.894514      0.9368874
      7586.5000         9.1714        21.5181         0.0128       111.1002        63.4808        60.6772       73.53867         0.6927         0.6992        38.6476         0.7432       -46.3487      -3.159203       0.862525        0.94256
      7587.0000           9.15         20.787          0.012       111.6102        63.9681        61.4597        74.5755         0.6859         0.6957        37.9689         0.7495       -46.1519      -2.963608      0.8845851      0.9461162
      7587.5000         9.0522        20.2408          0.011       112.3711        64.9366        64.7595       78.94772         0.6783         0.6903        37.2303         0.7627       -46.1252      -2.938114      0.9776111      0.9465798
      7588.0000         9.0119        20.6963         0.0101       111.9882        65.3816        63.8084       77.68752         0.6702         0.6813        36.4294         0.7468       -46.0001       -2.81422      0.9507982      0.9488323
      7588.5000         9.0846        21.4754         0.0094       111.6381        65.0786        61.4722       74.59206         0.6612         0.6702        36.4145         0.7169       -45.8412      -2.656528      0.8849373      0.9516995
      7589.0000         9.1724        22.2163         0.0085       111.6064        63.9237        58.5059       70.66171         0.6517         0.6576        37.2086         0.6852       -45.8106      -2.627132       0.801313       0.952234
      7589.5000         9.2217        22.6283         0.0071       112.9205        62.8701         56.538       68.05424         0.6411         0.6439        38.0228          0.656       -45.8433      -2.661037      0.7458348      0.9516175
      7590.0000         9.1505        22.5742         0.0054       114.4148        62.5807        58.4415       70.57639         0.6313         0.6345        38.8656         0.6453       -46.0563      -2.875248      0.7994975      0.9477228
      7590.5000         9.0706        22.4347         0.0032       115.7501        62.8272        63.1536        76.8199          0.623         0.6276         39.817         0.6752       -46.1979      -3.018051      0.9323383      0.9451264
      7591.0000         9.0174        22.3577         0.0009       116.5912         62.548         68.962       84.51604         0.6154          0.622        40.6411         0.6875         -45.72      -2.541359              1      0.9537935
      7591.5000          9.015        22.0058         0.0001       116.9485         61.936        70.2089       86.16818         0.6084         0.6195        40.7216         0.6787       -45.2136      -2.036163              1      0.9629788
      7592.0000         9.0099        21.2844         0.0041       116.9056         61.489        64.4879       78.58786         0.6065         0.6177        40.4066         0.6647       -44.9794      -1.803169      0.9699545      0.9672151
      7592.5000         9.0027        20.5367         0.0083       116.6331        63.0773        61.6656       74.84831         0.6054         0.6188        39.5728         0.6585       -44.7685      -1.593479      0.8903896      0.9710277
      7593.0000         8.9744        19.7899         0.0112       116.3468         65.387        60.9935       73.95778         0.6057         0.6202        38.4409         0.6682       -44.5988      -1.424984      0.8714421      0.9740912
      7593.5000         8.9452        19.3728         0.0123       116.0483        65.9663        63.6125       77.42796         0.6065         0.6235        38.3682         0.6879       -44.4916      -1.318989      0.9452757      0.9760184
      7594.0000         8.9189        19.4102         0.0117       115.7076        65.2488        65.7875       80.30983         0.6072         0.6291        38.7319         0.6926       -44.3464      -1.174995              1      0.9786364
      7594.5000         8.9379        19.4523         0.0102        115.335        64.3322         65.103       79.40286         0.6079         0.6348         39.054         0.6971       -44.1766      -1.006401       0.987295      0.9817018
      7595.0000          8.973        19.3544         0.0085       115.0133        63.5764        63.0173       76.63931         0.6086         0.6413        39.3308         0.7075       -44.0098     -0.8408089       0.928496      0.9847125
      7595.5000          8.972        19.0838         0.0065       114.7854        62.6838        60.8794       73.80659         0.6093          0.647        39.5485         0.7169        -43.908     -0.7402153      0.8682253      0.9865416
      7596.0000         8.9667        18.9818         0.0043       114.6365        62.3074        60.3958       73.16582         0.6106         0.6492        39.5247          0.722       -43.8192     -0.6526184       0.854592      0.9881342
      7596.5000         8.9589          18.93          0.002       114.4883        62.8546        63.0693       76.70822         0.6122         0.6512        39.1053         0.7245       -43.7703     -0.6049271      0.9299622      0.9890013
      7597.0000         8.9677        18.9659        -0.0003       114.3419        62.8964        66.7448       81.57825         0.6139         0.6506        37.1216         0.7238       -43.9705     -0.8063316              1      0.9853394
      7597.5000         8.9999        18.9911        -0.0023       114.2517        62.7183        68.1808       83.48095         0.6159         0.6496        35.4061         0.7202       -44.4113      -1.248341              1      0.9773029
      7598.0000         8.9997        18.9757         -0.004       114.2797          62.45        66.4447       81.18062         0.6191         0.6456         34.418         0.7166       -44.6115      -1.449745              1       0.973641
      7598.5000         8.9896        18.9313        -0.0053       114.3425        62.1304        65.2418       79.58677         0.6222         0.6415        35.2803         0.7138       -44.2839      -1.123352      0.9912078      0.9795754
