#------------------------------------------------------------------------------
# Created by    : vladimir.rabinovich
# Created on    : 09/19/2023 17:22:44
#------------------------------------------------------------------------------
~Version Information Section
VERS.           2.0     :   CWLS log ASCII Standard - VERSION 2.0
WRAP.           NO      :   One line per depth step
~Well Information Section
#MNEM       .UNIT                                         VALUE :DESCRIPTION
#------------------------------------------------------------------------------
STRT        .FT                                            3420 :START DEPTH
STOP        .FT                                           11707 :STOP DEPTH
STEP        .FT                                             0.5 :STEP      
NULL        .                                           -999.25 :NULL      
COMP        .                        TRI-UNION DEVELOPMENT CORP :COMPANY   
WELL        .                               OCS G08154 ST00BP00 :WELL      
FLD         .                                           WILDCAT :FIELD     
LOC         .                                                   :LOCATION  
CNTY        .                           HIGH ISLAND LARGE BLOCK :LOCATION  
STAT        .                                             TEXAS :STATE     
CTRY        .                                     UNITED STATES :COUNTRY   
SRVC        .                                                   :SERVICE COMPANY
DATE        .                             9/13/2023 11:19:57 AM :LOG DATE  
API         .                                    42708403520000 :API NUMBER
UWI         .                                    42708403520000 :UNIQUE WELL ID
XCOORD      .                                  1180527.91159004 :SURFACE X 
YCOORD      .                                  10524923.1623167 :SURFACE Y 
LAT         .                                        28.9940426 :LATITUDE  
LON         .                                       -94.4389714 :LONGITUDE 
ELEV        .FT                                             100 :ELEVATION VALUE
ELEV_TYPE   .                                                KB :ELEVATION REFERENCE TYPE
~Curve Information Section
#MNEM       .UNIT                                      API CODE :CURVE DESCRIPTION
#------------------------------------------------------------------------------
DEPT        .FT                                                 :DEPTH     
DCAL        .IN                                                 :          
DPHI        .%                                                  :          
DRHO        .G/C3                                               :          
GR          .GAPI                                               :          
GR_NORM     .GAPI                                               :GammaRay Normalized
ILD         .OHMM                                               :          
ILM         .OHMM                                               :          
NPHI        .%                                                  :          
SFL         .OHMM                                               :          
SP          .MV                                                 :          
SP_NORM     .MV                                                 :SP Normalized
VSH_GR      .V/V                                                :Volume of Shale from GR
VSH_SP      .V/V                                                :Volume of Shale from SP
~A        DEPTH           DCAL           DPHI           DRHO             GR        GR_NORM            ILD            ILM           NPHI            SFL             SP        SP_NORM         VSH_GR         VSH_SP
# ...
      6764.0000         0.8877        25.4101         0.0031        83.2676       85.50301          0.604         0.6019        45.8824          0.627       -34.8436        -0.8813              1              1
      6764.5000           0.91        25.6182         0.0043        86.7719       89.47967         0.5996          0.598        45.8012         0.5832       -34.6636        -0.7013              1              1
      6765.0000         0.9507        26.1695         0.0064        85.1323        87.6193          0.596         0.5968        44.4097         0.5716       -34.6678        -0.7055              1              1
      6765.5000         1.0087        27.2751         0.0088        80.9197       82.83921         0.5942         0.5958        43.0168         0.5918       -34.7283         -0.766              1              1
      6766.0000         1.0929        28.2233         0.0121        76.6996       78.05061         0.5933         0.5949        42.1378         0.6201       -34.8458        -0.8835      0.9585235              1
      6766.5000         1.1873        28.1996         0.0156        74.4618       75.51142         0.5918         0.5939         42.056         0.6423       -35.0253         -1.063      0.9044983              1
      6767.0000         1.2985        27.0666         0.0197        76.3466       77.65035         0.5899         0.5906        41.9739         0.6589       -35.1595        -1.1972      0.9500075              1
      6767.5000         1.3201          25.91         0.0236        78.4342       80.01942         0.5879         0.5877        41.7195         0.6647       -35.2142        -1.2519              1              1
      6768.0000          1.276        24.7549         0.0274        79.5593        81.2963         0.5858         0.5861        42.5465         0.6647       -35.2471        -1.2848              1              1
      6768.5000         1.1743        24.0442         0.0292        80.4291       82.28345         0.5846         0.5852        44.2258         0.6527       -35.2576        -1.2953              1              1
      6769.0000         1.0761        24.1068         0.0293        81.0736       83.01496         0.5842         0.5859        45.8068         0.6218       -35.2677        -1.3054              1              1
      6769.5000         0.9738        24.3417          0.027        81.5293       83.53222         0.5829         0.5864        45.6172          0.606       -35.2774        -1.3151              1              1
      6770.0000         0.8658        24.3607         0.0216        81.1813       83.13749         0.5826         0.5865         43.579         0.6145       -35.2937        -1.3314              1              1
      6770.5000         0.7841         24.091         0.0149        80.3214       82.16188         0.5835         0.5874        41.6512         0.6327       -35.3192        -1.3569              1              1
      6771.0000         0.7228        24.2621         0.0089        79.2915       80.99335         0.5856          0.589        42.0273         0.6457       -35.3423          -1.38              1              1
      6771.5000         0.6894        25.1209          0.004        78.3378        79.9113          0.592         0.5931        43.6829         0.6391       -35.3513         -1.389      0.9981128              1
      6772.0000         0.6626        25.9415         0.0038        77.5031       78.96427         0.6067          0.606        44.9564         0.6246       -35.3602        -1.3979      0.9779632              1
      6772.5000         0.6369        26.1271         0.0089        77.5231       78.98714         0.6317         0.6263        43.7837         0.6372       -35.3702        -1.4079      0.9784499              1
      6773.0000         0.6252        25.7307         0.0132        78.9835       80.64449         0.6547         0.6481        42.3537         0.6615       -35.3803         -1.418              1              1
      6773.5000         0.6274        24.9836         0.0155         79.804       81.57571         0.6778         0.6695        41.3806          0.683       -35.4987        -1.5364              1              1
      6774.0000         0.6377        24.3363         0.0142         78.717        80.3424         0.6915         0.6898        41.6416         0.7052       -35.6223          -1.66              1              1
      6774.5000         0.6558        23.8593         0.0126        77.8848       79.39822         0.7054         0.7095        43.2096         0.7176       -35.7394        -1.7771      0.9871963              1
      6775.0000         0.6745        23.4803         0.0101        77.1194       78.52983         0.7118         0.7248        44.7687         0.7335        -35.847        -1.8847      0.9687198              1
      6775.5000         0.6936        23.2687         0.0069        76.3604       77.66872         0.7169         0.7362        45.2004         0.7566       -35.9705        -2.0082      0.9503982      0.9997515
      6776.0000         0.7126          23.47         0.0031        75.6095       76.81679         0.7195         0.7428        41.8493         0.7692       -36.2515        -2.2892      0.9322721      0.9912364
      6776.5000         0.7314        24.1038         0.0001        75.3704       76.54562         0.7192          0.743        40.7775         0.7619       -36.3953         -2.433      0.9265026      0.9868788
      6777.0000         0.7649        24.6042        -0.0015        78.1964        79.7526         0.7155         0.7247        40.8204         0.7383       -36.3487        -2.3864      0.9947362      0.9882909
      6777.5000         0.8037        24.6588        -0.0023        79.9717       81.76729         0.7086         0.7123        41.3694         0.7179       -36.3704        -2.4081              1      0.9876333
      6778.0000         0.8803        24.3108        -0.0006        79.5117       81.24546         0.7002         0.6994        42.0874         0.7016       -36.4622        -2.4999              1      0.9848515
      6778.5000         0.9612        23.7092         0.0024        78.1788       79.73312         0.6873         0.6871        42.0303         0.6938       -36.4826        -2.5203      0.9943216      0.9842333
      6779.0000         1.0514        22.9411         0.0085         77.105       78.51476          0.672          0.674         40.618         0.6918       -36.3926        -2.4303      0.9683992      0.9869606
      6779.5000         1.0393        22.1731         0.0152        77.2477       78.67686         0.6573         0.6618         38.915         0.6838       -36.1385        -2.1762      0.9718482      0.9946606
      6780.0000         1.1365        21.4657         0.0212        79.5706       81.31293         0.6429         0.6503         37.643          0.673       -35.8707        -1.9084              1              1
      6780.5000         1.1647         21.222         0.0243        80.4412       82.30099         0.6305         0.6413         38.918         0.6573          -35.6        -1.6377              1              1
      6781.0000          1.167        21.6007         0.0243        79.8696       81.65254         0.6219         0.6359         41.247         0.6418       -35.4183         -1.456              1              1
      6781.5000         1.1612        21.9657          0.023        78.5693       80.17717         0.6235         0.6346        42.4301         0.6337       -35.2421        -1.2798              1              1
      6782.0000         1.1158        22.2278         0.0173        77.1226       78.53569          0.627         0.6347         41.882         0.6426       -35.1027        -1.1404      0.9688445              1
      6782.5000         1.0301        22.1396         0.0116        75.9774       77.23634         0.6329         0.6349        41.7162         0.6491       -34.9631        -1.0008      0.9411986              1
