#------------------------------------------------------------------------------
# Created by    : vladimir.rabinovich
# Created on    : 09/19/2023 17:20:32
#------------------------------------------------------------------------------
~Version Information Section
VERS.           2.0     :   CWLS log ASCII Standard - VERSION 2.0
WRAP.           NO      :   One line per depth step
~Well Information Section
#MNEM       .UNIT                                         VALUE :DESCRIPTION
#------------------------------------------------------------------------------
STRT        .FT                                             222 :START DEPTH
STOP        .FT                                            9192 :STOP DEPTH
STEP        .FT                                             0.5 :STEP      
NULL        .                                           -999.25 :NULL      
COMP        .                                      PAN AMERICAN :COMPANY   
WELL        .                                     ST TR 00060-L :WELL      
FLD         .                                           WILDCAT :FIELD     
LOC         .                                                   :LOCATION  
CNTY        .                             GALVESTON LARGE BLOCK :LOCATION  
STAT        .                                             TEXAS :STATE     
CTRY        .                                     UNITED STATES :COUNTRY   
SRVC        .                                                   :SERVICE COMPANY
DATE        .                             9/13/2023 11:19:24 AM :LOG DATE  
API         .                                    42706000830000 :API NUMBER
UWI         .                                    42706000830000 :UNIQUE WELL ID
XCOORD      .                                  1150669.84230747 :SURFACE X 
YCOORD      .                                  10684730.4394491 :SURFACE Y 
LAT         .                                        29.4325033 :LATITUDE  
LON         .                                       -94.5389235 :LONGITUDE 
ELEV        .FT                                              11 :ELEVATION VALUE
ELEV_TYPE   .                                                KB :ELEVATION REFERENCE TYPE
~Curve Information Section
#MNEM       .UNIT                                      API CODE :CURVE DESCRIPTION
#------------------------------------------------------------------------------
DEPT        .FT                                                 :DEPTH     
ASN         .OHMM                                               :          
CILD        .MMHO                                               :          
ILD         .OHMM                                               :          
SP          .MV                                                 :          
SP_NORM     .MV                                                 :SP Normalized
VSH_SP      .V/V                                                :Volume of Shale from SP
~A        DEPTH            ASN           CILD            ILD             SP        SP_NORM         VSH_SP
# ...
      9152.0000         0.5371        -999.25         0.5703       -42.0609       1.076355              1
      9152.5000         0.5294        -999.25         0.5701       -42.1603      0.9769554              1
      9153.0000         0.5216        -999.25         0.5698       -42.3813      0.7559547              1
      9153.5000         0.5139        -999.25         0.5695        -42.694      0.4432564              1
      9154.0000         0.5061        -999.25         0.5694       -43.0068       0.130455              1
      9154.5000         0.4984        -999.25         0.5696       -43.3188     -0.1815453              1
      9155.0000         0.4906        -999.25         0.5698       -43.6316     -0.4943428              1
      9155.5000         0.4829        -999.25           0.57       -43.9443      -0.807045              1
      9156.0000         0.4816        -999.25         0.5702       -44.2564      -1.119144      0.9976639
      9156.5000         0.4825        -999.25         0.5679       -44.5691      -1.431843      0.9915325
      9157.0000         0.4835        -999.25         0.5631        -44.954      -1.816742      0.9839854
      9157.5000         0.4861        -999.25         0.5584        -45.361      -2.223743       0.976005
      9158.0000         0.4913        -999.25         0.5536       -45.7679      -2.630642      0.9680266
      9158.5000         0.4966        -999.25         0.5489       -46.1749      -3.037643      0.9600462
      9159.0000         0.5018        -999.25         0.5441       -46.5818      -3.444542      0.9520678
      9159.5000         0.5071        -999.25         0.5393       -46.9913      -3.854042      0.9440384
      9160.0000         0.5123        -999.25         0.5346        -47.416      -4.278744      0.9357109
      9160.5000         0.5176        -999.25         0.5319       -47.7523      -4.615044      0.9291168
      9161.0000         0.5228        -999.25         0.5308       -47.4811      -4.343842      0.9344345
      9161.5000         0.5272        -999.25         0.5297       -47.2101      -4.072842      0.9397482
      9162.0000          0.524        -999.25         0.5285       -46.9387      -3.801445      0.9450697
      9162.5000         0.5196        -999.25         0.5274       -46.6675      -3.530243      0.9503874
      9163.0000         0.5152        -999.25         0.5263       -46.3964      -3.259144      0.9557031
      9163.5000         0.5108        -999.25         0.5252       -46.0213      -2.884045      0.9630579
      9164.0000         0.5064        -999.25          0.524        -45.629      -2.491745      0.9707501
      9164.5000          0.502        -999.25         0.5229       -45.2361      -2.098843      0.9784541
      9165.0000         0.4976        -999.25         0.5221       -44.8433      -1.706043       0.986156
      9165.5000         0.4982        -999.25         0.5215        -44.451      -1.313744      0.9938481
      9166.0000         0.5026        -999.25         0.5208       -44.0581      -0.920845              1
      9166.5000         0.5071        -999.25         0.5202       -43.6658     -0.5285416              1
      9167.0000         0.5116        -999.25         0.5196       -43.2729      -0.135643              1
      9167.5000          0.516        -999.25         0.5189       -42.8801      0.2571564              1
      9168.0000         0.5205        -999.25         0.5183       -42.4879      0.6493568              1
      9168.5000          0.525        -999.25         0.5177        -42.095       1.042255              1
      9169.0000         0.5263        -999.25          0.517       -41.9891       1.148155              1
      9169.5000         0.5259        -999.25         0.5166       -41.8881       1.249157              1
      9170.0000         0.5255        -999.25         0.5173        -41.787       1.350258              1
      9170.5000         0.5251        -999.25         0.5179        -41.686       1.451256              1
      9171.0000         0.5247        -999.25         0.5185        -41.585       1.552258              1
      9171.5000         0.5243        -999.25         0.5192       -41.4839       1.653358              1
      9172.0000         0.5239        -999.25         0.5198       -41.3829       1.754356              1
      9172.5000         0.5254        -999.25         0.5204       -41.2819       1.855358              1
      9173.0000         0.5307        -999.25          0.521       -41.1948       1.942455              1
      9173.5000          0.536        -999.25         0.5217       -41.1942       1.943058              1
      9174.0000         0.5413        -999.25         0.5213       -41.1936       1.943657              1
      9174.5000         0.5466        -999.25         0.5184       -41.1931       1.944157              1
      9175.0000         0.5476        -999.25         0.5155       -41.1924       1.944855              1
      9175.5000         0.5423        -999.25         0.5125       -41.1919       1.945358              1
      9176.0000          0.537        -999.25         0.5096       -41.1913       1.945957              1
      9176.5000         0.5317        -999.25         0.5067       -41.1908       1.946457              1
      9177.0000          0.527        -999.25         0.5037       -41.1902       1.947056              1
      9177.5000         0.5231        -999.25         0.5008       -41.1896       1.947655              1
      9178.0000         0.5192        -999.25         0.5015       -41.1891       1.948158              1
      9178.5000         0.5153        -999.25         0.5033       -41.1885       1.948757              1
      9179.0000         0.5161        -999.25         0.5051       -41.1879       1.949356              1
      9179.5000         0.5177        -999.25          0.507       -41.1886       1.948658              1
      9180.0000         0.5192        -999.25         0.5088       -41.1921       1.945156              1
      9180.5000         0.5208        -999.25         0.5107       -41.1955       1.941757              1
      9181.0000         0.5224        -999.25         0.5125        -41.199       1.938255              1
      9181.5000          0.524        -999.25         0.5199       -41.2025       1.934757              1
      9182.0000         0.5244        -999.25         0.5307       -41.2059       1.931358              1
      9182.5000         0.5244        -999.25         0.5415       -41.2094       1.927856              1
      9183.0000         0.5245        -999.25         0.5523       -41.2128       1.924458              1
      9183.5000         0.5245        -999.25          0.563       -41.2163       1.920956              1
      9184.0000         0.5246        -999.25         0.5738       -41.2198       1.917458              1
      9184.5000         0.5261        -999.25         0.5796       -41.2233       1.913956              1
      9185.0000         0.5342        -999.25         0.5834       -41.2448       1.892456              1
      9185.5000         0.5421        -999.25         0.5871       -41.3225       1.814758              1
      9186.0000         0.5502        -999.25         0.5908       -41.4002       1.737057              1
      9186.5000         0.5582        -999.25         0.5946       -41.4781       1.659157              1
      9187.0000         0.5602        -999.25         0.5973       -41.5558       1.581455              1
      9187.5000         0.5545        -999.25         0.5946       -41.6337       1.503555              1
      9188.0000         0.5456        -999.25          0.592       -41.7114       1.425858              1
      9188.5000         0.5367        -999.25         0.5893       -41.7756       1.361656              1
      9189.0000         0.5279        -999.25         0.5867       -41.8264       1.310856              1
      9189.5000          0.519        -999.25         0.5841       -41.8771       1.260155              1
