#------------------------------------------------------------------------------
# Created by    : vladimir.rabinovich
# Created on    : 09/19/2023 17:19:43
#------------------------------------------------------------------------------
~Version Information Section
VERS.           2.0     :   CWLS log ASCII Standard - VERSION 2.0
WRAP.           NO      :   One line per depth step
~Well Information Section
#MNEM       .UNIT                                         VALUE :DESCRIPTION
#------------------------------------------------------------------------------
STRT        .FT                                            1054 :START DEPTH
STOP        .FT                                           13910 :STOP DEPTH
STEP        .FT                                             0.5 :STEP      
NULL        .                                           -999.25 :NULL      
COMP        .                                            MTS LP :COMPANY   
WELL        .                                ST TR 00061-L SW/4 :WELL      
FLD         .                                           WILDCAT :FIELD     
LOC         .                                                   :LOCATION  
CNTY        .                           HIGH ISLAND LARGE BLOCK :LOCATION  
STAT        .                                             TEXAS :STATE     
CTRY        .                                     UNITED STATES :COUNTRY   
SRVC        .                                                   :SERVICE COMPANY
DATE        .                             9/13/2023 11:19:15 AM :LOG DATE  
API         .                                    42708302730000 :API NUMBER
UWI         .                                    42708302730000 :UNIQUE WELL ID
XCOORD      .                                  1164861.29381137 :SURFACE X 
YCOORD      .                                   10674042.082625 :SURFACE Y 
LAT         .                                        29.4036169 :LATITUDE  
LON         .                                       -94.4939126 :LONGITUDE 
ELEV        .FT                                              78 :ELEVATION VALUE
ELEV_TYPE   .                                                KB :ELEVATION REFERENCE TYPE
~Curve Information Section
#MNEM       .UNIT                                      API CODE :CURVE DESCRIPTION
#------------------------------------------------------------------------------
DEPT        .FT                                                 :DEPTH     
ASFL        .OHMM                                               :          
CILD        .MMHO                                               :          
ILD         .OHMM                                               :          
SP          .MV                                                 :          
SP_NORM     .MV                                                 :SP Normalized
VSH_SP      .V/V                                                :Volume of Shale from SP
~A        DEPTH           ASFL           CILD            ILD             SP        SP_NORM         VSH_SP
# ...
      9604.0000         0.9446       1315.771         0.7465       -40.5544     -0.5544014              1
      9604.5000         0.9369       1306.658         0.7484       -40.5565     -0.5564995              1
      9605.0000         0.9277       1314.383         0.7486       -40.5587     -0.5587006              1
      9605.5000         0.9247       1322.107         0.7486       -40.5609     -0.5609016              1
      9606.0000         0.9223       1329.832         0.7485        -40.563     -0.5629997              1
      9606.5000         0.9194       1337.545         0.7485       -40.5788     -0.5788002              1
      9607.0000         0.9164       1346.633         0.7469        -40.597     -0.5970001              1
      9607.5000         0.9134       1355.746         0.7454       -40.6154     -0.6153984              1
      9608.0000         0.9104       1364.859         0.7439       -40.6337     -0.6337013              1
      9608.5000         0.9073       1373.973         0.7423       -40.6519     -0.6519012              1
      9609.0000         0.9043       1378.484         0.7408       -40.6357     -0.6357002              1
      9609.5000         0.9009       1373.566         0.7417       -40.6194        -0.6194              1
      9610.0000         0.8973       1364.625         0.7433       -40.6032      -0.603199              1
      9610.5000         0.9075       1349.912         0.7449        -40.587     -0.5870018              1
      9611.0000         0.9217       1335.199         0.7466       -40.5378     -0.5377998              1
      9611.5000          0.937       1324.355         0.7482       -40.4777     -0.4776993              1
      9612.0000          0.953       1314.873         0.7498       -40.4175     -0.4174995              1
      9612.5000         0.9643       1306.959         0.7514       -40.3574      -0.357399              1
      9613.0000          0.972       1303.803         0.7544       -40.2971     -0.2971001              1
      9613.5000         0.9588       1300.652         0.7581       -40.1753     -0.1753006              1
      9614.0000         0.9418       1304.975         0.7619       -40.0301    -0.03010178              1
      9614.5000         0.9226        1311.84          0.762       -39.8846      0.1153984              1
      9615.0000         0.9069       1322.156         0.7592       -39.7394       0.260601              1
      9615.5000         0.8977        1343.82         0.7563       -39.6743      0.3256989              1
      9616.0000         0.8988       1362.451         0.7535       -39.6956      0.3044014              1
      9616.5000         0.9108       1372.977         0.7506        -39.717      0.2830009              1
      9617.0000         0.9228        1376.82         0.7478       -39.7385      0.2615013              1
      9617.5000         0.9346       1367.426         0.7449       -39.8134      0.1865997              1
      9618.0000         0.9431       1358.756         0.7437       -39.9622     0.03779984              1
      9618.5000         0.9487       1350.084         0.7436       -40.1108     -0.1108017              1
      9619.0000         0.9538       1341.414         0.7436       -40.2596     -0.2596016              1
      9619.5000         0.9407        1337.77         0.7436       -40.4085     -0.4085007              1
      9620.0000         0.9276       1338.271         0.7435       -40.5573     -0.5573006              1
      9620.5000         0.9117       1338.771         0.7435       -40.7048     -0.7047997              1
      9621.0000         0.8985       1335.236         0.7434       -40.7742     -0.7742004              1
      9621.5000          0.895       1327.033         0.7473       -40.8438     -0.8437996              1
      9622.0000         0.9046       1318.816          0.752       -40.9133     -0.9132996              1
      9622.5000         0.9385       1304.029         0.7567        -41.012      -1.012001      0.9998261
      9623.0000         1.0064       1279.123         0.7614       -41.1371        -1.1371       0.998013
      9623.5000         1.0202       1258.883          0.766       -41.2622      -1.262199         0.9962
      9624.0000         1.0312       1240.707         0.7708       -41.3872      -1.387199      0.9943884
      9624.5000         1.0126       1228.746         0.7775       -41.5042        -1.5042      0.9926928
      9625.0000         0.9897       1221.898         0.7842        -41.519      -1.519001      0.9924783
      9625.5000         0.9667       1225.146          0.791       -41.5338      -1.533798      0.9922638
      9626.0000         0.9486         1228.4         0.7977       -41.5486      -1.548599      0.9920493
      9626.5000         0.9364        1231.65         0.8024       -41.5634        -1.5634      0.9918348
      9627.0000         0.9529       1229.986          0.804       -41.5781      -1.578098      0.9916218
      9627.5000         0.9701        1220.75         0.8055       -41.5929      -1.592899      0.9914073
      9628.0000         1.0225       1208.334          0.807       -41.5849        -1.5849      0.9915232
      9628.5000         1.0584       1195.389         0.8085       -41.5738      -1.573799      0.9916841
      9629.0000         1.0688       1183.814         0.8089       -41.5627      -1.562698       0.991845
      9629.5000         1.0792       1178.178         0.8071       -41.5516      -1.551601      0.9920058
      9630.0000         1.0629       1172.539         0.8053       -41.5405      -1.540501      0.9921666
      9630.5000         1.0196       1168.371         0.8035       -41.5294        -1.5294      0.9923275
      9631.0000         0.9837       1175.752         0.8017       -41.5182        -1.5182      0.9924899
      9631.5000         0.9619       1183.133         0.8041       -41.5071      -1.507099      0.9926507
      9632.0000         0.9532       1191.227         0.8069        -41.496      -1.495998      0.9928116
      9632.5000         0.9593       1199.332         0.8098       -41.4849      -1.484901      0.9929724
      9633.0000         0.9701       1195.758         0.8126       -41.4738      -1.473801      0.9931333
      9633.5000         0.9817       1190.193         0.8155       -41.4615      -1.461498      0.9933116
      9634.0000          0.993       1184.619         0.8184        -41.438         -1.438      0.9936522
      9634.5000         1.0032       1179.043         0.8217       -41.4145      -1.414501      0.9939927
      9635.0000         1.0135        1173.51         0.8277       -41.3909        -1.3909      0.9943348
      9635.5000          1.023       1168.861         0.8338       -41.3674      -1.367401      0.9946753
      9636.0000          1.032       1164.219         0.8398       -41.3439      -1.343899       0.995016
      9636.5000          1.041        1159.57         0.8459       -41.3203      -1.320301      0.9953579
      9637.0000         1.0499       1154.928         0.8519       -41.2968      -1.296799      0.9956986
      9637.5000         1.0587       1150.279         0.8628       -41.2732      -1.273201      0.9960406
      9638.0000          1.066       1147.324         0.8832       -41.2497      -1.249699      0.9963812
      9638.5000         1.0688       1148.482         0.9171       -41.2261      -1.226101      0.9967232
      9639.0000         1.0716       1149.641         0.9596       -41.2026      -1.202599      0.9970638
      9639.5000         1.0707       1153.842         1.0028       -41.1791        -1.1791      0.9974043
      9640.0000         1.0685       1160.154         1.0512       -40.5817     -0.5816994              1
      9640.5000         1.0664       1166.467         1.0995       -40.5744     -0.5744019              1
      9641.0000         1.0642       1172.625         1.1466        -40.567     -0.5670013              1
      9641.5000         1.0621       1177.496         1.1835       -40.5597        -0.5597              1
