#------------------------------------------------------------------------------
# Created by    : vladimir.rabinovich
# Created on    : 09/19/2023 17:19:58
#------------------------------------------------------------------------------
~Version Information Section
VERS.           2.0     :   CWLS log ASCII Standard - VERSION 2.0
WRAP.           NO      :   One line per depth step
~Well Information Section
#MNEM       .UNIT                                         VALUE :DESCRIPTION
#------------------------------------------------------------------------------
STRT        .FT                                             782 :START DEPTH
STOP        .FT                                            8251 :STOP DEPTH
STEP        .FT                                             0.5 :STEP      
NULL        .                                           -999.25 :NULL      
COMP        .                                     TALOS ERT LLC :COMPANY   
WELL        .                               OCS G06037 ST00BP00 :WELL      
FLD         .                       MATAGORDA ISLAND BLOCK 0619 :FIELD     
LOC         .                                                   :LOCATION  
CNTY        .                      MATAGORDA ISLAND LARGE BLOCK :LOCATION  
STAT        .                                             TEXAS :STATE     
CTRY        .                                     UNITED STATES :COUNTRY   
SRVC        .                                                   :SERVICE COMPANY
DATE        .                             9/13/2023 11:18:52 AM :LOG DATE  
API         .                                    42703402240000 :API NUMBER
UWI         .                                    42703402240000 :UNIQUE WELL ID
XCOORD      .                                  606760.800591327 :SURFACE X 
YCOORD      .                                  10227689.0556145 :SURFACE Y 
LAT         .                                        28.1463556 :LATITUDE  
LON         .                                       -96.2076889 :LONGITUDE 
ELEV        .FT                                              77 :ELEVATION VALUE
ELEV_TYPE   .                                                KB :ELEVATION REFERENCE TYPE
~Curve Information Section
#MNEM       .UNIT                                      API CODE :CURVE DESCRIPTION
#------------------------------------------------------------------------------
DEPT        .FT                                                 :DEPTH     
ASFL        .OHMM                                               :          
CALI        .IN                                                 :          
CILD        .MMHO                                               :          
DRHO        .G/C3                                               :          
DT          .US/F                                               :          
GR          .GAPI                                               :          
GR_NORM     .GAPI                                               :GammaRay Normalized
ILD         .OHMM                                               :          
ILM         .OHMM                                               :          
NPHI        .%                                                  :          
RHOB        .G/C3                                               :          
SFL         .OHMM                                               :          
SP          .MV                                                 :          
SP_NORM     .MV                                                 :SP Normalized
VSH_GR      .V/V                                                :Volume of Shale from GR
VSH_SP      .V/V                                                :Volume of Shale from SP
~A        DEPTH           ASFL           CALI           CILD           DRHO             DT             GR        GR_NORM            ILD            ILM           NPHI           RHOB            SFL             SP        SP_NORM         VSH_GR         VSH_SP
# ...
      5262.0000         1.0098        10.6295        1093.33        -0.0076       106.0594        60.9479       67.15531         0.8965         0.8961        34.9416          2.248         1.2136       -46.0015      -1.690121      0.7267088              1
      5262.5000         1.0297        10.5392       1084.672        -0.0042       108.7495        61.9229        69.0816         0.8883         0.8771        36.3497         2.2469         1.1305       -45.8178       -1.50642      0.7676937              1
      5263.0000         1.0232        10.4928       1075.324        -0.0029       113.4497        61.8452       68.92873         0.9005         0.8639        38.6968         2.2108         0.9871       -45.7731      -1.461723      0.7644411              1
      5263.5000         0.9976         10.459       1065.631         -0.005       116.8312        60.4072       66.08907         0.9298         0.8651        41.0438         2.1908         0.8425       -45.7076      -1.396221      0.7040228              1
      5264.0000         0.9519        10.4378       1041.439        -0.0073       116.5465        59.7693        64.8297         0.9576         0.8787        42.5358         2.1773         0.8044       -45.7477      -1.436321      0.6772276              1
      5264.5000         0.9468         10.516        1017.25        -0.0105       112.6138        59.3413       63.98495         0.9833         0.9417        39.0056         2.1948         0.8674       -45.9758      -1.664421      0.6592543              1
      5265.0000         0.9813        10.6127       995.3672        -0.0098       106.4202        57.8405       61.02126          1.004         1.0762        35.4753         2.2494         1.1317       -46.2004      -1.889023      0.5961969              1
      5265.5000         1.0189        10.5157       979.6377        -0.0052        98.7552        55.4723       56.34431         1.0197         1.1829         31.948          2.282         1.4786       -46.5534       -2.24202      0.4966875      0.9913564
      5266.0000          1.066         10.323       963.9082         0.0032        95.6854        53.2808       52.01643         1.0351         1.1867        28.4178         2.3439         1.8897       -46.8783      -2.566921      0.4046048      0.9797528
      5266.5000         1.1304        10.1227       950.6221         0.0115        98.8774        52.2703       50.02116         1.0491         1.1416        27.1559         2.3774         2.0014       -47.1014       -2.79002      0.3621522       0.971785
      5267.0000         1.2504        10.0401       941.7588         0.0156       104.5284        54.6932       54.80724         1.0496         1.0835        30.6624         2.3553         1.5955       -47.1079       -2.79652      0.4639837      0.9715528
      5267.5000         1.2081         10.091         934.21         0.0137       110.3944        58.4067       62.14241         1.0246          1.018         34.166         2.3118         1.2251       -47.0005      -2.689121      0.6200514      0.9753885
      5268.0000         1.0266         10.085       957.4824         0.0145       116.4463        62.3193       69.87085         0.9819         0.9469        37.6724         2.2532         0.8991       -46.6366      -2.325222      0.7844862      0.9883849
      5268.5000         0.9699        10.0191       1008.765         0.0196       118.9296        66.3588       77.84991         0.9245         0.8783        41.0453         2.2303         0.8189       -46.1237      -1.812321      0.9542535              1
      5269.0000         0.9132        10.0058       1069.848         0.0347       120.0062        69.2894       83.63876          0.865         0.8229        41.6976         2.2357         0.7965       -45.5453      -1.233921              1              1
      5269.5000         0.8847        10.0675       1186.307         0.0473       119.8314        70.6758       86.37766         0.8056         0.7931        41.5415         2.2424         0.8064       -44.7874     -0.4760208              1              1
      5270.0000         0.8617        10.1659       1261.309         0.0509       119.1617        69.5619       84.17815         0.7885         0.7805        40.7944         2.2377         0.8339       -44.3441    -0.03272247              1              1
      5270.5000          0.843        10.2141       1272.314         0.0435       118.0594        66.8839       78.88933         0.7945         0.7823        39.8339         2.2305         0.8761        -44.507     -0.1956215      0.9763687              1
      5271.0000         0.8548        10.2231       1270.293         0.0425       116.7781        64.9998       75.16859         0.8002         0.7886        39.1785         2.2282         0.9193       -45.1169     -0.8055229      0.8972042              1
      5271.5000         0.8747        10.2283       1265.242         0.0418       116.2568        63.5612       72.32772         0.8031         0.7966        38.7094         2.2336         0.9564       -45.7648      -1.453423        0.83676              1
      5272.0000         0.8913        10.2121       1250.318         0.0383        116.871        62.4922       70.21688         0.8063         0.8044        39.6179         2.2217         0.9781       -45.6263      -1.314922      0.7918485              1
      5272.5000         0.9075        10.1944       1235.383          0.025       118.0105        62.0336       69.31168         0.8083         0.8104           40.6         2.2007         0.9395         -44.77      -0.458622       0.772589              1
      5273.0000         0.9192        10.1717       1220.459         0.0166       119.1428        61.7767       68.80482         0.8056         0.8117        41.5287         2.1919         0.9091       -43.9372      0.3741798      0.7618048              1
      5273.5000         0.9252        10.1508       1204.531         0.0105       119.7617        62.1171       69.47775         0.7983         0.8009        41.4537         2.2028          0.896       -43.6899       0.621479      0.7761224              1
      5274.0000         0.9132        10.1506       1200.785         0.0173       118.9576        63.4766       72.16349         0.7866         0.7882        41.5807         2.2186         0.8927       -44.1833      0.1280785      0.8332657              1
      5274.5000         0.8922        10.1505        1222.48         0.0266       119.0745        65.7714       76.69659         0.7727         0.7716        42.9359          2.225         0.8837       -44.3336    -0.02222061      0.9297146              1
      5275.0000         0.8713        10.1463       1258.033         0.0337       119.7031        68.0624       81.22215          0.762         0.7585        43.7251         2.2255         0.8466       -44.2898     0.02157974              1              1
      5275.5000         0.8511        10.1409       1291.031          0.031       120.3169        69.2091       83.48758         0.7527          0.747        42.7859         2.2131         0.8107       -44.1542       0.157177              1              1
      5276.0000          0.836         10.146       1315.941         0.0201       120.3282        68.9385       82.95368         0.7434         0.7393        42.0731         2.2026         0.8081       -44.7354     -0.4240227              1              1
      5276.5000         0.8256        10.1628       1334.221         0.0127       119.5992        67.7506       80.60802         0.7353         0.7321        42.0885         2.1965         0.8285       -45.1082     -0.7968216              1              1
      5277.0000         0.8207         10.183       1341.975         0.0101       118.5641        67.4111       79.93804         0.7305         0.7298         42.175          2.199         0.8514       -44.8578     -0.5464211      0.9986817              1
      5277.5000         0.8212        10.2291       1349.023         0.0119       118.5734        66.8317       78.79424         0.7321         0.7299         41.625         2.2015          0.864       -44.8196     -0.5082207      0.9743456              1
