#------------------------------------------------------------------------------
# Created by    : vladimir.rabinovich
# Created on    : 09/19/2023 17:20:04
#------------------------------------------------------------------------------
~Version Information Section
VERS.           2.0     :   CWLS log ASCII Standard - VERSION 2.0
WRAP.           NO      :   One line per depth step
~Well Information Section
#MNEM       .UNIT                                         VALUE :DESCRIPTION
#------------------------------------------------------------------------------
STRT        .FT                                             723 :START DEPTH
STOP        .FT                                            8219 :STOP DEPTH
STEP        .FT                                             0.5 :STEP      
NULL        .                                           -999.25 :NULL      
COMP        .                                    MOBIL OIL CORP :COMPANY   
WELL        .                               OCS G02338 ST00BP00 :WELL      
FLD         .                                           WILDCAT :FIELD     
LOC         .                                                   :LOCATION  
CNTY        .                             GALVESTON LARGE BLOCK :LOCATION  
STAT        .                                             TEXAS :STATE     
CTRY        .                                     UNITED STATES :COUNTRY   
SRVC        .                                                   :SERVICE COMPANY
DATE        .                             9/13/2023 11:18:53 AM :LOG DATE  
API         .                                    42706400200000 :API NUMBER
UWI         .                                    42706400200000 :UNIQUE WELL ID
XCOORD      .                                  941616.333010477 :SURFACE X 
YCOORD      .                                  10405518.1254327 :SURFACE Y 
LAT         .                                         28.655687 :LATITUDE  
LON         .                                        -95.179294 :LONGITUDE 
ELEV        .FT                                              84 :ELEVATION VALUE
ELEV_TYPE   .                                                KB :ELEVATION REFERENCE TYPE
~Curve Information Section
#MNEM       .UNIT                                      API CODE :CURVE DESCRIPTION
#------------------------------------------------------------------------------
DEPT        .FT                                                 :DEPTH     
ASFL        .OHMM                                               :          
CALI        .IN                                                 :          
CILD        .MMHO                                               :          
DPHI        .%                                                  :          
DT          .US/F                                               :          
GR          .GAPI                                               :          
GR_1        .GAPI                                               :          
GR_NORM     .GAPI                                               :GammaRay Normalized
ILD         .OHMM                                               :          
NPHI        .DEC                                                :          
SP          .MV                                                 :          
SP_NORM     .MV                                                 :SP Normalized
VSH_GR      .V/V                                                :Volume of Shale from GR
VSH_SP      .V/V                                                :Volume of Shale from SP
~A        DEPTH           ASFL           CALI           CILD           DPHI             DT             GR           GR_1        GR_NORM            ILD           NPHI             SP        SP_NORM         VSH_GR         VSH_SP
# ...
      4215.0000         0.8853        11.4198       1325.426        38.2805       127.5729        -999.25        73.6458       63.77061         0.4017         0.3828        43.8457      -17.89784      0.6546939      0.7443166
      4215.5000         0.8707        11.4296       1271.088        38.0128       127.8226        -999.25        73.0787       63.08566         0.4086         0.3801        46.7977      -14.96444      0.6401203      0.7862223
      4216.0000         0.8553        11.4354        1228.68        39.9468       127.3916        -999.25        72.5582       62.45359         0.4155         0.3995        49.5332      -12.24754      0.6266721      0.8250352
      4216.5000         0.8396         11.477       1193.434        39.5381       126.4073        -999.25         72.684        62.5549         0.4224         0.3954        50.0249      -11.77444      0.6288277      0.8317937
      4217.0000         0.8238        11.5788       1158.189        38.8302       125.1982        -999.25        72.9418       62.80602         0.4337         0.3883        49.4934      -12.32454      0.6341705      0.8239351
      4217.5000         0.8081        11.5315        1118.25        37.3891       124.6578        -999.25        73.3256        63.2001         0.4459         0.3739        52.8711      -8.965443      0.6425552      0.8719223
      4218.0000         0.8021        11.4066       1073.865        35.7401       124.2218        -999.25        74.1802       64.12843         0.4582         0.3574         56.438      -5.417145      0.6623069      0.9226122
      4218.5000         0.7962        11.3056       1037.311        34.9915         124.22        -999.25        75.9626       66.10957         0.4704         0.3499         58.957      -2.916748      0.7044588      0.9583322
      4219.0000         0.7983         11.225       1004.746        35.5239       124.8202        -999.25        78.1028       68.49673         0.4827         0.3552         56.682       -5.21035      0.7552495      0.9255664
      4219.5000         0.8029        11.1795       985.8877        35.9846       125.4397        -999.25        80.2578       70.90068         0.4959         0.3598        54.7317      -7.179249      0.8063974      0.8974393
      4220.0000         0.8074        11.2244       967.0303          34.39       125.8726        -999.25        81.7408       72.54208         0.5104         0.3439        54.5675      -7.362049      0.8413209      0.8948278
      4220.5000          0.812        11.2693       948.1719        34.3893       125.6981        -999.25        81.9805       72.77265         0.5249         0.3439        56.3422      -5.605953      0.8462266       0.919915
      4221.0000         0.8166        11.2684       931.3896        34.5086       124.5796        -999.25        81.5077        72.1947         0.5394         0.3451        57.9402      -4.026554      0.8339298      0.9424778
      4221.5000         0.8211        11.2604       915.0752        34.2983       123.3405        -999.25        80.9362       71.50477         0.5539          0.343        59.2881      -2.697254      0.8192504      0.9614678
      4222.0000         0.8341        11.2557       898.7617        34.0084       122.1833        -999.25        80.1066       70.52193         0.5684         0.3401        60.5806      -1.423359      0.7983389      0.9796663
      4222.5000         0.8488        11.2546       882.4482        33.4419       122.6631        -999.25        79.2764       69.53843         0.5826         0.3344        61.5917     -0.4308586      0.7774134      0.9938449
      4223.0000         0.8635        11.2535       866.1338        32.4465       122.1862        -999.25        78.3694       68.46778         0.5964         0.3245        62.1075     0.06633759      0.7546337              1
      4223.5000         0.8782        11.2693       821.8359        31.8493       115.8868        -999.25         77.625       67.58164         0.6102         0.3185        61.7405     -0.3192635      0.7357796      0.9954391
      4224.0000         0.8936        11.2895       784.2686        31.8083        112.155        -999.25        77.7816       67.71791         0.6239         0.3181        61.2821     -0.7962646      0.7386789      0.9886248
      4224.5000         0.9131        11.3097       764.5957        31.8567       110.1721        -999.25        79.4543       69.57458         0.6378         0.3186        62.2128      0.1158333      0.7781825              1
      4225.0000         0.9326        11.3219       742.4287        31.8592       110.9678        -999.25        80.8951       71.16809         0.6515         0.3186         64.097       1.981434      0.8120871              1
      4225.5000         0.9521        11.3318       739.6846        30.3412       118.1086        -999.25        82.1488       72.54929         0.6626         0.3034        64.9639       2.829727      0.8414744              1
      4226.0000         0.9703         11.341          738.5        29.4001       123.1929        -999.25        81.3973        71.6551          0.671          0.294        64.7714       2.618629      0.8224489              1
      4226.5000         0.9852        11.3486       737.3174        29.5926       127.9218        -999.25        80.1599       70.20951         0.6794         0.2959        65.5282       3.356827      0.7916917              1
      4227.0000              1        11.3565       736.7246         31.828       130.1384        -999.25        78.9677       68.81522         0.6878         0.3183        66.9557       4.765728       0.762026              1
      4227.5000          0.996        11.3697       738.6172        32.9771       132.5654        -999.25        78.1425       67.83739         0.6962         0.3298        68.3004       6.091824      0.7412212              1
      4228.0000         0.9721        11.3984       740.5107        32.9391       136.4111        -999.25        77.3539       66.90109         0.7047         0.3294        68.7615       6.534321      0.7212998              1
      4228.5000         0.9433         11.486       742.4033        32.8577       140.0042        -999.25        77.9727       67.56184         0.7114         0.3286        67.8181       5.572323      0.7353584              1
      4229.0000         0.9144        11.5895       744.2959        33.3162        140.407        -999.25        76.0569       65.34646         0.7086         0.3332        65.1125       2.848122      0.6882225              1
      4229.5000         0.8873        11.7823       746.1904        34.0286       139.5447        -999.25         73.386       62.27421         0.7057         0.3403        62.2178    -0.06518173      0.6228555      0.9990689
      4230.0000         0.8602        11.8467       740.9307         34.622       139.4751        -999.25        71.1329       59.67606         0.7028         0.3462        59.1885      -3.113083      0.5675758      0.9555274
      4230.5000         0.8346        12.0178       735.3115        35.5179       138.8538        -999.25        68.8849       57.08372            0.7         0.3552        55.9502      -6.369987      0.5124195      0.9090002
      4231.0000         0.8502         12.306       750.3936        36.3047       139.5876        -999.25        67.3428       55.29237         0.6886          0.363        53.6431      -8.695686      0.4743057      0.8757759
      4231.5000         0.9016        12.3431       788.7148        38.4496       144.8557        -999.25        68.2959       56.33247         0.6769         0.3845        53.0519      -9.305489      0.4964355      0.8670645
      4232.0000         0.9563        11.9546        824.207        40.6243       148.9265        -999.25         71.288       59.68633         0.6651         0.4062        54.0173      -8.358692      0.5677943      0.8805901
      4232.5000         1.0065        11.6764       855.6064        46.3978       142.6338        -999.25        74.3234       63.08932         0.6531          0.464        53.1885      -9.206093      0.6401984      0.8684844
