#------------------------------------------------------------------------------
# Created by    : vladimir.rabinovich
# Created on    : 09/19/2023 17:20:25
#------------------------------------------------------------------------------
~Version Information Section
VERS.           2.0     :   CWLS log ASCII Standard - VERSION 2.0
WRAP.           NO      :   One line per depth step
~Well Information Section
#MNEM       .UNIT                                         VALUE :DESCRIPTION
#------------------------------------------------------------------------------
STRT        .FT                                             396 :START DEPTH
STOP        .FT                                           11006 :STOP DEPTH
STEP        .FT                                             0.5 :STEP      
NULL        .                                           -999.25 :NULL      
COMP        .                                 CALIFORNIA CO THE :COMPANY   
WELL        .                                OCS 00507 ST00BP00 :WELL      
FLD         .                            HIGH ISLAND BLOCK 0052 :FIELD     
LOC         .                                                   :LOCATION  
CNTY        .                           HIGH ISLAND LARGE BLOCK :LOCATION  
STAT        .                                             TEXAS :STATE     
CTRY        .                                     UNITED STATES :COUNTRY   
SRVC        .                                                   :SERVICE COMPANY
DATE        .                             9/13/2023 11:19:15 AM :LOG DATE  
API         .                                    42708000170000 :API NUMBER
UWI         .                                    42708000170000 :UNIQUE WELL ID
XCOORD      .                                  1293108.02889945 :SURFACE X 
YCOORD      .                                   10685731.628563 :SURFACE Y 
LAT         .                                         29.439677 :LATITUDE  
LON         .                                        -94.091453 :LONGITUDE 
ELEV        .FT                                              70 :ELEVATION VALUE
ELEV_TYPE   .                                                KB :ELEVATION REFERENCE TYPE
~Curve Information Section
#MNEM       .UNIT                                      API CODE :CURVE DESCRIPTION
#------------------------------------------------------------------------------
DEPT        .FT                                                 :DEPTH     
ASN         .OHMM                                               :          
CILD        .MMHO                                               :          
ILM         .OHMM                                               :          
SP          .MV                                                 :          
SP_NORM     .MV                                                 :SP Normalized
VSH_SP      .V/V                                                :Volume of Shale from SP
~A        DEPTH            ASN           CILD            ILM             SP        SP_NORM         VSH_SP
# ...
     10960.0000         0.6232       2479.008         0.4075       -49.6594          3.116              1
     10960.5000         0.6236       2506.738          0.406       -52.6777          0.103              1
     10961.0000         0.6241        2534.73         0.4039       -55.5763        -2.7903      0.9874555
     10961.5000         0.6246       2566.188         0.4017        -58.395        -5.6036         0.9428
     10962.0000         0.6245       2597.684         0.3996       -60.2631        -7.4664      0.9132317
     10962.5000         0.6236       2599.348         0.3975        -60.601         -7.799      0.9079524
     10963.0000         0.6227       2568.465         0.3953       -60.9384         -8.131      0.9026825
     10963.5000         0.6218       2537.578         0.3932       -61.2763        -8.4636      0.8974032
     10964.0000         0.6209       2508.051          0.391       -59.3315        -6.5135      0.9283571
     10964.5000           0.62       2485.008         0.3892       -57.2275        -4.4041      0.9618397
     10965.0000         0.6191       2466.105         0.3874       -55.1146        -2.2859      0.9954619
     10965.5000         0.6182       2478.129         0.3856       -54.6219        -1.7917              1
     10966.0000         0.6173       2489.938         0.3838       -54.1758        -1.3456              1
     10966.5000         0.6163       2501.633         0.3819       -53.8518        -1.0216              1
     10967.0000         0.6154       2513.332         0.3801       -53.5649        -0.7347              1
     10967.5000         0.6145        2514.34         0.3783       -53.2786        -0.4484              1
     10968.0000         0.6136       2510.465         0.3765       -52.9874        -0.1572              1
     10968.5000         0.6127       2506.594         0.3747       -52.6894         0.1408              1
     10969.0000         0.6117       2502.723         0.3729       -52.3909         0.4393              1
     10969.5000         0.6108       2498.852          0.371       -52.0929         0.7373              1
     10970.0000         0.6099       2494.152         0.3692       -51.8217         1.0085              1
     10970.5000         0.6089       2488.238         0.3674       -51.7258         1.1044              1
     10971.0000          0.608       2482.313         0.3656       -51.6296         1.2006              1
     10971.5000         0.6071       2480.277         0.3638        -51.861         0.9692              1
     10972.0000         0.6061       2501.348          0.362       -52.7842          0.046              1
     10972.5000         0.6052       2542.922         0.3601       -53.6421        -0.8119              1
     10973.0000         0.6043       2601.801         0.3584       -54.3534        -1.5232              1
     10973.5000         0.6033       2665.238         0.3592       -55.0647        -2.2345      0.9962777
     10974.0000         0.6024        2716.23         0.3601       -55.7099        -2.8797      0.9860365
     10974.5000         0.6015        2758.34          0.361       -55.7148        -2.8846      0.9859588
     10975.0000         0.6005       2765.383         0.3618       -55.7198        -2.8896      0.9858794
     10975.5000         0.5996       2772.426         0.3627       -55.7248        -2.8946         0.9858
     10976.0000         0.5994       2779.469         0.3635       -55.7298        -2.8996      0.9857206
     10976.5000         0.5992        2778.93         0.3644       -55.7772         -2.947      0.9849682
     10977.0000         0.5991       2772.832         0.3652       -56.3886        -3.5584      0.9752635
     10977.5000         0.5989       2766.742         0.3661       -56.9989        -4.1687      0.9655762
     10978.0000         0.5987       2760.641          0.367       -57.6104        -4.7802      0.9558699
     10978.5000         0.5985       2744.926         0.3678       -58.2207        -5.3905      0.9461825
     10979.0000         0.5984       2719.824         0.3687       -58.8311        -6.0009      0.9364936
     10979.5000         0.5982       2694.719         0.3695       -59.4425        -6.6123      0.9267889
     10980.0000          0.598       2669.617         0.3704       -60.0342         -7.204      0.9173968
     10980.5000         0.5979       2645.172         0.3713       -60.1402          -7.31      0.9157143
     10981.0000         0.5977       2621.691         0.3721       -60.2462         -7.416      0.9140317
     10981.5000         0.5982       2598.254          0.373       -60.3522         -7.522      0.9123492
     10982.0000         0.6006       2574.773         0.3738       -60.4581        -7.6279      0.9106683
     10982.5000         0.6029       2551.336         0.3747       -59.8586        -7.0284      0.9201841
     10983.0000         0.6052        2532.41         0.3775       -59.1007        -6.2705      0.9322143
     10983.5000         0.6076       2514.141         0.3806       -58.2928        -5.4626      0.9450381
     10984.0000         0.6099       2495.918         0.3837       -57.3052         -4.475      0.9607143
     10984.5000         0.6123       2477.648         0.3868       -56.3331        -3.5029      0.9761444
     10985.0000         0.6146       2463.938         0.3899       -55.4099        -2.5797      0.9907984
     10985.5000         0.6169       2450.313         0.3929       -54.4888        -1.6586              1
     10986.0000         0.6188       2447.934          0.396       -53.9655        -1.1353              1
     10986.5000         0.6202       2455.855         0.3991       -53.7053        -0.8751              1
     10987.0000         0.6215       2474.668         0.4011       -54.3112         -1.481              1
     10987.5000         0.6229       2494.602         0.4018       -54.9216        -2.0914      0.9985492
     10988.0000         0.6242       2514.578         0.4024       -55.5984        -2.7682      0.9878064
     10988.5000         0.6256       2533.789          0.403       -56.5706        -3.7404      0.9723746
     10989.0000         0.6269       2545.484         0.4036       -57.5405        -4.7103      0.9569794
     10989.5000         0.6283       2557.184         0.4043       -58.5126        -5.6824      0.9415492
     10990.0000         0.6289       2568.879         0.4049       -59.0086        -6.1784      0.9336762
     10990.5000         0.6282       2579.461         0.4055       -58.6596        -5.8294      0.9392159
     10991.0000         0.6275       2588.703         0.4033       -57.7735        -4.9433       0.953281
     10991.5000         0.6268       2597.969         0.3965       -55.8826        -3.0524      0.9832953
     10992.0000         0.6261       2607.234         0.3897       -54.2047        -1.3745              1
     10992.5000         0.6254        2616.16         0.3829       -52.7021         0.1281              1
     10993.0000         0.6247       2612.613         0.3761          -52.8         0.0302              1
     10993.5000          0.624        2609.07         0.3693       -52.9818        -0.1516              1
     10994.0000         0.6233        2605.52         0.3626       -53.1635        -0.3333              1
     10994.5000         0.6221       2595.711         0.3585       -53.3452         -0.515              1
     10995.0000         0.6208       2581.168         0.3546       -54.1015        -1.2713              1
     10995.5000         0.6194       2566.625         0.3508       -55.5496        -2.7194      0.9885809
     10996.0000         0.6181       2552.102         0.3469       -55.8459        -3.0157      0.9838778
     10996.5000         0.6168       2537.887          0.343       -55.1102          -2.28      0.9955556
     10997.0000         0.6154       2528.027         0.3394       -54.1026        -1.2724              1
     10997.5000         0.6141       2518.172         0.3375       -53.0928        -0.2626              1
