#------------------------------------------------------------------------------
# Created by    : vladimir.rabinovich
# Created on    : 09/19/2023 17:20:57
#------------------------------------------------------------------------------
~Version Information Section
VERS.           2.0     :   CWLS log ASCII Standard - VERSION 2.0
WRAP.           NO      :   One line per depth step
~Well Information Section
#MNEM       .UNIT                                         VALUE :DESCRIPTION
#------------------------------------------------------------------------------
STRT        .FT                                             601 :START DEPTH
STOP        .FT                                            9006 :STOP DEPTH
STEP        .FT                                             0.5 :STEP      
NULL        .                                           -999.25 :NULL      
COMP        .                                        SUN OIL CO :COMPANY   
WELL        .                               OCS G01715 ST00BP00 :WELL      
FLD         .                                           WILDCAT :FIELD     
LOC         .                                                   :LOCATION  
CNTY        .                                BRAZOS LARGE BLOCK :LOCATION  
STAT        .                                             TEXAS :STATE     
CTRY        .                                     UNITED STATES :COUNTRY   
SRVC        .                                                   :SERVICE COMPANY
DATE        .                             9/13/2023 11:18:52 AM :LOG DATE  
API         .                                    42704000710000 :API NUMBER
UWI         .                                    42704000710000 :UNIQUE WELL ID
XCOORD      .                                  842225.693118258 :SURFACE X 
YCOORD      .                                  10368215.6352389 :SURFACE Y 
LAT         .                                          28.54781 :LATITUDE  
LON         .                                        -95.486614 :LONGITUDE 
ELEV        .FT                                              79 :ELEVATION VALUE
ELEV_TYPE   .                                                KB :ELEVATION REFERENCE TYPE
~Curve Information Section
#MNEM       .UNIT                                      API CODE :CURVE DESCRIPTION
#------------------------------------------------------------------------------
DEPT        .FT                                                 :DEPTH     
ASN         .OHMM                                               :          
CALI        .IN                                                 :          
CILD        .MMHO                                               :          
DT          .US/F                                               :          
ILD         .OHMM                                               :          
SP          .MV                                                 :          
SP_NORM     .MV                                                 :SP Normalized
VSH_SP      .V/V                                                :Volume of Shale from SP
~A        DEPTH            ASN           CALI           CILD             DT            ILD             SP        SP_NORM         VSH_SP
# ...
      8979.0000         0.3568         9.9149       3776.063       189.8218         0.2713        -41.705      -5.990715      0.9276708
      8979.5000         0.3564        10.0538       3802.934       190.8555          0.268       -42.1777      -6.463413      0.9208201
      8980.0000         0.3594         10.226       3839.953       191.1807         0.2652       -41.7002      -5.985912      0.9277404
      8980.5000         0.3687        10.0298       3880.355       189.9824          0.266       -40.2782      -4.563911      0.9483491
      8981.0000         0.3785        10.1806       3915.316        191.585         0.2685        -39.067      -3.352715      0.9659027
      8981.5000          0.388        11.3331       3975.676       190.4773         0.2747       -39.1136      -3.399315      0.9652273
      8982.0000         0.3887        11.1633       3987.543       189.4983         0.2797       -40.0941      -4.379814      0.9510172
      8982.5000          0.387         10.652       3792.883       189.4448         0.2781       -40.4587      -4.744411      0.9457332
      8983.0000         0.3902        10.6882       3712.125       186.8777         0.2758       -39.0851      -3.370811      0.9656404
      8983.5000         0.3942        10.7916       3671.277       185.3186         0.2727       -38.5583      -2.844013      0.9732752
      8984.0000         0.3981        10.8624       3647.254       185.3452         0.2727       -38.8054      -3.091114       0.969694
      8984.5000          0.402        10.8415       3608.613       185.7393         0.2754       -39.7186      -4.004314      0.9564592
      8985.0000         0.4037        10.2995       3556.688       185.1672         0.2788       -40.4678      -4.753513      0.9456013
      8985.5000          0.403         9.7442       3532.023       184.0054         0.2831       -40.6509      -4.936615      0.9429476
      8986.0000         0.4018         9.6508       3506.918       183.7605          0.287       -40.4435      -4.729214      0.9459534
      8986.5000          0.404         9.9604       3479.656       183.5894         0.2899       -40.8402      -5.125912      0.9402042
      8987.0000         0.4061        10.1541       3449.156       184.1975         0.2911       -42.0631      -6.348812       0.922481
      8987.5000         0.4039         9.8241       3392.352       185.0063         0.2893       -41.2433      -5.529015      0.9343621
      8988.0000          0.402         9.6055       3371.539       185.6042         0.2917       -41.2195      -5.505215       0.934707
      8988.5000         0.4062         9.5075       3342.559       184.7866         0.2945        -41.619      -5.904713      0.9289172
      8989.0000         0.4138         9.4833       3297.449       183.7856         0.2953       -41.5779      -5.863613      0.9295129
      8989.5000         0.4195         9.4666       3248.121       182.5195         0.2943       -40.8184      -5.104115      0.9405201
      8990.0000         0.4219          9.464        3196.93       181.6423         0.2916       -40.2334      -4.519112      0.9489984
      8990.5000         0.4178         9.5781       3176.313       181.9771         0.2879       -40.3462      -4.631912      0.9473636
      8991.0000         0.4085          9.455        3157.48        183.429          0.284       -40.3513      -4.637012      0.9472896
      8991.5000         0.4016         9.3222       3143.188       184.8682         0.2801       -40.3953      -4.681015      0.9466519
      8992.0000         0.3951         9.4955       3135.465       186.2825         0.2757       -40.2222      -4.507912      0.9491607
      8992.5000          0.387         9.5459       3152.113       187.3135         0.2713       -40.2067      -4.492413      0.9493853
      8993.0000          0.382         9.5294       3172.953       187.9441         0.2708       -41.3453      -5.631012      0.9328839
      8993.5000         0.3822         9.5435       3194.305       187.5498         0.2716       -42.0854      -6.371113      0.9221578
      8994.0000         0.3841         9.5885       3215.637        186.864         0.2687       -42.3422      -6.627914      0.9184361
      8994.5000         0.3869         9.5711       3236.988       185.9102         0.2642       -42.2692      -6.554913       0.919494
      8995.0000         0.3896         9.7234       3266.215       185.7964          0.258       -41.1176      -5.403313      0.9361839
      8995.5000         0.3879         9.9382       3295.438       186.6619         0.2543       -41.8665      -6.152214      0.9253302
      8996.0000         0.3789        10.0042        3324.66       187.8901         0.2526       -41.7314      -6.017113      0.9272882
      8996.5000           0.37        10.1214       3387.766       188.6711         0.2533       -41.5458      -5.831512      0.9299781
      8997.0000         0.3672        10.2802       3460.633       187.7703         0.2527       -41.2629      -5.548615       0.934078
      8997.5000         0.3692        10.1454       3530.551       187.6587         0.2511       -40.5156      -4.801311      0.9449085
      8998.0000         0.3717        10.0463       3553.133       187.4792         0.2543       -40.0262      -4.311913      0.9520013
      8998.5000         0.3729         9.8909       3569.117       187.0862         0.2605       -39.4352      -3.720913      0.9605665
      8999.0000         0.3717         9.8217       3589.172       187.3984         0.2713       -40.3085      -4.594212        0.94791
      8999.5000         0.3695         9.8603       3610.035       187.7803         0.2825       -40.8414      -5.127113      0.9401867
      9000.0000         0.3734         9.9501       3632.395       188.0264         0.2942       -40.9849      -5.270615       0.938107
      9000.5000          0.377         9.9807       3635.313       188.2815         0.3034       -40.9969      -5.282612      0.9379331
      9001.0000         0.3801         9.9665         3624.5       188.7417         0.3111       -41.1182      -5.403912      0.9361752
      9001.5000         0.3821        10.0262       3610.598       189.4519         0.3147       -41.4101      -5.695812      0.9319447
      9002.0000         0.3811        10.0773       3596.723       189.7324         0.3147       -41.5945      -5.880215      0.9292722
      9002.5000         0.3804        -999.25        3582.82        -999.25         0.3133       -41.5966      -5.882313      0.9292418
      9003.0000         0.3821        -999.25       3576.227        -999.25         0.3141        -41.229      -5.514713      0.9345694
      9003.5000         0.3809        -999.25       3570.293        -999.25         0.3144       -40.4381      -4.723812      0.9460317
      9004.0000         0.3754        -999.25       3564.359        -999.25         0.3086       -41.0888      -5.374512      0.9366013
      9004.5000         0.3664        -999.25       3561.961        -999.25          0.305       -41.2448      -5.530514      0.9343404
      9005.0000          0.365        -999.25       3560.066        -999.25         0.3058       -40.5477      -4.833412      0.9444433
      9005.5000         0.3691        -999.25       3558.172        -999.25         0.3066       -40.3922      -4.677914      0.9466969
      9006.0000         0.3706        -999.25       3556.281        -999.25         0.3074       -40.5032      -4.788914      0.9450882
