#------------------------------------------------------------------------------
# Created by    : vladimir.rabinovich
# Created on    : 09/19/2023 17:20:11
#------------------------------------------------------------------------------
~Version Information Section
VERS.           2.0     :   CWLS log ASCII Standard - VERSION 2.0
WRAP.           NO      :   One line per depth step
~Well Information Section
#MNEM       .UNIT                                         VALUE :DESCRIPTION
#------------------------------------------------------------------------------
STRT        .FT                                             984 :START DEPTH
STOP        .FT                                            6595 :STOP DEPTH
STEP        .FT                                             0.5 :STEP      
NULL        .                                           -999.25 :NULL      
COMP        .                   MCMORAN OFFSHORE EXPLORATION CO :COMPANY   
WELL        .                               OCS G03106 ST00BP00 :WELL      
FLD         .                                           WILDCAT :FIELD     
LOC         .                                                   :LOCATION  
CNTY        .                      MATAGORDA ISLAND LARGE BLOCK :LOCATION  
STAT        .                                             TEXAS :STATE     
CTRY        .                                     UNITED STATES :COUNTRY   
SRVC        .                                                   :SERVICE COMPANY
DATE        .                             9/13/2023 11:12:09 AM :LOG DATE  
API         .                                    42703400570000 :API NUMBER
UWI         .                                    42703400570000 :UNIQUE WELL ID
XCOORD      .                                  467986.403229072 :SURFACE X 
YCOORD      .                                  10153243.7887249 :SURFACE Y 
LAT         .                                         27.931172 :LATITUDE  
LON         .                                        -96.630795 :LONGITUDE 
ELEV        .FT                                              95 :ELEVATION VALUE
ELEV_TYPE   .                                                KB :ELEVATION REFERENCE TYPE
~Curve Information Section
#MNEM       .UNIT                                      API CODE :CURVE DESCRIPTION
#------------------------------------------------------------------------------
DEPT        .FT                                                 :DEPTH     
ASFL        .OHMM                                               :          
CILD        .MMHO                                               :          
DT          .US/F                                               :          
GR          .GAPI                                               :          
GR_NORM     .GAPI                                               :GammaRay Normalized
ILD         .OHMM                                               :          
SFL         .OHMM                                               :          
SP          .MV                                                 :          
SP_NORM     .MV                                                 :SP Normalized
VSH_GR      .V/V                                                :Volume of Shale from GR
VSH_SP      .V/V                                                :Volume of Shale from SP
~A        DEPTH           ASFL           CILD             DT             GR        GR_NORM            ILD            SFL             SP        SP_NORM         VSH_GR         VSH_SP
# ...
      1006.5000        -999.25        -999.25        -999.25        28.8285       70.47274        -999.25        -999.25        -999.25        -999.25      0.7972924        -999.25
      1007.0000        -999.25        -999.25        -999.25        28.9231       70.50805        -999.25        -999.25        -999.25        -999.25      0.7980436        -999.25
      1007.5000        -999.25        -999.25        -999.25        29.0178       70.54358        -999.25        -999.25        -999.25        -999.25      0.7987996        -999.25
      1008.0000        -999.25        -999.25        -999.25        29.1124       70.57889        -999.25        -999.25        -999.25        -999.25      0.7995508        -999.25
      1008.5000        -999.25        -999.25        -999.25        29.2051       70.61036        -999.25        -999.25        -999.25        -999.25      0.8002204        -999.25
      1009.0000        -999.25        -999.25        -999.25        29.2968       70.63985        -999.25        -999.25        -999.25        -999.25      0.8008478        -999.25
      1009.5000        -999.25        -999.25        -999.25        30.3312       72.57164        -999.25        -999.25        -999.25        -999.25      0.8419498        -999.25
      1010.0000         0.0474       2253.922       200.4634        31.7984       75.37686         0.5048         0.5354        -999.25        -999.25      0.9016353        -999.25
      1010.5000         0.0873       2720.637       202.3516        33.4952       78.64537         0.3648         0.4927        -999.25        -999.25      0.9711781        -999.25
      1011.0000         0.1284       2822.441       202.6797        35.2802        82.0919         0.3314         0.4994        -999.25        -999.25              1        -999.25
      1011.5000         0.2259       2729.031       202.8235        36.9001       85.20523         0.3889         0.5211        -999.25        -999.25              1        -999.25
      1012.0000         0.3171       2260.258       203.1506        38.4781       88.23405         0.4455         0.5393        -999.25        -999.25              1        -999.25
      1012.5000         0.4083       1978.494       203.6484        40.0196       91.18899         0.4835         0.5523        -999.25        -999.25              1        -999.25
      1013.0000         0.4883       1899.764       204.4751        41.0838       93.18093         0.5076         0.5619        -999.25        -999.25              1        -999.25
      1013.5000         0.5139        1877.35       205.5859         40.915       92.68467         0.5193         0.5713        -999.25        -999.25              1        -999.25
      1014.0000          0.533       1859.738        206.343        39.7388       90.15556         0.5278         0.5839        -999.25        -999.25              1        -999.25
      1014.5000         0.5478       1835.824       206.0769        38.5806       87.66274         0.5402         0.5846        -999.25        -999.25              1        -999.25
      1015.0000         0.5514       1788.006       205.1865        37.5353       85.39776         0.5646         0.5674        -999.25        -999.25              1        -999.25
      1015.5000         0.5548       1667.803       203.3489        36.5889       83.33234         0.6011         0.5515        -999.25        -999.25              1        -999.25
      1016.0000         0.5581       1555.918       202.6626        35.9926       81.97344         0.6358         0.5476        -999.25        -999.25              1        -999.25
      1016.5000         0.5622       1496.439       202.7512        35.3784       80.57841         0.6612         0.5825        -999.25        -999.25              1        -999.25
      1017.0000         0.5704       1470.336       203.6472        34.7501       79.15492         0.6725         0.6508        -999.25        -999.25      0.9820196        -999.25
      1017.5000         0.5789       1493.084       205.0417        33.9529        77.3906         0.6641         0.7167        -999.25        -999.25      0.9444809        -999.25
      1018.0000         0.5881       1549.859       205.6562        33.6345        76.5925         0.6385         0.7358        -999.25        -999.25      0.9274999        -999.25
      1018.5000         0.5926       1629.914       204.5015        34.0826       77.34115         0.6079         0.6914        -999.25        -999.25      0.9434287        -999.25
      1019.0000         0.5953       1730.057       203.5078        34.1689       77.35972         0.5811         0.6292        -999.25        -999.25      0.9438238        -999.25
      1019.5000         0.5986       1821.043       204.4573        34.0197       76.90307          0.556         0.5625        -999.25        -999.25      0.9341078        -999.25
      1020.0000         0.6033       1869.191       204.3618        33.8704       76.44617         0.5396         0.4961        -999.25        -999.25      0.9243866        -999.25
      1020.5000         0.6098        1891.73       203.3494        33.7211       75.98929         0.5312         0.4398        -999.25        -999.25      0.9146657        -999.25
      1021.0000         0.6167       1889.324       202.8013        33.8845       76.16348         0.5305         0.4267        -999.25        -999.25      0.9183718        -999.25
      1021.5000         0.6324       1866.508       203.7629        34.3325       76.91193         0.5396         0.5096        -999.25        -999.25      0.9342963        -999.25
      1022.0000         0.6482       1818.965       204.9763        34.7535       77.60592         0.5542         0.6223        -999.25        -999.25      0.9490621        -999.25
      1022.5000         0.6642        1752.32       205.2969          34.58        77.1002         0.5771          0.704        -999.25        -999.25       0.938302        -999.25
      1023.0000         0.6468       1660.982       204.0422          33.99         75.754         0.6042         0.7574        -999.25        -999.25      0.9096595        -999.25
      1023.5000         0.6243       1547.066       203.1819        33.0206        73.6422          0.634         0.7594        -999.25        -999.25      0.8647277        -999.25
      1024.0000         0.5923        1451.23       202.9675        31.4156       70.24773         0.6665         0.7469        -999.25        -999.25      0.7925048        -999.25
      1024.5000         0.5558       1386.436        202.949        29.9969       67.22923         0.7031         0.7122        -999.25        -999.25      0.7282816        -999.25
      1025.0000         0.5315       1359.936       202.9521        28.6559       64.36755         0.7304         0.6584        -999.25        -999.25      0.6673946        -999.25
      1025.5000         0.5624       1357.982       202.9663        27.5172       61.91406         0.7287         0.6485        -999.25        -999.25      0.6151927        -999.25
      1026.0000         0.5962       1393.123       202.9995        26.7093       60.12795          0.715         0.6572        -999.25        -999.25      0.5771904        -999.25
      1026.5000         0.6278       1446.742       203.0786        26.7671       60.08899          0.698         0.6726        -999.25        -999.25      0.5763615        -999.25
      1027.0000         0.6577       1496.209       203.1575        26.8676       60.13623         0.6806         0.6746        -999.25        -999.25      0.5773665        -999.25
      1027.5000         0.6778       1516.736       203.3608        26.7554       59.75422         0.6655         0.6435        -999.25        -999.25      0.5692387        -999.25
      1028.0000         0.6971       1525.316        203.825         26.566       59.21642         0.6496         0.5743        -999.25        -999.25      0.5577962        -999.25
      1028.5000         0.7176       1567.697        204.479        26.2446       58.41225          0.632         0.5446        -999.25        -999.25      0.5406862        -999.25
