#------------------------------------------------------------------------------
# Created by    : vladimir.rabinovich
# Created on    : 09/19/2023 17:21:46
#------------------------------------------------------------------------------
~Version Information Section
VERS.           2.0     :   CWLS log ASCII Standard - VERSION 2.0
WRAP.           NO      :   One line per depth step
~Well Information Section
#MNEM       .UNIT                                         VALUE :DESCRIPTION
#------------------------------------------------------------------------------
STRT        .FT                                            2869 :START DEPTH
STOP        .FT                                           10002 :STOP DEPTH
STEP        .FT                                             0.5 :STEP      
NULL        .                                           -999.25 :NULL      
COMP        .                          SEAGULL ENERGY E & P INC :COMPANY   
WELL        .                               OCS G06145 ST00BP00 :WELL      
FLD         .                                           WILDCAT :FIELD     
LOC         .                                                   :LOCATION  
CNTY        .                           HIGH ISLAND LARGE BLOCK :LOCATION  
STAT        .                                             TEXAS :STATE     
CTRY        .                                     UNITED STATES :COUNTRY   
SRVC        .                                                   :SERVICE COMPANY
DATE        .                             9/13/2023 11:19:59 AM :LOG DATE  
API         .                                    42708402850000 :API NUMBER
UWI         .                                    42708402850000 :UNIQUE WELL ID
XCOORD      .                                  1277324.30822617 :SURFACE X 
YCOORD      .                                   10672684.104362 :SURFACE Y 
LAT         .                                         29.403374 :LATITUDE  
LON         .                                        -94.140646 :LONGITUDE 
ELEV        .FT                                              88 :ELEVATION VALUE
ELEV_TYPE   .                                                KB :ELEVATION REFERENCE TYPE
~Curve Information Section
#MNEM       .UNIT                                      API CODE :CURVE DESCRIPTION
#------------------------------------------------------------------------------
DEPT        .FT                                                 :DEPTH     
CALI        .IN                                                 :          
DPHI        .%                                                  :          
DRHO        .G/C3                                               :          
GR          .GAPI                                               :          
GR_NORM     .GAPI                                               :GammaRay Normalized
ILD         .OHMM                                               :          
ILM         .OHMM                                               :          
NPHI        .%                                                  :          
SFL         .OHMM                                               :          
SP          .MV                                                 :          
SP_NORM     .MV                                                 :SP Normalized
VSH_GR      .V/V                                                :Volume of Shale from GR
VSH_SP      .V/V                                                :Volume of Shale from SP
~A        DEPTH           CALI           DPHI           DRHO             GR        GR_NORM            ILD            ILM           NPHI            SFL             SP        SP_NORM         VSH_GR         VSH_SP
# ...
      6251.0000        11.2629         19.894         0.0229         81.817       80.47322         0.5299         0.5625        34.7683         0.6342         5.8361       2.856822              1              1
      6251.5000        11.2676         20.258         0.0208        78.8958       77.22285         0.5225         0.5544         35.256         0.6515         7.2736       4.050116      0.9409118              1
      6252.0000        11.3079        20.5307         0.0187        75.3254       73.25115         0.5157         0.5467        36.0388         0.6711         8.2262       4.844081      0.8564075              1
      6252.5000        11.3549        20.7294         0.0168        74.4031       72.22176         0.5092         0.5387        36.9153         0.6546         8.8775       5.389915      0.8345056              1
      6253.0000        11.3801        20.9276         0.0152        75.2363       73.14294         0.5033         0.5306        37.6689         0.6302          9.168       5.638622      0.8541052              1
      6253.5000        11.3675        21.1345         0.0144        76.6597       74.71991         0.4993         0.5238        38.1057         0.6144         9.0925       5.585916      0.8876576              1
      6254.0000         11.341        21.3184         0.0147        77.5438       75.69765         0.4938         0.5175        38.7551         0.6152         8.8206       5.371468      0.9084606              1
      6254.5000        11.3211        21.4862         0.0171        77.9702       76.16682         0.4873         0.5121        39.6091         0.6033         8.3536       4.996351      0.9184431              1
      6255.0000        11.2555        22.1593         0.0204        78.8187       77.10501         0.4766         0.5071        40.5942         0.5888         7.0163       3.904516      0.9384045              1
      6255.5000        11.0915        23.6245         0.0231        79.4106       77.75807         0.4668         0.5026        40.9214         0.5749         4.7697       2.063845      0.9522994              1
      6256.0000        10.9465        25.2786         0.0239         77.927       76.10504         0.4589         0.4991        40.2878         0.5673         1.8179     -0.3575791      0.9171286      0.9948917
      6256.5000        10.8316        25.9435         0.0206        75.1974       73.06755         0.4528          0.497        38.8286         0.5981        -0.1737       -1.98825      0.8525011      0.9715964
      6257.0000        10.7648        25.3355         0.0181        73.0801        70.7104         0.4504         0.4955        38.2577         0.6387         0.1107      -1.744568       0.802349      0.9750776
      6257.5000        10.7671        23.6785         0.0165        72.9668       70.57991         0.4477         0.4949        38.7903          0.656         1.1153     -0.9077795      0.7995726      0.9870317
      6258.0000        10.8162        22.9178         0.0157        75.1992       73.05576         0.4476         0.4946        39.0356         0.6418         2.3153     0.08992627      0.8522503              1
      6258.5000          10.85        22.6563         0.0156        77.9011       76.05328         0.4512         0.4956        38.5356         0.6139         3.3192       0.926138      0.9160271              1
      6259.0000        10.8496        22.4733         0.0176        78.3743       76.57445         0.4543         0.4972        38.0198         0.6042         3.4505       1.043738      0.9271159              1
      6259.5000        10.8393        22.2606         0.0225        75.7373       73.63986         0.4568         0.5004        39.1806         0.6095         3.5393       1.126338      0.8646779              1
      6260.0000         10.862        22.0173         0.0269        73.6089       71.27038         0.4606         0.5036        40.3485         0.6207         3.6959       1.264773      0.8142633              1
      6260.5000        10.9536        21.6327         0.0293        73.8678       71.55344         0.4666         0.5081        40.4644         0.6323         4.1338       1.634867      0.8202859              1
      6261.0000        11.0656        20.7465         0.0298        76.1938       74.13329         0.4743          0.516        40.4916         0.6342         4.6726       2.088055      0.8751764              1
      6261.5000        11.1748        19.7951         0.0264        78.9384       77.17825         0.4797         0.5196        40.9195         0.6227         5.8002       3.026137      0.9399628              1
      6262.0000        11.2548        19.3967         0.0194        78.6368       76.83855         0.4848         0.5234        40.5395         0.6189         7.0744       4.084949       0.932735              1
      6262.5000        11.2843        19.7509         0.0125        75.9415       73.83917         0.4896         0.5273        37.6764         0.6284         8.0165       4.870267      0.8689185              1
      6263.0000        11.2598        20.0153         0.0086        74.0616        71.7458         0.4936         0.5312        35.5594         0.6195         8.5313       5.303689      0.8243787              1
      6263.5000         11.232        19.8584         0.0075        72.8593       70.40531         0.4976         0.5348        34.7563         0.6111         8.4761       5.267701      0.7958577              1
      6264.0000        11.2287        19.7752         0.0071        72.2501       69.72382         0.5015         0.5385        35.1392         0.6108         7.8031       4.722936      0.7813579              1
      6264.5000        11.2337        20.1906         0.0071        72.7516       70.27645         0.5064         0.5423         35.441         0.6231         6.9897       4.062548       0.793116              1
      6265.0000        11.2888        20.7869         0.0074        74.6202       72.34807         0.5115         0.5464        34.8492         0.6483         6.5394       3.701184       0.837193              1
      6265.5000        11.3178        21.0678          0.008        77.6896       75.75392          0.517         0.5506        34.3464         0.6731         6.1649       3.402242      0.9096579              1
      6266.0000        11.3593        21.0262         0.0083        79.9358        78.2451         0.5228         0.5506        34.8859         0.6904         6.0771       3.339406      0.9626617              1
      6266.5000        11.3889        21.0032         0.0084        80.9165       79.33018         0.5251         0.5472        35.7437         0.6864         5.8472       3.159547      0.9857485              1
      6267.0000        11.4015        21.8334         0.0073        82.0225       80.55447          0.527         0.5419         36.037         0.6676         4.1536       1.774289              1              1
      6267.5000        11.3957        22.6522          0.006        83.6908       82.40353         0.5265          0.536        37.3318         0.6477         1.2439     -0.6124646              1      0.9912505
      6268.0000        11.3515        23.1691         0.0044        83.6537       82.35772         0.5262         0.5339        39.6271         0.6317        -1.6163      -2.958453              1      0.9577364
      6268.5000        11.2779        23.4158         0.0044        79.7791       78.04801         0.5262         0.5334        40.9148         0.6163         -4.046      -4.949912      0.9584683       0.929287
      6269.0000        11.2117        23.1676         0.0046        76.7061       74.62897         0.5263          0.535        41.1588         0.6086        -5.4415      -6.089677      0.8857227      0.9130046
      6269.5000        11.1983        22.6762         0.0051        75.7615       73.57481         0.5263         0.5371        41.4219         0.6126        -5.4866      -6.117347      0.8632939      0.9126093
