#------------------------------------------------------------------------------
# Created by    : vladimir.rabinovich
# Created on    : 09/19/2023 17:21:25
#------------------------------------------------------------------------------
~Version Information Section
VERS.           2.0     :   CWLS log ASCII Standard - VERSION 2.0
WRAP.           NO      :   One line per depth step
~Well Information Section
#MNEM       .UNIT                                         VALUE :DESCRIPTION
#------------------------------------------------------------------------------
STRT        .FT                                            3400 :START DEPTH
STOP        .FT                                            8653 :STOP DEPTH
STEP        .FT                                             0.5 :STEP      
NULL        .                                           -999.25 :NULL      
COMP        .                          KING RANCH OIL & GAS INC :COMPANY   
WELL        .                               OCS G13784 ST00BP00 :WELL      
FLD         .                                           WILDCAT :FIELD     
LOC         .                                                   :LOCATION  
CNTY        .                             GALVESTON LARGE BLOCK :LOCATION  
STAT        .                                             TEXAS :STATE     
CTRY        .                                     UNITED STATES :COUNTRY   
SRVC        .                                                   :SERVICE COMPANY
DATE        .                             9/13/2023 11:19:54 AM :LOG DATE  
API         .                                    42706403430000 :API NUMBER
UWI         .                                    42706403430000 :UNIQUE WELL ID
XCOORD      .                                   967589.17441186 :SURFACE X 
YCOORD      .                                  10424680.8833423 :SURFACE Y 
LAT         .                                         28.709654 :LATITUDE  
LON         .                                        -95.099391 :LONGITUDE 
ELEV        .FT                                             106 :ELEVATION VALUE
ELEV_TYPE   .                                                KB :ELEVATION REFERENCE TYPE
~Curve Information Section
#MNEM       .UNIT                                      API CODE :CURVE DESCRIPTION
#------------------------------------------------------------------------------
DEPT        .FT                                                 :DEPTH     
CALI        .IN                                                 :          
DPHI        .%                                                  :          
DRHO        .G/C3                                               :          
DTLN        .US/F                                               :          
GR          .GAPI                                               :          
GR_1        .GAPI                                               :          
GR_NORM     .GAPI                                               :GammaRay Normalized
ILD         .OHMM                                               :          
ILM         .OHMM                                               :          
NPHI        .%                                                  :          
SFL         .OHMM                                               :          
SP          .MV                                                 :          
SP_NORM     .MV                                                 :SP Normalized
VSH_GR      .V/V                                                :Volume of Shale from GR
VSH_SP      .V/V                                                :Volume of Shale from SP
~A        DEPTH           CALI           DPHI           DRHO           DTLN             GR           GR_1        GR_NORM            ILD            ILM           NPHI            SFL             SP        SP_NORM         VSH_GR         VSH_SP
# ...
      4454.0000        -999.25        -999.25        -999.25       112.7571        -999.25        61.6757       65.21172         0.6981         0.7475        -999.25         0.8197       -64.9972       -10.8959      0.6853558      0.7978205
      4454.5000        -999.25        -999.25        -999.25       112.4701        -999.25        59.0043       60.86357         0.6893         0.7456        -999.25         0.8241       -66.8632      -12.76503       0.592842      0.7553402
      4455.0000        -999.25        -999.25        -999.25        113.199        -999.25        60.6875       63.60372         0.6805         0.7398        -999.25         0.8487       -68.3429      -14.24787       0.651143      0.7216394
      4455.5000        -999.25        -999.25        -999.25       114.3767        -999.25        60.8665       63.89538         0.6717         0.7312        -999.25         0.8724       -70.1292       -16.0373      0.6573485      0.6809704
      4456.0000        -999.25        -999.25        -999.25       116.3473        -999.25         58.726        60.4114         0.6629         0.7217        -999.25         0.8582       -71.8578      -17.76904      0.5832214      0.6416128
      4456.5000        -999.25        -999.25        -999.25       117.6417        -999.25        57.8174        58.9327         0.6509         0.7084        -999.25         0.8112       -73.5558      -19.47017      0.5517596      0.6029508
      4457.0000        -999.25        -999.25        -999.25       118.2305        -999.25         57.537       58.47654         0.6376         0.6954        -999.25         0.7897       -75.1973       -21.1148      0.5420539      0.5655727
      4457.5000        -999.25        -999.25        -999.25       117.9299        -999.25        57.2432       57.99858         0.6236         0.6822        -999.25         0.7958       -76.7739      -22.69453      0.5318846      0.5296697
      4458.0000        -999.25        -999.25        -999.25       117.2883        -999.25        56.8692       57.39008         0.6143         0.6655        -999.25         0.8001       -78.2046      -24.12836      0.5189379      0.4970826
      4458.5000        -999.25        -999.25        -999.25       116.7468        -999.25        57.7525       58.82816         0.6051         0.6517        -999.25         0.7951       -79.0493       -24.9762      0.5495353      0.4778136
      4459.0000        -999.25        -999.25        -999.25       116.2214        -999.25        59.9905        62.4714         0.6018         0.6428        -999.25          0.754        -78.546      -24.47603       0.627051      0.4891811
      4459.5000        -999.25        -999.25        -999.25       115.6605        -999.25        60.6418       63.53183         0.6014         0.6505        -999.25          0.716       -77.3268      -23.25996      0.6496134       0.516819
      4460.0000        -999.25        -999.25        -999.25       115.1086        -999.25        60.0377       62.54879         0.6133         0.6634        -999.25         0.7534       -75.6791       -21.6154      0.6286976      0.5541954
      4460.5000        -999.25        -999.25        -999.25       114.5782        -999.25        56.7595        57.2129         0.6329         0.6773        -999.25          0.816       -74.2662      -20.20563      0.5151681      0.5862356
      4461.0000        -999.25        -999.25        -999.25       114.1736        -999.25        53.2728       51.53764          0.653          0.692        -999.25          0.853       -73.3215      -19.26407      0.3944179      0.6076347
      4461.5000        -999.25        -999.25        -999.25       113.9851        -999.25        50.3452       46.77245         0.6746         0.7136        -999.25         0.8101       -72.6482       -18.5939      0.2930309      0.6228659
      4462.0000        -999.25        -999.25        -999.25       114.0793        -999.25        49.9088       46.06237         0.6943         0.7395        -999.25         0.8031       -72.1627      -18.11153      0.2779228      0.6338289
      4462.5000        -999.25        -999.25        -999.25       114.1024        -999.25        52.0995        49.6286         0.7073         0.7641        -999.25         0.8174       -71.7468      -17.69877      0.3538001      0.6432097
      4463.0000        -999.25        -999.25        -999.25       112.7689        -999.25        54.1414       52.95264         0.7094         0.7752        -999.25         0.8433       -71.3521       -17.3072      0.4245242      0.6521091
      4463.5000        -999.25        -999.25        -999.25       111.0313        -999.25        54.4777       53.50033         0.7027         0.7729        -999.25          0.851       -70.7341      -16.69234      0.4361772      0.6660833
      4464.0000        -999.25        -999.25        -999.25       109.5986        -999.25        54.0922       52.87312         0.6936         0.7608        -999.25         0.8373       -69.3262      -15.28757      0.4228323      0.6980097
      4464.5000        -999.25        -999.25        -999.25       110.4965        -999.25        54.2778        53.1755         0.6826         0.7392        -999.25         0.8163       -67.9384       -13.9029       0.429266      0.7294794
      4465.0000        -999.25        -999.25        -999.25        113.049        -999.25         54.519       53.56841         0.6746         0.7175        -999.25         0.7937       -67.5703      -13.53793      0.4376256      0.7377743
      4465.5000        -999.25        -999.25        -999.25       115.3441        -999.25        53.7921       52.38545         0.6496         0.6959        -999.25         0.7842       -68.4618      -14.43257      0.4124564      0.7174416
      4466.0000        -999.25        -999.25        -999.25         117.24        -999.25        52.6838       50.58168         0.6208         0.6742        -999.25         0.7812        -70.063      -16.03691      0.3740783      0.6809794
      4466.5000        -999.25        -999.25        -999.25       118.9952        -999.25        54.4498       53.45659         0.5943         0.6471        -999.25         0.7844       -71.0818      -17.05884      0.4352466      0.6577536
      4467.0000        -999.25        -999.25        -999.25       120.4762        -999.25        56.8306       57.33228         0.5746         0.6275        -999.25         0.7234          -70.9      -16.88017      0.5177081      0.6618143
      4467.5000        -999.25        -999.25        -999.25       121.3984        -999.25        59.1207       61.06031         0.5594         0.6095        -999.25         0.6276       -70.4148      -16.39811      0.5970278      0.6727703
      4468.0000        -999.25        -999.25        -999.25       121.9908        -999.25        60.3761       63.10407         0.5458         0.5928        -999.25         0.5827        -69.993      -15.97943      0.6405122      0.6822855
      4468.5000        -999.25        -999.25        -999.25        122.235        -999.25        58.3925       59.87552         0.5391         0.5805        -999.25         0.6208       -71.2902      -17.27977      0.5718196      0.6527325
      4469.0000        -999.25        -999.25        -999.25       122.2948        -999.25        55.2245       54.71902         0.5321         0.5709        -999.25         0.6716       -73.1254       -19.1181      0.4621068      0.6109522
      4469.5000        -999.25        -999.25        -999.25       121.7808        -999.25        52.3362       50.01781         0.5262         0.5651        -999.25         0.6649       -74.7878      -20.78364      0.3620812      0.5730991
      4470.0000        -999.25        -999.25        -999.25        120.829        -999.25        50.9263        47.7231          0.525         0.5668        -999.25           0.65        -76.069      -22.06797      0.3132574      0.5439097
      4470.5000        -999.25        -999.25        -999.25       119.7825        -999.25        54.3345       53.27114         0.5307         0.5743        -999.25         0.6616       -76.7255      -22.72761       0.431301       0.528918
