#------------------------------------------------------------------------------
# Created by    : vladimir.rabinovich
# Created on    : 09/19/2023 17:22:15
#------------------------------------------------------------------------------
~Version Information Section
VERS.           2.0     :   CWLS log ASCII Standard - VERSION 2.0
WRAP.           NO      :   One line per depth step
~Well Information Section
#MNEM       .UNIT                                         VALUE :DESCRIPTION
#------------------------------------------------------------------------------
STRT        .FT                                              41 :START DEPTH
STOP        .FT                                            7991 :STOP DEPTH
STEP        .FT                                             0.5 :STEP      
NULL        .                                           -999.25 :NULL      
COMP        .                           ENERGY DEVELOPMENT CORP :COMPANY   
WELL        .                               OCS G11200 ST00BP00 :WELL      
FLD         .                                           WILDCAT :FIELD     
LOC         .                                                   :LOCATION  
CNTY        .                    NORTH PADRE ISLAND LARGE BLOCK :LOCATION  
STAT        .                                             TEXAS :STATE     
CTRY        .                                     UNITED STATES :COUNTRY   
SRVC        .                                                   :SERVICE COMPANY
DATE        .                             9/13/2023 11:18:55 AM :LOG DATE  
API         .                                    42701400410000 :API NUMBER
UWI         .                                    42701400410000 :UNIQUE WELL ID
XCOORD      .                                   309944.09600436 :SURFACE X 
YCOORD      .                                  9740515.29665267 :SURFACE Y 
LAT         .                                          26.78454 :LATITUDE  
LON         .                                        -97.077486 :LONGITUDE 
ELEV        .FT                                              91 :ELEVATION VALUE
ELEV_TYPE   .                                                KB :ELEVATION REFERENCE TYPE
~Curve Information Section
#MNEM       .UNIT                                      API CODE :CURVE DESCRIPTION
#------------------------------------------------------------------------------
DEPT        .FT                                                 :DEPTH     
CALI        .IN                                                 :          
DRHO        .G/C3                                               :          
DT          .US/F                                               :          
GR          .GAPI                                               :          
GR_NORM     .GAPI                                               :GammaRay Normalized
ILD         .OHMM                                               :          
ILM         .OHMM                                               :          
NPHI        .%                                                  :          
RFOC        .OHMM                                               :          
RHOB        .G/C3                                               :          
SP          .MV                                                 :          
SP_NORM     .MV                                                 :SP Normalized
VSH_GR      .V/V                                                :Volume of Shale from GR
VSH_SP      .V/V                                                :Volume of Shale from SP
~A        DEPTH           CALI           DRHO             DT             GR        GR_NORM            ILD            ILM           NPHI           RFOC           RHOB             SP        SP_NORM         VSH_GR         VSH_SP
# ...
      3335.0000        14.4632         0.0259       114.3368         71.083       76.95136         0.7209         0.7224        36.9886         0.7965         2.2803        -60.556      -2.520161      0.9351354              1
      3335.5000         14.076         0.0393       110.9485        70.2864       75.71419         0.7211         0.7166        37.2604         0.7991         2.2698       -60.7137      -2.682953      0.9088125              1
      3336.0000        13.9554         0.0401       109.4918        69.2926       74.17292         0.7292          0.718        37.5921          0.794         2.2643       -60.9056      -2.879944      0.8760196              1
      3336.5000        14.2541         0.0322       109.1224        68.5569       73.02965         0.7398         0.7311        38.1599         0.7857         2.2579       -61.1756      -3.155033      0.8516946      0.9951552
      3337.0000        14.2358         0.0361       110.6946          70.16       75.49297         0.7507         0.7459        39.6866          0.778          2.238       -61.3954      -3.379925      0.9041058      0.9881274
      3337.5000        13.6938         0.0689       112.2039        70.6042        76.1692         0.7627         0.7591        41.6954          0.774         2.1805        -61.559      -3.548615      0.9184936      0.9828558
      3338.0000         13.331         0.1358       113.4717        69.8875       75.05522         0.7753         0.7711        42.8799          0.774         2.1439       -61.5809      -3.575603       0.894792      0.9820124
      3338.5000        13.7004         0.1266       114.0354        69.6508       74.68145         0.7873         0.7822        41.1035         0.7848         2.1767       -61.6635        -3.6633      0.8868393      0.9792719
      3339.0000        13.4514         0.0803       113.5743        70.0393       75.27177         0.7961         0.7863        38.0687         0.8007         2.2403       -61.7659       -3.77079      0.8993995      0.9759128
      3339.5000         13.122         0.0376       112.3091        72.0763       78.40421         0.7998         0.7854        36.8831         0.8138         2.2683       -61.7235      -3.733479      0.9660471      0.9770788
      3340.0000        13.0342         0.0313       111.7523        73.3655        80.3835         0.8019         0.7808        36.8394          0.818         2.2804       -61.4572      -3.472271              1      0.9852415
      3340.5000        13.0951         0.0306        112.512        73.6833       80.86479         0.7999         0.7706        38.2099         0.8022         2.2677       -60.9748      -2.994961              1              1
      3341.0000        13.1177         0.0247       114.8982        73.8311       81.08393         0.7911         0.7597        39.9478         0.7827         2.2522        -60.366      -2.391254              1              1
      3341.5000        13.1446         0.0196       117.0603        74.1058       81.49878          0.776         0.7492        40.4485         0.7654         2.2426       -59.9285      -1.958843              1              1
      3342.0000        13.3066         0.0169       118.2924        74.6117       82.27016         0.7583         0.7389        39.8581         0.7586         2.2422       -59.9896      -2.025036              1              1
      3342.5000         13.886         0.0173       117.9208        75.0916       83.00143         0.7438         0.7301        38.2256         0.7696         2.2443       -60.3562      -2.396729              1              1
      3343.0000        14.3154         0.0203       117.0709        75.5046       83.62954         0.7305         0.7225        38.0328         0.7799         2.2459       -60.4666      -2.512215              1              1
      3343.5000        14.3263         0.0221       116.0619        75.7379       83.98054         0.7197         0.7163        39.1919         0.7837          2.242       -60.2771      -2.327808              1              1
      3344.0000         14.248         0.0231       116.6321        75.8202       84.09868          0.714         0.7117        40.6066           0.77         2.2345       -60.0839      -2.139698              1              1
      3344.5000        14.2706         0.0236       117.8818        75.8539       84.14189         0.7119         0.7066        42.1124         0.7593         2.2293       -59.4774      -1.538292              1              1
      3345.0000        14.3282         0.0215       119.2561        75.9487       84.27932         0.7137         0.7043        42.3115         0.7503         2.2272       -59.5995      -1.665478              1              1
      3345.5000        14.4484         0.0193       120.5544        76.0631       84.44695          0.717         0.7053        41.1909         0.7489         2.2267       -59.6747      -1.745773              1              1
      3346.0000        14.0171         0.0179       121.5228        75.9465       84.25838         0.7255         0.7127        39.4108           0.76         2.2329        -59.685      -1.761166              1              1
      3346.5000        13.8031         0.0207       120.6639        74.6825       82.30044         0.7325         0.7196        37.7548         0.7792          2.244       -59.6193      -1.700554              1              1
      3347.0000        13.7637         0.0256       118.4189        71.8853        77.9782         0.7392         0.7271        36.3655         0.7898          2.252       -59.7047      -1.791046      0.9569829              1
      3347.5000        13.9152         0.0313       117.3572        69.6962       74.59367         0.7444         0.7371        35.8159         0.7952         2.2567       -59.8051      -1.896534      0.8849716              1
      3348.0000        14.3969         0.0351       116.8586        68.7018       73.05145         0.7493         0.7464        36.1864         0.7954         2.2565       -59.8706      -1.967129      0.8521585              1
      3348.5000        14.6723         0.0343       116.9324        69.3788       74.08668         0.7521         0.7538        36.7314         0.7879         2.2525       -59.8611      -1.962715      0.8741846              1
      3349.0000        14.1331         0.0297       117.4093        71.4601       77.28744         0.7486         0.7572        37.2192         0.7812         2.2497       -59.7869      -1.893608      0.9422859              1
      3349.5000        13.9343         0.0225       117.4828         73.205       79.96943         0.7392         0.7538        37.0505         0.7777         2.2478       -59.8082      -1.920002      0.9993495              1
      3350.0000        14.2093         0.0182       116.5422        73.1683       79.90405          0.725         0.7409        36.2897         0.7762          2.248       -59.8984      -2.015289      0.9979584              1
      3350.5000        14.6791          0.029       116.1599        73.0295       79.68126         0.7137         0.7267        35.9332         0.7739         2.2489       -60.0197      -2.141682      0.9932183              1
      3351.0000         14.563         0.0385       117.3528         73.007        79.6378         0.7038          0.715        36.3738          0.771         2.2486       -59.9659      -2.092972      0.9922937              1
      3351.5000        14.1855         0.0333       119.2561        73.1589       79.86327          0.697         0.7039        38.0201         0.7658         2.2455       -59.7804      -1.912563      0.9970908              1
      3352.0000        13.9705         0.0267       121.0162        73.2428       79.98389         0.6944         0.7012        39.9572         0.7595         2.2416       -59.4545      -1.591751      0.9996572              1
      3352.5000        13.9107         0.0212       122.0911          73.38       80.18668          0.701         0.7059        41.1065          0.752         2.2374       -59.1389      -1.281246              1              1
