#------------------------------------------------------------------------------
# Created by    : vladimir.rabinovich
# Created on    : 09/19/2023 17:20:09
#------------------------------------------------------------------------------
~Version Information Section
VERS.           2.0     :   CWLS log ASCII Standard - VERSION 2.0
WRAP.           NO      :   One line per depth step
~Well Information Section
#MNEM       .UNIT                                         VALUE :DESCRIPTION
#------------------------------------------------------------------------------
STRT        .FT                                             880 :START DEPTH
STOP        .FT                                           10998 :STOP DEPTH
STEP        .FT                                             0.5 :STEP      
NULL        .                                           -999.25 :NULL      
COMP        .                        HUGHES TEXAS PETROLEUM LTD :COMPANY   
WELL        .                                ST TR 00564-L NE/4 :WELL      
FLD         .                       MATAGORDA ISLAND BLOCK 0565 :FIELD     
LOC         .                                                   :LOCATION  
CNTY        .                      MATAGORDA ISLAND LARGE BLOCK :LOCATION  
STAT        .                                             TEXAS :STATE     
CTRY        .                                     UNITED STATES :COUNTRY   
SRVC        .                                                   :SERVICE COMPANY
DATE        .                             9/13/2023 11:12:01 AM :LOG DATE  
API         .                                    42703303560000 :API NUMBER
UWI         .                                    42703303560000 :UNIQUE WELL ID
XCOORD      .                                  580856.659723482 :SURFACE X 
YCOORD      .                                  10268633.8274002 :SURFACE Y 
LAT         .                                         28.256926 :LATITUDE  
LON         .                                       -96.2914173 :LONGITUDE 
ELEV        .FT                                              25 :ELEVATION VALUE
ELEV_TYPE   .                                                KB :ELEVATION REFERENCE TYPE
~Curve Information Section
#MNEM       .UNIT                                      API CODE :CURVE DESCRIPTION
#------------------------------------------------------------------------------
DEPT        .FT                                                 :DEPTH     
ASFL        .OHMM                                               :          
GR          .GAPI                                               :          
GR_NORM     .GAPI                                               :GammaRay Normalized
ILD         .OHMM                                               :          
SP          .MV                                                 :          
SP_NORM     .MV                                                 :SP Normalized
VSH_GR      .V/V                                                :Volume of Shale from GR
VSH_SP      .V/V                                                :Volume of Shale from SP
~A        DEPTH           ASFL             GR        GR_NORM            ILD             SP        SP_NORM         VSH_GR         VSH_SP
# ...
      2974.5000          0.732        57.1901       75.03855          0.768       -51.1577      -1.521355      0.8944373      0.9799479
      2975.0000         0.7278        58.4473       77.10259         0.7589       -51.1032      -1.475346       0.938353      0.9817175
      2975.5000         0.7236        59.3437       78.57472         0.7499       -50.8995      -1.280136      0.9696749      0.9892255
      2976.0000         0.7192        60.1158       79.84294         0.7411       -50.5224     -0.9115219      0.9966583              1
      2976.5000         0.7145        60.8882       81.11165         0.7416       -50.3283      -0.725914              1              1
      2977.0000         0.7097        61.6603       82.37988         0.7421       -50.1342     -0.5403023              1              1
      2977.5000         0.7034        62.2632        83.3705         0.7426       -49.8565     -0.2710876              1              1
      2978.0000           0.69        62.3566       83.52532         0.7441       -49.5592     0.01771927              1              1
      2978.5000         0.6767        62.0076       82.95437          0.755        -49.262      0.3064308              1              1
      2979.0000         0.6728        61.5724       82.24201         0.7659       -48.9647      0.5952415              1              1
      2979.5000         0.6705        61.1372       81.52965         0.7767       -48.6674      0.8840523              1              1
      2980.0000         0.6755         60.769       80.92719          0.787       -48.3701       1.172867              1              1
      2980.5000         0.6811        60.4163       80.35017         0.7919       -48.3776       1.156872              1              1
      2981.0000         0.6868        60.0635       79.77298         0.7968       -48.4902       1.035786      0.9951698              1
      2981.5000         0.6925        59.6639       79.11901         0.8018       -48.6028      0.9146996      0.9812555              1
      2982.0000         0.7001        58.5549        77.3013         0.8067       -48.7155      0.7935066      0.9425809              1
      2982.5000         0.7076        57.3491       75.32475         0.8053       -49.1661      0.3344193      0.9005265              1
      2983.0000         0.7152        57.8955       76.22271         0.7988       -50.0246     -0.5325699      0.9196321              1
      2983.5000         0.7228        59.3865        78.6703         0.7922       -50.8831      -1.399559      0.9717084      0.9846324
      2984.0000         0.7299        61.1334       81.53767         0.7856       -51.7422      -2.267147              1      0.9512635
      2984.5000         0.7195        62.8802       84.40488          0.779       -52.3839      -2.917336              1      0.9262563
      2985.0000         0.7063         64.627        87.2721         0.7723       -52.9031      -3.445026              1      0.9059605
      2985.5000         0.6908        66.3356       90.07664         0.7654       -53.4224      -3.972816              1      0.8856609
      2986.0000         0.6753        67.9318       92.69682         0.7585       -53.9412      -4.500103              1      0.8653806
      2986.5000          0.661        69.7372       95.66015         0.7516       -54.1279      -4.695293              1      0.8578733
      2987.0000         0.6519        71.9061       99.21983         0.7447       -54.3099       -4.88578              1      0.8505469
      2987.5000         0.6427        73.9291       102.5402         0.7379       -54.4921      -5.076473              1      0.8432125
      2988.0000         0.6401        72.2839       99.84279         0.7312       -54.6742      -5.267059              1      0.8358823
      2988.5000         0.6392        70.4103       96.77072         0.7286       -54.8563      -5.457649              1      0.8285519
      2989.0000         0.6426        68.6874       93.94588          0.726       -54.9557       -5.56554              1      0.8244023
      2989.5000         0.6468        67.0039       91.18568         0.7234       -55.0322      -5.650528              1      0.8211336
      2990.0000         0.6511        65.3204       88.42548         0.7207       -54.7402      -5.367016              1      0.8320379
      2990.5000         0.6577        63.9617        86.1981         0.7293       -54.2285      -4.863808              1       0.851392
      2991.0000          0.668        63.0972       84.78149         0.7386       -54.0303      -4.674095              1      0.8586887
      2991.5000         0.6784        59.9449       79.61171         0.7479       -53.8322      -4.484482      0.9917385      0.8659815
      2992.0000         0.6918         56.991       74.76741         0.7536        -53.634      -4.294773      0.8886683       0.873278
      2992.5000         0.7168        55.9861       73.12045         0.7379       -53.0574      -3.726662      0.8536267      0.8951284
      2993.0000         0.7228        55.3862        72.1379         0.7303       -52.4811      -3.158848      0.8327213      0.9169674
      2993.5000         0.7089        54.8351        71.2354         0.7518       -51.9048      -2.591042      0.8135192      0.9388061
      2994.0000         0.7201        54.4389       70.58701         0.7732       -51.3555      -2.050228      0.7997237      0.9596066
      2994.5000         0.7341         53.975       69.82758         0.7947       -51.3261       -2.02932      0.7835656      0.9604108
      2995.0000         0.7526        53.4002       68.88621         0.8162       -51.2968      -2.008507      0.7635363      0.9612113
      2995.5000         0.7711        52.8087       67.91743         0.8377       -51.3264      -2.046597      0.7429242      0.9597463
      2996.0000         0.7896        51.5377       65.83392         0.8531       -51.3662      -2.094887       0.698594       0.957889
      2996.5000         0.8259        48.3925        60.6758         0.8664        -51.406      -2.143173      0.5888468      0.9560318
      2997.0000         0.8629        47.3002       58.88547         0.8796        -51.405      -2.150661      0.5507546      0.9557438
      2997.5000         0.8692        47.7881       59.68745         0.8929       -51.3627      -2.116856      0.5678182       0.957044
      2998.0000         0.8522        49.2139       62.02807         0.9062       -51.2893      -2.051941      0.6176185      0.9595407
      2998.5000         0.8353        50.6392       64.36787         0.9195       -50.9222      -1.693329      0.6674014      0.9733335
      2999.0000         0.8183        52.5618       67.52348         0.9312       -50.5552       -1.33482      0.7345422      0.9871223
      2999.5000         0.8014        54.9028        71.3655         0.9318       -50.1881     -0.9762077      0.8162873              1
      3000.0000         0.7867         57.171       75.08805         0.9323        -49.694     -0.4905968      0.8954905              1
      3000.5000          0.772        61.3031       81.86837         0.9328       -49.1473     0.04761124              1              1
      3001.0000         0.7591        62.4587       83.76572         0.9334       -48.6709      0.5155258              1              1
      3001.5000         0.7531         63.646       85.71507         0.9339       -48.6003      0.5776329              1              1
      3002.0000         0.7532        64.9028       87.77846         0.9344       -48.5551      0.6143456              1              1
      3002.5000         0.7566        64.6593       87.38057          0.935       -48.7019      0.4590569              1              1
      3003.0000         0.7601        63.6693       85.75806         0.9279       -48.8488      0.3036652              1              1
      3003.5000         0.7626        62.2058       83.35875         0.9191       -49.4854      -0.341423              1              1
