#------------------------------------------------------------------------------
# Created by    : vladimir.rabinovich
# Created on    : 09/19/2023 17:20:32
#------------------------------------------------------------------------------
~Version Information Section
VERS.           2.0     :   CWLS log ASCII Standard - VERSION 2.0
WRAP.           NO      :   One line per depth step
~Well Information Section
#MNEM       .UNIT                                         VALUE :DESCRIPTION
#------------------------------------------------------------------------------
STRT        .FT                                             502 :START DEPTH
STOP        .FT                                            9122 :STOP DEPTH
STEP        .FT                                             0.5 :STEP      
NULL        .                                           -999.25 :NULL      
COMP        .                       BLUE DOLPHIN EXPLORATION CO :COMPANY   
WELL        .                                OCS 00714 ST00BP00 :WELL      
FLD         .                              GALVESTON BLOCK 0288 :FIELD     
LOC         .                                                   :LOCATION  
CNTY        .                             GALVESTON LARGE BLOCK :LOCATION  
STAT        .                                             TEXAS :STATE     
CTRY        .                                     UNITED STATES :COUNTRY   
SRVC        .                                                   :SERVICE COMPANY
DATE        .                             9/13/2023 11:19:24 AM :LOG DATE  
API         .                                    42706000680000 :API NUMBER
UWI         .                                    42706000680000 :UNIQUE WELL ID
XCOORD      .                                  1088404.51782723 :SURFACE X 
YCOORD      .                                  10474534.8869196 :SURFACE Y 
LAT         .                                        28.8520809 :LATITUDE  
LON         .                                       -94.7248272 :LONGITUDE 
ELEV        .FT                                              85 :ELEVATION VALUE
ELEV_TYPE   .                                                KB :ELEVATION REFERENCE TYPE
~Curve Information Section
#MNEM       .UNIT                                      API CODE :CURVE DESCRIPTION
#------------------------------------------------------------------------------
DEPT        .FT                                                 :DEPTH     
ASN         .OHMM                                               :          
ASN_1       .OHMM                                               :          
DT          .US/F                                               :          
ILD         .OHMM                                               :          
LAT         .OHMM                                               :          
LN          .OHMM                                               :          
SP          .MV                                                 :          
SP_NORM     .MV                                                 :SP Normalized
VSH_SP      .V/V                                                :Volume of Shale from SP
~A        DEPTH            ASN          ASN_1             DT            ILD            LAT             LN             SP        SP_NORM         VSH_SP
# ...
      1694.5000        -999.25         1.0301        -999.25        -999.25         1.2187         0.8691       -38.5259      -9.717739      0.6647024
      1695.0000        -999.25         1.0135        -999.25        -999.25         1.1899           0.87       -38.6317       -9.83802      0.6600761
      1695.5000        -999.25         0.9943        -999.25        -999.25         1.2023         0.8611       -37.9576      -9.178406      0.6854459
      1696.0000        -999.25         0.9859        -999.25        -999.25         1.2153         0.8502       -36.7913      -8.026592      0.7297465
      1696.5000        -999.25         0.9885        -999.25        -999.25         1.2311          0.836       -36.0374      -7.287174      0.7581856
      1697.0000        -999.25         0.9816        -999.25        -999.25         1.2468         0.8198        -35.753      -7.017256      0.7685671
      1697.5000        -999.25         0.9652        -999.25        -999.25         1.2769         0.7993       -35.3101      -6.588842      0.7850446
      1698.0000        -999.25         0.9453        -999.25        -999.25         1.3078         0.7724        -34.538      -5.831224      0.8141837
      1698.5000        -999.25          0.939        -999.25        -999.25         1.3551         0.7465       -33.1702      -4.477911      0.8662342
      1699.0000        -999.25         0.9517        -999.25        -999.25         1.4026         0.7301       -32.2627      -3.584894       0.900581
      1699.5000        -999.25         0.9738        -999.25        -999.25         1.4518         0.7148       -32.1422       -3.47888      0.9046584
      1700.0000        -999.25         1.0066        -999.25        -999.25         1.5028         0.7014       -32.4772      -3.828363      0.8912168
      1700.5000        -999.25         1.0099        -999.25        -999.25          1.565          0.691       -32.7681      -4.133749      0.8794712
      1701.0000        -999.25         1.0016        -999.25        -999.25         1.6188         0.6878        -32.027      -3.407133       0.907418
      1701.5000        -999.25         0.9859        -999.25        -999.25         1.6671         0.6886       -31.2343      -2.628918      0.9373493
      1702.0000        -999.25         0.9648        -999.25        -999.25         1.7052         0.6952       -30.5296      -1.938702      0.9638961
      1702.5000        -999.25         0.9515        -999.25        -999.25         1.7382          0.702       -30.3301      -1.753685      0.9710121
      1703.0000        -999.25         0.9637        -999.25        -999.25         1.7518         0.7202       -30.7821      -2.220171      0.9530703
      1703.5000        -999.25         1.0092        -999.25        -999.25         1.7448         0.7385        -31.251      -2.703552      0.9344788
      1704.0000        -999.25         1.0671        -999.25        -999.25         1.7074         0.7582       -31.3719      -2.838938      0.9292716
      1704.5000        -999.25         1.0681        -999.25        -999.25         1.6128         0.7787       -31.2085      -2.690022      0.9349992
      1705.0000        -999.25          1.071        -999.25        -999.25         1.5452         0.7993       -31.3848      -2.880806      0.9276613
      1705.5000        -999.25         1.0716        -999.25        -999.25         1.4961         0.8079       -30.9386      -2.449091      0.9442657
      1706.0000        -999.25          1.065        -999.25        -999.25         1.4668         0.8116       -30.1437      -1.668674      0.9742817
      1706.5000        -999.25         1.0499        -999.25        -999.25         1.4785         0.8096       -30.3399      -1.879358      0.9661785
      1707.0000        -999.25         1.0344        -999.25        -999.25         1.4868            0.8       -30.9184      -2.472343      0.9433714
      1707.5000        -999.25         1.0214        -999.25        -999.25         1.4841         0.7904       -31.3936      -2.962029      0.9245374
      1708.0000        -999.25         0.9965        -999.25        -999.25         1.4442         0.7786       -31.3359      -2.918812      0.9261996
      1708.5000        -999.25         0.9744        -999.25        -999.25         1.4021         0.7653       -31.8697      -3.467096      0.9051117
      1709.0000        -999.25         0.9527        -999.25        -999.25         1.3497          0.752        -32.595      -4.206882      0.8766584
      1709.5000        -999.25         0.9374        -999.25        -999.25         1.3004         0.7404       -33.5069      -5.133265      0.8410283
      1710.0000        -999.25         0.9294        -999.25        -999.25         1.2593         0.7307       -34.4973      -6.138147       0.802379
      1710.5000        -999.25         0.9251        -999.25        -999.25         1.2256          0.721       -35.3286      -6.983934      0.7698487
      1711.0000        -999.25          0.922        -999.25        -999.25         1.1987         0.7114       -36.1088      -7.778616       0.739284
      1711.5000        -999.25         0.9218        -999.25        -999.25         1.1785         0.7022       -37.1515      -8.835802       0.698623
      1712.0000        -999.25         0.9188        -999.25        -999.25         1.1543          0.693       -38.2277      -9.926485      0.6566737
      1712.5000        -999.25         0.9134        -999.25        -999.25         1.1248         0.6802       -38.4614      -10.17467      0.6471281
      1713.0000        -999.25          0.904        -999.25        -999.25         1.1085         0.6602       -38.6804      -10.40816      0.6381479
      1713.5000        -999.25         0.8881        -999.25        -999.25         1.0968         0.6402       -39.1612      -10.90344      0.6190984
      1714.0000        -999.25         0.8757        -999.25        -999.25         1.0925         0.6223        -38.972      -10.72872      0.6258183
      1714.5000        -999.25         0.8784        -999.25        -999.25         1.0868         0.6064       -38.0263      -9.797506      0.6616344
      1715.0000        -999.25         0.8835        -999.25        -999.25         1.0799         0.5905       -36.6509      -8.436594      0.7139772
      1715.5000        -999.25         0.8895        -999.25        -999.25         1.0954         0.5813       -35.4962      -7.296377      0.7578316
      1716.0000        -999.25         0.8983        -999.25        -999.25         1.1222         0.5751       -34.7202      -6.534859      0.7871208
      1716.5000        -999.25          0.899        -999.25        -999.25         1.1477          0.569       -34.2277      -6.056843      0.8055061
      1717.0000        -999.25         0.8907        -999.25        -999.25         1.1715         0.5709       -33.9324      -5.776028      0.8163067
      1717.5000        -999.25         0.8836        -999.25        -999.25         1.1838         0.5729       -34.1337      -5.991814      0.8080072
      1718.0000        -999.25         0.8818        -999.25        -999.25         1.1905         0.5752       -35.6944      -7.566998      0.7474232
      1718.5000        -999.25         0.8832        -999.25        -999.25         1.1809         0.5781       -36.9958      -8.882881      0.6968123
      1719.0000        -999.25         0.8831        -999.25        -999.25         1.1628         0.5811       -37.9664      -9.867966      0.6589244
      1719.5000        -999.25         0.8583        -999.25        -999.25         1.1363         0.5857       -38.3426      -10.25865       0.643898
      1720.0000        -999.25         0.8439        -999.25        -999.25         1.1102         0.5928       -37.9752      -9.905735      0.6574717
      1720.5000        -999.25           0.84        -999.25        -999.25         1.0845         0.5999       -37.8748       -9.81982      0.6607761
