#------------------------------------------------------------------------------
# Created by    : vladimir.rabinovich
# Created on    : 09/19/2023 17:19:49
#------------------------------------------------------------------------------
~Version Information Section
VERS.           2.0     :   CWLS log ASCII Standard - VERSION 2.0
WRAP.           NO      :   One line per depth step
~Well Information Section
#MNEM       .UNIT                                         VALUE :DESCRIPTION
#------------------------------------------------------------------------------
STRT        .FT                                             790 :START DEPTH
STOP        .FT                                           12500 :STOP DEPTH
STEP        .FT                                             0.5 :STEP      
NULL        .                                           -999.25 :NULL      
COMP        .                                 CHEVRON U S A INC :COMPANY   
WELL        .                               OCS G04596 ST00BP00 :WELL      
FLD         .                                           WILDCAT :FIELD     
LOC         .                                                   :LOCATION  
CNTY        .                        MUSTANG ISLAND LARGE BLOCK :LOCATION  
STAT        .                                             TEXAS :STATE     
CTRY        .                                     UNITED STATES :COUNTRY   
SRVC        .                                                   :SERVICE COMPANY
DATE        .                             9/13/2023 11:19:13 AM :LOG DATE  
API         .                                    42702401310000 :API NUMBER
UWI         .                                    42702401310000 :UNIQUE WELL ID
XCOORD      .                                  486632.184756912 :SURFACE X 
YCOORD      .                                  10088502.2555927 :SURFACE Y 
LAT         .                                          27.75488 :LATITUDE  
LON         .                                        -96.567316 :LONGITUDE 
ELEV        .FT                                              90 :ELEVATION VALUE
ELEV_TYPE   .                                                KB :ELEVATION REFERENCE TYPE
~Curve Information Section
#MNEM       .UNIT                                      API CODE :CURVE DESCRIPTION
#------------------------------------------------------------------------------
DEPT        .FT                                                 :DEPTH     
ASFL        .OHMM                                               :          
CILD        .MMHO                                               :          
GR          .GAPI                                               :          
GR_NORM     .GAPI                                               :GammaRay Normalized
ILD         .OHMM                                               :          
SP          .MV                                                 :          
SP_NORM     .MV                                                 :SP Normalized
VSH_GR      .V/V                                                :Volume of Shale from GR
VSH_SP      .V/V                                                :Volume of Shale from SP
~A        DEPTH           ASFL           CILD             GR        GR_NORM            ILD             SP        SP_NORM         VSH_GR         VSH_SP
# ...
      7892.0000         1.9869       801.0693        57.9365       54.74026          1.388       -82.0977      -36.48367      0.4625588      0.4455677
      7892.5000         1.9824       766.9111        58.4388       55.56256         1.3374       -83.2059      -37.59187      0.4800544       0.428252
      7893.0000         1.9778       732.5566        62.5092       62.23837         1.2869       -84.4425      -38.82846       0.622093      0.4089302
      7893.5000         1.9732       720.7031        66.7711       69.22832         1.2353       -86.4553      -40.84127      0.7708154      0.3774802
      7894.0000         1.9686       879.6855        68.1074       71.41881         1.1707       -88.7744      -43.16037      0.8174214      0.3412443
      7894.5000         1.9641       935.5801        69.2743       73.33139         1.1061       -91.2303      -45.61627      0.8581147      0.3028708
      7895.0000         1.9595       991.0303        66.7393       69.17101         1.0416       -94.1866      -48.57257      0.7695959      0.2566786
      7895.5000         2.1004       1040.961        63.4181       63.72085          0.977       -97.4774      -51.86337      0.6536351      0.2052599
      7896.0000          2.067       1088.229        53.9509       48.18818         0.9243       -99.8677      -54.25367      0.3231528      0.1679115
      7896.5000          1.802       1135.053        51.8101       44.67447         0.8744        -98.183      -52.56897       0.248393      0.1942349
      7897.0000         1.7334       1182.717        50.5119       42.54306         0.8246       -95.8906      -50.27657      0.2030438      0.2300536
      7897.5000          1.687       1230.428        49.9666       41.64678         0.7939       -93.1711      -47.55706       0.183974      0.2725459
      7898.0000         1.6406       1278.092         49.436       40.77462         0.8245       -89.2749      -43.66087      0.1654175      0.3334239
      7898.5000         2.6174       1325.754        49.0715       40.17495         0.8552       -85.8083      -40.19426      0.1526584      0.3875896
      7899.0000         2.7149       1373.418        48.8237       39.76671         0.8858       -86.9899      -41.37587      0.1439726      0.3691271
      7899.5000         2.7967        1421.08        48.5762       39.35897         0.9164       -93.7325      -48.11847      0.1352973       0.263774
      7900.0000         2.8365       1361.834        48.3911       39.05361         0.9471      -100.8146      -55.20057      0.1288002      0.1531162
      7900.5000         2.8764        1256.75         48.325       38.94346         0.9777      -103.1816      -57.56757      0.1264566      0.1161317
      7901.0000          2.918       1119.527        48.4497       39.14631         1.0084      -106.9769      -61.36287      0.1307726     0.05683023
      7901.5000         2.9998       1028.244        48.8267       39.76308          1.039      -109.2639      -63.64987      0.1438953     0.02109581
      7902.0000         2.9472        956.084        49.2044       40.38099         1.0717      -110.3865      -64.77246      0.1570422    0.003555298
      7902.5000         2.7573       1076.152        49.5821       40.99889         1.0236      -111.2549      -65.64087      0.1701892              0
      7903.0000          2.529       1182.617        49.9592       41.61581         0.9586      -112.0618      -66.44777      0.1833152              0
      7903.5000         2.3643       1251.623        50.3369       42.23371         0.8985      -112.8625      -67.24847      0.1964619              0
      7904.0000         2.2005       1326.838        50.8668       43.10131         0.8383      -111.4452      -65.83116      0.2149216              0
      7904.5000         1.9284       1434.979        51.5325       44.19168         0.7782      -110.0057      -64.39166       0.238121    0.009505272
      7905.0000         1.9155       1581.072        52.1982       45.28205         0.7181      -108.5638      -62.94976      0.2613201     0.03203493
      7905.5000         1.8639       1580.482         52.864       46.37257         0.6606      -107.1243      -61.51027      0.2845229      0.0545271
      7906.0000         1.7972       1549.479        53.5923       47.56565         0.6307      -105.6848      -60.07077      0.3099076     0.07701927
      7906.5000          1.732       1518.477        54.4668       48.99857         0.6007      -104.2429      -58.62886      0.3403952       0.099549
      7907.0000          1.659       1487.473        55.3412       50.43131         0.6099      -102.8033      -57.18927      0.3708789      0.1220427
      7907.5000         1.5524       1456.469        56.2158       51.86438         0.6266      -101.3639      -55.74987      0.4013697      0.1445333
      7908.0000         1.5149       1429.977        57.4207       53.83932         0.6432        -99.922      -54.30796      0.4433897      0.1670631
      7908.5000          1.494       1405.307        58.7078        55.9491         0.6598       -98.4824      -52.86837      0.4882787      0.1895568
      7909.0000         1.4787       1380.613        59.9139         57.926         0.6764        -97.043      -51.42897      0.5303404      0.2120474
      7909.5000         1.4834       1410.779        60.8683       59.48997         0.6931       -96.4264      -50.81237      0.5636164      0.2216818
      7910.0000         1.5376       1452.133        60.7209       59.24647         0.7097       -97.7357      -52.12167      0.5584355      0.2012239
      7910.5000         1.5932       1499.352        59.3428       56.98397         0.7263       -99.0426      -53.42857      0.5102972      0.1808036
      7911.0000         1.6487       1553.273        57.4194       53.82691         0.7102      -100.3518      -54.73777      0.4431258      0.1603474
      7911.5000         1.7026       1541.889        55.2332       50.23873         0.6934      -102.7174      -57.10337      0.3667814      0.1233849
      7912.0000         1.7567       1500.535         54.118       48.40753         0.6765      -105.5546      -59.94057      0.3278197     0.07905358
      7912.5000         1.7684        1459.18        54.8819         49.659         0.6692      -103.9678      -58.35376      0.3544469      0.1038474
      7913.0000         1.7751       1417.777         55.964       51.43247         0.7058      -101.4327      -55.81867      0.3921803      0.1434583
      7913.5000         1.7861       1352.174        57.0473       53.20793         0.7424       -98.8976      -53.28357      0.4299559      0.1830693
      7914.0000         1.8406       1282.971        58.1293       54.98125          0.779       -97.1088      -51.49477      0.4676862      0.2110192
      7914.5000         1.9787       1214.557        58.7459       55.99106          0.808       -96.4817      -50.86766      0.4891714      0.2208177
      7915.0000         2.0073       1149.594        57.6921       54.26058         0.8312       -96.8109      -51.19687      0.4523528       0.215674
      7915.5000         2.0056       1089.361        56.5965       52.46154         0.8544        -97.538      -51.92397      0.4140754       0.204313
      7916.0000         2.1952       1033.826        55.1398       50.07011         0.8776       -98.2651      -52.65107      0.3631938      0.1929521
      7916.5000          2.267        1043.77        53.6807       47.67473         0.9008       -98.9922      -53.37817      0.3122283      0.1815911
      7917.0000         2.3321       1053.727        51.3176       43.79635         0.9241       -99.7194      -54.10537      0.2297096      0.1702287
      7917.5000         2.3622        1063.67         49.485       40.78827         0.9433      -100.2935      -54.67947      0.1657078      0.1612583
      7918.0000         2.3923       1073.615        49.1129        40.1761         0.9494       -100.821      -55.20697       0.152683      0.1530161
