#------------------------------------------------------------------------------
# Created by    : vladimir.rabinovich
# Created on    : 09/19/2023 17:22:17
#------------------------------------------------------------------------------
~Version Information Section
VERS.           2.0     :   CWLS log ASCII Standard - VERSION 2.0
WRAP.           NO      :   One line per depth step
~Well Information Section
#MNEM       .UNIT                                         VALUE :DESCRIPTION
#------------------------------------------------------------------------------
STRT        .FT                                             996 :START DEPTH
STOP        .FT                                            8436 :STOP DEPTH
STEP        .FT                                             0.5 :STEP      
NULL        .                                           -999.25 :NULL      
COMP        .                                    TDC ENERGY LLC :COMPANY   
WELL        .                               OCS G03738 ST00BP00 :WELL      
FLD         .                              GALVESTON BLOCK 0255 :FIELD     
LOC         .                                                   :LOCATION  
CNTY        .                             GALVESTON LARGE BLOCK :LOCATION  
STAT        .                                             TEXAS :STATE     
CTRY        .                                     UNITED STATES :COUNTRY   
SRVC        .                                                   :SERVICE COMPANY
DATE        .                             9/13/2023 11:18:53 AM :LOG DATE  
API         .                                    42706400460000 :API NUMBER
UWI         .                                    42706400460000 :UNIQUE WELL ID
XCOORD      .                                   1080542.6436948 :SURFACE X 
YCOORD      .                                  10548065.2081286 :SURFACE Y 
LAT         .                                        29.0539695 :LATITUDE  
LON         .                                       -94.7527854 :LONGITUDE 
ELEV        .FT                                              94 :ELEVATION VALUE
ELEV_TYPE   .                                                KB :ELEVATION REFERENCE TYPE
~Curve Information Section
#MNEM       .UNIT                                      API CODE :CURVE DESCRIPTION
#------------------------------------------------------------------------------
DEPT        .FT                                                 :DEPTH     
CALI        .IN                                                 :          
CILD        .MMHO                                               :          
DT          .US/F                                               :          
GR          .GAPI                                               :          
GR_NORM     .GAPI                                               :GammaRay Normalized
ILD         .OHMM                                               :          
ILM         .OHMM                                               :          
RHOB        .G/C3                                               :          
SFL         .OHMM                                               :          
SP          .MV                                                 :          
SP_NORM     .MV                                                 :SP Normalized
VSH_GR      .V/V                                                :Volume of Shale from GR
VSH_SP      .V/V                                                :Volume of Shale from SP
~A        DEPTH           CALI           CILD             DT             GR        GR_NORM            ILD            ILM           RHOB            SFL             SP        SP_NORM         VSH_GR         VSH_SP
# ...
      6449.0000        16.8052       1378.215       122.0278        78.0497       81.48269         0.7036         0.7061         1.9819         0.7258       -41.2092      0.6971016              1              1
      6449.5000        16.5646       1377.309       125.4375        78.1176       81.57385         0.7006         0.7098         1.9748         0.7268       -41.2502      0.6528435              1              1
      6450.0000        16.6085         1376.4       127.3369        77.9889       81.39268         0.6978          0.713         1.9706         0.7283        -41.291      0.6087837              1              1
      6450.5000        16.4863       1375.951       127.9885        77.8601       81.21139         0.6959         0.7152         1.9734         0.7298       -41.3311      0.5654259              1              1
      6451.0000        15.7871       1376.564        127.748        77.8804       81.23663         0.6941         0.7174         1.9868         0.7313       -41.3713       0.521965              1              1
      6451.5000        15.5779       1378.354       125.9453        77.9448       81.32294          0.692         0.7149         2.0021          0.734       -41.4096      0.4804077              1              1
      6452.0000        15.7834       1377.061       124.0098        78.0308       81.43917         0.6899         0.7107         2.0011         0.7367       -41.4475      0.4392509              1              1
      6452.5000         15.984       1374.234       122.4395        77.0664        80.1004         0.6877         0.7075         1.9898         0.7378       -41.4728      0.4106865              1              1
      6453.0000        15.7983       1371.115       120.5234        76.5732       79.41433         0.6851         0.7052         1.9888         0.7387       -41.4637      0.4165306      0.9875389              1
      6453.5000        15.7244       1369.797       117.9961        76.6532       79.52226         0.6846         0.7049         1.9886         0.7376       -41.4525      0.4244728      0.9898354              1
      6454.0000        15.7903       1367.977       115.3516         77.144       80.19923         0.6887         0.7115         1.9845         0.7363       -41.4223      0.4514122              1              1
      6454.5000         15.946       1365.867       112.9805        77.6256       80.86346         0.6999         0.7256         1.9855         0.7371       -41.3851      0.4853516              1              1
      6455.0000        16.1469       1362.137       112.9688        77.4375       80.60001         0.7211         0.7393         1.9978         0.7439       -41.3265      0.5406914              1              1
      6455.5000        16.2782       1357.078       114.4336        76.7891       79.69897         0.7363         0.7485         2.0137         0.7523       -41.3005      0.5634346      0.9935951              1
      6456.0000         16.432       1345.828       115.5898        77.0591       80.07008         0.7389           0.74         2.0166         0.7661       -41.3879      0.4727745              1              1
      6456.5000        16.5272       1330.844        116.082        77.4731       80.64066         0.7402         0.7397         2.0112         0.7797        -41.624      0.2334137              1              1
      6457.0000        16.5774       1313.031       116.2307        77.8872       81.21138          0.755         0.7527         2.0047         0.7907       -42.0732     -0.2190437              1      0.9956191
      6457.5000        16.5944       1296.891       116.0979        78.3584        81.8612         0.7661         0.7471         1.9991         0.8016       -42.6509     -0.8000031              1          0.984
      6458.0000        16.5931       1299.645       116.8203        79.4971       83.43563         0.7597         0.7292         1.9975         0.8218       -43.1655      -1.317863              1      0.9736427
      6458.5000        16.5527       1307.656       118.5781        80.4768       84.78981         0.7425         0.7151         1.9987         0.8218       -43.4231       -1.57872              1      0.9684256
      6459.0000        16.4797       1328.125       120.9551        79.0566       82.81968         0.7307          0.701         2.0007          0.788        -43.436      -1.594879              1      0.9681024
      6459.5000        16.3882       1350.594       122.8525        77.3457       80.44686         0.7188         0.6875         2.0024         0.7568       -43.1162      -1.278339              1      0.9744332
      6460.0000        16.3379       1374.844       123.8486        75.9424       78.50011         0.7093         0.6798          2.002         0.7476       -42.5513     -0.7166977      0.9680876       0.985666
      6460.5000        16.2449       1399.125       124.1958        75.6665       78.11505         0.7003          0.672         1.9963         0.7384       -42.2432     -0.4118538      0.9598947      0.9917629
      6461.0000        16.0461       1415.117       123.4023        76.0884       78.69657         0.6913         0.6667         1.9897         0.7294       -42.2275     -0.3994179      0.9722674      0.9920117
      6461.5000        16.2078       1425.195        121.834        76.3262       79.02309         0.6823         0.6628         1.9849          0.722       -42.4075     -0.5826759      0.9792148      0.9883465
      6462.0000        16.3203       1435.297       120.5791        73.9102       75.67358         0.6732         0.6609         1.9836         0.7145       -42.6726     -0.8510323      0.9079486      0.9829794
      6462.5000        16.3088       1445.438       119.7666        71.9355       72.93536         0.6676         0.6593         1.9851          0.707       -42.9622      -1.143894      0.8496884      0.9771221
      6463.0000        16.3085       1456.141        119.248        72.1147       73.18068          0.663         0.6636         1.9873         0.7022       -43.0215      -1.206451       0.854908       0.975871
      6463.5000        16.4009        1459.57       120.5596        72.8281         74.166         0.6608          0.668         1.9902         0.7014       -43.0233      -1.211514      0.8758724      0.9757698
      6464.0000        16.3584       1454.227        121.627         74.002       75.78918          0.661         0.6727         1.9941         0.7006       -43.0249       -1.21637      0.9104082      0.9756726
      6464.5000        15.8467        1445.18       122.2722         76.875       79.76596         0.6612         0.6769          1.993         0.7094       -42.9958      -1.172985      0.9950204      0.9765403
      6465.0000        15.9341        1437.57       122.1934        78.3779       81.84487         0.6624         0.6802         1.9941         0.7185       -42.7502     -0.9089851              1      0.9818203
      6465.5000         16.156       1430.445       121.8423        78.9189       82.59138         0.6636         0.6832         1.9911         0.7231       -42.5325     -0.6728935              1      0.9865421
      6466.0000        16.3171       1424.859       121.3896         79.377       83.22305         0.6651         0.6859         1.9858         0.7252       -42.3464      -0.468399              1       0.990632
      6466.5000        16.5466       1417.594       120.9912        80.1582       84.30228         0.6671          0.688         1.9811         0.7273       -42.2118     -0.3153992              1       0.993692
      6467.0000         16.689       1412.781       120.6646        79.7339       83.71165         0.6691         0.6889         1.9807         0.7257        -42.105     -0.1902046              1      0.9961959
      6467.5000        16.7231       1411.166       120.3479        79.2354       83.01824         0.6712           0.69          1.981         0.7236       -42.0233    -0.09011078              1      0.9981978
