#------------------------------------------------------------------------------
# Created by    : vladimir.rabinovich
# Created on    : 09/19/2023 17:21:52
#------------------------------------------------------------------------------
~Version Information Section
VERS.           2.0     :   CWLS log ASCII Standard - VERSION 2.0
WRAP.           NO      :   One line per depth step
~Well Information Section
#MNEM       .UNIT                                         VALUE :DESCRIPTION
#------------------------------------------------------------------------------
STRT        .FT                                            1924 :START DEPTH
STOP        .FT                                            6497 :STOP DEPTH
STEP        .FT                                             0.5 :STEP      
NULL        .                                           -999.25 :NULL      
COMP        .                                ATP OIL & GAS CORP :COMPANY   
WELL        .                               OCS G12451 ST00BP00 :WELL      
FLD         .                                           WILDCAT :FIELD     
LOC         .                                                   :LOCATION  
CNTY        .                                BRAZOS LARGE BLOCK :LOCATION  
STAT        .                                             TEXAS :STATE     
CTRY        .                                     UNITED STATES :COUNTRY   
SRVC        .                                                   :SERVICE COMPANY
DATE        .                             9/13/2023 11:09:51 AM :LOG DATE  
API         .                                    42704402900000 :API NUMBER
UWI         .                                    42704402900000 :UNIQUE WELL ID
XCOORD      .                                  861130.254262163 :SURFACE X 
YCOORD      .                                  10349158.9913488 :SURFACE Y 
LAT         .                                        28.4964901 :LATITUDE  
LON         .                                       -95.4265639 :LONGITUDE 
ELEV        .FT                                              91 :ELEVATION VALUE
ELEV_TYPE   .                                                KB :ELEVATION REFERENCE TYPE
~Curve Information Section
#MNEM       .UNIT                                      API CODE :CURVE DESCRIPTION
#------------------------------------------------------------------------------
DEPT        .FT                                                 :DEPTH     
CALI        .IN                                                 :          
DPHI        .G/C3                                               :          
DRHO        .G/C3                                               :          
GR          .GAPI                                               :          
GR_NORM     .GAPI                                               :GammaRay Normalized
ILD         .OHMM                                               :          
ILM         .OHMM                                               :          
NPHI        .%                                                  :          
SFL         .OHMM                                               :          
SP          .MV                                                 :          
SP_NORM     .MV                                                 :SP Normalized
VSH_GR      .V/V                                                :Volume of Shale from GR
VSH_SP      .V/V                                                :Volume of Shale from SP
~A        DEPTH           CALI           DPHI           DRHO             GR        GR_NORM            ILD            ILM           NPHI            SFL             SP        SP_NORM         VSH_GR         VSH_SP
# ...
      4090.0000        10.1675        28.0366         0.0392       103.5967       87.28269         0.3819         0.4158          43.11         0.4662       -74.2008      -8.733932              1      0.8540767
      4090.5000        10.0641        27.6821         0.0446         98.301       81.29316         0.3365         0.3722        42.4573         0.4258       -78.3682      -12.89304              1      0.7756031
      4091.0000         9.9959         28.401         0.0499        87.4402       69.00539         0.3039         0.3371        41.4016         0.5905       -91.3123      -25.82883      0.7660722      0.5315316
      4091.5000        10.0218        30.7859         0.0559        76.0854       56.15857         0.2938         0.3128        40.9092         0.8028      -101.8087      -36.31692      0.4927354      0.3336431
      4092.0000        10.2141        33.9868          0.073        66.7047       45.54587         0.2911         0.3013        41.2014         0.7328       -105.129      -39.62891      0.2669334      0.2711527
      4092.5000        10.8525        37.4409         0.0899        66.5981       45.42902          0.289         0.3089        42.3034          0.588      -103.0438      -37.53541      0.2644472      0.3106527
      4093.0000        11.0656        37.5731         0.0994        71.6917        51.1974         0.2891         0.3379        42.4603         0.4097       -96.3372       -30.8205      0.3871788      0.4373491
      4093.5000        11.1034        36.2059         0.1042         82.515       63.45027         0.2909         0.3762        40.9503         0.3854       -85.2194      -19.69439      0.6478781      0.6472757
      4094.0000        10.6487        32.7554         0.1003        92.3168       74.54709          0.301         0.3924        38.5975         0.4158       -79.1565      -13.62318      0.8839806      0.7618267
      4094.5000        10.1572        29.7653         0.0876        93.6031       76.00661         0.3312         0.4018        38.2582         0.5085       -78.3815      -12.83988      0.9150342       0.776606
      4095.0000         9.9586        28.4137         0.0564        89.0195       70.82297         0.3673         0.4033        38.2957         0.6928       -81.5417      -15.99178       0.804744      0.7171363
      4095.5000         9.9474        28.1698         0.0225        83.6003       64.69365         0.3878         0.4084        38.7025         0.8424       -85.7059      -20.14767       0.674333      0.6387233
      4096.0000         10.079        29.2588         0.0196        78.0708       58.43951         0.3968         0.4097        39.4388         0.8571       -88.0277      -22.46116      0.5412662      0.5950724
      4096.5000        10.2124        30.8857         0.0335        78.0016       58.36497         0.4084         0.4121        39.7145         0.6504       -86.3223      -20.74745      0.5396802      0.6274066
      4097.0000        10.2348        30.8286         0.0493        85.1423       66.45012         0.4178         0.4144        40.3802         0.4791       -78.3931      -12.80994      0.7117047      0.7771708
      4097.5000        10.1897        29.6824          0.059         90.655        72.6928         0.4225          0.424        41.7692         0.4528       -73.4579       -7.86644      0.8445277      0.8704445
      4098.0000        10.1355        28.1081         0.0573        94.4893         77.036         0.4364         0.4376        42.2963         0.4756       -70.8624      -5.262627      0.9369361      0.9195731
      4098.5000        10.0947         26.495         0.0472        93.8586       76.32597         0.4812         0.4794        42.3572         0.5021       -71.9609      -6.352821      0.9218292      0.8990034
      4099.0000        10.0642        26.1516         0.0359        88.7052       70.49748         0.5702         0.5732         42.253         0.5817       -77.0907      -11.47432      0.7978188      0.8023713
      4099.5000        10.0574        26.2193         0.0296        80.3594       61.05603          0.635         0.6433        41.3702         0.7857       -78.9659      -13.34121      0.5969368       0.767147
      4100.0000         10.045        25.7254         0.0362        75.8234       55.92627         0.6578         0.6622        39.6084          1.179       -77.7394      -12.10641      0.4877931      0.7904451
      4100.5000        10.0211        21.5839         0.0435        76.0424       56.17789         0.6813          0.679        35.9593         1.4215       -73.5203      -7.878998      0.4931466      0.8702076
      4101.0000          9.966        18.0954         0.0439        80.4342       61.15202         0.7163         0.6922        32.7809         1.4053       -72.1495      -6.499886      0.5989791      0.8962286
      4101.5000         9.9789        17.7009         0.0389         87.036       68.62728         0.7376         0.6753         31.484         1.0391       -72.2003      -6.542389      0.7580273      0.8954266
      4102.0000         9.9467        19.6488         0.0346        91.1603       73.29868         0.7489         0.6456        32.1024         0.8162       -72.8479      -7.181679      0.8574187      0.8833646
      4102.5000         9.9844         22.101         0.0309        92.4744       74.78966         0.7217          0.624        34.8251           0.78       -73.9731      -8.298569      0.8891417      0.8622912
      4103.0000        10.0063        23.8523         0.0279        91.7329       73.95425         0.6569         0.6042        36.8708         0.8174       -74.5797      -8.896858      0.8713671      0.8510027
      4103.5000         9.9788        24.2944         0.0248        91.0269       73.15902         0.6098          0.591        37.7392         0.8443       -74.5361      -8.844963      0.8544472      0.8519818
      4104.0000         9.9862        24.5208         0.0197        91.0134       73.14752         0.5894         0.5849        37.8653          0.831       -74.4363      -8.736855      0.8542026      0.8540216
      4104.5000         9.9986        24.7836         0.0178        89.9478       71.94532         0.5843         0.5821         37.778         0.8467       -74.8967      -9.188942      0.8286238      0.8454916
      4105.0000         9.9827        24.9118         0.0254        89.2245       71.13053         0.5872         0.5845        37.6571         0.8597       -74.8234      -9.107338      0.8112879      0.8470314
      4105.5000        10.0132        24.1392         0.0325        89.1812       71.08529         0.5884         0.5882        37.6531         0.8244       -72.4263      -6.701935      0.8103253      0.8924163
      4106.0000        10.0604        23.1418         0.0278        89.1033       71.00092         0.5926         0.5908        37.5754         0.7664       -71.8164      -6.083725      0.8085301      0.9040807
      4106.5000        10.0956        22.6864         0.0209        89.7091       71.69029         0.5998         0.5939        37.2838          0.786       -72.2816      -6.540619      0.8231977        0.89546
      4107.0000        10.1438        22.8931         0.0181        91.6477       73.88805         0.6062         0.5987        37.0914         0.8203       -72.4193      -6.670006      0.8699586      0.8930188
      4107.5000         10.172        23.1079         0.0271        91.9485       74.23225         0.6085         0.6018        37.1763         0.8355       -71.1875      -5.429901       0.877282      0.9164169
      4108.0000        10.1876        23.1107         0.0317        91.6426       73.88984         0.6152         0.6079        37.5366         0.7931       -68.7598      -2.993904      0.8699966      0.9623792
      4108.5000        10.2264        22.8159         0.0347        91.1396       73.32436         0.6245          0.613        37.7885         0.7739       -66.9659      -1.191689      0.8579651      0.9963832
