#------------------------------------------------------------------------------
# Created by    : vladimir.rabinovich
# Created on    : 09/19/2023 17:20:12
#------------------------------------------------------------------------------
~Version Information Section
VERS.           2.0     :   CWLS log ASCII Standard - VERSION 2.0
WRAP.           NO      :   One line per depth step
~Well Information Section
#MNEM       .UNIT                                         VALUE :DESCRIPTION
#------------------------------------------------------------------------------
STRT        .FT                                             309 :START DEPTH
STOP        .FT                                            9124 :STOP DEPTH
STEP        .FT                                             0.5 :STEP      
NULL        .                                           -999.25 :NULL      
COMP        .                         SONAT EXPLORATION GOM INC :COMPANY   
WELL        .                               OCS G03084 ST00BP00 :WELL      
FLD         .                                           WILDCAT :FIELD     
LOC         .                                                   :LOCATION  
CNTY        .                      MATAGORDA ISLAND LARGE BLOCK :LOCATION  
STAT        .                                             TEXAS :STATE     
CTRY        .                                     UNITED STATES :COUNTRY   
SRVC        .                                                   :SERVICE COMPANY
DATE        .                             9/13/2023 11:12:09 AM :LOG DATE  
API         .                                    42703400260000 :API NUMBER
UWI         .                                    42703400260000 :UNIQUE WELL ID
XCOORD      .                                  563826.313549269 :SURFACE X 
YCOORD      .                                  10238444.2560225 :SURFACE Y 
LAT         .                                         28.172716 :LATITUDE  
LON         .                                        -96.341662 :LONGITUDE 
ELEV        .FT                                              97 :ELEVATION VALUE
ELEV_TYPE   .                                                KB :ELEVATION REFERENCE TYPE
~Curve Information Section
#MNEM       .UNIT                                      API CODE :CURVE DESCRIPTION
#------------------------------------------------------------------------------
DEPT        .FT                                                 :DEPTH     
ASFL        .OHMM                                               :          
CILD        .MMHO                                               :          
DT          .US/F                                               :          
GR          .GAPI                                               :          
GR_NORM     .GAPI                                               :GammaRay Normalized
ILD         .OHMM                                               :          
SP          .MV                                                 :          
SP_NORM     .MV                                                 :SP Normalized
VSH_GR      .V/V                                                :Volume of Shale from GR
VSH_SP      .V/V                                                :Volume of Shale from SP
~A        DEPTH           ASFL           CILD             DT             GR        GR_NORM            ILD             SP        SP_NORM         VSH_GR         VSH_SP
# ...
      7340.5000         1.7528       1293.082        94.1179        -999.25        -999.25         0.5879      -134.3901      -75.12928        -999.25              0
      7341.0000         1.4779       1319.645        93.9535        -999.25        -999.25         0.5623      -134.2229      -74.97115        -999.25              0
      7341.5000         0.9716       1374.807        95.2416        -999.25        -999.25          0.541      -133.1023      -73.85963        -999.25              0
      7342.0000         0.9436       1440.227        96.9104        -999.25        -999.25         0.5284      -130.7363      -71.50272        -999.25              0
      7342.5000         0.9157       1505.646        98.8145        -999.25        -999.25         0.5158      -125.0238       -65.7993        -999.25              0
      7343.0000         0.9349       1574.949       101.1162        -999.25        -999.25         0.5129      -121.3994      -62.18398        -999.25     0.04400033
      7343.5000         1.1657       1654.508       102.3435        -999.25        -999.25         0.5184      -118.5917      -59.38536        -999.25      0.0877288
      7344.0000         1.2931       1715.695       102.9071        -999.25        -999.25          0.524      -117.0088      -57.81154        -999.25      0.1123197
      7344.5000         1.3824       1734.266       102.4598        -999.25        -999.25         0.5396      -116.1213      -56.93312        -999.25       0.126045
      7345.0000         1.4405       1713.156       101.7625        -999.25        -999.25          0.563      -114.7883       -55.6092        -999.25      0.1467312
      7345.5000         1.5011        1644.65       101.0649        -999.25        -999.25         0.5864      -110.4965      -51.32648        -999.25      0.2136487
      7346.0000         1.5959       1525.162       101.6573        -999.25        -999.25         0.6097      -107.2189      -48.05797        -999.25      0.2647192
      7346.5000         1.5634       1463.826       103.2505        -999.25        -999.25         0.6381       -102.748      -43.59615        -999.25      0.3344352
      7347.0000         1.4687       1415.932       105.3196        -999.25        -999.25         0.6728       -96.2822      -37.13943        -999.25      0.4353214
      7347.5000         1.2863       1368.086       107.0835        -999.25        -999.25         0.7075       -88.1237      -28.99001        -999.25       0.562656
      7348.0000         1.0776       1315.264       104.8643        -999.25        -999.25         0.7523       -79.9651      -20.84049        -999.25      0.6899923
      7348.5000         0.9357       1203.145        97.8486        -999.25        -999.25          0.798       -71.8064      -12.69087        -999.25      0.8173302
      7349.0000         0.9576       1077.283        91.4086        -999.25        -999.25         0.8437       -69.1963      -10.08985        -999.25      0.8579711
      7349.5000         1.0352       958.6924        89.8923        -999.25        -999.25         0.8915       -67.8129       -8.71553        -999.25      0.8794448
      7350.0000          1.102       903.0312         97.405        -999.25        -999.25          0.942       -66.7316      -7.643311        -999.25      0.8961983
      7350.5000         1.1495       852.7471       100.6362        -999.25        -999.25         0.9978       -66.0846      -7.005398        -999.25      0.9061657
      7351.0000         1.1354         814.71       103.1083        -999.25        -999.25         1.0661       -65.4386      -6.368473        -999.25      0.9161176
      7351.5000         1.1139       789.0947       102.8835        -999.25        -999.25         1.1199       -64.7926       -5.73156        -999.25      0.9260694
      7352.0000         1.0924       780.4814       101.3579        -999.25        -999.25         1.1784        -64.168      -5.116035        -999.25      0.9356869
      7352.5000         1.0709       771.8809        103.333        -999.25        -999.25         1.2208       -63.5444      -4.501518        -999.25      0.9452888
      7353.0000         1.0494       763.2676       107.5631        -999.25        -999.25         1.2469       -62.9208      -3.887001        -999.25      0.9548906
      7353.5000         1.0554       756.1729       109.0763        -999.25        -999.25          1.259        -62.298      -3.273281        -999.25        0.96448
      7354.0000         1.0801       752.4893       102.9136        -999.25        -999.25          1.271       -61.7629      -2.747265        -999.25       0.972699
      7354.5000         1.1273       757.3428        92.1862        -999.25        -999.25         1.2797        -61.336      -2.329441        -999.25      0.9792275
      7355.0000         1.1692       769.6904         87.312        -999.25        -999.25         1.2583       -60.9095      -1.912025        -999.25      0.9857496
      7355.5000         1.1871       782.0498        88.0111        -999.25        -999.25         1.2211        -60.483      -1.494606        -999.25      0.9922718
      7356.0000         1.2051       794.4092        93.9242        -999.25        -999.25         1.1823       -60.0561      -1.076786        -999.25      0.9988002
      7356.5000          1.223       813.3652       105.7902        -999.25        -999.25         1.1253       -59.6296     -0.6593666        -999.25              1
      7357.0000         1.1901       847.1709       109.9253        -999.25        -999.25         1.0684       -59.2908     -0.3296471        -999.25              1
      7357.5000         1.1413       880.9756       113.4861        -999.25        -999.25         1.0113       -59.0276    -0.07553101        -999.25              1
      7358.0000         1.0925       914.7305       118.1855        -999.25        -999.25         0.9681       -58.7648      0.1781883        -999.25              1
      7358.5000         0.9983       948.5361       121.2469        -999.25        -999.25         0.9281       -58.5016      0.4323082        -999.25              1
      7359.0000         0.9126       980.9971       120.1083        -999.25        -999.25          0.888       -58.2385      0.6863289        -999.25              1
      7359.5000         0.8725        1004.72       118.7186        -999.25        -999.25         0.8479       -57.9755      0.9402466        -999.25              1
      7360.0000         0.8537       1028.443       117.3865        -999.25        -999.25         0.8203       -57.8207       1.085964        -999.25              1
      7360.5000         0.8444       1052.166       116.2665        -999.25        -999.25         0.7965       -57.6931       1.204483        -999.25              1
      7361.0000         0.8354       1074.172       113.8107        -999.25        -999.25         0.7727       -57.5656       1.322903        -999.25              1
      7361.5000         0.8599       1065.957       110.5695        -999.25        -999.25         0.7843        -57.438       1.441422        -999.25              1
      7362.0000         0.8921       1050.273       108.9252        -999.25        -999.25         0.7975       -57.3104       1.559944        -999.25              1
      7362.5000         0.9329       1031.082       109.1587        -999.25        -999.25         0.8108       -57.1857        1.67556        -999.25              1
      7363.0000         0.9347        1011.89       110.7643        -999.25        -999.25          0.825       -57.1133       1.738876        -999.25              1
      7363.5000         0.9235       992.6963       112.3699        -999.25        -999.25           0.84        -57.041       1.802097        -999.25              1
      7364.0000         0.9123        979.248       114.2052        -999.25        -999.25         0.8549       -56.9685       1.865517        -999.25              1
      7364.5000          0.901       973.4912       117.1517        -999.25        -999.25         0.8699       -56.8961       1.928837        -999.25              1
