#------------------------------------------------------------------------------
# Created by    : vladimir.rabinovich
# Created on    : 09/19/2023 17:19:48
#------------------------------------------------------------------------------
~Version Information Section
VERS.           2.0     :   CWLS log ASCII Standard - VERSION 2.0
WRAP.           NO      :   One line per depth step
~Well Information Section
#MNEM       .UNIT                                         VALUE :DESCRIPTION
#------------------------------------------------------------------------------
STRT        .FT                                             130 :START DEPTH
STOP        .FT                                            9502 :STOP DEPTH
STEP        .FT                                             0.5 :STEP      
NULL        .                                           -999.25 :NULL      
COMP        .            MOBIL PRODUCING TEXAS & NEW MEXICO INC :COMPANY   
WELL        .                               OCS G07243 ST00BP00 :WELL      
FLD         .                                           WILDCAT :FIELD     
LOC         .                                                   :LOCATION  
CNTY        .                             GALVESTON LARGE BLOCK :LOCATION  
STAT        .                                             TEXAS :STATE     
CTRY        .                                     UNITED STATES :COUNTRY   
SRVC        .                                                   :SERVICE COMPANY
DATE        .                             9/13/2023 11:19:36 AM :LOG DATE  
API         .                                    42706401330000 :API NUMBER
UWI         .                                    42706401330000 :UNIQUE WELL ID
XCOORD      .                                  993943.906145108 :SURFACE X 
YCOORD      .                                  10496155.9223708 :SURFACE Y 
LAT         .                                         28.907432 :LATITUDE  
LON         .                                        -95.020991 :LONGITUDE 
ELEV        .FT                                              92 :ELEVATION VALUE
ELEV_TYPE   .                                                KB :ELEVATION REFERENCE TYPE
~Curve Information Section
#MNEM       .UNIT                                      API CODE :CURVE DESCRIPTION
#------------------------------------------------------------------------------
DEPT        .FT                                                 :DEPTH     
ASFL        .OHMM                                               :          
CILD        .MMHO                                               :          
DT          .US/F                                               :          
GR          .GAPI                                               :          
GR_NORM     .GAPI                                               :GammaRay Normalized
ILD         .OHMM                                               :          
SP          .MV                                                 :          
SP_NORM     .GAPI                                               :SP Normalized
VSH_GR      .V/V                                                :Volume of Shale from GR
VSH_SP      .V/V                                                :Volume of Shale from SP
~A        DEPTH           ASFL           CILD             DT             GR        GR_NORM            ILD             SP        SP_NORM         VSH_GR         VSH_SP
# ...
       767.0000         0.5006       2003.287        -999.25        43.4058       68.17986         0.5461        -999.25        -999.25      0.7485077        -999.25
       767.5000         0.5005       2003.818        -999.25        43.8126       68.79496         0.5421        -999.25        -999.25      0.7615949        -999.25
       768.0000          0.501        2004.35        -999.25        43.5638       68.41751         0.5382        -999.25        -999.25      0.7535641        -999.25
       768.5000         0.5014       2004.549        -999.25        43.1851        67.8434         0.5342        -999.25        -999.25      0.7413489        -999.25
       769.0000         0.5018       2004.611        -999.25        42.8063       67.26913         0.5332        -999.25        -999.25      0.7291305        -999.25
       769.5000         0.5022       2004.674        -999.25        42.4276       66.69501         0.5327        -999.25        -999.25      0.7169152        -999.25
       770.0000         0.5016       2004.738        -999.25        41.7459       65.66217         0.5323        -999.25        -999.25      0.6949398        -999.25
       770.5000         0.4974       2007.449        -999.25        40.9455       64.44961         0.5318        -999.25        -999.25      0.6691406        -999.25
       771.0000         0.4932       2023.785        -999.25        40.4041       63.62917         0.5324        -999.25        -999.25      0.6516845        -999.25
       771.5000         0.4889       2040.119        -999.25        40.8326       64.27713         0.5334        -999.25        -999.25      0.6654708        -999.25
       772.0000         0.4847        2058.52        -999.25        41.3934       65.12539         0.5341        -999.25        -999.25      0.6835189        -999.25
       772.5000         0.4805       2082.801        -999.25         41.954       65.97336         0.5304        -999.25        -999.25      0.7015608        -999.25
       773.0000         0.4764       2107.082        -999.25        42.4116       66.66536         0.5266        -999.25        -999.25      0.7162842        -999.25
       773.5000         0.4728       2131.363        -999.25        42.7223       67.13499          0.519        -999.25        -999.25      0.7262763        -999.25
       774.0000         0.4691       2151.109        -999.25         43.033       67.60458         0.5126        -999.25        -999.25      0.7362676        -999.25
       774.5000         0.4655       2169.832        -999.25         43.438         68.217         0.5104        -999.25        -999.25      0.7492979        -999.25
       775.0000         0.4619       2188.551        -999.25        44.1097       69.23315         0.5083        -999.25        -999.25       0.770918        -999.25
       775.5000         0.4585       2207.277        -999.25        45.5494       71.41205         0.5055        -999.25        -999.25      0.8172776        -999.25
       776.0000         0.4554       2221.012        -999.25        46.8101       73.31994         0.5027        -999.25        -999.25      0.8578711        -999.25
       776.5000         0.4524       2233.211        -999.25        48.1338        75.3232         0.4999        -999.25        -999.25      0.9004936        -999.25
       777.0000         0.4506       2236.004        -999.25        49.2009       76.93798         0.4948        -999.25        -999.25      0.9348506        -999.25
       777.5000         0.4514       2226.348        -999.25        50.4295       78.79728         0.4889        -999.25        -999.25      0.9744102        -999.25
       778.0000         0.4522       2216.688        -999.25        50.5118       78.92111         0.4877        -999.25        -999.25      0.9770449        -999.25
       778.5000         0.4538       2207.031        -999.25        50.6132       79.07384         0.4894        -999.25        -999.25      0.9802944        -999.25
       779.0000         0.4561       2198.063        -999.25        50.7433       79.27004         0.4927        -999.25        -999.25       0.984469        -999.25
       779.5000         0.4583       2191.555        -999.25        50.9243       79.54331         0.4962        -999.25        -999.25      0.9902833        -999.25
       780.0000         0.4606       2185.043        -999.25        51.3995       80.26197         0.5006        -999.25        -999.25              1        -999.25
       780.5000         0.4629       2178.535        -999.25        52.7699       82.33594          0.505        -999.25        -999.25              1        -999.25
       781.0000         0.4631       2172.027        -999.25        53.4778        83.4069         0.5076        -999.25        -999.25              1        -999.25
       781.5000         0.4629        2178.02        -999.25        53.7842       83.87001         0.5086        -999.25        -999.25              1        -999.25
       782.0000         0.4626       2200.648        -999.25         53.804       83.89922         0.5095        -999.25        -999.25              1        -999.25
       782.5000         0.4623       2223.277        -999.25        53.7616       83.83426         0.5057        -999.25        -999.25              1        -999.25
       783.0000         0.4595       2245.906        -999.25        53.7159       83.76427         0.5019        -999.25        -999.25              1        -999.25
       783.5000         0.4564       2268.906        -999.25        53.5814       83.55988          0.498        -999.25        -999.25              1        -999.25
       784.0000         0.4532        2292.16        -999.25        53.2071       82.99241         0.4939        -999.25        -999.25              1        -999.25
       784.5000           0.45       2315.414        -999.25        52.7779       82.34185         0.4893        -999.25        -999.25              1        -999.25
       785.0000         0.4465       2336.613        -999.25        52.3581       81.70551         0.4844        -999.25        -999.25              1        -999.25
       785.5000         0.4426       2353.707        -999.25        51.9874        81.1435         0.4768        -999.25        -999.25              1        -999.25
       786.0000         0.4387       2359.434        -999.25        51.6141       80.57757         0.4687        -999.25        -999.25              1        -999.25
       786.5000         0.4352        2321.77        -999.25        51.2103       79.96545         0.4611        -999.25        -999.25      0.9992648        -999.25
       787.0000         0.4432       2284.113        -999.25        50.8671       79.44508         0.4547        -999.25        -999.25      0.9881933        -999.25
       787.5000         0.4513       2246.449        -999.25        50.6807       79.16209          0.455        -999.25        -999.25      0.9821721        -999.25
       788.0000         0.4593       2202.641        -999.25        50.5688       78.99191         0.4654        -999.25        -999.25      0.9785513        -999.25
       788.5000         0.4673       2157.906        -999.25        50.3397       78.64429         0.4791        -999.25        -999.25       0.971155        -999.25
       789.0000         0.4754       2117.469        -999.25        49.9088       77.99114         0.4946        -999.25        -999.25      0.9572583        -999.25
       789.5000         0.4829       2085.418        -999.25        48.9647       76.56102          0.513        -999.25        -999.25      0.9268302        -999.25
       790.0000         0.4888       2088.184        -999.25        46.7413       73.19407          0.534        -999.25        -999.25       0.855193        -999.25
       790.5000         0.4947       2129.281        -999.25        45.1357       70.76247         0.5466        -999.25        -999.25      0.8034567        -999.25
       791.0000         0.4869       2170.375        -999.25        42.7373       67.13058         0.5386        -999.25        -999.25      0.7261826        -999.25
