#------------------------------------------------------------------------------
# Created by    : vladimir.rabinovich
# Created on    : 09/19/2023 17:22:30
#------------------------------------------------------------------------------
~Version Information Section
VERS.           2.0     :   CWLS log ASCII Standard - VERSION 2.0
WRAP.           NO      :   One line per depth step
~Well Information Section
#MNEM       .UNIT                                         VALUE :DESCRIPTION
#------------------------------------------------------------------------------
STRT        .FT                                             456 :START DEPTH
STOP        .FT                                           11667 :STOP DEPTH
STEP        .FT                                             0.5 :STEP      
NULL        .                                           -999.25 :NULL      
COMP        .                              PATRICK PETROLEUM CO :COMPANY   
WELL        .                                     ST TR 00693-L :WELL      
FLD         .                                           WILDCAT :FIELD     
LOC         .                                                   :LOCATION  
CNTY        .                      MATAGORDA ISLAND LARGE BLOCK :LOCATION  
STAT        .                                             TEXAS :STATE     
CTRY        .                                     UNITED STATES :COUNTRY   
SRVC        .                                                   :SERVICE COMPANY
DATE        .                             9/13/2023 11:12:01 AM :LOG DATE  
API         .                                    42703302660000 :API NUMBER
UWI         .                                    42703302660000 :UNIQUE WELL ID
XCOORD      .                                  384413.417453263 :SURFACE X 
YCOORD      .                                  10143960.4717662 :SURFACE Y 
LAT         .                                        27.8986234 :LATITUDE  
LON         .                                       -96.8882217 :LONGITUDE 
ELEV        .FT                                              92 :ELEVATION VALUE
ELEV_TYPE   .                                                KB :ELEVATION REFERENCE TYPE
~Curve Information Section
#MNEM       .UNIT                                      API CODE :CURVE DESCRIPTION
#------------------------------------------------------------------------------
DEPT        .FT                                                 :DEPTH     
CILD        .MMHO                                               :          
DPHI        .%                                                  :          
DT          .US/F                                               :          
GR          .GAPI                                               :          
GR_NORM     .GAPI                                               :GammaRay Normalized
ILD         .OHMM                                               :          
SN          .OHMM                                               :          
SP          .MV                                                 :          
SP_NORM     .MV                                                 :SP Normalized
VSH_GR      .V/V                                                :Volume of Shale from GR
VSH_SP      .V/V                                                :Volume of Shale from SP
~A        DEPTH           CILD           DPHI             DT             GR        GR_NORM            ILD             SN             SP        SP_NORM         VSH_GR         VSH_SP
       456.0000        -999.25        -999.25         173.87        -999.25        -999.25        -999.25        -999.25        -999.25        -999.25        -999.25        -999.25
       456.5000        -999.25        -999.25         173.98        -999.25        -999.25        -999.25        -999.25        -999.25        -999.25        -999.25        -999.25
       457.0000        -999.25        -999.25         174.08        -999.25        -999.25        -999.25        -999.25        -999.25        -999.25        -999.25        -999.25
       457.5000        -999.25        -999.25         174.18        -999.25        -999.25        -999.25        -999.25        -999.25        -999.25        -999.25        -999.25
       458.0000        -999.25        -999.25       174.2818        -999.25        -999.25        -999.25        -999.25        -999.25        -999.25        -999.25        -999.25
       458.5000        -999.25        -999.25          174.4        -999.25        -999.25        -999.25        -999.25        -999.25        -999.25        -999.25        -999.25
       459.0000        -999.25        -999.25          174.5        -999.25        -999.25        -999.25        -999.25        -999.25        -999.25        -999.25        -999.25
       459.5000        -999.25        -999.25          174.6        -999.25        -999.25        -999.25        -999.25        -999.25        -999.25        -999.25        -999.25
       460.0000        -999.25        -999.25       174.7273        -999.25        -999.25        -999.25        -999.25        -999.25        -999.25        -999.25        -999.25
       460.5000        -999.25        -999.25         175.23        -999.25        -999.25        -999.25        -999.25        -999.25        -999.25        -999.25        -999.25
       461.0000        -999.25        -999.25         175.97          28.37       48.13942        -999.25        -999.25        -999.25        -999.25      0.3221152        -999.25
       461.5000        -999.25        -999.25         176.95          27.01       46.16803        -999.25        -999.25        -999.25        -999.25      0.2801709        -999.25
       462.0000        -999.25        -999.25       177.8091        25.4636       43.92645        -999.25        -999.25        -999.25        -999.25      0.2324777        -999.25
       462.5000        -999.25        -999.25         177.75          24.55       42.60215        -999.25        -999.25        -999.25        -999.25       0.204301        -999.25
       463.0000        -999.25        -999.25         177.27          23.58       41.19608        -999.25        -999.25        -999.25        -999.25      0.1743846        -999.25
       463.5000        -999.25        -999.25         176.61          22.84       40.12342        -999.25        -999.25        -999.25        -999.25      0.1515621        -999.25
       464.0000        -999.25        -999.25       175.8851          23.23       40.68874        -999.25        -999.25        -999.25        -999.25      0.1635901        -999.25
       464.5000        -999.25        -999.25       175.1268           24.4       42.38471        -999.25        -999.25        -999.25        -999.25      0.1996747        -999.25
       465.0000        -999.25        -999.25         175.15          25.46       43.92123        -999.25        -999.25        -999.25        -999.25      0.2323667        -999.25
       465.5000        -999.25        -999.25       175.1744          26.44       45.34179        -999.25        -999.25        -999.25        -999.25      0.2625912        -999.25
       466.0000        -999.25        -999.25       175.0902        27.0091       46.16673        -999.25        -999.25        -999.25        -999.25      0.2801432        -999.25
       466.5000        -999.25        -999.25         175.97          27.47       46.83482        -999.25        -999.25        -999.25        -999.25       0.294358        -999.25
       467.0000        -999.25        -999.25         176.96          27.73       47.21171        -999.25        -999.25        -999.25        -999.25      0.3023768        -999.25
       467.5000        -999.25        -999.25          177.5          28.58       48.44382        -999.25        -999.25        -999.25        -999.25      0.3285919        -999.25
       468.0000        -999.25        -999.25       177.0124        30.7194       51.54499        -999.25           0.93        -999.25        -999.25      0.3945743        -999.25
       468.5000        -999.25        -999.25       176.1317        33.3762       55.39615        -999.25         1.2098        -999.25        -999.25      0.4765139        -999.25
       469.0000        -999.25        -999.25          176.2        35.9901       59.18513        -999.25         1.4739        -999.25        -999.25      0.5571305        -999.25
       469.5000        -999.25        -999.25       176.2683        38.6634       63.06021        -999.25         1.6854        -999.25        -999.25      0.6395789        -999.25
       470.0000        892.911        -999.25          175.6        41.4991       67.17068         1.1636         1.8608       -84.7917      -10.98218      0.7270358      0.5008911
       470.5000       798.3558        -999.25         175.83        43.8867       70.63164         1.3138         2.0029       -79.1505      -5.340973      0.8006731      0.7829514
       471.0000       619.5016        -999.25         176.22        43.4331       69.97412         1.7907         2.1155        -75.144      -1.334473      0.7866834      0.9832764
       471.5000        434.363        -999.25         176.54        42.0352        67.9478         2.3948         2.2161       -72.4933       1.167305      0.7435702              1
       472.0000       398.0519        -999.25       176.8273        40.1968       65.28294         2.7089         2.2721       -70.6633       2.604218      0.6868712              1
       472.5000          394.4        -999.25         177.08          38.57       62.92482         2.7701         2.2908        -69.604       3.270424      0.6366983              1
       473.0000            392        -999.25         178.11          37.89       61.93913         2.7891         2.2981       -69.1089       3.372421      0.6157261              1
       473.5000       396.7961        -999.25          179.1          37.54       61.43179         2.7414         2.2742       -70.0414       2.046829      0.6049318              1
       474.0000       416.5616        -999.25          182.3        37.4977       61.37047          2.617         2.2422        -71.322      0.3731384      0.6036271              1
       474.5000        440.396        -999.25         186.18        37.9506       62.02698         2.4747         2.1989       -72.5578       -1.25576      0.6175954       0.987212
       475.0000       480.6481        -999.25         190.76        39.0455       63.61407         2.2883         2.1434       -73.4819       -2.57296      0.6513633       0.921352
       475.5000       527.9208        -999.25         194.94        40.3156       65.45515         2.0817          2.082       -74.1135      -3.597656      0.6905352      0.8701172
       476.0000       575.0495        -999.25       193.9182        41.0923       66.58102         1.8741         1.9819       -74.2532      -4.130447      0.7144897      0.8434776
       476.5000       629.3069        -999.25          188.5          40.96       66.38924          1.683         1.9297       -73.3069       -3.57724      0.7104095       0.871138
       477.0000       671.2871        -999.25         181.55        40.2003       65.28802         1.5592         1.8842       -71.9307      -2.594139      0.6869791       0.920293
       477.5000       704.5905        -999.25         177.24        39.3465       64.05038         1.4937         1.8601       -69.5802      -0.636734      0.6606463              1
       478.0000       718.5208        -999.25       177.0364        38.2351       62.43937         1.4571         1.8499          -67.2       1.350372      0.6263695              1
