#------------------------------------------------------------------------------
# Created by    : vladimir.rabinovich
# Created on    : 09/19/2023 17:20:37
#------------------------------------------------------------------------------
~Version Information Section
VERS.           2.0     :   CWLS log ASCII Standard - VERSION 2.0
WRAP.           NO      :   One line per depth step
~Well Information Section
#MNEM       .UNIT                                         VALUE :DESCRIPTION
#------------------------------------------------------------------------------
STRT        .FT                                             582 :START DEPTH
STOP        .FT                                            8015 :STOP DEPTH
STEP        .FT                                             0.5 :STEP      
NULL        .                                           -999.25 :NULL      
COMP        .                                CONTINENTAL OIL CO :COMPANY   
WELL        .                                OCS 00719 ST00BP00 :WELL      
FLD         .                                           WILDCAT :FIELD     
LOC         .                                                   :LOCATION  
CNTY        .                             GALVESTON LARGE BLOCK :LOCATION  
STAT        .                                             TEXAS :STATE     
CTRY        .                                     UNITED STATES :COUNTRY   
SRVC        .                                                   :SERVICE COMPANY
DATE        .                             9/13/2023 11:19:25 AM :LOG DATE  
API         .                                    42706000350000 :API NUMBER
UWI         .                                    42706000350000 :UNIQUE WELL ID
XCOORD      .                                  1010979.62119212 :SURFACE X 
YCOORD      .                                  10432235.4027546 :SURFACE Y 
LAT         .                                          28.73246 :LATITUDE  
LON         .                                        -94.964458 :LONGITUDE 
ELEV        .FT                                              63 :ELEVATION VALUE
ELEV_TYPE   .                                                KB :ELEVATION REFERENCE TYPE
~Curve Information Section
#MNEM       .UNIT                                      API CODE :CURVE DESCRIPTION
#------------------------------------------------------------------------------
DEPT        .FT                                                 :DEPTH     
ASN         .OHMM                                               :          
DT          .US/F                                               :          
LN          .OHMM                                               :          
SP          .MV                                                 :          
SP_NORM     .MV                                                 :SP Normalized
VSH_SP      .V/V                                                :Volume of Shale from SP
~A        DEPTH            ASN             DT             LN             SP        SP_NORM         VSH_SP
# ...
      6016.0000          1.039        -999.25         0.9274        -55.535      -13.92996       0.794311
      6016.5000          1.021        -999.25         0.9246       -55.4394      -13.78703      0.7967753
      6017.0000         0.9958        -999.25         0.9219       -55.1073      -13.28753      0.8053874
      6017.5000         0.9706        -999.25         0.9191       -54.6741      -12.63559      0.8166277
      6018.0000         0.9467        -999.25         0.9164        -54.241      -11.98381      0.8278652
      6018.5000         0.9241        -999.25          0.914       -53.8079      -11.33203       0.839103
      6019.0000         0.9015        -999.25         0.9137       -53.1396      -10.32564      0.8564546
      6019.5000         0.8939        -999.25         0.9134        -52.289      -9.044399      0.8785449
      6020.0000         0.8897        -999.25         0.9132       -51.4714      -7.812907      0.8997775
      6020.5000         0.8855        -999.25         0.9129       -51.5476      -7.928992       0.897776
      6021.0000         0.8812        -999.25         0.9127       -51.6239      -8.045234      0.8957719
      6021.5000          0.877        -999.25         0.9124       -51.6912      -8.147896      0.8940018
      6022.0000         0.8787        -999.25         0.9121       -51.7285      -8.205336      0.8930115
      6022.5000         0.8844        -999.25         0.9119       -51.7659      -8.262924      0.8920186
      6023.0000         0.8901        -999.25         0.9116       -51.8032      -8.320357      0.8910283
      6023.5000         0.9014        -999.25         0.9114       -51.6687      -8.118776      0.8945038
      6024.0000         0.9139        -999.25         0.9111       -51.3058      -7.572837      0.9039166
      6024.5000         0.9316        -999.25         0.9197       -51.2682      -7.517343      0.9048734
      6025.0000         0.9551        -999.25         0.9308       -51.6186      -8.046838      0.8957442
      6025.5000         0.9773        -999.25         0.9421       -51.9633      -8.567736      0.8867632
      6026.0000         0.9925        -999.25         0.9533       -52.3083      -9.089094      0.8777742
      6026.5000         1.0077        -999.25         0.9644       -52.6531      -9.610147      0.8687906
      6027.0000         1.0192        -999.25         0.9757        -52.825      -9.870518      0.8643014
      6027.5000         1.0258        -999.25         0.9868       -52.7322      -9.731806       0.866693
      6028.0000         1.0325        -999.25          0.998       -52.3607      -9.172897      0.8763294
      6028.5000         1.0391        -999.25         1.0093        -51.955      -8.562428      0.8868547
      6029.0000          1.031        -999.25         1.0204       -51.5486      -7.950899      0.8973983
      6029.5000         1.0207        -999.25         1.0237       -51.1245      -7.312691      0.9084019
      6030.0000         1.0098        -999.25         1.0252       -53.1453      -10.36063      0.8558511
      6030.5000         0.9973        -999.25         1.0266       -53.9103      -11.51522      0.8359445
      6031.0000         0.9847        -999.25         1.0281       -54.4623      -12.34867      0.8215747
      6031.5000         0.9829        -999.25         1.0296       -54.6401      -12.61793      0.8169323
      6032.0000         0.9978        -999.25         1.0249       -54.8181       -12.8875      0.8122845
      6032.5000         1.0127        -999.25          1.019       -54.8846      -12.98896      0.8105351
      6033.0000         1.0266        -999.25         1.0131       -54.9141      -13.03464      0.8097476
      6033.5000         1.0381        -999.25         1.0072       -54.8661      -12.96347      0.8109747
      6034.0000          1.004        -999.25         1.0011       -54.6741      -12.67519       0.815945
      6034.5000         0.9799        -999.25         0.9901       -54.4821      -12.38692      0.8209152
      6035.0000         0.9557        -999.25          0.979       -54.2883      -12.09593      0.8259323
      6035.5000         0.9389        -999.25         0.9679       -54.0848      -11.79031      0.8312016
      6036.0000         0.9224        -999.25         0.9568       -54.4011      -12.26839      0.8229587
      6036.5000         0.9059        -999.25         0.9458        -55.086      -13.30221      0.8051343
      6037.0000         0.8943        -999.25         0.9347       -55.7419      -14.29231      0.7880636
      6037.5000         0.8837        -999.25         0.9236       -56.3396      -15.19465      0.7725059
      6038.0000         0.8768        -999.25         0.9125       -56.8337       -15.9408      0.7596414
      6038.5000         0.8699        -999.25         0.9015       -57.0889      -16.32677      0.7529867
      6039.0000         0.8629        -999.25         0.8904       -57.3441      -16.71273      0.7463322
      6039.5000          0.856        -999.25         0.8793       -57.6245      -17.13669      0.7390227
      6040.0000         0.8461        -999.25         0.8683       -58.2148      -18.02788      0.7236572
      6040.5000         0.8345        -999.25         0.8628       -58.8047      -18.91846      0.7083023
      6041.0000         0.8229        -999.25         0.8585       -59.3979      -19.81403      0.6928616
      6041.5000         0.8113        -999.25         0.8542       -60.0034      -20.72814      0.6771011
      6042.0000         0.8003        -999.25           0.85       -60.9565      -22.16632      0.6523048
      6042.5000         0.7897        -999.25         0.8457       -62.5615      -24.58736      0.6105627
      6043.0000          0.782        -999.25         0.8417       -64.1451      -26.97615      0.5693767
      6043.5000         0.8019        -999.25         0.8475       -65.2689      -28.67169      0.5401433
      6044.0000         0.8302        -999.25         0.8534       -65.9203      -29.65501      0.5231895
      6044.5000         0.8584        -999.25         0.8592       -66.3456      -30.29742      0.5121135
      6045.0000         0.8814        -999.25          0.865       -63.8531       -26.5407      0.5768846
      6045.5000         0.8987        -999.25         0.8709       -62.6633      -24.74804      0.6077923
      6046.0000         0.9161        -999.25         0.8767       -62.2671       -24.1519      0.6180707
      6046.5000         0.9239        -999.25          0.869       -61.8575      -23.53554      0.6286975
      6047.0000         0.9071        -999.25         0.8589       -61.4372      -22.90306      0.6396024
      6047.5000         0.8743        -999.25         0.8487       -61.0169      -22.27058      0.6505072
      6048.0000         0.8614        -999.25         0.8386       -60.6772      -21.75962      0.6593169
      6048.5000         0.8508        -999.25         0.8284       -60.4634      -21.43848      0.6648538
      6049.0000         0.8402        -999.25         0.8183       -60.5513       -21.5722      0.6625482
      6049.5000         0.8297        -999.25         0.8081        -61.778      -23.42289      0.6306399
      6050.0000         0.8194        -999.25         0.7988       -62.5855      -24.64155      0.6096285
      6050.5000         0.8095        -999.25         0.7897       -63.0444      -25.33463      0.5976788
      6051.0000         0.7996        -999.25         0.7805       -63.8351      -26.52796      0.5771042
      6051.5000         0.7832        -999.25         0.7714       -64.9376      -28.19139      0.5484243
      6052.0000         0.7567        -999.25         0.7623        -66.058      -29.88181      0.5192792
      6052.5000         0.7255        -999.25         0.7532       -67.1816      -31.57706      0.4900507
      6053.0000         0.7116        -999.25          0.744        -68.368      -33.36697      0.4591901
      6053.5000         0.6996        -999.25         0.7349       -69.6664      -35.32576      0.4254179
