#------------------------------------------------------------------------------
# Created by    : vladimir.rabinovich
# Created on    : 09/19/2023 17:20:39
#------------------------------------------------------------------------------
~Version Information Section
VERS.           2.0     :   CWLS log ASCII Standard - VERSION 2.0
WRAP.           NO      :   One line per depth step
~Well Information Section
#MNEM       .UNIT                                         VALUE :DESCRIPTION
#------------------------------------------------------------------------------
STRT        .FT                                             520 :START DEPTH
STOP        .FT                                           11478 :STOP DEPTH
STEP        .FT                                             0.5 :STEP      
NULL        .                                           -999.25 :NULL      
COMP        .                                      SHELL OIL CO :COMPANY   
WELL        .                                OCS 00730 ST00BP00 :WELL      
FLD         .                                           WILDCAT :FIELD     
LOC         .                                                   :LOCATION  
CNTY        .                             GALVESTON LARGE BLOCK :LOCATION  
STAT        .                                             TEXAS :STATE     
CTRY        .                                     UNITED STATES :COUNTRY   
SRVC        .                                                   :SERVICE COMPANY
DATE        .                             9/13/2023 11:19:42 AM :LOG DATE  
API         .                                    42706000260000 :API NUMBER
UWI         .                                    42706000260000 :UNIQUE WELL ID
XCOORD      .                                  961416.888637646 :SURFACE X 
YCOORD      .                                  10353223.2377546 :SURFACE Y 
LAT         .                                         28.512881 :LATITUDE  
LON         .                                        -95.114699 :LONGITUDE 
ELEV        .FT                                              72 :ELEVATION VALUE
ELEV_TYPE   .                                                KB :ELEVATION REFERENCE TYPE
~Curve Information Section
#MNEM       .UNIT                                      API CODE :CURVE DESCRIPTION
#------------------------------------------------------------------------------
DEPT        .FT                                                 :DEPTH     
ASN         .OHMM                                               :          
CILD        .MMHO                                               :          
ILD         .OHMM                                               :          
LAT         .OHMM                                               :          
LN          .OHMM                                               :          
SP          .MV                                                 :          
SP_NORM     .MV                                                 :SP Normalized
VSH_SP      .V/V                                                :Volume of Shale from SP
~A        DEPTH            ASN           CILD            ILD            LAT             LN             SP        SP_NORM         VSH_SP
# ...
      2703.0000         0.8667        -999.25        -999.25          0.976         0.8503       -48.8494       0.413063              1
      2703.5000         0.8725        -999.25        -999.25         0.9765         0.8527       -49.7592     -0.5098267              1
      2704.0000         0.8781        -999.25        -999.25          0.977         0.8551       -51.0924      -1.856113              1
      2704.5000         0.8825        -999.25        -999.25         0.9775         0.8576       -50.8658      -1.642605              1
      2705.0000         0.8869        -999.25        -999.25          0.978         0.8579       -50.2179      -1.007793              1
      2705.5000         0.8914        -999.25        -999.25         0.9784         0.8577       -49.5701     -0.3730812              1
      2706.0000         0.8958        -999.25        -999.25         0.9789         0.8574       -48.9721      0.2118301              1
      2706.5000         0.9003        -999.25        -999.25         0.9794         0.8571       -48.4832      0.6876411              1
      2707.0000         0.9047        -999.25        -999.25         0.9799         0.8569       -47.9943       1.163452              1
      2707.5000         0.9091        -999.25        -999.25         0.9804         0.8566       -47.5054       1.639263              1
      2708.0000         0.9137        -999.25        -999.25         0.9809         0.8563       -47.0168       2.114777              1
      2708.5000         0.9182        -999.25        -999.25         0.9813          0.856       -46.5278       2.590687              1
      2709.0000         0.9182        -999.25        -999.25         0.9815         0.8558        -46.048       3.057396              1
      2709.5000         0.9181        -999.25        -999.25         0.9817         0.8548       -45.6566       3.435707              1
      2710.0000          0.918        -999.25        -999.25         0.9818         0.8524       -45.2652       3.814018              1
      2710.5000          0.918        -999.25        -999.25          0.982         0.8501       -44.9178       4.148331              1
      2711.0000         0.9179        -999.25        -999.25         0.9821         0.8478       -44.8002       4.252842              1
      2711.5000         0.9178        -999.25        -999.25         0.9823         0.8455       -44.6826       4.357357              1
      2712.0000         0.9178        -999.25        -999.25         0.9825         0.8432       -45.0547       3.972168              1
      2712.5000         0.9177        -999.25        -999.25         0.9826         0.8409       -45.4347       3.579079              1
      2713.0000         0.9153        -999.25        -999.25         0.9828         0.8386       -45.8146       3.186085              1
      2713.5000         0.9126        -999.25        -999.25          0.983         0.8362       -46.3143       2.673298              1
      2714.0000         0.9099        -999.25        -999.25         0.9831         0.8339       -46.8563        2.11821              1
      2714.5000         0.9072        -999.25        -999.25         0.9833         0.8316       -47.3983       1.563122              1
      2715.0000         0.9044        -999.25        -999.25         0.9834         0.8293       -47.9399       1.008434              1
      2715.5000         0.9017        -999.25        -999.25         0.9836         0.8264       -48.5051      0.4301453              1
      2716.0000          0.899        -999.25        -999.25         0.9838          0.823       -49.1431     -0.2209435              1
      2716.5000         0.8963        -999.25        -999.25         0.9839         0.8196       -49.7809       -0.87183              1
      2717.0000         0.8935        -999.25        -999.25         0.9841         0.8163       -50.4189      -1.522919              1
      2717.5000         0.8896        -999.25        -999.25         0.9843         0.8129       -50.2029      -1.320011              1
      2718.0000         0.8858        -999.25        -999.25         0.9844         0.8095       -49.7048     -0.8349991              1
      2718.5000         0.8819        -999.25        -999.25         0.9846         0.8061       -49.2067      -0.349987              1
      2719.0000          0.878        -999.25        -999.25         0.9847         0.8028       -48.7087      0.1349258              1
      2719.5000         0.8741        -999.25        -999.25         0.9849         0.7997       -48.2103      0.6202354              1
      2720.0000         0.8703        -999.25        -999.25         0.9851         0.7971       -47.7122       1.105247              1
      2720.5000         0.8664        -999.25        -999.25         0.9852         0.7945       -47.2299       1.574459              1
      2721.0000         0.8625        -999.25        -999.25         0.9854          0.792         -46.84       1.951271              1
      2721.5000         0.8586        -999.25        -999.25         0.9856         0.7894       -46.9843        1.79388              1
      2722.0000         0.8548        -999.25        -999.25         0.9857         0.7868       -47.5151       1.249992              1
      2722.5000         0.8509        -999.25        -999.25         0.9859         0.7842       -48.0462      0.7058029              1
      2723.0000          0.847        -999.25        -999.25          0.986         0.7817       -48.5771      0.1618156              1
      2723.5000         0.8413        -999.25        -999.25         0.9862         0.7798       -49.1082     -0.3823738              1
      2724.0000          0.835        -999.25        -999.25         0.9864         0.7791        -49.639     -0.9262619              1
      2724.5000         0.8286        -999.25        -999.25         0.9865         0.7784       -50.0558      -1.356152              1
      2725.0000         0.8223        -999.25        -999.25         0.9867         0.7777       -50.4543      -1.767738              1
      2725.5000         0.8159        -999.25        -999.25         0.9867          0.777       -50.8527      -2.179226      0.9942185
      2726.0000         0.8096        -999.25        -999.25         0.9862         0.7763        -50.907       -2.24662      0.9920445
      2726.5000         0.8032        -999.25        -999.25         0.9856         0.7756       -50.4675      -1.820206              1
      2727.0000         0.7969        -999.25        -999.25         0.9851          0.775       -50.0283      -1.394096              1
      2727.5000         0.7905        -999.25        -999.25         0.9846         0.7743       -49.5887     -0.9675827              1
      2728.0000         0.7842        -999.25        -999.25          0.984         0.7737       -49.1495     -0.5414734              1
      2728.5000         0.7852        -999.25        -999.25         0.9835         0.7734       -49.0401     -0.4451599              1
      2729.0000         0.7964        -999.25        -999.25          0.983         0.7731       -48.9564     -0.3745499              1
      2729.5000         0.8075        -999.25        -999.25         0.9824         0.7728       -48.8727      -0.303936              1
      2730.0000         0.8187        -999.25        -999.25         0.9819         0.7724       -48.7889     -0.2332268              1
      2730.5000         0.8308        -999.25        -999.25         0.9814         0.7721       -48.7052     -0.1626167              1
      2731.0000         0.8438        -999.25        -999.25         0.9808         0.7718       -48.6077    -0.07820511              1
      2731.5000         0.8567        -999.25        -999.25         0.9803         0.7715       -48.4469      0.0695076              1
      2732.0000         0.8668        -999.25        -999.25         0.9798         0.7712       -48.2861      0.2172203              1
