#------------------------------------------------------------------------------
# Created by    : vladimir.rabinovich
# Created on    : 09/19/2023 17:22:16
#------------------------------------------------------------------------------
~Version Information Section
VERS.           2.0     :   CWLS log ASCII Standard - VERSION 2.0
WRAP.           NO      :   One line per depth step
~Well Information Section
#MNEM       .UNIT                                         VALUE :DESCRIPTION
#------------------------------------------------------------------------------
STRT        .FT                                              10 :START DEPTH
STOP        .FT                                            7932 :STOP DEPTH
STEP        .FT                                             0.5 :STEP      
NULL        .                                           -999.25 :NULL      
COMP        .                                       ALLIED CORP :COMPANY   
WELL        .                               OCS G04069 ST00BP00 :WELL      
FLD         .                                           WILDCAT :FIELD     
LOC         .                                                   :LOCATION  
CNTY        .                             GALVESTON LARGE BLOCK :LOCATION  
STAT        .                                             TEXAS :STATE     
CTRY        .                                     UNITED STATES :COUNTRY   
SRVC        .                                                   :SERVICE COMPANY
DATE        .                             9/13/2023 11:18:53 AM :LOG DATE  
API         .                                    42706400790000 :API NUMBER
UWI         .                                    42706400790000 :UNIQUE WELL ID
XCOORD      .                                  993545.470392299 :SURFACE X 
YCOORD      .                                  10396443.6120929 :SURFACE Y 
LAT         .                                         28.633244 :LATITUDE  
LON         .                                        -95.016955 :LONGITUDE 
ELEV        .FT                                              82 :ELEVATION VALUE
ELEV_TYPE   .                                                KB :ELEVATION REFERENCE TYPE
~Curve Information Section
#MNEM       .UNIT                                      API CODE :CURVE DESCRIPTION
#------------------------------------------------------------------------------
DEPT        .FT                                                 :DEPTH     
CALI        .IN                                                 :          
CILD        .MMHO                                               :          
DPHI        .B                                                  :          
DRHO        .G/C3                                               :          
DT          .US/F                                               :          
GR          .GAPI                                               :          
GR_1        .GAPI                                               :          
GR_NORM     .GAPI                                               :GammaRay Normalized
ILD         .OHMM                                               :          
ILM         .OHMM                                               :          
NPHI        .%                                                  :          
SFL         .OHMM                                               :          
SP          .MV                                                 :          
SP_NORM     .MV                                                 :SP Normalized
VSH_GR      .V/V                                                :Volume of Shale from GR
VSH_SP      .V/V                                                :Volume of Shale from SP
~A        DEPTH           CALI           CILD           DPHI           DRHO             DT             GR           GR_1        GR_NORM            ILD            ILM           NPHI            SFL             SP        SP_NORM         VSH_GR         VSH_SP
# ...
      4874.0000        15.4915       1155.279        33.6282        -0.0599       121.0593        68.2979        64.9365       64.34563         0.8602          0.988        53.6348         1.1811       -59.8965      -3.481846      0.6669284      0.9502593
      4874.5000        15.5374       1154.313        34.3005         -0.066       123.5883        66.9592        63.7635       62.67427         0.8685         0.9897        52.0322         1.1349       -59.5162      -3.103806      0.6313676      0.9556599
      4875.0000        15.5348       1146.525        34.1768        -0.0609        126.667        65.7404        64.8125       61.15279         0.8801         0.9899        47.6415         1.0905       -59.5186      -3.108463      0.5989956      0.9555934
      4875.5000        15.5292       1138.744        32.7405        -0.0442       128.6289        64.9594        67.5364       60.17855         0.8847         0.9916         47.425         1.0997       -60.1001      -3.692223       0.578267      0.9472539
      4876.0000         15.521       1132.434        30.6091        -0.0301       128.6084        69.2305        68.5106       65.51944         0.8895         1.0043        48.6993         1.1142       -61.4072      -5.001583       0.691903      0.9285488
      4876.5000        15.5011       1127.006        30.1458        -0.0274       126.6863        70.2163        67.4946       66.75369          0.895         1.0285         47.906         1.1554       -62.6447      -6.241341      0.7181637       0.910838
      4877.0000        15.4754       1121.578        30.9615        -0.0354       123.9904        68.5223        66.4321       64.63821         0.9016         1.0537         46.833          1.208       -62.5688      -6.167702      0.6731533        0.91189
      4877.5000        15.4499       1114.592        31.9742        -0.0511       121.3524        64.9421        66.2056       60.16497         0.9062         1.0556        46.0332          1.191       -62.3782      -5.979359       0.577978      0.9145806
      4878.0000        15.4247       1104.426        32.3072        -0.0554        120.019        62.0158        66.1426        56.5091         0.9135         1.0532        44.2054         1.1677       -62.0537      -5.657116      0.5001937       0.919184
      4878.5000        15.4038       1096.953        32.0417        -0.0501       120.7638        60.5515         65.453       54.68074         0.9157          1.044        40.4671         1.1512       -61.9781      -5.583778      0.4612924      0.9202318
      4879.0000         15.386       1091.365        31.5045        -0.0465       122.0247        60.6945        65.3107        54.8615         0.9112          1.032        38.2579         1.1352        -62.504      -6.111938      0.4651384      0.9126866
      4879.5000        15.3707       1098.205        31.3755        -0.0474       122.6823        62.5623        67.3474       57.19826         0.8951         1.0202        38.2031         1.1573       -64.2262      -7.836391      0.5148565      0.8880516
      4880.0000        15.3569       1109.506         31.746        -0.0623       123.2128        64.5819        66.8591       59.72477         0.8759         1.0096        39.0984         1.2108       -66.6887      -10.30115      0.5686121      0.8528407
      4880.5000        15.3844       1123.211        32.5419         -0.099       120.8002        67.0863        64.4469       62.85728         0.8777         0.9983        41.2872          1.247       -67.8629      -11.47761      0.6352614      0.8360341
      4881.0000        15.5289       1136.916        32.1201        -0.1358       117.9963        68.8851        62.9911        65.1078         0.8507         0.9862        41.2847         1.2469       -67.6698      -11.28677      0.6831446      0.8387604
      4881.5000        15.6397       1144.375        30.8024        -0.0922       118.3488        69.9523        62.2446        66.4438         0.8437         0.9803         40.138         1.1707       -66.6801      -10.29933      0.7115703      0.8528667
      4882.0000        15.7323       1149.463         29.717        -0.0326       122.0404        70.4911        63.3255        67.1193         0.8396         0.9781        40.3196         1.1021       -64.7666      -8.388092      0.7259426      0.8801701
      4882.5000        15.8183       1154.549        27.3474         0.0265       127.5972        70.0457        65.0432       66.56457         0.8356         0.9804        43.5255         1.1008       -63.3096       -6.93335      0.7141398      0.9009522
      4883.0000        15.8612       1148.527        26.4669         0.0396       130.8701         69.925        68.1866       66.41571         0.8425         0.9847        44.0245         1.0995       -62.4004      -6.026405      0.7109725      0.9139085
      4883.5000        15.8974       1142.387        26.0532         0.0345       129.0891        71.0194        67.0751       67.78572         0.8555         0.9876        41.4769         1.1557       -62.2219       -5.85017      0.7401217      0.9164261
      4884.0000        15.9062       1135.801        27.0001        -0.0179       125.6689        76.1738        64.5444       74.23073         0.8687         0.9888        40.8724         1.2073       -62.2626      -5.893127      0.8772495      0.9158125
      4884.5000         15.915       1124.375        27.9423        -0.0427       123.1776        75.7051        63.7237       73.64686         0.8814         0.9907        42.3384         1.2307       -62.4056      -6.038387      0.8648268      0.9137373
      4885.0000        15.9276       1112.938        28.2172        -0.0453       121.6782        73.9174        63.4013       71.41425          0.894         0.9944        44.2141         1.2288       -61.7996      -5.434643      0.8173244      0.9223623
      4885.5000        15.9389       1101.514        27.6016        -0.0356       121.5565         72.147        63.7623       69.20326         0.9068         1.0035        43.8444         1.1878       -60.8977      -4.535007      0.7702821      0.9352142
      4886.0000        15.9441       1073.768        26.2791        -0.0221       122.5272        70.5555        67.1167       67.21589         0.9178         1.0171        42.7009          1.174       -60.0588      -3.698364      0.7279977      0.9471662
      4886.5000        15.9319       1049.518        26.6267        -0.0105       123.4241        70.0432        70.5743       66.57753         0.9252         1.0305        45.0757         1.1797       -59.2735      -2.915321      0.7144156      0.9583526
      4887.0000        15.8734       1034.563        27.0935        -0.0033       124.1216        71.3501        71.3757       68.21316         0.9327         1.0437         49.587         1.1895       -59.8515      -3.495583      0.7492161      0.9500631
      4887.5000        15.7686       1023.357        26.9062         0.0015       123.9558        73.6052        69.6835       71.03405         0.9394         1.0581        48.3361         1.1746       -60.8817      -4.528038      0.8092351      0.9353138
      4888.0000         15.668       1019.135        27.0691        -0.0151       122.5006        71.2156        67.5585       68.04906         0.9442         1.0735          41.75         1.1387       -62.7458      -6.394402      0.7457246      0.9086514
      4888.5000        15.6128       1017.588        27.5333        -0.0469       119.3225        69.2749        66.9352        65.6252          0.949         1.0881         41.256         1.1599       -64.4508      -8.101658      0.6941531       0.884262
      4889.0000        15.6027       1019.893        28.0317        -0.0854       114.7977        67.6705        64.5034       63.62171         0.9516         1.0947        42.6101         1.2724       -66.0277       -9.68082      0.6515258      0.8617026
      4889.5000        15.6129       1025.875        28.9652        -0.1189       111.7722         67.103        59.8619       62.91433         0.9478         1.0871        43.7038         1.3532       -66.3158       -9.97118      0.6364752      0.8575546
