#------------------------------------------------------------------------------
# Created by    : vladimir.rabinovich
# Created on    : 09/19/2023 17:19:48
#------------------------------------------------------------------------------
~Version Information Section
VERS.           2.0     :   CWLS log ASCII Standard - VERSION 2.0
WRAP.           NO      :   One line per depth step
~Well Information Section
#MNEM       .UNIT                                         VALUE :DESCRIPTION
#------------------------------------------------------------------------------
STRT        .FT                                            3926 :START DEPTH
STOP        .FT                                            8446 :STOP DEPTH
STEP        .FT                                             0.5 :STEP      
NULL        .                                           -999.25 :NULL      
COMP        .                             WALTER OIL & GAS CORP :COMPANY   
WELL        .                               OCS G06101 ST00BP00 :WELL      
FLD         .                                           WILDCAT :FIELD     
LOC         .                                                   :LOCATION  
CNTY        .                             GALVESTON LARGE BLOCK :LOCATION  
STAT        .                                             TEXAS :STATE     
CTRY        .                                     UNITED STATES :COUNTRY   
SRVC        .                                                   :SERVICE COMPANY
DATE        .                             9/13/2023 11:19:36 AM :LOG DATE  
API         .                                    42706402050000 :API NUMBER
UWI         .                                    42706402050000 :UNIQUE WELL ID
XCOORD      .                                  1036351.71170487 :SURFACE X 
YCOORD      .                                  10440832.2127806 :SURFACE Y 
LAT         .                                         28.757227 :LATITUDE  
LON         .                                        -94.885733 :LONGITUDE 
ELEV        .FT                                              88 :ELEVATION VALUE
ELEV_TYPE   .                                                KB :ELEVATION REFERENCE TYPE
~Curve Information Section
#MNEM       .UNIT                                      API CODE :CURVE DESCRIPTION
#------------------------------------------------------------------------------
DEPT        .FT                                                 :DEPTH     
ASFL        .OHMM                                               :          
CALI        .IN                                                 :          
CILD        .MMHO                                               :          
GR          .GAPI                                               :          
GR_1        .GAPI                                               :          
GR_NORM     .GAPI                                               :GammaRay Normalized
ILD         .OHMM                                               :          
ILM         .OHMM                                               :          
NPHI        .%                                                  :          
RFOC        .OHMM                                               :          
RHOB        .G/C3                                               :          
SP          .MV                                                 :          
SP_NORM     .MV                                                 :SP Normalized
VSH_GR      .V/V                                                :Volume of Shale from GR
VSH_SP      .V/V                                                :Volume of Shale from SP
~A        DEPTH           ASFL           CALI           CILD             GR           GR_1        GR_NORM            ILD            ILM           NPHI           RFOC           RHOB             SP        SP_NORM         VSH_GR         VSH_SP
# ...
      5762.0000          0.915        10.4305       1401.889        80.0494        78.3842       83.30394         0.7046         0.7309        36.0593         0.9723         2.3082       -57.6288      -12.96861              1      0.8147342
      5762.5000         0.9112        10.4016       1423.885        80.5634         79.036       83.97747         0.7099         0.7339        35.8655         0.9782         2.3094       -58.1396       -13.4794              1      0.8074371
      5763.0000         0.9073        10.3623       1447.406        81.0771        79.9669       84.65062         0.7112         0.7302        35.7529         0.9789         2.3142       -58.9789      -14.31871              1      0.7954471
      5763.5000         0.9034         10.321        1470.93        81.5917        80.2688       85.32494         0.7054         0.7244          36.29         0.9755         2.3174       -59.2467      -14.58651              1      0.7916213
      5764.0000         0.8996        10.2768       1494.064        82.1055        80.3766        85.9982         0.6935         0.7135        37.2016         0.9578         2.3124       -55.7238      -11.06361              1      0.8419485
      5764.5000         0.8957        10.2395        1513.42        82.6194        81.6659       86.67161         0.6774         0.7018        37.5405         0.9401         2.3068        -53.013      -8.352806              1      0.8806742
      5765.0000         0.8918        10.2121       1532.799        83.2695        82.7446       87.52377         0.6632         0.6832        37.5951         0.9221         2.3018       -52.4304      -7.770206              1      0.8889971
      5765.5000         0.8871         10.191        1552.18        83.9266        83.0814       88.38512         0.6502         0.6666        37.9129         0.9052         2.2958       -53.2922      -8.632004              1      0.8766857
      5766.0000         0.8958        10.1802       1564.334         84.524         83.019       89.16812         0.6388         0.6541        39.0481         0.8913         2.2885       -54.5958      -9.935604              1      0.8580628
      5766.5000         0.9093        10.1708       1571.977        85.0801        83.1173        89.8969         0.6296         0.6453        40.5977         0.8733           2.28       -55.9177      -11.25751              1      0.8391784
      5767.0000         0.9226        10.1667       1579.627          83.45         84.215        87.7563         0.6209         0.6444        41.7422         0.8532         2.2726       -55.2817      -10.62151              1      0.8482642
      5767.5000         0.9359        10.1742       1576.076         81.573        85.2346       85.29164          0.614         0.6486        42.2876         0.8325          2.268       -54.2705      -9.610306              1      0.8627099
      5768.0000         0.9493        10.1973       1560.779        80.4127        84.6091       83.76766         0.6175         0.6572        41.9729         0.8227          2.269       -54.1038      -9.443607              1      0.8650913
      5768.5000         0.9619         10.272        1545.48        79.2537        82.6158       82.24539         0.6203         0.6671        40.7029         0.8382         2.2764       -53.7033      -9.043106              1      0.8708128
      5769.0000         0.9711        10.3517       1528.148        77.3904        81.0255       79.79872         0.6245         0.6805        38.7655         0.8691         2.2864       -53.1485      -8.488304      0.9957175      0.8787385
      5769.5000         0.9803        10.4327       1510.572        69.7539        79.6676       69.77471         0.6352         0.6938         36.756         0.9088         2.2963       -52.8134      -8.153206      0.7824407      0.8835256
      5770.0000         0.9895        10.5079       1492.986         67.639         77.313       66.99782         0.6475         0.7072        35.3372         0.9404         2.3022       -54.3949      -9.734707      0.7233579      0.8609328
      5770.5000         0.9997        10.5832       1475.398        66.0287        74.3699       64.88321         0.6633          0.721        34.6799         0.9446         2.3016       -56.0863      -11.42611      0.6783661      0.8367699
      5771.0000         1.0108        10.6145        1499.15        64.4755        71.6212       62.84354         0.6786          0.735        34.4697         0.9152         2.2995       -56.4557      -11.79551       0.634969      0.8314928
      5771.5000         1.0218        10.5789       1520.809        62.9705        69.1858       60.86714         0.6879         0.7438        34.1498         0.8969         2.2995       -55.7187      -11.05851      0.5929178      0.8420213
      5772.0000         1.0324        10.4726       1541.859        62.1796        66.8868       59.82799         0.6825         0.7457        33.0736         0.9127         2.2945       -57.7574      -13.09721      0.5708082       0.812897
      5772.5000         1.0159        10.3456       1562.887        62.3022         65.145       59.98781         0.6642         0.7408        31.6052         0.9698         2.2853       -62.6055       -17.9453      0.5742088      0.7436385
      5773.0000         0.9961        10.2634       1583.914          62.69        63.7985        60.4957         0.6493         0.7224        31.0724         1.0371         2.2777       -66.6198       -21.9596       0.585015      0.6862914
      5773.5000         0.9766        10.1987       1589.465        64.9935        62.6755       63.51796         0.6373         0.7054        31.9839         1.0914         2.2708        -68.536      -23.87581      0.6493182       0.658917
      5774.0000         0.9572        10.1629        1586.24        67.9812        61.8772       67.43822         0.6293         0.6893        33.2224         1.1118         2.2647       -69.4784      -24.81821       0.732728      0.6454542
      5774.5000         0.9412        10.1353       1570.033        69.3374        61.7745       69.21715         0.6237         0.6831        34.3174         1.1101         2.2612       -70.6783       -26.0181      0.7705776      0.6283128
      5775.0000         0.9268        10.1271       1553.814        70.4978        63.5875       70.73907          0.623         0.6797        34.9222         1.0868         2.2626        -72.131       -27.4708       0.802959        0.60756
      5775.5000         0.9156        10.1225       1537.607        71.6283        66.4852       72.22177         0.6282         0.6805        34.6375         1.0087         2.2742       -72.4834       -27.8232      0.8345058      0.6025257
      5776.0000         0.9069        10.1229       1521.389        72.7094        69.7354       73.63961         0.6369         0.6894        34.1205         0.9177         2.2949       -67.8602          -23.2      0.8646725      0.6685714
      5776.5000         0.9043        10.1484       1505.656        73.7904        71.1627       75.05733          0.648         0.6942        33.8033         0.8509         2.3124       -61.3777      -16.71751      0.8948369      0.7611785
      5777.0000         0.9018         10.179       1494.186        74.8564        71.7595       76.45538          0.657         0.6979        34.4781           0.85         2.3253       -57.8585      -13.19831      0.9245825      0.8114527
      5777.5000         0.8992        10.2094       1485.404        75.9214        72.1029        77.8521         0.6631         0.7012        35.1162         0.8927         2.3346       -55.7503      -11.09011      0.9542999      0.8415699
      5778.0000         0.8978        10.2397       1499.115         77.011        73.3518        79.2811         0.6646         0.7017        36.1006         0.9154         2.3386       -54.7031       -10.0429      0.9847042        0.85653
      5778.5000         0.8969        10.2552       1512.826        78.1057        74.5366        80.7168         0.6638         0.6933        37.8607         0.9061         2.3326       -54.2087      -9.548504              1      0.8635928
