#------------------------------------------------------------------------------
# Created by    : vladimir.rabinovich
# Created on    : 09/19/2023 17:21:15
#------------------------------------------------------------------------------
~Version Information Section
VERS.           2.0     :   CWLS log ASCII Standard - VERSION 2.0
WRAP.           NO      :   One line per depth step
~Well Information Section
#MNEM       .UNIT                                         VALUE :DESCRIPTION
#------------------------------------------------------------------------------
STRT        .FT                                            2893 :START DEPTH
STOP        .FT                                           11505 :STOP DEPTH
STEP        .FT                                             0.5 :STEP      
NULL        .                                           -999.25 :NULL      
COMP        .                               SEAGULL ENERGY CORP :COMPANY   
WELL        .                               OCS G06105 ST00BP00 :WELL      
FLD         .                              GALVESTON BLOCK 0343 :FIELD     
LOC         .                                                   :LOCATION  
CNTY        .                             GALVESTON LARGE BLOCK :LOCATION  
STAT        .                                             TEXAS :STATE     
CTRY        .                                     UNITED STATES :COUNTRY   
SRVC        .                                                   :SERVICE COMPANY
DATE        .                             9/13/2023 11:19:54 AM :LOG DATE  
API         .                                    42706403720000 :API NUMBER
UWI         .                                    42706403720000 :UNIQUE WELL ID
XCOORD      .                                  915246.934514234 :SURFACE X 
YCOORD      .                                  10428990.3748243 :SURFACE Y 
LAT         .                                         28.718869 :LATITUDE  
LON         .                                        -95.262866 :LONGITUDE 
ELEV        .FT                                              96 :ELEVATION VALUE
ELEV_TYPE   .                                                KB :ELEVATION REFERENCE TYPE
~Curve Information Section
#MNEM       .UNIT                                      API CODE :CURVE DESCRIPTION
#------------------------------------------------------------------------------
DEPT        .FT                                                 :DEPTH     
CAL         .IN                                                 :          
CNCSS       .%                                                  :          
CORR        .G/CM3                                              :          
DT24        .US/FT                                              :          
GR_NORM     .GAPI                                               :GammaRay Normalized
GRR         .GAPI                                               :          
ILD         .OHMM                                               :          
ILM         .OHMM                                               :          
PORDSS      .%                                                  :          
RFOC        .OHMM                                               :          
SP          .MV                                                 :          
SP_NORM     .MV                                                 :SP Normalized
VSH_GR      .V/V                                                :Volume of Shale from GR
VSH_SP      .V/V                                                :Volume of Shale from SP
~A        DEPTH            CAL          CNCSS           CORR           DT24        GR_NORM            GRR            ILD            ILM         PORDSS           RFOC             SP        SP_NORM         VSH_GR         VSH_SP
# ...
      6925.0000         13.701        46.1176         0.0245          121.6       80.23598         75.098         0.6874          0.669        19.8367         0.9595           -2.7           -2.7              1      0.9614286
      6925.5000         13.701        45.7647         0.0245          121.6       80.55742        75.2941         0.6874          0.669        19.7143          0.951           -2.7           -2.7              1      0.9614286
      6926.0000        13.6618        45.6471         0.0245          121.8       80.87886        75.4902         0.6874          0.669        20.2041         0.9425           -2.7           -2.7              1      0.9614286
      6926.5000        13.6618        45.6471         0.0286          121.6       81.52628        75.8824         0.6874         0.6629        20.8163         0.9427           -2.7           -2.7              1      0.9614286
      6927.0000         13.701        45.2941         0.0327          121.2       82.17352        76.2745         0.6812         0.6569        21.3061         0.9429           -2.7           -2.7              1      0.9614286
      6927.5000        13.7402        45.0588         0.0327          122.4       82.49496        76.4706          0.669          0.651        21.4286         0.9519           -2.4           -2.4              1      0.9657143
      6928.0000        13.7794        44.5882         0.0327          123.2       83.46817        77.0588         0.6569         0.6393        21.4286         0.9345           -2.4           -2.4              1      0.9657143
      6928.5000        13.7794        44.9412         0.0327            123       84.76735        77.8431         0.6451         0.6278         21.551         0.9258           -2.1           -2.1              1           0.97
      6929.0000        13.7794        45.4118         0.0367          124.6       85.41475        78.2353         0.6393         0.6222        21.6735         0.9172           -2.4           -2.4              1      0.9657143
      6929.5000        13.7794        45.7647         0.0286          125.4       84.43251        77.6471         0.6278          0.611        21.6735         0.9173           -2.1           -2.1              1           0.97
      6930.0000        13.7794        45.8824         0.0204          125.2       83.12414        76.8627         0.6165            0.6         21.551         0.9174           -1.8           -1.8              1      0.9742857
      6930.5000        13.7794        45.8824         0.0163          125.8        82.1419        76.2745         0.6055         0.5946        21.7959         0.9087           -1.5           -1.5              1      0.9785714
      6931.0000        13.7402        46.1176         0.0122          125.8        81.4856        75.8824            0.6         0.5892        22.2857         0.8838           -1.2           -1.2              1      0.9828572
      6931.5000        13.7402        46.2353         0.0122            124       81.48109        75.8824         0.6055         0.5946        22.5306         0.8447           -1.5           -1.5              1      0.9785714
      6932.0000        13.7794        46.8235         0.0082          125.6       80.17271         75.098          0.611            0.6        22.6531         0.8524           -1.5           -1.5              1      0.9785714
      6932.5000        13.8186        47.0588         0.0041          127.2        78.8645        74.3137         0.6222         0.6055        22.6531         0.8838           -1.8           -1.8      0.9758404      0.9742857
      6933.0000        13.8186        46.9412              0            129       75.27487        72.1569         0.6335          0.611        22.5306         0.9262           -1.8           -1.8      0.8994654      0.9742857
      6933.5000        13.8186        46.7059        -0.0039          129.8       72.98878        70.7843         0.6451         0.6222        22.2857         0.9624           -1.8           -1.8      0.8508252      0.9742857
      6934.0000        13.8186        46.8235        -0.0039            129       71.33432        69.7917         0.6569         0.6278        22.0408         0.9717           -2.1           -2.1      0.8156238           0.97
      6934.5000        13.8186        47.2941              0          126.6       69.59825          68.75         0.6569         0.6393        22.0408         0.9624           -2.4           -2.4      0.7786862      0.9657143
      6935.0000        13.8186        47.8824         0.0041          123.8       69.59374          68.75         0.6629         0.6451        22.2857         0.9352           -2.7           -2.7      0.7785903      0.9614286
      6935.5000        13.8186          48.24         0.0082          123.6       72.64474        70.5882         0.6751          0.651        22.7755         0.9174             -3             -3       0.843505      0.9571428
      6936.0000        13.8186          48.24         0.0082          122.2       74.59583        71.7647          0.669          0.651        22.7755         0.9174           -3.3           -3.3      0.8850177      0.9528571
      6936.5000        13.8186           48.6         0.0082          121.2         75.895         72.549         0.6569         0.6451        22.7755         0.9174           -3.6           -3.6      0.9126595      0.9485714
      6937.0000        13.8186          48.84         0.0041          123.2       78.49786        74.1176          0.651         0.6393        22.5306         0.9174           -3.6           -3.6      0.9680396      0.9485714
      6937.5000        13.8186           49.2         0.0041          124.6        77.8416        73.7255         0.6451         0.6393        22.5306         0.9174           -3.6           -3.6      0.9540766      0.9485714
      6938.0000        13.8186          49.08              0            126       74.25179        71.5686         0.6451         0.6335        22.6531         0.9174           -3.6           -3.6      0.8776976      0.9485714
      6938.5000        13.8186           48.6              0          125.6       72.94358        70.7843         0.6451         0.6335        22.7755         0.9087           -3.6           -3.6      0.8498634      0.9485714
      6939.0000        13.8186          48.24              0            124       74.56873        71.7647          0.651         0.6278         22.898         0.9087           -3.6           -3.6       0.884441      0.9485714
      6939.5000        13.8186          48.12        -0.0039          123.2       76.51981        72.9412          0.651         0.6278        22.7755         0.9174           -4.2           -4.2      0.9259535           0.94
      6940.0000        13.8186        47.5294              0          122.8       77.49303        73.5294          0.651         0.6335        22.6531         0.9174           -4.5           -4.5      0.9466602      0.9357143
      6940.5000        13.8186        46.8264              0          122.6       78.45659        74.1118         0.6572         0.6395        22.4057         0.9174        -4.8061        -4.8061      0.9671615      0.9313414
      6941.0000        13.8186        46.2419         0.0041          122.8       79.73962        74.8864         0.6695         0.6515         22.279         0.9174        -5.1157        -5.1157      0.9944601      0.9269186
      6941.5000        13.8186        45.6563         0.0082            123       81.67461        76.0532          0.682         0.6637        22.2747         0.9174        -5.1255        -5.1255              1      0.9267786
      6942.0000        13.8186        45.1877         0.0122          122.8       83.93539         77.416         0.6948         0.6762        22.0264         0.9262        -5.1353        -5.1353              1      0.9266385
      6942.5000        13.8186        44.8363         0.0163          122.2       85.87036        78.5828         0.7081         0.6889        21.5341         0.9442         -5.145         -5.145              1         0.9265
