#------------------------------------------------------------------------------
# Created by    : vladimir.rabinovich
# Created on    : 09/19/2023 17:21:51
#------------------------------------------------------------------------------
~Version Information Section
VERS.           2.0     :   CWLS log ASCII Standard - VERSION 2.0
WRAP.           NO      :   One line per depth step
~Well Information Section
#MNEM       .UNIT                                         VALUE :DESCRIPTION
#------------------------------------------------------------------------------
STRT        .FT                                             692 :START DEPTH
STOP        .FT                                            6716 :STOP DEPTH
STEP        .FT                                             0.5 :STEP      
NULL        .                                           -999.25 :NULL      
COMP        .                                  FMP OPERATING CO :COMPANY   
WELL        .                                          SL 89457 :WELL      
FLD         .                                           WILDCAT :FIELD     
LOC         .                                                   :LOCATION  
CNTY        .                      MATAGORDA ISLAND LARGE BLOCK :LOCATION  
STAT        .                                             TEXAS :STATE     
CTRY        .                                     UNITED STATES :COUNTRY   
SRVC        .                                                   :SERVICE COMPANY
DATE        .                             9/13/2023 11:12:01 AM :LOG DATE  
API         .                                    42703303600000 :API NUMBER
UWI         .                                    42703303600000 :UNIQUE WELL ID
XCOORD      .                                  499223.886875127 :SURFACE X 
YCOORD      .                                  10221285.9321665 :SURFACE Y 
LAT         .                                        28.1205561 :LATITUDE  
LON         .                                       -96.5403272 :LONGITUDE 
ELEV        .FT                                              81 :ELEVATION VALUE
ELEV_TYPE   .                                                KB :ELEVATION REFERENCE TYPE
~Curve Information Section
#MNEM       .UNIT                                      API CODE :CURVE DESCRIPTION
#------------------------------------------------------------------------------
DEPT        .FT                                                 :DEPTH     
CALI        .IN                                                 :          
CILD        .MMHO                                               :          
DT          .US/F                                               :          
DTL         .US/F                                               :          
GR          .GAPI                                               :          
GR_NORM     .GAPI                                               :GammaRay Normalized
ILD         .OHMM                                               :          
ILM         .OHMM                                               :          
SFLU        .OHMM                                               :          
SP          .MV                                                 :          
SP_NORM     .MV                                                 :SP Normalized
TENS        .LBS                                                :          
VSH_GR      .V/V                                                :Volume of Shale from GR
VSH_SP      .V/V                                                :Volume of Shale from SP
~A        DEPTH           CALI           CILD             DT            DTL             GR        GR_NORM            ILD            ILM           SFLU             SP        SP_NORM           TENS         VSH_GR         VSH_SP
# ...
       890.0000        -999.25        -999.25        -999.25        -999.25        23.5525        58.0439        -999.25        -999.25        -999.25        -999.25        -999.25        980.981       0.532849        -999.25
       890.5000        -999.25        -999.25        -999.25        -999.25        24.1506       58.99332        -999.25        -999.25        -999.25        -999.25              0       1001.001      0.5530493              1
       891.0000        23.2832        -999.25       154.8649       187.6977        26.1551       62.25286       2018.524        -999.25         0.2056       -41.4557        -0.3145       1001.506      0.6224012              1
       891.5000        23.4272        -999.25       182.6927       186.4965        29.5651       67.82106       2018.524        -999.25         0.3001       -32.7259        -0.6289       1002.011      0.7408736              1
       892.0000        23.4912         6.9969       196.6066       183.7938        32.1664        72.0609       1927.587        -999.25         0.7151       -30.9232        -0.9434       1002.516      0.8310829              1
       892.5000        23.5072        26.9782       197.4074       165.5756        32.7668       73.01391       1435.112        -999.25         1.0562       -26.9211        -1.2579       1003.021      0.8513597              1
       893.0000        23.5072        46.9594       189.8999       168.5786        34.1674       75.28149       795.4806         0.9733         1.0417       -24.7084        -1.5723       1003.526      0.8996063              1
       893.5000        23.5072       1337.452       171.8819       175.7877         35.568       77.54908         0.7338         0.7012         0.9142       -23.3078        -1.8868       1004.031      0.9478528              1
       894.0000        23.5072       1650.048       171.3481       189.1992        38.8748       82.94776         0.6159          0.645         0.7756        -22.108        -2.2013       1004.537              1              1
       894.5000        23.5072       1641.973       174.6847       192.9029        40.2901       85.23951          0.657         0.6216         0.7684       -20.2074        -2.5157       1005.042              1              1
       895.0000        23.5072        1407.25       179.4905       196.6066        42.8755       89.45322         0.8466         0.6754         0.8361       -20.0081        -2.8302       1005.547              1              1
       895.5000        23.5072       1068.651       184.6947       198.2082        45.5866       93.87342         0.8881         0.7372         0.8971       -19.1443        -3.1447       1006.052              1      0.9868454
       896.0000         23.504       1054.502       189.6883       197.6076        45.7824       94.16202         0.9326         0.7756         0.9857       -18.2805        -3.4591       1006.557              1      0.9582636
       896.5000         23.504       1048.522       189.1191       192.4024        44.4698       91.97293         0.9326         0.9013         0.8988       -17.4167        -3.7736       1007.062              1      0.9296727
       897.0000         23.504       1052.472       178.4996       186.3964        43.1573       89.78403         0.9294         0.8955         0.9365       -16.8169        -4.0881       1007.567              1      0.9010818
       897.5000          23.52       1060.429       166.4965       178.0881        42.1544       88.10368         0.9262         0.8906         0.9857       -16.5207        -4.4025       1008.072              1         0.8725
       898.0000          23.52       1068.386       163.6937        165.976        42.6499       88.88456         0.9241         0.8824         0.9811       -15.9233         -4.717       1008.577              1      0.8439091
       898.5000          23.52       1048.287       165.8959        167.978        40.6073       85.49641         0.9283         0.8824         0.8703       -15.7276        -5.0314       1009.082              1      0.8153272
       899.0000          23.52        1024.18       167.0971       169.0791        39.2267       83.19563         0.9707         0.8743         0.8039       -15.5318        -5.3459       1009.587              1      0.7867364
       899.5000          23.52       1000.073       167.0971       168.5786        39.2232       83.15688          1.015         0.8824         0.7544       -15.5368        -5.6604       1010.093              1      0.7581455
       900.0000        23.5168       991.9987       166.0961       166.2103        39.4165       83.44136         1.0321         0.8824         0.7792       -15.4414        -5.9748       1010.598              1      0.7295637
       900.5000        23.5168       991.9399       160.4098       162.4406         39.119       82.91968         0.9968         0.8824         0.8152       -15.7396        -6.2893       1011.103              1      0.7009727
       901.0000        23.5168       1048.806       157.8823       157.4619        35.9103        77.6161         0.9628         0.8828         0.8707       -16.0428        -6.6038       1011.406      0.9492787      0.6723818
       901.5000          23.52       1088.015       158.4801       157.3599        31.6472       70.58057         0.9299         0.8829         0.8911       -16.3432        -6.9182       1011.709      0.7995867         0.6438
       902.0000          23.52        1099.98       159.2781       158.9379        30.6966       68.98611         0.8996         0.8455         0.8551        -17.045        -7.2327       1012.013       0.765662      0.6152091
       902.5000        23.5008       1079.881       161.8771       160.7561        30.7123       68.97889         0.9165         0.8056         0.7764       -17.1445        -7.5472       1000.052      0.7655083      0.5866182
       903.0000        23.5008        1063.82       160.4736       160.6549        31.2066       69.75781         0.9695         0.8019         0.7314       -17.2441        -5.9233       1029.394      0.7820811      0.7342455
       903.5000        23.4976        1025.96       155.8667       152.9436         31.396       70.03592         1.0089         0.8443         0.7486       -17.1429        -5.8221        1039.87      0.7879983      0.7434455
       904.0000        23.4976       988.1005       143.9413       144.7349        31.4106       70.02688         1.0498         0.8889          0.795       -16.8411        -5.5203       1042.425      0.7878059      0.7708818
       904.5000        23.4976       950.2409       131.0403        128.618        31.4163       70.00322         1.0923         0.9358         0.9784       -16.3386        -5.0178       1044.979      0.7873026      0.8165637
       905.0000        23.4944       912.3814        124.432       121.6099        32.1847       71.23236         1.1367         0.9852         1.1237       -15.8361        -4.5153       1047.534      0.8134545      0.8622455
       905.5000        23.4944       874.5219       124.8306       127.7123        33.2304       72.91699         1.1828         1.0345          1.177       -15.0328         -3.712       1050.088      0.8492977      0.9352728
       906.0000        23.4944       810.8736       139.0382       132.8147        34.4377       74.86707         1.2327         1.0599          1.161       -14.7312        -3.4104       1052.642      0.8907886      0.9626909
       906.5000        23.4912       806.8068       151.6465       144.5174        37.0492       79.12366         1.2217         1.0254         0.9481       -14.5299        -3.2091       1055.197      0.9813546      0.9809909
       907.0000        23.4912       836.1734       160.2498       159.0289        37.9552       80.57883         1.1965         0.9976         0.8258       -14.6296        -3.3088       1058.502              1      0.9719273
       907.5000        23.4912       865.5401       167.6331        165.032        37.1553       79.23191         1.1671         0.9617         0.7744       -14.7293        -3.4085       1058.429      0.9836577      0.9628636
