#------------------------------------------------------------------------------
# Created by    : vladimir.rabinovich
# Created on    : 09/19/2023 17:21:25
#------------------------------------------------------------------------------
~Version Information Section
VERS.           2.0     :   CWLS log ASCII Standard - VERSION 2.0
WRAP.           NO      :   One line per depth step
~Well Information Section
#MNEM       .UNIT                                         VALUE :DESCRIPTION
#------------------------------------------------------------------------------
STRT        .FT                                            2957 :START DEPTH
STOP        .FT                                            7390 :STOP DEPTH
STEP        .FT                                             0.5 :STEP      
NULL        .                                           -999.25 :NULL      
COMP        .                              DEVON LOUISIANA CORP :COMPANY   
WELL        .                               OCS G09039 ST00BP00 :WELL      
FLD         .                              GALVESTON BLOCK 0273 :FIELD     
LOC         .                                                   :LOCATION  
CNTY        .                             GALVESTON LARGE BLOCK :LOCATION  
STAT        .                                             TEXAS :STATE     
CTRY        .                                     UNITED STATES :COUNTRY   
SRVC        .                                                   :SERVICE COMPANY
DATE        .                             9/13/2023 11:19:54 AM :LOG DATE  
API         .                                    42706403330000 :API NUMBER
UWI         .                                    42706403330000 :UNIQUE WELL ID
XCOORD      .                                  1020560.14583294 :SURFACE X 
YCOORD      .                                  10500181.0477632 :SURFACE Y 
LAT         .                                        28.9197225 :LATITUDE  
LON         .                                       -94.9380297 :LONGITUDE 
ELEV        .FT                                              98 :ELEVATION VALUE
ELEV_TYPE   .                                                KB :ELEVATION REFERENCE TYPE
~Curve Information Section
#MNEM       .UNIT                                      API CODE :CURVE DESCRIPTION
#------------------------------------------------------------------------------
DEPT        .FT                                                 :DEPTH     
CALI        .IN                                                 :          
DCAL        .IN                                                 :          
DPHI        .%                                                  :          
DRHO        .G/C3                                               :          
GR          .GAPI                                               :          
GR_NORM     .GAPI                                               :GammaRay Normalized
ILD         .OHMM                                               :          
ILM         .OHMM                                               :          
LL3         .OHMM                                               :          
NPHI        .%                                                  :          
SP          .MV                                                 :          
SP_NORM     .MV                                                 :SP Normalized
VSH_GR      .V/V                                                :Volume of Shale from GR
VSH_SP      .V/V                                                :Volume of Shale from SP
~A        DEPTH           CALI           DCAL           DPHI           DRHO             GR        GR_NORM            ILD            ILM            LL3           NPHI             SP        SP_NORM         VSH_GR         VSH_SP
# ...
      6485.0000        10.2143         0.2943        16.3622         0.0752        73.1729       64.41473         0.7765         0.8603         0.9469        26.3314       -27.9232      -9.151564      0.6683984      0.8692634
      6485.5000        10.2221         0.2903        16.3735         0.0777        74.6042       66.05596         0.7997         0.8838         0.8691        26.3904       -25.7162      -6.946968      0.7033184      0.9007576
      6486.0000        10.2294         0.2665        16.6214         0.0744        74.7729       66.24941         0.8069         0.8991         1.0803        27.2497       -25.0193      -6.252472      0.7074343       0.910679
      6486.5000        10.2197         0.2388        16.9365         0.0761        74.1212       65.50212         0.7993         0.8944          1.768           28.2       -25.2654      -6.500977      0.6915345      0.9071289
      6487.0000        10.1824         0.1907        17.1968         0.0841        75.3711       66.93534         0.7871         0.8725         1.1184        28.7081       -25.4654      -6.703381      0.7220286      0.9042374
      6487.5000        10.1292          0.139        17.4127         0.0922        79.1373       71.25391         0.7804         0.8459         1.0375         29.119       -25.2203      -6.460686       0.813913      0.9077045
      6488.0000        10.0899         0.0916        17.6881         0.0917        83.4353       76.18229         0.7791         0.8247         0.9377        29.7944       -24.6501      -5.892891      0.9187721      0.9158158
      6488.5000        10.0653         0.0916        18.3634         0.0785        87.1621       80.45568         0.7782          0.811         0.8755        33.1267        -24.119      -5.364193              1      0.9233687
      6489.0000        10.0464         0.0916        19.3958         0.0659        88.8613       82.40409         0.7743         0.8038         0.8613        36.8505       -23.8125      -5.060099              1      0.9277129
      6489.5000        10.0319         0.0916        20.6429         0.0581        88.1344       81.57059          0.768         0.8008         0.8731        40.5593       -23.6002      -4.850203              1      0.9307114
      6490.0000        10.0247         0.0932        21.7274         0.0563        85.7319       78.81572         0.7624         0.8006         0.8764        42.9427       -23.4545      -4.706907      0.9748026      0.9327585
      6490.5000        10.0292         0.1027        22.3524         0.0616        84.0002       76.83003           0.76         0.8019         0.8716        43.6102       -23.3714      -4.626213      0.9325539      0.9339113
      6491.0000        10.0375         0.1162         22.453         0.0682        83.1644       75.87164         0.7609         0.8039         0.8851        43.6584       -23.2986      -4.555815      0.9121626      0.9349169
      6491.5000        10.0588         0.1534        22.3481         0.0707        84.5381       77.44684          0.765         0.8071         0.8533        43.2139       -23.0885       -4.34812      0.9456774       0.937884
      6492.0000        10.0858         0.1976        22.2638         0.0672        87.3567       80.67882         0.7712         0.8118          0.861        42.5564       -22.8196      -4.081625              1      0.9416911
      6492.5000        10.1226         0.1779        22.3649         0.0609         88.964       82.52186         0.7782         0.8174         0.8583        41.7084       -22.7061       -3.97053              1      0.9432781
      6493.0000        10.1432         0.1533        22.5608         0.0561        89.8899       83.58356         0.7854          0.823         0.8695        41.4415       -22.7823      -4.049135              1      0.9421552
      6493.5000        10.0955         0.1208        22.7644         0.0587        89.9823       83.68951          0.793         0.8286         0.8736        42.1955       -23.0389      -4.308138              1      0.9384552
      6494.0000        10.0432         0.0662        22.8706         0.0711        89.6865       83.35033         0.8013         0.8345         0.8638        43.4343       -23.4548      -4.726442              1      0.9324794
      6494.5000         9.9878         0.0164        22.7078         0.0832        88.4421       81.92342         0.8102          0.842          0.883         45.196       -23.7224      -4.996449              1      0.9286222
      6495.0000         9.9547         0.0672          22.51         0.0909        86.7511        79.9844         0.8188         0.8508         0.8962        46.2301       -23.7362      -5.012651      0.9996681      0.9283907
      6495.5000        10.0564         0.2169         22.313         0.0912        85.9486        79.0642         0.8275           0.86          0.901        46.6171       -23.7719      -5.050756      0.9800894      0.9278463
      6496.0000        10.2393         0.4315        22.0909         0.0845        85.5135       78.56528         0.8379         0.8685         0.9124        46.5721       -24.0907      -5.371962      0.9694741      0.9232577
      6496.5000        10.4631         0.6787         22.066          0.077        85.7938        78.8867         0.8505         0.8759         0.9151        46.1584       -24.6744      -5.958065      0.9763128      0.9148848
      6497.0000        10.7206         0.9483        22.1588          0.073        85.5563       78.61436         0.8638         0.8829         0.9249        45.1467       -25.4046       -6.69067      0.9705182       0.904419
      6497.5000        10.9812         1.1872        22.2091          0.073        84.9012       77.86319         0.8753         0.8915         0.9448        43.4119       -25.9664      -7.254873       0.954536       0.896359
      6498.0000        11.1831         1.3035        21.9922          0.072        83.8052       76.60643         0.8834         0.9029          0.951        41.6755       -26.1982      -7.489079      0.9277964      0.8930132
      6498.5000        11.2605         1.3509        21.7114         0.0711        83.7714       76.56768         0.8874         0.9156         0.9579        40.0587       -26.1748      -7.468084      0.9269719      0.8933131
      6499.0000        11.2802         1.3469        21.4082          0.066        82.9036       75.57261         0.8892         0.9246         0.9706        38.8827       -26.0621      -7.357786      0.9058002      0.8948888
      6499.5000        11.2712         1.3235        21.1995         0.0587        82.2605       74.83518         0.8898         0.9249         1.0074        38.4807       -25.8867      -7.184792      0.8901103      0.8973601
      6500.0000        11.2604         1.3136        21.1418         0.0529        81.7006       74.19317         0.8892         0.9167              1        38.5341       -25.8307      -7.131197      0.8764504      0.8981258
      6500.5000         11.254         1.3534         21.255          0.057        81.3169       73.75319         0.8875          0.905         0.9649         39.628       -25.8844        -7.1873      0.8670892      0.8973243
      6501.0000        11.3101         1.4183        21.3873         0.0674        81.8943       74.41528         0.8844         0.8946         0.9514        40.5864       -26.0374      -7.342705      0.8811761      0.8951042
      6501.5000         11.418         1.5087        21.1553         0.0787        82.9934       75.67557         0.8785         0.8864         0.9299        41.6317       -26.1339      -7.441608      0.9079908      0.8936913
      6502.0000        11.5176         1.6305        20.8961         0.0826        84.0925       76.93587         0.8695         0.8786         0.9099        42.5904       -26.0957      -7.405813      0.9348059      0.8942026
      6502.5000        11.5713         1.6585        20.8547          0.076        84.8193       77.76927         0.8586         0.8701         0.9253        43.2394       -25.8539       -7.16642      0.9525377      0.8976226
