#------------------------------------------------------------------------------
# Created by    : vladimir.rabinovich
# Created on    : 09/19/2023 17:22:29
#------------------------------------------------------------------------------
~Version Information Section
VERS.           2.0     :   CWLS log ASCII Standard - VERSION 2.0
WRAP.           NO      :   One line per depth step
~Well Information Section
#MNEM       .UNIT                                         VALUE :DESCRIPTION
#------------------------------------------------------------------------------
STRT        .FT                                             272 :START DEPTH
STOP        .FT                                            9222 :STOP DEPTH
STEP        .FT                                             0.5 :STEP      
NULL        .                                           -999.25 :NULL      
COMP        .                   MCMORAN OFFSHORE EXPLORATION CO :COMPANY   
WELL        .                               OCS G03108 ST00BP00 :WELL      
FLD         .                       MATAGORDA ISLAND BLOCK 0700 :FIELD     
LOC         .                                                   :LOCATION  
CNTY        .                      MATAGORDA ISLAND LARGE BLOCK :LOCATION  
STAT        .                                             TEXAS :STATE     
CTRY        .                                     UNITED STATES :COUNTRY   
SRVC        .                                                   :SERVICE COMPANY
DATE        .                             9/13/2023 11:12:09 AM :LOG DATE  
API         .                                    42703400850000 :API NUMBER
UWI         .                                    42703400850000 :UNIQUE WELL ID
XCOORD      .                                  483045.974763742 :SURFACE X 
YCOORD      .                                  10146137.6323278 :SURFACE Y 
LAT         .                                         27.912878 :LATITUDE  
LON         .                                       -96.5835889 :LONGITUDE 
ELEV        .FT                                              85 :ELEVATION VALUE
ELEV_TYPE   .                                                KB :ELEVATION REFERENCE TYPE
~Curve Information Section
#MNEM       .UNIT                                      API CODE :CURVE DESCRIPTION
#------------------------------------------------------------------------------
DEPT        .FT                                                 :DEPTH     
CILD        .MMHO                                               :          
DT          .US/F                                               :          
GR          .GAPI                                               :          
GR_NORM     .GAPI                                               :GammaRay Normalized
ILD         .OHMM                                               :          
ILM         .OHMM                                               :          
SFL         .OHMM                                               :          
SP          .MV                                                 :          
SP_NORM     .MV                                                 :SP Normalized
VSH_GR      .V/V                                                :Volume of Shale from GR
VSH_SP      .V/V                                                :Volume of Shale from SP
~A        DEPTH           CILD             DT             GR        GR_NORM            ILD            ILM            SFL             SP        SP_NORM         VSH_GR         VSH_SP
# ...
      3849.5000        2262.32       109.0901        -999.25        -999.25         0.4411         0.4994         0.7768       -60.3486       -33.9335        -999.25      0.4494224
      3850.0000       1975.971       107.0422        -999.25        -999.25          0.501         0.5494         0.8042       -56.5481        -30.133        -999.25      0.5149483
      3850.5000        1771.73       105.2748        -999.25        -999.25         0.5863         0.6176         0.8432       -53.5105       -27.0954        -999.25      0.5673207
      3851.0000       1538.439       103.9785        -999.25        -999.25         0.6645         0.6847         0.8853       -51.8475       -25.4324        -999.25      0.5959931
      3851.5000       1373.131       103.1744        -999.25        -999.25         0.7218         0.7346         0.9191       -50.7719       -24.3568        -999.25       0.614538
      3852.0000       1282.521       103.6987        -999.25        -999.25         0.7669         0.7742         0.9375       -50.0434       -23.6283        -999.25      0.6270983
      3852.5000       1224.014       105.1636        -999.25        -999.25         0.7907         0.7991         0.9432       -49.5387       -23.1236        -999.25         0.6358
      3853.0000       1208.951       106.8434        -999.25        -999.25         0.7954         0.7992         0.9424       -49.3462       -22.9311        -999.25       0.639119
      3853.5000       1225.928        108.391        -999.25        -999.25         0.7922         0.7978         0.9347       -50.1583       -23.7432        -999.25      0.6251172
      3854.0000       1276.643       109.6755        -999.25        -999.25         0.7716         0.7669         0.9158       -52.0273       -25.6122        -999.25      0.5928931
      3854.5000       1360.037       110.6976        -999.25        -999.25         0.7206         0.7325         0.8863       -54.5955       -28.1804        -999.25      0.5486138
      3855.0000       1457.811       111.1761        -999.25        -999.25         0.6668         0.7009         0.8497         -57.08       -30.6649        -999.25      0.5057776
      3855.5000       1568.379       111.1455        -999.25        -999.25         0.6124         0.6743         0.8237       -60.4809       -34.0658        -999.25      0.4471414
      3856.0000       1697.523       110.8158        -999.25        -999.25         0.5675         0.6437         0.8043       -63.0316       -36.6165        -999.25      0.4031638
      3856.5000        1838.23       110.6444        -999.25        -999.25         0.5387         0.6192         0.7963       -65.4249       -39.0098        -999.25         0.3619
      3857.0000        1906.73       110.7258        -999.25        -999.25         0.5192         0.6021         0.7997       -67.2515       -40.8364        -999.25      0.3304069
      3857.5000       1950.502       110.9062        -999.25        -999.25          0.506         0.5928         0.8112       -69.2104       -42.7953        -999.25      0.2966328
      3858.0000       1996.055       109.7262        -999.25        -999.25         0.4964         0.5888         0.8386       -72.7711        -46.356        -999.25      0.2352414
      3858.5000       2048.621       107.7191        -999.25        -999.25         0.4881         0.5873         0.9122       -75.2257       -48.8106        -999.25      0.1929207
      3859.0000       2095.137       105.9244        -999.25        -999.25          0.479         0.5864         0.9921       -77.5717       -51.1566        -999.25      0.1524724
      3859.5000       2142.391       103.9495        -999.25        -999.25         0.4684         0.5773         1.0746       -79.2908       -52.8757        -999.25      0.1228327
      3860.0000       2170.984       101.7595        -999.25        -999.25         0.4603         0.5533          1.055       -79.7108       -53.2957        -999.25      0.1155914
      3860.5000       2174.375        98.7582        -999.25        -999.25         0.4543          0.533         0.9704       -79.1687       -52.7536        -999.25      0.1249379
      3861.0000       2183.133        96.0471        -999.25        -999.25         0.4512         0.5197         0.9042       -78.8975       -52.4824        -999.25      0.1296138
      3861.5000       2229.367         93.671        -999.25        -999.25         0.4464         0.5144         0.8581        -79.528       -53.1129        -999.25      0.1187431
      3862.0000        2307.23        96.3362        -999.25        -999.25         0.4337         0.5119         0.8523       -80.4719       -54.0568        -999.25       0.102469
      3862.5000       2426.051       102.1412        -999.25        -999.25         0.4136          0.506         0.8799       -81.7598       -55.3447        -999.25     0.08026379
      3863.0000       2575.156       108.0452        -999.25        -999.25         0.3925         0.4891         0.9099       -82.2261        -55.811        -999.25     0.07222413
      3863.5000       2701.285       111.9185        -999.25        -999.25         0.3743         0.4612         0.9279       -81.5134       -55.0983        -999.25     0.08451205
      3864.0000       2792.883       112.3854        -999.25        -999.25         0.3588         0.4332         0.8581       -82.7441        -56.329        -999.25     0.06329313
      3864.5000       2857.926       110.2881        -999.25        -999.25          0.347         0.4117         0.7503       -85.8118       -59.3967        -999.25     0.01040169
      3865.0000       2920.301       105.5897        -999.25        -999.25         0.3376         0.3989         0.6581       -87.7301        -61.315        -999.25              0
      3865.5000       3034.375       103.2726        -999.25        -999.25         0.3316         0.3969         0.6003       -88.6832       -62.2681        -999.25              0
      3866.0000       3158.137        102.358        -999.25        -999.25          0.317         0.3955         0.6268       -87.8693       -61.4542        -999.25              0
      3866.5000       3278.387       105.3748        -999.25        -999.25         0.3055         0.3947         0.7124       -85.9828       -59.5677        -999.25    0.007453458
      3867.0000       3312.426       108.3984        -999.25        -999.25         0.3011         0.3867         0.7564       -83.9614       -57.5463        -999.25     0.04230519
      3867.5000       3317.699       111.1428        -999.25        -999.25         0.2988         0.3698         0.7156       -84.6968       -58.2817        -999.25     0.02962586
      3868.0000       3318.848       112.5774        -999.25        -999.25         0.2968          0.351         0.6305       -85.8826       -59.4675        -999.25    0.009181055
      3868.5000       3315.035       112.7762        -999.25        -999.25         0.2956         0.3454         0.6013       -85.6785       -59.2634        -999.25     0.01269998
      3869.0000       3290.246       111.4541        -999.25        -999.25         0.2967         0.3464         0.5982       -85.2705       -58.8554        -999.25     0.01973448
      3869.5000       3190.348       109.4321        -999.25        -999.25          0.305         0.3498         0.6088       -84.9827       -58.5676        -999.25     0.02469655
      3870.0000       3046.184       107.7119        -999.25        -999.25         0.3205          0.367         0.6806       -83.4639       -57.0488        -999.25     0.05088273
      3870.5000        2906.07       109.5458        -999.25        -999.25         0.3352         0.3866         0.7738       -82.1449       -55.7298        -999.25     0.07362412
      3871.0000       2797.973       111.9259        -999.25        -999.25         0.3474          0.399         0.7767       -78.8002       -52.3851        -999.25      0.1312914
      3871.5000       2762.352       114.4332        -999.25        -999.25         0.3549          0.402         0.7339       -77.7388       -51.3237        -999.25      0.1495914
