#------------------------------------------------------------------------------
# Created by    : vladimir.rabinovich
# Created on    : 09/19/2023 17:20:01
#------------------------------------------------------------------------------
~Version Information Section
VERS.           2.0     :   CWLS log ASCII Standard - VERSION 2.0
WRAP.           NO      :   One line per depth step
~Well Information Section
#MNEM       .UNIT                                         VALUE :DESCRIPTION
#------------------------------------------------------------------------------
STRT        .FT                                            3470 :START DEPTH
STOP        .FT                                           12708 :STOP DEPTH
STEP        .FT                                             0.5 :STEP      
NULL        .                                           -999.25 :NULL      
COMP        .                                     INEXCO OIL CO :COMPANY   
WELL        .                                     ST TR 00794-L :WELL      
FLD         .                                       BLOCK 794-L :FIELD     
LOC         .                                                   :LOCATION  
CNTY        .                        MUSTANG ISLAND LARGE BLOCK :LOCATION  
STAT        .                                             TEXAS :STATE     
CTRY        .                                     UNITED STATES :COUNTRY   
SRVC        .                                                   :SERVICE COMPANY
DATE        .                             9/13/2023 11:18:55 AM :LOG DATE  
API         .                                    42702301710000 :API NUMBER
UWI         .                                    42702301710000 :UNIQUE WELL ID
XCOORD      .                                  319607.894357718 :SURFACE X 
YCOORD      .                                   10038241.944616 :SURFACE Y 
LAT         .                                        27.6026524 :LATITUDE  
LON         .                                       -97.0775955 :LONGITUDE 
ELEV        .FT                                               0 :ELEVATION VALUE
ELEV_TYPE   .                                                GL :ELEVATION REFERENCE TYPE
~Curve Information Section
#MNEM       .UNIT                                      API CODE :CURVE DESCRIPTION
#------------------------------------------------------------------------------
DEPT        .FT                                                 :DEPTH     
ASFL        .OHMM                                               :          
CILD        .MMHO                                               :          
DT          .US/F                                               :          
GR          .GAPI                                               :          
GR_NORM     .GAPI                                               :GammaRay Normalized
ILD         .OHMM                                               :          
ILM         .OHMM                                               :          
SP          .MV                                                 :          
SP_NORM     .MV                                                 :SP Normalized
VSH_GR      .V/V                                                :Volume of Shale from GR
VSH_SP      .V/V                                                :Volume of Shale from SP
~A        DEPTH           ASFL           CILD             DT             GR        GR_NORM            ILD            ILM             SP        SP_NORM         VSH_GR         VSH_SP
# ...
     12087.5000         0.7455       1631.416       114.7582        70.9521       85.72372         0.5674         0.6404       -42.0399      -1.104229              1      0.9964059
     12088.0000         0.7513       1616.121       113.5532        69.3506       83.04166         0.5711         0.6421       -42.0695      -1.133827              1      0.9953853
     12088.5000         0.7582       1605.641       112.3801        67.7955        80.4406         0.5748         0.6431        -42.095      -1.159328              1      0.9945059
     12089.0000          0.765       1597.471       111.4128         66.399       78.11632         0.5772         0.6442       -42.0848      -1.149128      0.9599217      0.9948577
     12089.5000         0.7718       1594.332       111.2646        65.0002       75.78801          0.579         0.6453       -42.0747      -1.139027      0.9103832       0.995206
     12090.0000         0.7505       1591.195       112.0593        64.3838       74.82518         0.5809         0.6473       -42.0646      -1.128929      0.8898975      0.9955541
     12090.5000         0.7242       1588.059       113.1957        66.5211       78.66814         0.5827         0.6497       -42.0544      -1.118729      0.9716625      0.9959059
     12091.0000          0.726       1584.916        114.479        68.6354       82.47094         0.5827         0.6509       -41.9936      -1.057926              1      0.9980025
     12091.5000         0.7361       1581.779       114.6232        70.7495       86.27343         0.5807         0.6521       -41.9065      -0.970829              1              1
     12092.0000         0.7455        1578.91       113.9034        71.2948       87.33803         0.5787         0.6516       -41.8193     -0.8836288              1              1
     12092.5000         0.7548       1576.266       112.5295        71.3274       87.50784         0.5767         0.6472       -41.7311     -0.7954254              1              1
     12093.0000         0.7567       1599.367       111.6871        71.1487       87.30887         0.5754         0.6388       -41.5658      -0.630127              1              1
     12093.5000         0.7426       1619.355       111.3256        70.3284       85.99018         0.5746         0.6328       -41.4001     -0.4644279              1              1
     12094.0000         0.7285       1639.344       111.4226        69.5081       84.67149         0.5737         0.6266       -41.2344     -0.2987289              1              1
     12094.5000         0.7144       1659.332       112.0116        68.6879       83.35298         0.5729         0.6198       -41.0659     -0.1302261              1              1
     12095.0000         0.7016        1679.32       112.8259        67.7858       81.89151         0.5713         0.6153       -40.8871     0.04857254              1              1
     12095.5000         0.6907       1699.262       113.7688        66.6603        80.0402         0.5651         0.6111       -40.7086      0.2270737              1              1
     12096.0000         0.6833       1714.313       114.5892        65.5325       78.18485          0.559         0.6076       -40.5297      0.4059715      0.9613798              1
     12096.5000         0.6894       1728.102       114.9314        69.7437       85.64723         0.5528          0.604       -40.3556      0.5800743              1              1
     12097.0000         0.6947       1741.865       115.0458         71.731       89.22841         0.5466         0.6005        -40.371      0.5646744              1              1
     12097.5000         0.6999       1755.652       114.8818        73.2091       91.92091         0.5406         0.5978       -40.3865      0.5491714              1              1
     12098.0000         0.6976       1769.416       114.7604        73.8134       93.08848         0.5373         0.5936       -40.4019      0.5337715              1              1
     12098.5000          0.695       1780.383       115.5957        74.3895       94.20681          0.534         0.5888       -40.4174      0.5182724              1              1
     12099.0000         0.6915       1790.863       116.3538        75.0779       95.52113         0.5306         0.5855       -40.4562      0.4794731              1              1
     12099.5000         0.6848       1792.287       117.0211        74.2357       94.16421          0.536         0.5829       -40.5343       0.401371              1              1
     12100.0000         0.6781       1784.201       117.1273        72.6805       91.56295         0.5482         0.5807       -40.6123      0.3233719              1              1
     12100.5000         0.6714       1776.115       117.0021        71.1206        88.9535         0.5604         0.5807       -40.6902       0.245472              1              1
     12101.0000         0.6647        1758.74       116.8114        69.5605       86.34373         0.5725         0.5825       -40.7412      0.1944733              1              1
     12101.5000          0.658       1738.801       116.6445        68.2594       84.18594         0.5847         0.5852       -40.7525      0.1831741              1              1
     12102.0000          0.658       1718.861       116.4241        70.0024       87.34075         0.5979         0.5896       -40.7638      0.1718712              1              1
     12102.5000         0.6615        1698.92       116.1664        71.1157       89.39661         0.6134         0.5968        -40.754      0.1816711              1              1
     12103.0000          0.665       1678.932       115.9591        72.0287       91.10291         0.6289         0.6062       -40.6704       0.265274              1              1
     12103.5000         0.6685       1660.549       115.7822        72.9442       92.81355         0.6445         0.6154        -40.587       0.348671              1              1
     12104.0000         0.6747       1642.311       115.3888        74.0306       94.82248           0.66         0.6215       -40.5318      0.4038734              1              1
     12104.5000         0.6858       1624.072       114.3517        76.0911       98.53142         0.6747         0.6223       -40.4814      0.4542732              1              1
     12105.0000         0.6969       1605.787       113.2728        78.0442       102.0529         0.6813         0.6197       -40.4312      0.5044746              1              1
     12105.5000         0.7136       1606.248       112.6741        79.0499        103.921         0.6659         0.6168       -40.4149       0.520771              1              1
     12106.0000         0.7286        1616.51       113.1075        77.0432       100.5318         0.6505         0.6137       -40.4139      0.5217743              1              1
     12106.5000         0.7196       1626.748       113.8864        75.5442        98.0286         0.6361         0.6085        -40.413      0.5226746              1              1
     12107.0000         0.7106       1638.322       114.7312        74.0477       95.52979         0.6244         0.6013        -40.412       0.523674              1              1
     12107.5000          0.703       1650.699       115.4525        72.4877       92.92017         0.6127         0.5956       -40.4406      0.4950714              1              1
     12108.0000         0.6954       1663.078       115.7843        70.7886       90.06777          0.601         0.5898       -40.4808      0.4548721              1              1
     12108.5000         0.6922       1675.455       115.6692        69.4751       87.88834         0.5961         0.5888       -40.5211      0.4145737              1              1
     12109.0000         0.6932       1687.832       115.3973        68.3815       86.09269         0.5951         0.5946       -40.5612      0.3744736              1              1
     12109.5000         0.6942       1700.209       115.0558        67.3488       84.40331         0.5941         0.5998        -40.425      0.5106735              1              1
