#------------------------------------------------------------------------------
# Created by    : vladimir.rabinovich
# Created on    : 09/19/2023 17:22:51
#------------------------------------------------------------------------------
~Version Information Section
VERS.           2.0     :   CWLS log ASCII Standard - VERSION 2.0
WRAP.           NO      :   One line per depth step
~Well Information Section
#MNEM       .UNIT                                         VALUE :DESCRIPTION
#------------------------------------------------------------------------------
STRT        .FT                                            3080 :START DEPTH
STOP        .FT                                           13004 :STOP DEPTH
STEP        .FT                                             0.5 :STEP      
NULL        .                                           -999.25 :NULL      
COMP        .                                     INEXCO OIL CO :COMPANY   
WELL        .                                     ST TR 00006-L :WELL      
FLD         .                                           WILDCAT :FIELD     
LOC         .                                                   :LOCATION  
CNTY        .                           HIGH ISLAND LARGE BLOCK :LOCATION  
STAT        .                                             TEXAS :STATE     
CTRY        .                                     UNITED STATES :COUNTRY   
SRVC        .                                                   :SERVICE COMPANY
DATE        .                             9/13/2023 11:19:15 AM :LOG DATE  
API         .                                    42708302350000 :API NUMBER
UWI         .                                    42708302350000 :UNIQUE WELL ID
XCOORD      .                                  1306008.37969423 :SURFACE X 
YCOORD      .                                  10751503.0860356 :SURFACE Y 
LAT         .                                          29.62091 :LATITUDE  
LON         .                                         -94.05279 :LONGITUDE 
ELEV        .FT                                              84 :ELEVATION VALUE
ELEV_TYPE   .                                                KB :ELEVATION REFERENCE TYPE
~Curve Information Section
#MNEM       .UNIT                                      API CODE :CURVE DESCRIPTION
#------------------------------------------------------------------------------
DEPT        .FT                                                 :DEPTH     
DT          .US/F                                               :          
GR          .GAPI                                               :          
GR_NORM     .GAPI                                               :GammaRay Normalized
ILD         .OHMM                                               :          
SFL         .OHMM                                               :          
SP          .MV                                                 :          
SP_NORM     .MV                                                 :SP Normalized
VSH_GR      .V/V                                                :Volume of Shale from GR
VSH_SP      .V/V                                                :Volume of Shale from SP
~A        DEPTH             DT             GR        GR_NORM            ILD            SFL             SP        SP_NORM         VSH_GR         VSH_SP
# ...
     11003.5000        -999.25        50.2903       83.36603         0.3202         0.4297       -39.9693     0.03070068              1              1
     11004.0000        -999.25        50.6743       84.16429         0.3219         0.4365       -39.7023       0.297699              1              1
     11004.5000        -999.25        51.9957       86.92249         0.3212         0.4465       -39.8779      0.1221008              1              1
     11005.0000        -999.25        53.6106       90.29427         0.3205         0.4545       -40.2172     -0.2172012              1              1
     11005.5000        -999.25        53.9811       91.06433         0.3195         0.4586       -40.9295     -0.9295006              1              1
     11006.0000        -999.25        53.7939       90.66843         0.3186         0.4585       -41.0678      -1.067799              1      0.9990838
     11006.5000        -999.25        53.4284       89.89968         0.3227         0.4472       -40.4863     -0.4863014              1              1
     11007.0000        -999.25        52.7969       88.57484          0.327         0.4267       -40.1602     -0.1601982              1              1
     11007.5000        -999.25         51.565       85.99467         0.3253         0.4332       -40.3749     -0.3749008              1              1
     11008.0000        -999.25        49.8849       82.47747         0.3233         0.4402       -40.7692     -0.7691994              1              1
     11008.5000        -999.25        48.5195        79.6225         0.3207         0.4432       -41.3514      -1.351398       0.991968      0.9952514
     11009.0000        -999.25        48.3583       79.29244         0.3214         0.4456       -41.1436        -1.1436      0.9849456      0.9980595
     11009.5000        -999.25        48.1652        78.8957         0.3278         0.4525       -40.7104     -0.7103996      0.9765042              1
     11010.0000        -999.25         47.579       77.67708         0.3338         0.4499       -40.4694     -0.4693985      0.9505761              1
     11010.5000        -999.25        46.4986       75.42519         0.3351         0.4468       -40.2388        -0.2388      0.9026637              1
     11011.0000        -999.25        47.5565       77.64399         0.3362          0.454       -40.0106    -0.01060104      0.9498721              1
     11011.5000        -999.25        48.5467       79.72122         0.3384          0.469       -39.8914      0.1086006      0.9940686              1
     11012.0000        -999.25        48.8434       80.34853         0.3407           0.48       -39.8313      0.1687012              1              1
     11012.5000        -999.25        47.5114       77.57064         0.3407         0.4754       -39.9069      0.0931015      0.9483115              1
     11013.0000        -999.25        46.4548       75.36855         0.3391         0.4572       -39.9709     0.02909851      0.9014584              1
     11013.5000        -999.25        47.2109       76.95633         0.3375         0.4479       -39.9627     0.03730011       0.935241              1
     11014.0000        -999.25        48.5429       79.74821         0.3359         0.4515       -39.9763     0.02370071      0.9946427              1
     11014.5000        -999.25        49.4919       81.73927         0.3343         0.4542       -40.0897    -0.08969879              1              1
     11015.0000        -999.25        49.8486       82.49201         0.3331         0.4529       -40.2137     -0.2136993              1              1
     11015.5000        -999.25        50.0396       82.89834          0.332         0.4524       -40.3646     -0.3646011              1              1
     11016.0000        -999.25        50.5372       83.94566         0.3295         0.4537       -40.5752     -0.5751991              1              1
     11016.5000        -999.25        51.2307        85.4026         0.3267         0.4558       -40.8344     -0.8344002              1              1
     11017.0000        -999.25        51.6577       86.30233         0.3242         0.4555       -40.9879     -0.9878998              1              1
     11017.5000        -999.25         50.571       84.03727         0.3219         0.4536       -41.0341        -1.0341              1      0.9995392
     11018.0000        -999.25        50.7425       84.40283         0.3206         0.4443       -40.8306     -0.8306007              1              1
     11018.5000        -999.25        51.3334       85.64523         0.3202         0.4308        -40.751     -0.7509995              1              1
     11019.0000        -999.25        51.8329       86.69654         0.3194         0.4278       -40.4037     -0.4037018              1              1
     11019.5000        -999.25        50.7212       84.37921         0.3186         0.4392       -40.0068   -0.006801605              1              1
     11020.0000        -999.25        48.6782       80.11479         0.3185         0.4511       -39.5593      0.4407005              1              1
     11020.5000        -999.25        47.5089       77.67707         0.3229         0.4593       -39.7032      0.2967987      0.9505759              1
     11021.0000        -999.25        48.2713       79.27802          0.327         0.4617       -39.7543      0.2457008      0.9846386              1
     11021.5000        -999.25         49.269       81.37095         0.3309         0.4497       -39.5011      0.4989014              1              1
     11022.0000        -999.25        50.0965       83.10803         0.3351         0.4546       -39.3033       0.696701              1              1
     11022.5000        -999.25        49.3742       81.60485         0.3373         0.4586       -39.8053      0.1946983              1              1
     11023.0000        -999.25        48.0847       78.91579         0.3363         0.4532       -40.2146     -0.2145996      0.9769318              1
     11023.5000        -999.25        47.2843       77.24935         0.3384         0.4543       -40.2266     -0.2266006      0.9414756              1
     11024.0000        -999.25        47.7492        78.2283         0.3411         0.4498       -39.9756      0.0243988      0.9623043              1
     11024.5000        -999.25        48.7257       80.27692         0.3445          0.458       -40.3311     -0.3311005              1              1
     11025.0000        -999.25        49.8599        82.6552         0.3444         0.4684       -41.1113      -1.111301              1      0.9984959
     11025.5000        -999.25        50.3538       83.69482         0.3444         0.4698       -40.9661     -0.9660988              1              1
     11026.0000        -999.25        50.3784       83.75322         0.3446         0.4755       -41.1385        -1.1385              1      0.9981284
     11026.5000        -999.25        50.0665       83.10811         0.3394         0.4781       -41.4553      -1.455299              1      0.9938473
     11027.0000        -999.25        48.9836       80.85099         0.3442         0.4592       -41.7755      -1.775501              1      0.9895203
     11027.5000        -999.25         48.285       79.39738         0.3449         0.4432       -41.5636      -1.563599      0.9871782      0.9923838
     11028.0000        -999.25        48.5473       79.95276         0.3385         0.4428       -40.8444     -0.8443985      0.9989949              1
     11028.5000        -999.25        48.8909       80.67813          0.333         0.4501       -40.1583     -0.1582985              1              1
     11029.0000        -999.25        49.6108       82.19024         0.3329         0.4584       -39.6901      0.3098984              1              1
     11029.5000        -999.25        50.3782       83.80166         0.3346         0.4516       -39.4893      0.5107002              1              1
