#------------------------------------------------------------------------------
# Created by    : vladimir.rabinovich
# Created on    : 09/19/2023 17:19:46
#------------------------------------------------------------------------------
~Version Information Section
VERS.           2.0     :   CWLS log ASCII Standard - VERSION 2.0
WRAP.           NO      :   One line per depth step
~Well Information Section
#MNEM       .UNIT                                         VALUE :DESCRIPTION
#------------------------------------------------------------------------------
STRT        .FT                                            3460 :START DEPTH
STOP        .FT                                           13634 :STOP DEPTH
STEP        .FT                                             0.5 :STEP      
NULL        .                                           -999.25 :NULL      
COMP        .                                SHELL OFFSHORE INC :COMPANY   
WELL        .                               OCS G06107 ST00BP00 :WELL      
FLD         .                                           WILDCAT :FIELD     
LOC         .                                                   :LOCATION  
CNTY        .                             GALVESTON LARGE BLOCK :LOCATION  
STAT        .                                             TEXAS :STATE     
CTRY        .                                     UNITED STATES :COUNTRY   
SRVC        .                                                   :SERVICE COMPANY
DATE        .                             9/13/2023 11:19:27 AM :LOG DATE  
API         .                                    42706401270000 :API NUMBER
UWI         .                                    42706401270000 :UNIQUE WELL ID
XCOORD      .                                  941908.785460496 :SURFACE X 
YCOORD      .                                  10441108.8632451 :SURFACE Y 
LAT         .                                         28.753553 :LATITUDE  
LON         .                                        -95.180411 :LONGITUDE 
ELEV        .FT                                              90 :ELEVATION VALUE
ELEV_TYPE   .                                                KB :ELEVATION REFERENCE TYPE
~Curve Information Section
#MNEM       .UNIT                                      API CODE :CURVE DESCRIPTION
#------------------------------------------------------------------------------
DEPT        .FT                                                 :DEPTH     
ASFL        .OHMM                                               :          
CALI        .IN                                                 :          
CILD        .MMHO                                               :          
DT          .US/F                                               :          
GR          .GAPI                                               :          
GR_1        .GAPI                                               :          
GR_NORM     .GAPI                                               :GammaRay Normalized
ILD         .OHMM                                               :          
ILM         .OHMM                                               :          
RHOB        .G/C3                                               :          
SP          .MV                                                 :          
VSH_GR      .V/V                                                :Volume of Shale from GR
~A        DEPTH           ASFL           CALI           CILD             DT             GR           GR_1        GR_NORM            ILD            ILM           RHOB             SP         VSH_GR
# ...
     10266.0000        -999.25         9.8481       720.5225       125.7601        -999.25        48.7521       74.95114         1.3433         1.6825           2.33        -999.25      0.8925775
     10266.5000        -999.25           9.87       778.2666       118.6958        -999.25        47.0425       72.17361         1.2591         1.5309         2.3191        -999.25      0.8334811
     10267.0000        -999.25         9.9066       808.0273       116.4237        -999.25        46.1853       70.78075          1.222         1.4379         2.3058        -999.25      0.8038456
     10267.5000        -999.25         9.9091        811.999       117.7156        -999.25         45.666       69.93681         1.2047         1.3732         2.2952        -999.25      0.7858896
     10268.0000        -999.25         9.9304       797.8193       119.9401        -999.25        45.5263       69.70949         1.2075         1.3665         2.2868        -999.25      0.7810529
     10268.5000        -999.25         9.9562       779.9424       126.2782        -999.25        46.1941       70.79389         1.2247         1.3845         2.2806        -999.25      0.8041254
     10269.0000        -999.25         9.9974       758.7646       129.1221        -999.25         48.324       74.25339         1.2574         1.4244         2.2786        -999.25      0.8777316
     10269.5000        -999.25         9.9661       732.1533       131.4583        -999.25        50.9223       78.47375         1.3039         1.4448         2.2763        -999.25      0.9675267
     10270.0000        -999.25          9.987       709.2988       133.0161        -999.25        52.6137       81.22093         1.3611         1.4489         2.2728        -999.25              1
     10270.5000        -999.25        10.0228       686.8008       134.2974        -999.25        52.2869       80.68967         1.4212         1.4423         2.2691        -999.25              1
     10271.0000        -999.25        10.0656       651.4023       136.2932        -999.25        51.4799       79.37837          1.478         1.4429         2.2662        -999.25      0.9867738
     10271.5000        -999.25        10.0921       615.0908       137.0117        -999.25        50.7001       78.11124         1.5397         1.4648         2.2681        -999.25      0.9598137
     10272.0000        -999.25        10.0783       579.3369       136.4824        -999.25        51.2571       79.01566          1.641         1.4896         2.2731        -999.25      0.9790567
     10272.5000        -999.25         9.9528       547.9004       135.1353        -999.25        52.6242       81.23605         1.7158         1.5096         2.2774        -999.25              1
     10273.0000        -999.25         9.8937       524.9443       132.5781        -999.25        53.7295       83.03114         1.7554         1.5425         2.2794        -999.25              1
     10273.5000        -999.25         9.8779       509.8994       131.4507        -999.25        53.5957       82.81341          1.798         1.6037         2.2811        -999.25              1
     10274.0000        -999.25         9.8672       511.9883        131.186        -999.25         54.009        83.4844         1.8152         1.6503         2.2832        -999.25              1
     10274.5000        -999.25         9.8552       522.3037        130.978        -999.25        54.5748        84.4031          1.803         1.6956         2.2841        -999.25              1
     10275.0000        -999.25         9.8419       535.2793       131.9636        -999.25        53.1026       82.01123         1.7637         1.7143         2.2807        -999.25              1
     10275.5000        -999.25         9.8463       550.7695       133.5723        -999.25        51.5064       79.41794         1.7258         1.7001         2.2735        -999.25      0.9876157
     10276.0000        -999.25         9.8638       568.9512       134.5259        -999.25        51.5316       79.45847         1.7005         1.6644         2.2716        -999.25      0.9884781
     10276.5000        -999.25          9.901       581.4189       135.4158        -999.25        53.3242       82.37005         1.6681          1.634         2.2724        -999.25              1
     10277.0000        -999.25         9.9308       604.2725       135.4756        -999.25        54.8316       84.81832         1.6315         1.6088          2.273        -999.25              1
     10277.5000        -999.25         9.9526       618.6582       135.3333        -999.25        53.9233       83.34245         1.6007         1.5903         2.2711        -999.25              1
     10278.0000        -999.25         9.9583       617.5342        135.343        -999.25        52.3171       80.73291         1.5816         1.5718         2.2665        -999.25              1
     10278.5000        -999.25         9.9571       611.6367       135.8018        -999.25         51.553       79.49129         1.5798         1.5701         2.2626        -999.25      0.9891765
     10279.0000        -999.25         9.9487       593.2012       136.1602        -999.25        52.6808       81.32294         1.5955         1.5831         2.2592        -999.25              1
     10279.5000        -999.25          9.927       569.1797       135.5315        -999.25        53.1569       82.09594          1.636         1.6129         2.2683        -999.25              1
     10280.0000        -999.25         9.8918       545.5127       133.9722        -999.25        52.8923       81.66573         1.7145          1.663         2.2837        -999.25              1
     10280.5000        -999.25         9.8503       526.3662       131.3872        -999.25        52.1837       80.51427           1.78         1.7151         2.3048        -999.25              1
     10281.0000        -999.25         9.8358       519.4023       129.1577        -999.25         51.675       79.68753         1.8131         1.7408         2.3151        -999.25      0.9933517
     10281.5000        -999.25         9.8326       526.3154       128.0608        -999.25        51.8387       79.95306         1.7644         1.7551         2.3155        -999.25      0.9990012
     10282.0000        -999.25         9.8361       544.2432        128.467        -999.25        52.5096       81.04251          1.688         1.7209         2.2958        -999.25              1
     10282.5000        -999.25          9.841       570.8047       131.9763        -999.25        52.8555       81.60401         1.6178         1.6185         2.2754        -999.25              1
     10283.0000        -999.25         9.8452       617.0205       133.7209        -999.25        53.0258       81.88026         1.5548         1.5076          2.259        -999.25              1
     10283.5000        -999.25         9.8489       660.3916       134.9548        -999.25        53.3984       82.48513         1.4655         1.4484         2.2538        -999.25              1
     10284.0000        -999.25          9.847        688.375       136.1409        -999.25         54.092       83.61144          1.411         1.3929         2.2573        -999.25              1
     10284.5000        -999.25         9.8464        707.166       136.6018        -999.25        54.7328         84.652         1.3788         1.3663         2.2668        -999.25              1
     10285.0000        -999.25         9.8597       715.9268       136.7056        -999.25        55.6932       86.21171         1.3672         1.3605         2.2769        -999.25              1
     10285.5000        -999.25          9.868       723.5703       136.9502        -999.25         55.981       86.67885         1.3676         1.3616         2.2807        -999.25              1
     10286.0000        -999.25         9.8679       728.2168       137.0676        -999.25        55.3118       85.59136           1.37         1.3683         2.2708        -999.25              1
