#------------------------------------------------------------------------------
# Created by    : vladimir.rabinovich
# Created on    : 09/19/2023 17:20:36
#------------------------------------------------------------------------------
~Version Information Section
VERS.           2.0     :   CWLS log ASCII Standard - VERSION 2.0
WRAP.           NO      :   One line per depth step
~Well Information Section
#MNEM       .UNIT                                         VALUE :DESCRIPTION
#------------------------------------------------------------------------------
STRT        .FT                                             504 :START DEPTH
STOP        .FT                                            9762 :STOP DEPTH
STEP        .FT                                             0.5 :STEP      
NULL        .                                           -999.25 :NULL      
COMP        .                                      SHELL OIL CO :COMPANY   
WELL        .                                OCS 00703 ST00BP00 :WELL      
FLD         .                                           WILDCAT :FIELD     
LOC         .                                                   :LOCATION  
CNTY        .                             GALVESTON LARGE BLOCK :LOCATION  
STAT        .                                             TEXAS :STATE     
CTRY        .                                     UNITED STATES :COUNTRY   
SRVC        .                                                   :SERVICE COMPANY
DATE        .                             9/13/2023 11:19:25 AM :LOG DATE  
API         .                                    42706000420000 :API NUMBER
UWI         .                                    42706000420000 :UNIQUE WELL ID
XCOORD      .                                  1132503.99790541 :SURFACE X 
YCOORD      .                                  10523078.0194322 :SURFACE Y 
LAT         .                                         28.987276 :LATITUDE  
LON         .                                        -94.589113 :LONGITUDE 
ELEV        .FT                                              83 :ELEVATION VALUE
ELEV_TYPE   .                                                KB :ELEVATION REFERENCE TYPE
~Curve Information Section
#MNEM       .UNIT                                      API CODE :CURVE DESCRIPTION
#------------------------------------------------------------------------------
DEPT        .FT                                                 :DEPTH     
ASN         .OHMM                                               :          
CILD        .MMHO                                               :          
DT          .US/F                                               :          
ILD         .OHMM                                               :          
LAT         .OHMM                                               :          
LN          .OHMM                                               :          
SP          .MV                                                 :          
SP_NORM     .MV                                                 :SP Normalized
VSH_SP      .V/V                                                :Volume of Shale from SP
~A        DEPTH            ASN           CILD             DT            ILD            LAT             LN             SP        SP_NORM         VSH_SP
       504.0000         0.7389        -999.25        -999.25        -999.25              0         1.1078      -105.2592     -0.2143643              1
       504.5000         0.7598        -999.25        -999.25        -999.25              0         1.1247       -72.0754       2.340884              1
       505.0000         0.7787        -999.25        -999.25        -999.25              0           1.14       -67.8309        2.68042              1
       505.5000         0.7972        -999.25        -999.25        -999.25              0         1.1554       -64.4006       1.060713              1
       506.0000         0.8176        -999.25        -999.25        -999.25              0         1.1707       -63.1091       2.945609              1
       506.5000         0.8399        -999.25        -999.25        -999.25              0          1.186       -62.1641        1.96567              1
       507.0000         0.8571        -999.25        -999.25        -999.25              0         1.2015       -61.3051       1.674069              1
       507.5000         0.8735        -999.25        -999.25        -999.25              0          1.217       -60.4621       0.630365              1
       508.0000         0.8873        -999.25        -999.25        -999.25              0         1.2325       -59.6544       2.827623              1
       508.5000         0.9002        -999.25        -999.25        -999.25              0          1.248       -58.9311     -0.1912842              1
       509.0000         0.9124        -999.25        -999.25        -999.25              0         1.2631         -58.29     -0.5158729              1
       509.5000         0.9213        -999.25        -999.25        -999.25              0         1.2776       -57.7601       3.492425              1
       510.0000         0.9212        -999.25        -999.25        -999.25              0         1.2921       -57.1309       3.615527              1
       510.5000         0.9184        -999.25        -999.25        -999.25              0         1.3066       -56.8226      0.4631993              1
       511.0000         0.9145        -999.25        -999.25        -999.25              0         1.3208       -56.9683      0.3015548              1
       511.5000         0.9103        -999.25        -999.25        -999.25              0          1.335       -57.5047        2.80101              1
       512.0000          0.906        -999.25        -999.25        -999.25              0         1.3492       -58.0776     -0.1226402              1
       512.5000          0.902        -999.25        -999.25        -999.25              0         1.3602       -58.5907       1.477091              1
       513.0000         0.8983        -999.25        -999.25        -999.25              0          1.369       -59.0923      0.3536249              1
       513.5000         0.8945        -999.25        -999.25        -999.25              0         1.3777       -59.5802       1.392926              1
       514.0000         0.8918        -999.25        -999.25        -999.25              0         1.3845       -59.8801       2.504871              1
       514.5000         0.8906        -999.25        -999.25        -999.25              0         1.3912       -59.5489       1.250227              1
       515.0000         0.8903        -999.25        -999.25        -999.25              0         1.3979       -59.2178       2.982365              1
       515.5000         0.8917        -999.25        -999.25        -999.25              0         1.4074       -58.7485     0.04893215              1
       516.0000          0.893        -999.25        -999.25        -999.25              0         1.4204       -58.1866     -0.4744146              1
       516.5000         0.8943        -999.25        -999.25        -999.25              0         1.4335       -57.6249      0.8212133              1
       517.0000         0.8971        -999.25        -999.25        -999.25              0         1.4461       -57.1009       1.312908              1
       517.5000         0.8995        -999.25        -999.25        -999.25              0         1.4568       -56.5803      0.7364789              1
       518.0000         0.8913        -999.25        -999.25        -999.25              0         1.4675       -56.1008      0.3302212              1
       518.5000         0.8831        -999.25        -999.25        -999.25              0         1.4781        -55.629      -1.012615              1
       519.0000         0.8749        -999.25        -999.25        -999.25              0         1.4866       -55.2079      -0.232291              1
       519.5000         0.8599        -999.25        -999.25        -999.25              0         1.4947       -54.4463       3.358001              1
       520.0000         0.8428        -999.25        -999.25        -999.25              0         1.5028       -54.7943       0.235864              1
       520.5000          0.827        -999.25        -999.25        -999.25              0         1.5062       -55.3393      0.9878704              1
       521.0000         0.8117        -999.25        -999.25        -999.25              0         1.5096       -55.8391       2.936831              1
       521.5000         0.8021        -999.25        -999.25        -999.25              0          1.513       -56.2331       2.582529              1
       522.0000         0.7937        -999.25        -999.25        -999.25              0         1.5163        -56.554       1.344812              1
       522.5000         0.7867        -999.25        -999.25        -999.25              0         1.5207       -56.6644       3.240904              1
       523.0000         0.7805        -999.25        -999.25        -999.25         0.2422         1.5259       -56.4439     -0.3530242              1
       523.5000         0.7774        -999.25        -999.25        -999.25         0.3401         1.5311       -56.2235       1.873914              1
       524.0000         0.7759        -999.25        -999.25        -999.25          0.452         1.5363       -56.0031     -0.1934001              1
       524.5000         0.7772        -999.25        -999.25        -999.25         0.5588         1.5459        -55.718       2.565476              1
       525.0000         0.7811        -999.25        -999.25        -999.25         0.6385         1.5562       -55.4181       3.306821              1
       525.5000         0.7873        -999.25        -999.25        -999.25         0.7144         1.5679       -55.1182       1.635047              1
       526.0000         0.7936        -999.25        -999.25        -999.25         0.7865         1.5805       -54.8679     -0.9545287              1
       526.5000         0.7998        -999.25        -999.25        -999.25          0.833         1.5927       -54.6983       3.223536              1
       527.0000         0.8095        -999.25        -999.25        -999.25         0.8753         1.6008       -54.5286       3.460373              1
       527.5000         0.8205        -999.25        -999.25        -999.25         0.9025         1.6019       -54.4655        3.45944              1
       528.0000         0.8314        -999.25        -999.25        -999.25         0.9189         1.5995       -54.4777       3.230358              1
       528.5000         0.8454        -999.25        -999.25        -999.25         0.9353         1.5703         -54.49       2.747593              1
       529.0000         0.8607        -999.25        -999.25        -999.25         0.9635         1.5364       -54.5322    -0.07665151              1
       529.5000         0.8766        -999.25        -999.25        -999.25         0.9934         1.5047       -54.6712       2.067786              1
       530.0000         0.8933        -999.25        -999.25        -999.25          1.024         1.4751       -54.8102        1.56015              1
