#------------------------------------------------------------------------------
# Created by    : vladimir.rabinovich
# Created on    : 09/19/2023 17:21:54
#------------------------------------------------------------------------------
~Version Information Section
VERS.           2.0     :   CWLS log ASCII Standard - VERSION 2.0
WRAP.           NO      :   One line per depth step
~Well Information Section
#MNEM       .UNIT                                         VALUE :DESCRIPTION
#------------------------------------------------------------------------------
STRT        .FT                                             404 :START DEPTH
STOP        .FT                                            9564 :STOP DEPTH
STEP        .FT                                             0.5 :STEP      
NULL        .                                           -999.25 :NULL      
COMP        .                               AMOCO PRODUCTION CO :COMPANY   
WELL        .                               OCS G03108 ST00BP01 :WELL      
FLD         .                                           WILDCAT :FIELD     
LOC         .                                                   :LOCATION  
CNTY        .                      MATAGORDA ISLAND LARGE BLOCK :LOCATION  
STAT        .                                             TEXAS :STATE     
CTRY        .                                     UNITED STATES :COUNTRY   
SRVC        .                                                   :SERVICE COMPANY
DATE        .                             9/13/2023 11:12:09 AM :LOG DATE  
API         .                                    42703400030000 :API NUMBER
UWI         .                                    42703400030000 :UNIQUE WELL ID
XCOORD      .                                  482242.907024332 :SURFACE X 
YCOORD      .                                  10146341.7942038 :SURFACE Y 
LAT         .                                         27.913374 :LATITUDE  
LON         .                                         -96.58609 :LONGITUDE 
ELEV        .FT                                              95 :ELEVATION VALUE
ELEV_TYPE   .                                                KB :ELEVATION REFERENCE TYPE
~Curve Information Section
#MNEM       .UNIT                                      API CODE :CURVE DESCRIPTION
#------------------------------------------------------------------------------
DEPT        .FT                                                 :DEPTH     
CALI        .IN                                                 :          
CILD        .MMHO                                               :          
GR          .GAPI                                               :          
GR_NORM     .GAPI                                               :GammaRay Normalized
ILD         .OHMM                                               :          
RHOB        .G/C3                                               :          
SFL         .OHMM                                               :          
SP          .MV                                                 :          
SP_NORM     .MV                                                 :SP Normalized
VSH_GR      .V/V                                                :Volume of Shale from GR
VSH_SP      .V/V                                                :Volume of Shale from SP
~A        DEPTH           CALI           CILD             GR        GR_NORM            ILD           RHOB            SFL             SP        SP_NORM         VSH_GR         VSH_SP
# ...
      5174.0000        14.5424        -999.25        38.4291       47.94892         0.5986         2.3407         1.2175       -94.4152       -56.6793      0.3180621      0.2188672
      5174.5000        14.2479        -999.25        36.7144         44.485         0.6181         2.3288         1.4792       -94.9017       -57.1659      0.2443616      0.2119157
      5175.0000        13.8115        -999.25        37.3046       45.67057         0.6459         2.3132         1.8079       -94.8326       -57.0968      0.2695865      0.2129028
      5175.5000        13.4979        -999.25        38.4974       48.07198         0.6861         2.3039         1.9902       -94.7628        -57.027      0.3206804         0.2139
      5176.0000        13.3577        -999.25        38.7944       48.66629         0.7291         2.2946         1.8207       -94.7968       -57.0609      0.3333252      0.2134157
      5176.5000        13.2615        -999.25        38.4694       48.00581         0.7714         2.2842         1.8111       -94.9628       -57.2269      0.3192725      0.2110443
      5177.0000        13.1802        -999.25        37.7353       46.52007          0.801         2.2626          1.891       -95.1439        -57.408       0.287661      0.2084571
      5177.5000        13.1069        -999.25        36.8564       44.74221         0.8161         2.2444         1.8814            -95       -57.2641      0.2498343      0.2105129
      5178.0000        13.0483        -999.25        36.1868       43.38659         0.8306         2.2683         1.8141        -94.517       -56.7811      0.2209912      0.2174128
      5178.5000        12.9946        -999.25        35.9943        42.9934         0.8482          2.283          1.833       -94.2821       -56.5462      0.2126255      0.2207686
      5179.0000         12.951        -999.25        36.2477       43.49955         0.8651         2.2956         1.8492       -94.1946       -56.4588      0.2233948      0.2220171
      5179.5000        12.9669        -999.25        36.6635        44.3335         0.8811         2.3094         1.8806       -94.3156       -56.5797      0.2411382        0.22029
      5180.0000        13.0052        -999.25        36.8453        44.6954         0.8974          2.317         1.9754       -94.9326       -57.1968      0.2488383      0.2114743
      5180.5000        13.0222        -999.25        36.0767       43.14006         0.9154         2.3071          2.039       -95.8159       -58.0801       0.215746      0.1988557
      5181.0000        12.9985        -999.25        35.0663       41.09694          0.929         2.2892         2.0708        -96.745       -59.0092      0.1722753      0.1855828
      5181.5000        12.9547        -999.25        33.5438       38.02073         0.9281         2.2702         2.0616       -97.7417       -60.0058       0.106824      0.1713457
      5182.0000        13.0158        -999.25        32.3799       35.66795          0.905          2.257         2.0623       -98.6771       -60.9412      0.0567648      0.1579829
      5182.5000        13.0843        -999.25        31.8365       34.56689         0.8743         2.2523         2.2648        -99.326       -61.5901     0.03333818      0.1487129
      5183.0000        13.1527        -999.25        31.3572       33.59516         0.8222          2.249         2.5214      -100.9857       -63.2499     0.01266301      0.1250014
      5183.5000        13.2129        -999.25        30.9763       32.82172          0.765         2.2475         2.4912      -103.4414       -65.7056              0     0.08992004
      5184.0000         13.269        -999.25        31.4164        33.7047         0.6968         2.2639         1.9041      -105.7194       -67.9836     0.01499355     0.05737719
      5184.5000        13.3253        -999.25          31.86       34.59474         0.6067         2.2769         1.5887      -108.0586       -70.3228      0.0339306        0.02396
      5185.0000        13.2916        -999.25        31.2651        33.3898         0.5213         2.2294         1.4669      -110.3315       -72.5956    0.008293639              0
      5185.5000        13.2295        -999.25        30.6385       32.12091         0.4701          2.209         1.4333      -110.7164       -72.9805              0              0
      5186.0000        13.1387        -999.25        31.1923       33.23325         0.4325         2.2234         1.3899       -111.009       -73.2731    0.004962678              0
      5186.5000        13.0564        -999.25        31.8076       34.46966         0.3967         2.2462         1.2289      -111.1058       -73.3699      0.0312694              0
      5187.0000        12.9857        -999.25        32.3299       35.51846         0.3711         2.2596         1.1244      -110.6622       -72.9263     0.05358424              0
      5187.5000        13.0082        -999.25        32.7741        36.4097         0.3533         2.1643         1.0738      -110.3234       -72.5876     0.07254685              0
      5188.0000        13.0419        -999.25        33.0302        36.9213         0.3399         2.1522         1.0557      -109.9021       -72.1662     0.08343197              0
      5188.5000         13.108        -999.25        33.5745       38.01448         0.3341         2.1368         1.0741      -109.3931       -71.6572       0.106691     0.00489709
      5189.0000        13.1782        -999.25        34.4883       39.85305          0.336         2.1587         1.0989      -108.8492       -71.1133      0.1458096     0.01266719
      5189.5000        13.2483        -999.25        35.3216       41.52924         0.3654         2.1848         1.1186      -108.2578       -70.5219      0.1814733     0.02111577
      5190.0000        13.3187        -999.25        35.4156       41.71404         0.4156         2.1803         1.1348      -107.3757       -69.6398      0.1854051     0.03371713
      5190.5000        13.4026        -999.25        35.2874       41.45057         0.4829         2.1598         1.1275      -106.2556       -68.5197      0.1797993     0.04971858
      5191.0000        13.3564        -999.25        35.3935       41.65975         0.5542         2.1476         1.1535      -104.8297       -67.0938        0.18425     0.07008852
      5191.5000        13.2766        -999.25        36.2675       43.41805         0.6248         2.1368         1.3502      -103.0643       -65.3284      0.2216605     0.09530858
      5192.0000        13.2417        -999.25        36.1089       43.09308         0.6937         2.1284         1.8686        -101.87       -64.1342      0.2147464      0.1123686
      5192.5000        13.2067        -999.25        35.4426       41.74408         0.7537         2.1146         2.4471      -103.1595       -65.4236      0.1860442     0.09394858
      5193.0000        13.1882        -999.25        34.8068       40.45664         0.7961          2.108         3.0969      -104.9689        -67.233      0.1586519     0.06809998
      5193.5000        13.1821        -999.25        34.1454       39.11755         0.7974         2.1389         3.2201      -106.8934       -69.1575      0.1301607     0.04060712
      5194.0000        13.1759        -999.25        33.9954        38.8101         0.7469         2.1558         1.8772      -108.8405       -71.1046      0.1236192     0.01279144
      5194.5000        13.1659        -999.25        34.4331       39.68824         0.6865         2.1659         1.5472      -110.0747       -72.3389      0.1423031              0
      5195.0000        13.1425        -999.25        34.5905       40.00092         0.6186         2.1774         1.3309      -110.6528       -72.9169      0.1489558              0
      5195.5000        13.1192        -999.25         34.393       39.59766         0.4692         2.1962         1.1441      -110.0684       -72.3326      0.1403758              0
      5196.0000        13.1452        -999.25        34.8839       40.58312         0.4167          2.291         1.0584      -109.2365       -71.5007       0.161343     0.00713283
