#------------------------------------------------------------------------------
# Created by    : vladimir.rabinovich
# Created on    : 09/19/2023 17:19:44
#------------------------------------------------------------------------------
~Version Information Section
VERS.           2.0     :   CWLS log ASCII Standard - VERSION 2.0
WRAP.           NO      :   One line per depth step
~Well Information Section
#MNEM       .UNIT                                         VALUE :DESCRIPTION
#------------------------------------------------------------------------------
STRT        .FT                                            2932 :START DEPTH
STOP        .FT                                           14530 :STOP DEPTH
STEP        .FT                                             0.5 :STEP      
NULL        .                                           -999.25 :NULL      
COMP        .                                 MESA PETROLEUM CO :COMPANY   
WELL        .                                 ST TR 00022-L W/2 :WELL      
FLD         .                                           WILDCAT :FIELD     
LOC         .                                                   :LOCATION  
CNTY        .                           HIGH ISLAND LARGE BLOCK :LOCATION  
STAT        .                                             TEXAS :STATE     
CTRY        .                                     UNITED STATES :COUNTRY   
SRVC        .                                                   :SERVICE COMPANY
DATE        .                             9/13/2023 11:19:15 AM :LOG DATE  
API         .                                    42708300770000 :API NUMBER
UWI         .                                    42708300770000 :UNIQUE WELL ID
XCOORD      .                                  1307803.37781852 :SURFACE X 
YCOORD      .                                  10713200.3443699 :SURFACE Y 
LAT         .                                         29.515602 :LATITUDE  
LON         .                                       -94.0460534 :LONGITUDE 
ELEV        .FT                                              85 :ELEVATION VALUE
ELEV_TYPE   .                                                KB :ELEVATION REFERENCE TYPE
~Curve Information Section
#MNEM       .UNIT                                      API CODE :CURVE DESCRIPTION
#------------------------------------------------------------------------------
DEPT        .FT                                                 :DEPTH     
ASFL        .OHMM                                               :          
CILD        .MMHO                                               :          
ILD         .OHMM                                               :          
SP          .MV                                                 :          
SP_NORM     .MV                                                 :SP Normalized
VSH_SP      .V/V                                                :Volume of Shale from SP
~A        DEPTH           ASFL           CILD            ILD             SP        SP_NORM         VSH_SP
# ...
      5250.0000         0.4112       3997.781           0.33      -113.9531      -63.33054     0.09665885
      5250.5000         0.4002       4039.906         0.2782       -109.957      -59.34223      0.1544605
      5251.0000         0.3907        4044.25         0.2264       -104.418      -53.81101       0.234623
      5251.5000         0.4094        3891.25          0.202       -98.8008       -48.2016      0.3159189
      5252.0000         0.4281         3718.5         0.2247       -93.1797      -42.58829      0.3972712
      5252.5000         0.4468         3519.5         0.2474       -92.3047      -41.72107      0.4098395
      5253.0000         0.4655         3194.5         0.2701       -97.4062      -46.83035       0.335792
      5253.5000         0.4844         2869.5         0.2928      -102.5117      -51.94365      0.2616863
      5254.0000         0.5121         2544.5         0.3157      -109.3125      -58.75223      0.1630112
      5254.5000          0.501       2438.563         0.3389      -105.2344      -54.68191      0.2220013
      5255.0000           0.49           2822          0.362      -101.1562       -50.6115      0.2809928
      5255.5000         0.4803        3470.75         0.3852       -97.0889      -46.55198      0.3398263
      5256.0000         0.4706       3620.188         0.4083       -96.3379      -45.80877      0.3505976
      5256.5000         0.4608       3711.375         0.4129      -100.1953      -49.67395      0.2945804
      5257.0000         0.4511       3801.563         0.3701      -104.3086      -53.79504      0.2348544
      5257.5000         0.4414       3872.938         0.3272      -108.8438      -58.33804       0.169014
      5258.0000         0.4316        3947.75         0.3084      -113.3203      -62.82232      0.1040244
      5258.5000         0.4197       4039.375         0.3017      -117.4844       -66.9942     0.04356229
      5259.0000         0.4072        3980.75         0.2949      -119.4629      -68.98048     0.01477559
      5259.5000         0.3946       3879.375         0.2882      -121.9082      -71.43358              0
      5260.0000         0.3856       3921.281         0.2814      -121.7549      -71.28806              0
      5260.5000         0.3833       3963.188         0.2747      -120.2158      -69.75674    0.003525444
      5261.0000         0.3945       4005.094         0.2961      -118.6768      -68.22554     0.02571681
      5261.5000         0.4172       4045.438         0.3305      -116.9902      -66.54671     0.05004761
      5262.0000         0.4398           4073         0.3649      -115.1289      -64.69321     0.07691005
      5262.5000         0.4624       3975.375         0.3993      -113.2676      -62.83969      0.1037726
      5263.0000          0.485           3862         0.4337       -111.418      -60.99788      0.1304656
      5263.5000         0.5076        3457.75         0.4681      -109.6777      -59.26536      0.1555745
      5264.0000         0.5302        3182.25         0.4591      -109.9326      -59.52805      0.1517673
      5264.5000         0.5402        2906.75         0.4371      -110.7559      -60.35913      0.1397227
      5265.0000         0.5296        2631.25         0.4075      -111.8311      -61.44212      0.1240272
      5265.5000         0.5208           3316         0.3756      -112.9941      -62.61291      0.1070593
      5266.0000         0.5119         3891.5         0.3437      -114.1572       -63.7838     0.09008988
      5266.5000         0.5031       3976.563         0.3118      -115.3193      -64.95367     0.07313515
      5267.0000          0.494       4008.625         0.2799      -116.4824      -66.12457     0.05616572
      5267.5000         0.4836       4032.172          0.248      -117.6396      -67.28955     0.03928187
      5268.0000         0.4733       4011.859          0.216      -118.7676      -68.42534     0.02282118
      5268.5000         0.4629       3991.563         0.1841      -118.8223      -68.48782      0.0219156
      5269.0000          0.455        3971.25         0.1776      -117.8828      -67.55611     0.03541875
      5269.5000         0.4492       3950.938         0.1803      -116.1563       -65.8374      0.0603275
      5270.0000         0.4433       3946.746          0.183      -115.9546      -65.64348     0.06313799
      5270.5000         0.4375       3952.895         0.1857      -116.5239      -66.22057     0.05477441
      5271.0000         0.4317       3964.195         0.1883      -117.0986      -66.80305     0.04633254
      5271.5000         0.4251       3976.742          0.191      -117.8066      -67.51884     0.03595877
      5272.0000         0.4182       3989.289         0.1937      -118.5142      -68.23422     0.02559098
      5272.5000         0.4112       4001.836         0.1964      -119.2222      -68.95001     0.01521721
      5273.0000         0.4043       4014.367         0.1991      -119.9297       -69.6653    0.004850747
      5273.5000          0.393       4030.406          0.196      -118.8115      -68.55489     0.02094368
      5274.0000         0.3811       4046.531         0.1929      -117.5918      -67.34297     0.03850766
      5274.5000         0.3721       4062.656         0.1898      -115.5859      -65.34486     0.06746585
      5275.0000         0.3663       4078.797         0.1867      -114.1172      -63.88395     0.08863847
      5275.5000         0.3627       4094.922         0.1836      -114.7578      -64.53233     0.07924166
      5276.0000         0.3602       4081.781         0.1805      -115.3979      -65.18022     0.06985186
      5276.5000         0.3577        4042.25         0.1774      -116.0381       -65.8282     0.06046085
      5277.0000         0.3552        4002.75         0.1742      -116.6782      -66.47609     0.05107117
      5277.5000         0.3527        3963.25         0.1711      -117.3276      -67.13327     0.04154681
      5278.0000         0.3502        3923.75         0.1655      -117.9956      -67.80906     0.03175277
      5278.5000         0.3477        3884.25         0.1594      -118.6641      -68.48535     0.02195143
      5279.0000         0.3484        3844.75         0.1533       -119.332      -69.16103     0.01215893
      5279.5000         0.3578       3851.391         0.1471       -119.801      -69.63782    0.005249023
      5280.0000         0.3671       3875.938          0.141         -119.5       -69.3446    0.009498485
      5280.5000         0.3765       3914.844         0.1348      -113.2031      -63.05549       0.100645
      5281.0000         0.3925       3955.469         0.1401      -109.3555      -59.21568      0.1562946
      5281.5000         0.4214       3996.063         0.1807       -98.6562      -48.52416      0.3112441
      5282.0000         0.4796       4036.688         0.2213       -95.1787      -45.05445      0.3615297
      5282.5000         0.5174       4016.656         0.2619        -95.125      -45.00853      0.3621952
      5283.0000         0.5714       3962.625         0.3376       -96.8047      -46.69602      0.3377388
      5283.5000         0.6526       3849.375         0.4281      -100.2266      -50.12571      0.2880332
      5284.0000         0.7305           3736         0.5186      -103.6523      -53.55919      0.2382726
      5284.5000         0.8082           3209         0.6092      -106.7813      -56.69598      0.1928119
      5285.0000         0.8825           2715         0.7074      -109.5332      -59.45567      0.1528164
      5285.5000         0.9166           2221         0.8071      -112.2852      -62.21545      0.1128195
      5286.0000         0.9547           1727         0.8191      -113.8545      -63.79254     0.08996322
      5286.5000         0.9946           1265         0.7426      -115.1563      -65.10213     0.07098366
      5287.0000         0.9739       1214.219         0.6508       -116.459      -66.41261     0.05199112
      5287.5000         0.9469         1365.5         0.5513      -118.2559      -68.21729     0.02583634
