#------------------------------------------------------------------------------
# Created by    : vladimir.rabinovich
# Created on    : 09/19/2023 17:20:37
#------------------------------------------------------------------------------
~Version Information Section
VERS.           2.0     :   CWLS log ASCII Standard - VERSION 2.0
WRAP.           NO      :   One line per depth step
~Well Information Section
#MNEM       .UNIT                                         VALUE :DESCRIPTION
#------------------------------------------------------------------------------
STRT        .FT                                             582 :START DEPTH
STOP        .FT                                            8015 :STOP DEPTH
STEP        .FT                                             0.5 :STEP      
NULL        .                                           -999.25 :NULL      
COMP        .                                CONTINENTAL OIL CO :COMPANY   
WELL        .                                OCS 00719 ST00BP00 :WELL      
FLD         .                                           WILDCAT :FIELD     
LOC         .                                                   :LOCATION  
CNTY        .                             GALVESTON LARGE BLOCK :LOCATION  
STAT        .                                             TEXAS :STATE     
CTRY        .                                     UNITED STATES :COUNTRY   
SRVC        .                                                   :SERVICE COMPANY
DATE        .                             9/13/2023 11:19:25 AM :LOG DATE  
API         .                                    42706000350000 :API NUMBER
UWI         .                                    42706000350000 :UNIQUE WELL ID
XCOORD      .                                  1010979.62119212 :SURFACE X 
YCOORD      .                                  10432235.4027546 :SURFACE Y 
LAT         .                                          28.73246 :LATITUDE  
LON         .                                        -94.964458 :LONGITUDE 
ELEV        .FT                                              63 :ELEVATION VALUE
ELEV_TYPE   .                                                KB :ELEVATION REFERENCE TYPE
~Curve Information Section
#MNEM       .UNIT                                      API CODE :CURVE DESCRIPTION
#------------------------------------------------------------------------------
DEPT        .FT                                                 :DEPTH     
ASN         .OHMM                                               :          
DT          .US/F                                               :          
LN          .OHMM                                               :          
SP          .MV                                                 :          
SP_NORM     .MV                                                 :SP Normalized
VSH_SP      .V/V                                                :Volume of Shale from SP
~A        DEPTH            ASN             DT             LN             SP        SP_NORM         VSH_SP
# ...
      4534.0000         0.3906        -999.25         0.4572       -76.5624      -47.27983     0.05667011
      4534.5000         0.3823        -999.25         0.4488       -76.3053      -46.89366     0.06471547
      4535.0000         0.3751        -999.25         0.4402       -76.0483      -46.50765     0.07275733
      4535.5000         0.3679        -999.25         0.4316       -76.3214      -46.92086     0.06414875
      4536.0000         0.3755        -999.25          0.423       -76.8822      -47.76783     0.04650347
      4536.5000         0.3921        -999.25         0.4143       -77.4346      -48.60214     0.02912203
      4537.0000         0.4086        -999.25         0.4057       -77.6466      -48.92323     0.02243265
      4537.5000         0.4252        -999.25         0.3971       -77.2412      -48.31348     0.03513582
      4538.0000         0.4433        -999.25         0.3886       -76.8357      -47.70356     0.04784242
      4538.5000         0.4643        -999.25         0.3838       -76.4468      -47.11868     0.06002752
      4539.0000         0.4853        -999.25          0.379       -76.0721       -46.5552     0.07176661
      4539.5000         0.5074        -999.25         0.3743       -75.6975      -45.99189     0.08350229
      4540.0000         0.5305        -999.25          0.351       -75.3231      -45.42886     0.09523201
      4540.5000         0.5221        -999.25         0.3464       -75.6224      -45.88158     0.08580041
      4541.0000         0.5081        -999.25         0.3417       -76.0117      -46.46999     0.07354188
      4541.5000         0.4942        -999.25         0.3371       -76.4009      -47.05824     0.06128669
      4542.0000         0.4803        -999.25         0.3324       -76.7898      -47.64604     0.04904079
      4542.5000         0.4699        -999.25         0.3277       -77.1729      -48.22509     0.03697729
      4543.0000         0.4635        -999.25         0.3231       -77.5411      -48.78169     0.02538149
      4543.5000         0.4663        -999.25         0.3184       -77.9094      -49.33844     0.01378258
      4544.0000         0.4789        -999.25         0.3159       -78.2776      -49.89503    0.002186855
      4544.5000         0.4908        -999.25         0.3134       -78.2375      -49.83603    0.003416141
      4545.0000         0.4886        -999.25         0.3109       -78.1479       -49.7024    0.006199996
      4545.5000         0.4863        -999.25         0.3084       -78.0583      -49.56876    0.008984168
      4546.0000         0.4811        -999.25         0.3059       -77.9686      -49.43498      0.0117712
      4546.5000          0.476        -999.25         0.3034       -77.9496       -49.4078     0.01233745
      4547.0000         0.4708        -999.25         0.3008       -78.0126      -49.50425     0.01032805
      4547.5000         0.4656        -999.25         0.2983       -78.0756      -49.60069     0.00831898
      4548.0000         0.4605        -999.25         0.2958       -78.1385      -49.69698    0.006312927
      4548.5000         0.4553        -999.25         0.2959       -78.2015      -49.79343    0.004303535
      4549.0000         0.4521        -999.25         0.2967       -78.2645      -49.88988    0.002294143
      4549.5000          0.455        -999.25         0.2975       -78.0078      -49.50431     0.01032694
      4550.0000         0.4578        -999.25         0.2984       -77.6906      -49.02752     0.02025994
      4550.5000         0.4604        -999.25         0.2992       -77.3722      -48.54894     0.03023036
      4551.0000         0.4524        -999.25            0.3       -76.9701      -47.94416     0.04283007
      4551.5000         0.4445        -999.25         0.3009       -76.5682      -47.33967      0.0554235
      4552.0000         0.4365        -999.25         0.3017       -76.1664      -46.73534     0.06801382
      4552.5000         0.4293        -999.25         0.3025       -76.7255      -47.57976     0.05042171
      4553.0000         0.4232        -999.25         0.3033        -77.298      -48.44436     0.03240911
      4553.5000         0.4172        -999.25         0.3046       -77.8705      -49.30898     0.01439619
      4554.0000         0.4111        -999.25         0.3097        -78.443       -50.1736              0
      4554.5000          0.405        -999.25         0.3147       -78.7922      -50.70154              0
      4555.0000         0.4076        -999.25         0.3198         -79.14      -51.22738              0
      4555.5000         0.4227        -999.25         0.3248       -79.4878      -51.75322              0
      4556.0000           0.44        -999.25         0.3298       -78.7838      -50.69325              0
      4556.5000         0.4574        -999.25         0.3349       -75.8469      -46.26678      0.0777754
      4557.0000         0.4763        -999.25         0.3399       -73.4897      -42.71431      0.1517853
      4557.5000         0.4965        -999.25         0.3449        -71.361      -39.50634       0.218618
      4558.0000         0.5166        -999.25         0.3504       -69.3049      -36.40783      0.2831701
      4558.5000         0.5367        -999.25         0.3559       -67.3473      -33.45783      0.3446285
      4559.0000         0.5559        -999.25         0.3614       -65.8105      -31.14227      0.3928693
      4559.5000         0.5742        -999.25         0.3669        -65.167      -30.17353      0.4130514
      4560.0000         0.5745        -999.25         0.3724       -69.8612       -37.2524       0.265575
      4560.5000         0.5448        -999.25         0.3779       -73.4813      -42.71186      0.1518363
      4561.0000         0.5151        -999.25         0.3834       -73.9902      -43.48058      0.1358213
      4561.5000         0.4902        -999.25         0.3889       -74.1355       -43.7011       0.131227
      4562.0000         0.4788        -999.25         0.3944       -74.3739        -44.062      0.1237082
      4562.5000         0.4894        -999.25         0.3988       -74.8944      -44.84822      0.1073287
      4563.0000         0.4999        -999.25         0.4014       -75.7731      -46.17449     0.07969809
      4563.5000         0.5105        -999.25         0.4039       -77.5812      -48.90201     0.02287483
      4564.0000         0.5071        -999.25         0.4064       -78.0937      -49.67615    0.006746849
      4564.5000          0.497        -999.25          0.409       -78.6064      -50.45061              0
      4565.0000         0.4885        -999.25         0.4115       -78.9312      -50.94177              0
      4565.5000         0.4806        -999.25          0.414       -78.8049      -50.75281              0
      4566.0000         0.4728        -999.25         0.4166       -78.6786      -50.56384              0
      4566.5000          0.465        -999.25         0.4191       -78.5525      -50.37519              0
      4567.0000         0.4648        -999.25         0.4218       -78.7168      -50.62435              0
      4567.5000         0.4827        -999.25          0.426       -78.9247      -50.93927              0
      4568.0000         0.5147        -999.25         0.4302       -79.1324      -51.25388              0
      4568.5000          0.563        -999.25         0.4344        -78.851      -50.83107              0
      4569.0000         0.6258        -999.25         0.4385       -76.4087       -47.1503     0.05936885
      4569.5000         0.6796        -999.25         0.4427       -73.9644      -43.46651      0.1361144
      4570.0000         0.7153        -999.25         0.4469        -72.197      -40.80327      0.1915986
      4570.5000         0.7436        -999.25          0.451       -70.5126      -38.26517      0.2444755
      4571.0000         0.7681        -999.25         0.4552       -69.5271       -36.7808         0.2754
      4571.5000         0.7874        -999.25         0.4584       -68.5416      -35.29644      0.3063242
