#------------------------------------------------------------------------------
# Created by    : vladimir.rabinovich
# Created on    : 09/19/2023 17:20:32
#------------------------------------------------------------------------------
~Version Information Section
VERS.           2.0     :   CWLS log ASCII Standard - VERSION 2.0
WRAP.           NO      :   One line per depth step
~Well Information Section
#MNEM       .UNIT                                         VALUE :DESCRIPTION
#------------------------------------------------------------------------------
STRT        .FT                                             222 :START DEPTH
STOP        .FT                                            9192 :STOP DEPTH
STEP        .FT                                             0.5 :STEP      
NULL        .                                           -999.25 :NULL      
COMP        .                                      PAN AMERICAN :COMPANY   
WELL        .                                     ST TR 00060-L :WELL      
FLD         .                                           WILDCAT :FIELD     
LOC         .                                                   :LOCATION  
CNTY        .                             GALVESTON LARGE BLOCK :LOCATION  
STAT        .                                             TEXAS :STATE     
CTRY        .                                     UNITED STATES :COUNTRY   
SRVC        .                                                   :SERVICE COMPANY
DATE        .                             9/13/2023 11:19:24 AM :LOG DATE  
API         .                                    42706000830000 :API NUMBER
UWI         .                                    42706000830000 :UNIQUE WELL ID
XCOORD      .                                  1150669.84230747 :SURFACE X 
YCOORD      .                                  10684730.4394491 :SURFACE Y 
LAT         .                                        29.4325033 :LATITUDE  
LON         .                                       -94.5389235 :LONGITUDE 
ELEV        .FT                                              11 :ELEVATION VALUE
ELEV_TYPE   .                                                KB :ELEVATION REFERENCE TYPE
~Curve Information Section
#MNEM       .UNIT                                      API CODE :CURVE DESCRIPTION
#------------------------------------------------------------------------------
DEPT        .FT                                                 :DEPTH     
ASN         .OHMM                                               :          
CILD        .MMHO                                               :          
ILD         .OHMM                                               :          
SP          .MV                                                 :          
SP_NORM     .MV                                                 :SP Normalized
VSH_SP      .V/V                                                :Volume of Shale from SP
~A        DEPTH            ASN           CILD            ILD             SP        SP_NORM         VSH_SP
# ...
      7974.0000         0.6755        -999.25          0.538          -50.4      -2.033989      0.9797257
      7974.5000         0.6689        -999.25         0.5195       -52.0091      -3.643089      0.9481747
      7975.0000         0.6624        -999.25         0.5008        -54.058      -5.691986      0.9080003
      7975.5000         0.6558        -999.25         0.4823       -55.6702      -7.304188      0.8763885
      7976.0000         0.6493        -999.25         0.4637       -56.2067      -7.840687      0.8658689
      7976.5000         0.6405        -999.25         0.4471       -55.9619      -7.595886      0.8706689
      7977.0000         0.6326        -999.25         0.4339       -55.7173      -7.351288      0.8754649
      7977.5000         0.6439        -999.25         0.4206       -55.4725      -7.106487      0.8802649
      7978.0000         0.6596        -999.25         0.4073       -55.5096      -7.143589      0.8795375
      7978.5000         0.6751        -999.25         0.3941       -56.0747      -7.708687      0.8684571
      7979.0000         0.6907        -999.25         0.3808        -57.056      -8.689987      0.8492159
      7979.5000         0.7064        -999.25         0.3882       -58.7667      -10.40069      0.8156728
      7980.0000         0.7219        -999.25         0.3988       -59.9664      -11.60039      0.7921492
      7980.5000         0.7375        -999.25         0.4094       -60.8156      -12.44959      0.7754983
      7981.0000         0.7356        -999.25         0.4201       -61.6649      -13.29889      0.7588453
      7981.5000         0.7223        -999.25         0.4307       -62.2039      -13.83789      0.7482767
      7982.0000         0.7044        -999.25         0.4458       -59.0854      -10.71939      0.8094238
      7982.5000         0.6866        -999.25         0.4636       -56.4087      -8.042686      0.8619081
      7983.0000         0.6687        -999.25         0.4814       -53.7417      -5.375687      0.9142022
      7983.5000         0.6508        -999.25         0.4993       -51.0504      -2.684387      0.9669728
      7984.0000         0.6352        -999.25         0.5171       -49.4735      -1.107487      0.9978924
      7984.5000          0.631        -999.25         0.5349       -48.2562      0.1098137              1
      7985.0000         0.6315        -999.25         0.5528       -47.8376      0.5284119              1
      7985.5000         0.6321        -999.25         0.5688       -47.4197       0.946312              1
      7986.0000         0.6327        -999.25         0.5629       -47.1086       1.257412              1
      7986.5000         0.6332        -999.25          0.557        -47.097       1.269012              1
      7987.0000         0.6293        -999.25         0.5511       -47.0854       1.280613              1
      7987.5000          0.625        -999.25         0.5453       -47.0739       1.292114              1
      7988.0000         0.6208        -999.25         0.5406       -47.0624       1.303612              1
      7988.5000         0.6165        -999.25         0.5368       -47.0708       1.295212              1
      7989.0000         0.6122        -999.25          0.533       -47.1733       1.192711              1
      7989.5000          0.608        -999.25         0.5292       -47.2756       1.090412              1
      7990.0000         0.6037        -999.25         0.5254       -47.3782       0.987812              1
      7990.5000         0.5995        -999.25         0.5216       -48.7851     -0.4190865              1
      7991.0000         0.5952        -999.25         0.5178       -48.6467     -0.2806892              1
      7991.5000         0.5926        -999.25          0.514       -48.5084     -0.1423874              1
      7992.0000         0.5899        -999.25         0.5102       -48.3701   -0.004085541              1
      7992.5000         0.5872        -999.25         0.5099       -48.2318      0.1342125              1
      7993.0000         0.5846        -999.25         0.5109       -48.0934      0.2726135              1
      7993.5000          0.586        -999.25         0.5118        -48.002      0.3640137              1
      7994.0000         0.5894        -999.25         0.5127       -47.9633      0.4027138              1
      7994.5000         0.5928        -999.25         0.5137       -47.9246      0.4414139              1
      7995.0000         0.5961        -999.25         0.5146       -47.8859       0.480114              1
      7995.5000         0.5995        -999.25         0.5155       -47.8472      0.5188141              1
      7996.0000         0.6029        -999.25         0.5165       -47.8085      0.5575142              1
      7996.5000         0.6062        -999.25         0.5174       -47.7698      0.5962143              1
      7997.0000         0.6096        -999.25         0.5184       -47.7311      0.6349144              1
      7997.5000          0.613        -999.25         0.5197       -47.7191      0.6469116              1
      7998.0000         0.6163        -999.25         0.5225       -47.7159      0.6501122              1
      7998.5000         0.6179        -999.25         0.5253       -47.7128      0.6532135              1
      7999.0000          0.619        -999.25         0.5281       -47.7095      0.6565132              1
      7999.5000         0.6201        -999.25         0.5309       -47.7064      0.6596107              1
      8000.0000         0.6212        -999.25         0.5338       -47.7032      0.6628113              1
      8000.5000         0.6223        -999.25         0.5366          -47.7      0.6660118              1
      8001.0000         0.6234        -999.25         0.5394       -47.6968      0.6692123              1
      8001.5000         0.6245        -999.25         0.5409       -47.6936      0.6724129              1
      8002.0000         0.6256        -999.25         0.5419       -47.6904      0.6756134              1
      8002.5000         0.6267        -999.25         0.5428       -47.6872      0.6788139              1
      8003.0000         0.6276        -999.25         0.5437        -47.684      0.6820145              1
      8003.5000         0.6272        -999.25         0.5446       -47.6911      0.6749115              1
      8004.0000         0.6269        -999.25         0.5455       -47.7017      0.6643143              1
      8004.5000         0.6266        -999.25         0.5464       -47.7123      0.6537132              1
      8005.0000         0.6263        -999.25         0.5473        -47.723       0.643013              1
      8005.5000          0.626        -999.25         0.5482       -47.7336       0.632412              1
      8006.0000         0.6257        -999.25         0.5492       -47.7442      0.6218109              1
      8006.5000         0.6253        -999.25         0.5501       -47.7549      0.6111107              1
      8007.0000          0.625        -999.25          0.551       -47.7655      0.6005135              1
      8007.5000         0.6252        -999.25         0.5521         -47.77      0.5960121              1
      8008.0000         0.6254        -999.25         0.5536       -47.7665       0.599514              1
      8008.5000         0.6257        -999.25         0.5551       -47.7629      0.6031113              1
      8009.0000          0.626        -999.25         0.5565       -47.7594      0.6066132              1
      8009.5000         0.6263        -999.25          0.558       -47.7559      0.6101112              1
      8010.0000         0.6266        -999.25         0.5595       -47.7524      0.6136131              1
      8010.5000         0.6269        -999.25          0.561       -47.7488      0.6172142              1
      8011.0000         0.6239        -999.25         0.5625       -47.7453      0.6207123              1
      8011.5000         0.6205        -999.25         0.5639       -47.6941      0.6719131              1
