#------------------------------------------------------------------------------
# Created by    : vladimir.rabinovich
# Created on    : 09/19/2023 17:20:45
#------------------------------------------------------------------------------
~Version Information Section
VERS.           2.0     :   CWLS log ASCII Standard - VERSION 2.0
WRAP.           NO      :   One line per depth step
~Well Information Section
#MNEM       .UNIT                                         VALUE :DESCRIPTION
#------------------------------------------------------------------------------
STRT        .FT                                            2110 :START DEPTH
STOP        .FT                                            6746 :STOP DEPTH
STEP        .FT                                             0.5 :STEP      
NULL        .                                           -999.25 :NULL      
COMP        .                       HOUSTON OIL & MINERALS CORP :COMPANY   
WELL        .                                ST TR 00694-L NE/4 :WELL      
FLD         .                                           WILDCAT :FIELD     
LOC         .                                                   :LOCATION  
CNTY        .                      MATAGORDA ISLAND LARGE BLOCK :LOCATION  
STAT        .                                             TEXAS :STATE     
CTRY        .                                     UNITED STATES :COUNTRY   
SRVC        .                                                   :SERVICE COMPANY
DATE        .                             9/13/2023 11:12:01 AM :LOG DATE  
API         .                                    42703302070000 :API NUMBER
UWI         .                                    42703302070000 :UNIQUE WELL ID
XCOORD      .                                  400461.464340365 :SURFACE X 
YCOORD      .                                  10145980.2526086 :SURFACE Y 
LAT         .                                        27.9055609 :LATITUDE  
LON         .                                       -96.8388291 :LONGITUDE 
ELEV        .FT                                              25 :ELEVATION VALUE
ELEV_TYPE   .                                                KB :ELEVATION REFERENCE TYPE
~Curve Information Section
#MNEM       .UNIT                                      API CODE :CURVE DESCRIPTION
#------------------------------------------------------------------------------
DEPT        .FT                                                 :DEPTH     
ASN         .OHMM                                               :          
CILD        .MMHO                                               :          
ILD         .OHMM                                               :          
SP          .MV                                                 :          
SP_NORM     .MV                                                 :SP Normalized
VSH_SP      .V/V                                                :Volume of Shale from SP
~A        DEPTH            ASN           CILD            ILD             SP        SP_NORM         VSH_SP
# ...
      5796.0000         0.6783       2359.297         0.3467      -102.6368        -64.901    0.001571413
      5796.5000          0.672       2358.984         0.3467      -102.4564       -64.7206    0.004434979
      5797.0000         0.6658       2358.676         0.3468      -102.2568        -64.521    0.007603115
      5797.5000         0.6622       2357.082         0.3469      -101.9838        -64.248     0.01193649
      5798.0000         0.6607       2354.137         0.3472      -101.7939        -64.058      0.0149524
      5798.5000         0.6616       2351.195         0.3482      -102.0349        -64.299     0.01112693
      5799.0000         0.6646       2348.246         0.3493      -102.2758       -64.5399    0.007303147
      5799.5000         0.6676       2345.305         0.3503      -102.5232       -64.7874    0.003374615
      5800.0000          0.671       2342.359         0.3513      -102.7769        -65.041              0
      5800.5000         0.6745       2338.078         0.3524      -103.0305       -65.2946              0
      5801.0000         0.6779       2332.406         0.3534      -103.2839        -65.548              0
      5801.5000         0.6814        2326.73         0.3545      -103.5376       -65.8017              0
      5802.0000         0.6811       2321.059         0.3555      -103.7913       -66.0555              0
      5802.5000         0.6807       2315.383         0.3565      -104.0409       -66.3051              0
      5803.0000         0.6802       2309.727         0.3576      -104.2784       -66.5425              0
      5803.5000         0.6796       2304.098         0.3586      -104.5159         -66.78              0
      5804.0000         0.6787       2298.473         0.3596       -104.421       -66.6852              0
      5804.5000         0.6778       2292.844         0.3602      -103.6942       -65.9583              0
      5805.0000          0.677       2287.211         0.3609      -103.4006       -65.6647              0
      5805.5000         0.6761       2281.582         0.3616      -103.1074       -65.3716              0
      5806.0000         0.6752       2275.957         0.3622      -103.0314       -65.2955              0
      5806.5000         0.6744       2272.262         0.3629      -103.0316       -65.2957              0
      5807.0000          0.674       2271.816         0.3635       -103.032       -65.2961              0
      5807.5000         0.6753       2271.375         0.3642      -103.0406       -65.3047              0
      5808.0000         0.6767        2270.93         0.3648      -103.1285       -65.3927              0
      5808.5000         0.6781       2275.027         0.3655      -103.2164       -65.4805              0
      5809.0000         0.6796       2280.793         0.3661      -103.3044       -65.5685              0
      5809.5000         0.6818       2286.566         0.3668      -103.4366       -65.7007              0
      5810.0000         0.6841       2292.332         0.3674      -103.6212       -65.8853              0
      5810.5000         0.6863       2305.691         0.3673      -103.8058       -66.0699              0
      5811.0000         0.6885       2320.094         0.3645      -103.9904       -66.2545              0
      5811.5000         0.6908       2334.484         0.3616      -104.1749        -66.439              0
      5812.0000         0.6929       2348.801         0.3588      -104.3596       -66.6237              0
      5812.5000         0.6937       2358.734          0.356      -104.5825       -66.8466              0
      5813.0000         0.6944       2368.664         0.3531      -104.8611       -67.1252              0
      5813.5000          0.692       2378.598         0.3503        -105.14       -67.4041              0
      5814.0000         0.6888       2388.531         0.3475      -105.4186       -67.6828              0
      5814.5000         0.6856       2398.465         0.3447      -105.6974       -67.9615              0
      5815.0000         0.6832       2403.758         0.3418       -105.976       -68.2401              0
      5815.5000         0.6816       2407.441         0.3369      -106.1765       -68.4406              0
      5816.0000         0.6799       2411.129         0.3297      -106.3743       -68.6384              0
      5816.5000         0.6782       2410.406         0.3226      -106.5276       -68.7917              0
      5817.0000         0.6765        2392.59         0.3155      -106.4155       -68.6796              0
      5817.5000         0.6748       2358.199         0.3084       -105.412       -67.6761              0
      5818.0000         0.6813       2323.781         0.3014      -103.9142       -66.1783              0
      5818.5000         0.6887       2281.371         0.2944      -100.1692       -62.4333     0.04074127
      5819.0000         0.7058       2219.094         0.3051       -97.4027       -59.6669     0.08465237
      5819.5000         0.7721       2026.402         0.3868       -96.3574       -58.6215      0.1012461
      5820.0000         1.0291       1775.707         0.4684       -96.2191       -58.4832      0.1034413
      5820.5000         1.2861       1525.008         0.5497       -96.0808        -58.345      0.1056349
      5821.0000         1.5433       1274.311           0.63       -95.9476       -58.2118      0.1077492
      5821.5000         1.6083       1216.504         0.6146        -95.926       -58.1902       0.108092
      5822.0000         1.4615       1309.076         0.5852       -96.0226       -58.2867      0.1065603
      5822.5000         1.3148       1401.646          0.556       -96.5361       -58.8003     0.09840792
      5823.0000         1.1682       1494.119         0.5267       -97.0498       -59.3139     0.09025556
      5823.5000         1.0215       1586.689         0.4974       -97.8546       -60.1187     0.07748098
      5824.0000         0.8697       1679.262         0.4681       -98.7262       -60.9903     0.06364604
      5824.5000         0.8055       1771.732         0.4404       -99.6189        -61.883      0.0494762
      5825.0000         0.7906       1864.305         0.4136        -101.28       -63.5441      0.0231095
      5825.5000         0.7782       1956.875         0.3869      -101.0609        -63.325     0.02658729
      5826.0000         0.7653       2049.348         0.3602      -100.8419       -63.1061     0.03006193
      5826.5000         0.7524       2140.129         0.3334      -100.6228        -62.887     0.03353967
      5827.0000         0.7426       2256.738         0.3067      -100.4037       -62.6679     0.03701746
      5827.5000         0.7354       2282.859         0.2855      -100.1847       -62.4488     0.04049525
      5828.0000         0.7281       2264.559         0.2743       -99.9656       -62.2297     0.04397304
      5828.5000         0.7209       2290.508         0.2631       -99.7467       -62.0108     0.04744763
      5829.0000         0.7193       2316.234         0.2613       -99.5275       -61.7916     0.05092699
      5829.5000         0.7183       2341.887         0.2683       -99.6412       -61.9053     0.04912222
      5830.0000         0.7204       2367.559         0.2752      -100.0907       -62.3548     0.04198728
      5830.5000         0.7239        2379.02         0.2834      -100.5546       -62.8188     0.03462219
      5831.0000         0.7274       2367.984         0.3084      -100.9917       -63.2558     0.02768574
      5831.5000         0.7312       2336.594         0.3333      -101.1714       -63.4356     0.02483174
      5832.0000         0.7461       2270.445         0.3582      -101.3512       -63.6153     0.02197938
      5832.5000         0.7611       2204.344         0.3832      -101.3223       -63.5865     0.02243653
      5833.0000         0.7852       2118.578         0.4283      -101.2634       -63.5275     0.02337301
      5833.5000         0.8453       1974.555         0.4879       -101.028       -63.2921     0.02710954
