#------------------------------------------------------------------------------
# Created by    : vladimir.rabinovich
# Created on    : 09/19/2023 17:22:56
#------------------------------------------------------------------------------
~Version Information Section
VERS.           2.0     :   CWLS log ASCII Standard - VERSION 2.0
WRAP.           NO      :   One line per depth step
~Well Information Section
#MNEM       .UNIT                                         VALUE :DESCRIPTION
#------------------------------------------------------------------------------
STRT        .FT                                             671 :START DEPTH
STOP        .FT                                           10000 :STOP DEPTH
STEP        .FT                                             0.5 :STEP      
NULL        .                                           -999.25 :NULL      
COMP        .                                    MOBIL OIL CORP :COMPANY   
WELL        .                                     ST TR 00565-L :WELL      
FLD         .                                           WILDCAT :FIELD     
LOC         .                                                   :LOCATION  
CNTY        .                      MATAGORDA ISLAND LARGE BLOCK :LOCATION  
STAT        .                                             TEXAS :STATE     
CTRY        .                                     UNITED STATES :COUNTRY   
SRVC        .                                                   :SERVICE COMPANY
DATE        .                             9/13/2023 11:12:05 AM :LOG DATE  
API         .                                    42703000150000 :API NUMBER
UWI         .                                    42703000150000 :UNIQUE WELL ID
XCOORD      .                                  584511.465629887 :SURFACE X 
YCOORD      .                                  10263641.5286434 :SURFACE Y 
LAT         .                                         28.243485 :LATITUDE  
LON         .                                       -96.2796592 :LONGITUDE 
ELEV        .FT                                              11 :ELEVATION VALUE
ELEV_TYPE   .                                                KB :ELEVATION REFERENCE TYPE
~Curve Information Section
#MNEM       .UNIT                                      API CODE :CURVE DESCRIPTION
#------------------------------------------------------------------------------
DEPT        .FT                                                 :DEPTH     
SP          .MV                                                 :          
SP_NORM     .MV                                                 :SP Normalized
VSH_SP      .V/V                                                :Volume of Shale from SP
~A        DEPTH             SP        SP_NORM         VSH_SP
       671.0000         6.0698        -1.9882              1
       671.5000          7.067        -0.6793              1
       672.0000         8.3069        -0.1436              1
       672.5000        10.4112        -2.2479              1
       673.0000        10.6536        -2.4903              1
       673.5000         10.731        -2.5677              1
       674.0000        10.8072        -2.6439              1
       674.5000        10.7834        -2.6201              1
       675.0000        10.7442        -2.5809              1
       675.5000        10.6943         -2.531              1
       676.0000        10.6228        -2.4595              1
       676.5000        10.6187        -2.4554              1
       677.0000        10.7234        -2.5601              1
       677.5000        10.9421        -2.7788              1
       678.0000        11.3428        -3.1795              1
       678.5000        11.5839        -3.4206              1
       679.0000        11.6886        -3.5253              1
       679.5000        11.8441        -3.6808              1
       680.0000        12.0462        -3.8829              1
       680.5000        12.3952        -4.2319      0.9710125
       681.0000        12.8908        -4.7275      0.9090625
       681.5000        13.1472        -4.9839      0.8770125
       682.0000        13.0105        -4.8472         0.8941
       682.5000        12.8273         -4.664          0.917
       683.0000        12.5029        -4.3396        0.95755
       683.5000        12.1673         -4.004         0.9995
       684.0000        11.9193         -3.756              1
       684.5000         11.747        -3.5837              1
       685.0000        11.5748        -3.4115              1
       685.5000        11.4215        -3.2582              1
       686.0000        11.2686        -3.1053              1
       686.5000        11.0838        -2.9205              1
       687.0000         10.792        -2.6287              1
       687.5000        10.7531        -2.5898              1
       688.0000        11.0306        -2.8673              1
       688.5000        11.4173         -3.254              1
       689.0000        11.6428        -3.4795              1
       689.5000        11.7556        -3.5923              1
       690.0000        11.8583         -3.695              1
       690.5000        11.8674        -3.7041              1
       691.0000        11.8765        -3.7132              1
       691.5000        11.9966        -3.8333              1
       692.0000          12.15        -3.9867              1
       692.5000        12.3825        -4.2192         0.9726
       693.0000        12.8254        -4.6621      0.9172375
       693.5000        13.0314        -4.8681      0.8914875
       694.0000        13.0588        -4.8955      0.8880625
       694.5000        12.9913         -4.828         0.8965
       695.0000        13.0798        -4.9165      0.8854375
       695.5000        13.1684        -5.0051      0.8743625
       696.0000        13.5398        -5.3765      0.8279375
       696.5000        13.9427        -5.7794       0.777575
       697.0000        14.2037        -6.0404        0.74495
       697.5000        14.3084        -6.1451      0.7318625
       698.0000         14.494        -6.3307      0.7086625
       698.5000        14.7438        -6.5805      0.6774375
       699.0000         14.965        -6.8017      0.6497875
       699.5000        15.1615        -6.9982       0.625225
       700.0000        15.1734        -7.0101      0.6237375
       700.5000        15.0954        -6.9321      0.6334875
       701.0000        14.8568        -6.6935      0.6633125
       701.5000        14.6181        -6.4548        0.69315
       702.0000        14.4293         -6.266        0.71675
       702.5000        14.2444        -6.0811      0.7398625
       703.0000        14.0595        -5.8962       0.762975
       703.5000        14.1639        -6.0006       0.749925
       704.0000        14.3278        -6.1645      0.7294375
       704.5000        14.5024        -6.3391      0.7076125
       705.0000        14.5047        -6.3414       0.707325
       705.5000        14.4507        -6.2874       0.714075
       706.0000        14.2781        -6.1148        0.73565
       706.5000        14.0106        -5.8473      0.7690875
       707.0000         13.743        -5.5797      0.8025375
       707.5000        13.5289        -5.3656         0.8293
       708.0000        13.3364        -5.1731      0.8533625
       708.5000        13.1438        -4.9805      0.8774375
       709.0000        12.9528        -4.7895      0.9013125
       709.5000        12.7793         -4.616          0.923
       710.0000        12.8962        -4.7329      0.9083875
       710.5000        13.3492        -5.1859      0.8517625
       711.0000        13.9086        -5.7453      0.7818375
       711.5000        14.5013         -6.338        0.70775
       712.0000        14.7838        -6.6205      0.6724375
       712.5000        15.0663         -6.903       0.637125
       713.0000        15.3316        -7.1683      0.6039625
       713.5000        15.4341        -7.2708        0.59115
       714.0000        15.5366        -7.3733      0.5783375
       714.5000        15.6022        -7.4389      0.5701375
       715.0000        15.5929        -7.4296         0.5713
       715.5000        15.5836        -7.4203      0.5724625
       716.0000        15.5743         -7.411       0.573625
       716.5000        15.5519        -7.3886       0.576425
       717.0000        15.5048        -7.3415      0.5823125
       717.5000        15.4577        -7.2944         0.5882
       718.0000        15.4107        -7.2474       0.594075
       718.5000        15.3944        -7.2311      0.5961125
       719.0000        15.5484        -7.3851      0.5768625
       719.5000        15.6355        -7.4722       0.565975
       720.0000        15.6743         -7.511       0.561125
       720.5000        15.6355        -7.4722       0.565975
       721.0000         15.596        -7.4327      0.5709125
       721.5000        15.5566        -7.3933      0.5758375
       722.0000        15.6373         -7.474        0.56575
       722.5000        15.7182        -7.5549      0.5556375
       723.0000        15.7992        -7.6359      0.5455125
       723.5000        15.8832        -7.7199      0.5350125
       724.0000        15.9772        -7.8139      0.5232625
       724.5000        16.0711        -7.9078       0.511525
       725.0000         16.058        -7.8947      0.5131625
       725.5000        16.0286        -7.8653      0.5168375
       726.0000        16.1443         -7.981       0.502375
       726.5000        16.3469        -8.1836      0.4770499
       727.0000        16.5539        -8.3906       0.451175
       727.5000        16.5916        -8.4283      0.4464625
       728.0000        16.6291        -8.4658       0.441775
       728.5000         16.587        -8.4237      0.4470375
       729.0000        16.5402        -8.3769      0.4528875
       729.5000        16.4934        -8.3301      0.4587375
       730.0000        16.4294        -8.2661      0.4667375
       730.5000        16.2682        -8.1049      0.4868875
       731.0000        16.1071        -7.9438       0.507025
       731.5000        15.9459        -7.7826       0.527175
       732.0000        15.8363         -7.673       0.540875
       732.5000        15.7307        -7.5674       0.554075
       733.0000        15.6252        -7.4619      0.5672625
       733.5000        15.6321        -7.4688         0.5664
       734.0000        15.6836        -7.5203      0.5599625
       734.5000         15.735        -7.5717      0.5535375
       735.0000        15.8648        -7.7015      0.5373125
       735.5000        15.9993         -7.836         0.5205
       736.0000        16.1339        -7.9706       0.503675
       736.5000        16.2129        -8.0496         0.4938
