#------------------------------------------------------------------------------
# Created by    : vladimir.rabinovich
# Created on    : 09/19/2023 17:20:38
#------------------------------------------------------------------------------
~Version Information Section
VERS.           2.0     :   CWLS log ASCII Standard - VERSION 2.0
WRAP.           NO      :   One line per depth step
~Well Information Section
#MNEM       .UNIT                                         VALUE :DESCRIPTION
#------------------------------------------------------------------------------
STRT        .FT                                             510 :START DEPTH
STOP        .FT                                            8711 :STOP DEPTH
STEP        .FT                                             0.5 :STEP      
NULL        .                                           -999.25 :NULL      
COMP        .                                      SHELL OIL CO :COMPANY   
WELL        .                                OCS 00708 ST00BP00 :WELL      
FLD         .                                           WILDCAT :FIELD     
LOC         .                                                   :LOCATION  
CNTY        .                             GALVESTON LARGE BLOCK :LOCATION  
STAT        .                                             TEXAS :STATE     
CTRY        .                                     UNITED STATES :COUNTRY   
SRVC        .                                                   :SERVICE COMPANY
DATE        .                             9/13/2023 11:19:25 AM :LOG DATE  
API         .                                    42706000300000 :API NUMBER
UWI         .                                    42706000300000 :UNIQUE WELL ID
XCOORD      .                                  1082576.09526943 :SURFACE X 
YCOORD      .                                  10493698.2734572 :SURFACE Y 
LAT         .                                         28.904546 :LATITUDE  
LON         .                                        -94.743912 :LONGITUDE 
ELEV        .FT                                              92 :ELEVATION VALUE
ELEV_TYPE   .                                                KB :ELEVATION REFERENCE TYPE
~Curve Information Section
#MNEM       .UNIT                                      API CODE :CURVE DESCRIPTION
#------------------------------------------------------------------------------
DEPT        .FT                                                 :DEPTH     
ASN         .OHMM                                               :          
CILD        .MMHO                                               :          
DT          .US/F                                               :          
ILD         .OHMM                                               :          
SP          .MV                                                 :          
SP_NORM     .MV                                                 :SP Normalized
VSH_SP      .V/V                                                :Volume of Shale from SP
~A        DEPTH            ASN           CILD             DT            ILD             SP        SP_NORM         VSH_SP
# ...
      5401.0000         0.7436       2266.766       115.9262         0.8101         -93.79      -36.67138      0.1936888
      5401.5000          0.738         2235.5       116.5893         0.8281       -91.1874      -34.07123      0.2541575
      5402.0000         0.7418       2212.711       117.6631         0.8461       -88.4136      -31.29987      0.3186076
      5402.5000         0.7618       2140.547       118.5392         0.8641       -86.2544      -29.14312      0.3687646
      5403.0000         0.7806       2001.611       121.6996         0.8821       -78.4419      -21.33307      0.5503936
      5403.5000         0.7917       1974.334       123.8988         0.8968       -70.7285      -13.62212      0.7297182
      5404.0000         0.8029        1796.65       124.6508         0.9081       -69.2369      -12.13297      0.7643496
      5404.5000         0.8151       1602.291       125.2233         0.9194       -67.4482      -10.34671      0.8058906
      5405.0000         0.8273       1439.934       126.7975         0.9308       -65.7213      -8.622257       0.845994
      5405.5000         0.8441       1394.727       127.2775          0.935       -64.2692      -7.172607      0.8797068
      5406.0000         0.8446       1386.152       127.3887         0.9363       -63.2223      -6.128151      0.9039965
      5406.5000         0.8379       1374.848       126.3485         0.9376       -64.3209      -7.229198      0.8783907
      5407.0000         0.8312       1365.082       124.9187         0.9389       -64.9907      -7.901443      0.8627571
      5407.5000         0.8262       1356.193        123.748         0.9403       -64.3558       -7.26899      0.8774654
      5408.0000          0.824       1347.283       122.2568         0.9386       -63.7407      -6.656338      0.8917131
      5408.5000          0.838       1337.271       119.2792         0.9306       -63.1514      -6.069489      0.9053608
      5409.0000         0.8519       1339.248       115.8962         0.9095       -64.4921      -7.412636      0.8741248
      5409.5000         0.8688       1383.344       111.3821         0.8765       -68.1664      -11.08938      0.7886191
      5410.0000         0.8041       1434.631       108.9156         0.8435       -72.5206      -15.44603      0.6873017
      5410.5000          0.777       1484.658       107.8948         0.8111       -77.2758      -20.20367      0.5766587
      5411.0000         0.7517       1547.182       107.0685         0.7821       -82.0308      -24.96112      0.4660205
      5411.5000         0.7151       1707.291       108.6563          0.753       -86.7812      -29.71396      0.3554893
      5412.0000         0.6842       1942.734       111.5703          0.724       -94.5802      -37.51542      0.1740601
      5412.5000         0.6646       1962.287       113.1751         0.6949       -99.1191      -42.05676     0.06844738
      5413.0000         0.6449       1980.807       114.0118         0.6658      -102.8419      -45.78201              0
      5413.5000         0.6285       2001.055       114.1501         0.6398      -103.6614      -46.60395              0
      5414.0000         0.6126       2001.475       114.1488          0.616      -104.1472       -47.0922              0
      5414.5000          0.597       2000.549       113.2328         0.5923      -104.5662      -47.51365              0
      5415.0000          0.582       1999.621       112.8193         0.5685      -104.9307       -47.8806              0
      5415.5000         0.5709       1998.693       113.8655         0.5824      -105.2025      -48.15484              0
      5416.0000         0.5981       1998.234       112.7712         0.6061      -104.2456      -47.20039              0
      5416.5000         0.6243       1997.824        112.466         0.6298       -98.2681      -41.22533     0.08778293
      5417.0000         0.6481       1997.193       112.5508         0.6535       -93.8597      -36.81939      0.1902469
      5417.5000         0.6719       1996.004       112.8483         0.6772       -92.0452      -35.00733      0.2323877
      5418.0000         0.6939       1976.244       112.6822         0.6998       -89.8995      -32.86407      0.2822308
      5418.5000         0.7136       1944.824       112.5304         0.7178       -86.3208      -29.28782      0.3653995
      5419.0000         0.7314       1882.861        112.504         0.7357       -84.7966      -27.76607      0.4007891
      5419.5000         0.7495       1851.488       112.8721         0.7537       -83.2725      -26.24442      0.4361764
      5420.0000         0.7778       1831.879       113.7159         0.7716       -82.8047      -25.77907      0.4469984
      5420.5000         0.7771        1820.17       114.5836         0.7533       -83.3658      -26.34261      0.4338928
      5421.0000         0.7576       1922.207        114.927         0.7345        -83.927      -26.90626      0.4207846
      5421.5000         0.7381       2107.375       114.8463         0.7157        -86.412      -29.39371       0.362937
      5422.0000         0.7182       2473.891       114.8304         0.6969       -90.8923      -33.87646       0.258687
      5422.5000         0.6971       2748.031       113.7704         0.6784       -94.7491       -37.7357      0.1689372
      5423.0000          0.676        2787.16       112.5244          0.687       -97.6107      -40.59975      0.1023315
      5423.5000         0.6566       2766.238       112.0211         0.6956       -92.6964       -35.6879      0.2165605
      5424.0000         0.6639       2715.086        111.648         0.7042       -92.1071      -35.10104      0.2302084
      5424.5000         0.6864       2674.902       111.8068         0.7128       -90.9509      -33.94728      0.2570399
      5425.0000         0.7089       2557.313        112.233         0.7217       -88.5892      -31.58804      0.3119062
      5425.5000         0.7314       2463.641       114.0473         0.7473       -86.7823      -29.78358      0.3538701
      5426.0000         0.7497       2379.047       115.2331         0.7729       -91.5903      -34.59403      0.2419993
      5426.5000         0.7629       2106.656       113.3463         0.7871       -94.8099      -37.81607      0.1670681
      5427.0000         0.7639       2067.371       113.8338         0.7583       -95.4539      -38.46252      0.1520343
      5427.5000         0.7498       2039.188       115.2292         0.7296       -91.5295      -34.54057      0.2432426
      5428.0000         0.7361       2018.701       115.1027         0.7008       -88.8076      -31.82112      0.3064857
      5428.5000         0.7226       2158.168         113.76          0.672        -83.116      -26.13196      0.4387917
      5429.0000         0.7091       2420.219         115.11         0.6481       -89.0146      -32.03301      0.3015578
      5429.5000         0.7207       2495.867       117.0717         0.6251       -96.8586      -39.87945      0.1190825
      5430.0000         0.7353       2577.992       118.0558         0.6369       -95.9631       -38.9864      0.1398512
      5430.5000         0.6723       3305.266       118.0149         0.6679        -96.808      -39.83375      0.1201454
      5431.0000         0.6716       3474.027       118.0243         0.6989       -97.9979       -41.0261     0.09241636
      5431.5000         0.6708       3465.465       120.4571         0.7298       -99.3162      -42.34684     0.06170131
      5432.0000         0.6682       3202.422       121.7155         0.7592      -100.5792      -43.61229     0.03227234
      5432.5000          0.662       2939.199       121.7495         0.7833       -98.6914      -41.72694     0.07611776
      5433.0000         0.6558        2676.16       119.8948         0.8074       -89.0101      -32.04808      0.3012073
      5433.5000         0.7446       2413.117       116.9091         0.8315       -82.6792      -25.71963      0.4483807
      5434.0000         0.7678       2150.074        114.906         0.8556       -76.3436      -19.38647      0.5956634
