#------------------------------------------------------------------------------
# Created by    : vladimir.rabinovich
# Created on    : 09/19/2023 17:20:24
#------------------------------------------------------------------------------
~Version Information Section
VERS.           2.0     :   CWLS log ASCII Standard - VERSION 2.0
WRAP.           NO      :   One line per depth step
~Well Information Section
#MNEM       .UNIT                                         VALUE :DESCRIPTION
#------------------------------------------------------------------------------
STRT        .FT                                            1590 :START DEPTH
STOP        .FT                                            8991 :STOP DEPTH
STEP        .FT                                             0.5 :STEP      
NULL        .                                           -999.25 :NULL      
COMP        .                                 C & K OFFSHORE CO :COMPANY   
WELL        .                                OCS 00507 ST00BP00 :WELL      
FLD         .                                           WILDCAT :FIELD     
LOC         .                                                   :LOCATION  
CNTY        .                           HIGH ISLAND LARGE BLOCK :LOCATION  
STAT        .                                             TEXAS :STATE     
CTRY        .                                     UNITED STATES :COUNTRY   
SRVC        .                                                   :SERVICE COMPANY
DATE        .                             9/13/2023 11:19:15 AM :LOG DATE  
API         .                                    42708300260000 :API NUMBER
UWI         .                                    42708300260000 :UNIQUE WELL ID
XCOORD      .                                  1287575.74118613 :SURFACE X 
YCOORD      .                                  10681645.7296129 :SURFACE Y 
LAT         .                                         29.428295 :LATITUDE  
LON         .                                        -94.108714 :LONGITUDE 
ELEV        .FT                                              73 :ELEVATION VALUE
ELEV_TYPE   .                                                KB :ELEVATION REFERENCE TYPE
~Curve Information Section
#MNEM       .UNIT                                      API CODE :CURVE DESCRIPTION
#------------------------------------------------------------------------------
DEPT        .FT                                                 :DEPTH     
ASN         .OHMM                                               :          
CALI        .IN                                                 :          
CILD        .MMHO                                               :          
DT          .US/F                                               :          
GR          .GAPI                                               :          
GR_NORM     .GAPI                                               :GammaRay Normalized
ILD         .OHMM                                               :          
SP          .MV                                                 :          
SP_NORM     .MV                                                 :SP Normalized
VSH_GR      .V/V                                                :Volume of Shale from GR
VSH_SP      .V/V                                                :Volume of Shale from SP
~A        DEPTH            ASN           CALI           CILD             DT             GR        GR_NORM            ILD             SP        SP_NORM         VSH_GR         VSH_SP
# ...
      5032.5000         0.7278        11.5369        3959.25       105.3656         40.416        38.2307         0.2537       -97.3707      -55.83519      0.1112914      0.2023545
      5033.0000         0.7146        11.5617       3440.094       112.3282        43.0818       41.56219         0.2765        -90.738      -49.20184      0.1821743      0.2971165
      5033.5000         0.7173         10.538       2579.926       113.9542        46.8312       46.24819          0.303       -87.2477       -45.7109      0.2818764      0.3469872
      5034.0000         0.7428          10.37       2129.484       109.0813        50.2507       50.52181         0.3574       -82.2942      -40.75675      0.3728045      0.4177607
      5034.5000           0.77        10.3919       2064.473       107.3583        54.2592       55.53168         0.4081       -78.9307       -37.3926      0.4793976      0.4658199
      5035.0000         0.7974         10.522       2011.281       110.4552        56.2958       58.07668         0.4569       -75.5696      -34.03086      0.5335463      0.5138449
      5035.5000         0.8289        10.7817       1976.406       116.2325        57.2778       59.30343         0.4831       -72.4891      -30.94971      0.5596474      0.5578613
      5036.0000         0.8637        11.0167       1952.971       122.3312        57.8387        60.0038         0.5036        -68.902      -27.36196      0.5745488      0.6091148
      5036.5000         0.8924        11.2452       1978.098       124.6121        58.5337       60.87179         0.5241       -68.1021      -26.56141      0.5930169      0.6205512
      5037.0000         0.8997        11.4073       1929.314       116.0942        59.0303       61.49178          0.543       -71.1924      -29.65107      0.6062081      0.5764133
      5037.5000         0.8582        11.5076       1451.145       104.1885        59.8469       62.51178         0.5612       -70.1589      -28.61692      0.6279102      0.5911868
      5038.0000         0.8172        11.4286       1367.219        94.0632        61.2064        64.2104         0.5794       -68.6075      -27.06487      0.6640511       0.613359
      5038.5000         0.7916        11.4893       1310.672        93.4739        57.2234        59.2309         0.5977        -67.168      -25.62473      0.5581042      0.6339324
      5039.0000         0.7709         11.694       1286.666       101.1614         52.092       52.81589         0.6266       -65.6576      -24.11368      0.4216147      0.6555188
      5039.5000          0.768        12.1452       1268.945       117.4335        48.3702       48.16289         0.6611       -54.2068      -12.66224      0.3226146      0.8191109
      5040.0000         0.7994        12.1003       1253.463       120.6509        48.3702       48.16214         0.7253       -55.2513      -13.70609      0.3225986      0.8041987
      5040.5000         0.8327        11.9677       1239.725       115.2787        51.7936       52.44063         0.7823       -56.3643      -14.81844      0.4136304       0.788308
      5041.0000         0.8715        10.8035       1236.602       113.7986        55.0209         56.474         0.8242       -57.7529      -16.20639      0.4994469      0.7684801
      5041.5000         0.9208        10.5208       1321.424       112.4431        56.4961       58.31725         0.8173       -58.7528      -17.20565      0.5386649       0.754205
      5042.0000         0.9533        10.4422       1406.244       110.6133        57.5477         59.631         0.7883       -59.3689       -17.8211       0.566617      0.7454128
      5042.5000         0.9533        10.4446       1491.066       109.1826        57.7524       59.88612         0.7355       -59.5059      -17.95746       0.572045      0.7434649
      5043.0000         0.8664        10.4238       1557.721       111.8192        56.4283       58.23024         0.6797       -59.6174      -18.06831      0.5368136      0.7418813
      5043.5000         0.8133        10.3561       1614.816       114.0531        55.1376       56.61611         0.6313       -61.1638      -19.61406      0.5024704      0.7197991
      5044.0000         0.7775        10.2718       1685.799        116.172        54.1375       55.36523         0.5895       -65.0837      -23.53332       0.475856      0.6638098
      5044.5000         0.7547         10.168         1763.9       117.7535        54.5909       55.93123         0.5477       -68.9517      -27.40067      0.4878985      0.6085619
      5045.0000         0.7437        10.3121       1841.904       118.9224        56.7817       58.66898         0.5164       -72.3842      -30.83252      0.5461484      0.5595354
      5045.5000          0.741        10.5881       2195.441       119.7632        55.4841       57.04622         0.4885       -73.0642      -31.51188      0.5116218      0.5498303
      5046.0000         0.7401        10.4433        2403.25       119.5339        51.3716       51.90485         0.4615       -73.8281      -32.27513      0.4022308      0.5389267
      5046.5000         0.7391        10.6151           2632       118.6493         49.283       49.29334         0.4385       -74.9274      -33.37378      0.3466669      0.5232317
      5047.0000         0.7373        10.8089         2860.5       118.0569        48.5782       48.41158         0.4129       -77.3557      -35.80143       0.327906       0.488551
      5047.5000         0.7318         10.885        3089.25       117.5138        48.3775       48.15995         0.3865       -95.1748      -53.61989      0.3225521      0.2340016
      5048.0000         0.7142        11.1361           3318       118.1427        48.9296       48.84932           0.36       -98.0514      -56.49584      0.3372196      0.1929165
      5048.5000         0.6857        10.9985        3546.75       118.8594        49.9543       50.12944         0.3336      -100.3842        -58.828      0.3644562         0.1596
      5049.0000         0.6481        10.7993        3775.25       119.5262        51.4384       51.98381         0.3115      -102.9602      -61.40335      0.4039109      0.1228093
      5049.5000         0.6095        10.4659           4004       119.0317        52.3844       53.16556         0.2896      -106.6914       -65.1339      0.4290544     0.06951567
      5050.0000         0.5779        10.5411       4119.773       118.4059        52.5201       53.33443         0.2676      -106.8058      -65.24766      0.4326475     0.06789061
      5050.5000         0.5457        10.6916       4568.773       118.7728        53.1437       54.11318         0.2457      -108.0957      -66.53691      0.4492165      0.0494727
      5051.0000         0.5033        10.7879       4632.242       119.8302         53.567       54.64155         0.2288      -103.1714      -61.61197      0.4604585      0.1198291
      5051.5000         0.4635        10.9564       4643.742       119.8973        52.6329       53.47317         0.2158      -101.8361      -60.27602      0.4355994       0.138914
      5052.0000         0.4536        11.2349       4589.461       119.6294        51.5257       52.08842         0.2029      -102.3262      -60.76547      0.4061365      0.1319218
      5052.5000         0.4523        11.3406       4478.773       123.1541        51.2114       51.69479         0.2048      -103.2869      -61.72552      0.3977615      0.1182068
      5053.0000         0.4531        11.3897       4368.961       126.3418        50.8701       51.26741         0.2116        -104.97      -63.40798      0.3886683     0.09417174
      5053.5000         0.4539        11.3239       4329.789       130.2881        50.0701       50.26665         0.2224       -105.804      -64.24133      0.3673756     0.08226667
      5054.0000         0.4698        11.0558       4298.727       134.3079        48.5665       48.38641         0.2368      -104.7799      -63.21658      0.3273703     0.09690595
      5054.5000         0.4878        10.5532       4244.023       132.6565        46.3414       45.60428         0.2511      -103.7657      -62.20174      0.2681761      0.1114038
