#------------------------------------------------------------------------------
# Created by    : vladimir.rabinovich
# Created on    : 09/19/2023 17:20:33
#------------------------------------------------------------------------------
~Version Information Section
VERS.           2.0     :   CWLS log ASCII Standard - VERSION 2.0
WRAP.           NO      :   One line per depth step
~Well Information Section
#MNEM       .UNIT                                         VALUE :DESCRIPTION
#------------------------------------------------------------------------------
STRT        .FT                                             526 :START DEPTH
STOP        .FT                                            9568 :STOP DEPTH
STEP        .FT                                             0.5 :STEP      
NULL        .                                           -999.25 :NULL      
COMP        .                       BLUE DOLPHIN EXPLORATION CO :COMPANY   
WELL        .                                OCS 00713 ST00BP00 :WELL      
FLD         .                              GALVESTON BLOCK 0288 :FIELD     
LOC         .                                                   :LOCATION  
CNTY        .                             GALVESTON LARGE BLOCK :LOCATION  
STAT        .                                             TEXAS :STATE     
CTRY        .                                     UNITED STATES :COUNTRY   
SRVC        .                                                   :SERVICE COMPANY
DATE        .                             9/13/2023 11:19:25 AM :LOG DATE  
API         .                                    42706000630000 :API NUMBER
UWI         .                                    42706000630000 :UNIQUE WELL ID
XCOORD      .                                  1101981.32688909 :SURFACE X 
YCOORD      .                                  10481575.8265757 :SURFACE Y 
LAT         .                                          28.87198 :LATITUDE  
LON         .                                        -94.682732 :LONGITUDE 
ELEV        .FT                                              58 :ELEVATION VALUE
ELEV_TYPE   .                                                KB :ELEVATION REFERENCE TYPE
~Curve Information Section
#MNEM       .UNIT                                      API CODE :CURVE DESCRIPTION
#------------------------------------------------------------------------------
DEPT        .FT                                                 :DEPTH     
ASN         .OHMM                                               :          
CALI        .IN                                                 :          
DT          .US/F                                               :          
ILD         .OHMM                                               :          
SP          .MV                                                 :          
SP_NORM     .MV                                                 :SP Normalized
VSH_SP      .V/V                                                :Volume of Shale from SP
~A        DEPTH            ASN           CALI             DT            ILD             SP        SP_NORM         VSH_SP
# ...
      1129.0000         1.1691        -999.25        -999.25         1.0187       -40.8809      -2.584335      0.9026108
      1129.5000         1.1514        -999.25        -999.25         1.0228       -40.6187      -2.323612      0.9460647
      1130.0000         1.1214        -999.25        -999.25         1.0366       -40.1321       -1.83849              1
      1130.5000           1.08        -999.25        -999.25         1.0456       -40.2144      -1.922268              1
      1131.0000         1.0349        -999.25        -999.25         1.0619       -40.6211      -2.330444       0.944926
      1131.5000         1.0039        -999.25        -999.25         1.0859       -40.9864       -2.69722      0.8837967
      1132.0000         0.9856        -999.25        -999.25         1.1176        -41.097      -2.809296      0.8651174
      1132.5000         0.9765        -999.25        -999.25          1.153       -40.9205      -2.634274      0.8942878
      1133.0000         0.9598        -999.25        -999.25         1.1902       -40.5281      -2.243347      0.9594421
      1133.5000         0.9282        -999.25        -999.25         1.2122       -40.3253      -2.042027      0.9929956
      1134.0000          0.926        -999.25        -999.25         1.2057       -40.2186      -1.936806              1
      1134.5000         0.9255        -999.25        -999.25         1.1953       -40.2047      -1.924381              1
      1135.0000         0.9266        -999.25        -999.25         1.1828        -39.574      -1.295158              1
      1135.5000         0.9556        -999.25        -999.25         1.1738       -39.2891      -1.011734              1
      1136.0000           0.98        -999.25        -999.25         1.1588       -39.5054      -1.229511              1
      1136.5000         0.9895        -999.25        -999.25         1.1496       -39.9374      -1.662987              1
      1137.0000         0.9827        -999.25        -999.25         1.1375       -40.6196      -2.346661      0.9422233
      1137.5000         0.9726        -999.25        -999.25         1.1196       -41.0547      -2.783237      0.8694604
      1138.0000         0.9692        -999.25        -999.25         1.0929       -40.8766      -2.606617      0.8988972
      1138.5000         0.9765        -999.25        -999.25         1.0849       -40.5078      -2.239296      0.9601173
      1139.0000         0.9803        -999.25        -999.25         1.0888       -40.1696      -1.902573              1
      1139.5000         0.9749        -999.25        -999.25         1.0972       -39.9775      -1.711948              1
      1140.0000          0.972        -999.25        -999.25         1.1002       -39.8608      -1.596725              1
      1140.5000          0.978        -999.25        -999.25         1.1037       -39.7772      -1.514599              1
      1141.0000         1.0028        -999.25        -999.25         1.1162       -39.6825      -1.421375              1
      1141.5000         1.0138        -999.25        -999.25         1.1267         -39.59      -1.330353              1
      1142.0000         1.0079        -999.25        -999.25         1.1415       -39.6038      -1.345634              1
      1142.5000         1.0016        -999.25        -999.25         1.1498       -39.5914      -1.334709              1
      1143.0000          1.002        -999.25        -999.25         1.1449       -39.4258      -1.170586              1
      1143.5000         1.0036        -999.25        -999.25           1.13        -39.249     -0.9952621              1
      1144.0000          1.009        -999.25        -999.25         1.0948       -38.9969     -0.7446365              1
      1144.5000         1.0253        -999.25        -999.25         1.0581       -38.8771     -0.6263161              1
      1145.0000         1.0333        -999.25        -999.25         1.0324       -39.0554     -0.8060913              1
      1145.5000          1.026        -999.25        -999.25         1.0092       -39.3459      -1.098068              1
      1146.0000         1.0099        -999.25        -999.25         0.9816       -39.4488      -1.202446              1
      1146.5000         0.9934        -999.25        -999.25         0.9604       -39.2523      -1.007423              1
      1147.0000          0.981        -999.25        -999.25          0.936       -39.1186     -0.8751984              1
      1147.5000          0.986        -999.25        -999.25         0.9098       -38.9849     -0.7429771              1
      1148.0000         0.9883        -999.25        -999.25         0.8778       -38.8094     -0.5689507              1
      1148.5000         0.9868        -999.25        -999.25         0.8519       -38.7581     -0.5191269              1
      1149.0000         0.9905        -999.25        -999.25         0.8323       -38.9284     -0.6909027              1
      1149.5000         1.0083        -999.25        -999.25         0.8365       -38.7904     -0.5543823              1
      1150.0000         1.0562        -999.25        -999.25         0.8547       -38.4883     -0.2537575              1
      1150.5000         1.1104        -999.25        -999.25         0.8864       -38.3389     -0.1058388              1
      1151.0000         1.1642        -999.25        -999.25         0.9199       -38.4255     -0.1939125              1
      1151.5000         1.2105        -999.25        -999.25         0.9456       -38.8083     -0.5781898              1
      1152.0000         1.2443        -999.25        -999.25         0.9798         -39.67      -1.441364              1
      1152.5000         1.2583        -999.25        -999.25         1.0227       -40.1793      -1.952141              1
      1153.0000         1.2714        -999.25        -999.25         1.0749       -40.1617       -1.93602              1
      1153.5000         1.2738        -999.25        -999.25         1.1416       -40.0253      -1.801094              1
      1154.0000         1.2632        -999.25        -999.25         1.1872       -40.0319       -1.80917              1
      1154.5000         1.2447        -999.25        -999.25          1.225       -39.8624      -1.641151              1
      1155.0000         1.2356        -999.25        -999.25         1.2546       -39.7094      -1.489628              1
      1155.5000         1.2377        -999.25        -999.25         1.2728       -39.6938      -1.475506              1
      1156.0000         1.2498        -999.25        -999.25         1.2879       -39.4855      -1.268681              1
      1156.5000         1.2597        -999.25        -999.25         1.3022       -39.6321      -1.416756              1
      1157.0000         1.2696        -999.25        -999.25          1.318       -40.3141      -2.100231      0.9832948
      1157.5000         1.2758        -999.25        -999.25         1.3237       -41.0753      -2.862907      0.8561821
      1158.0000         1.2762        -999.25        -999.25         1.3271       -41.2485      -3.037586       0.827069
      1158.5000         1.2782        -999.25        -999.25         1.3308       -40.5517      -2.342266      0.9429557
      1159.0000         1.2929        -999.25        -999.25         1.3195       -40.2168      -2.008842      0.9985263
      1159.5000          1.304        -999.25        -999.25         1.3101       -40.3791      -2.172619      0.9712302
      1160.0000         1.3022        -999.25        -999.25         1.3043       -40.6494      -2.444393      0.9259345
      1160.5000         1.2924        -999.25        -999.25         1.3018       -40.4426      -2.239071      0.9601548
      1161.0000         1.2842        -999.25        -999.25         1.2865       -40.0002      -1.798145              1
      1161.5000         1.2715        -999.25        -999.25           1.27       -39.6783      -1.477722              1
      1162.0000         1.2737        -999.25        -999.25         1.2659       -39.7297      -1.530598              1
