#------------------------------------------------------------------------------
# Created by    : vladimir.rabinovich
# Created on    : 09/19/2023 17:20:24
#------------------------------------------------------------------------------
~Version Information Section
VERS.           2.0     :   CWLS log ASCII Standard - VERSION 2.0
WRAP.           NO      :   One line per depth step
~Well Information Section
#MNEM       .UNIT                                         VALUE :DESCRIPTION
#------------------------------------------------------------------------------
STRT        .FT                                            2124 :START DEPTH
STOP        .FT                                            8264 :STOP DEPTH
STEP        .FT                                             0.5 :STEP      
NULL        .                                           -999.25 :NULL      
COMP        .                               SUPERIOR OIL CO THE :COMPANY   
WELL        .                                     ST TR 00009-L :WELL      
FLD         .                                           WILDCAT :FIELD     
LOC         .                                                   :LOCATION  
CNTY        .                           HIGH ISLAND LARGE BLOCK :LOCATION  
STAT        .                                             TEXAS :STATE     
CTRY        .                                     UNITED STATES :COUNTRY   
SRVC        .                                                   :SERVICE COMPANY
DATE        .                             9/13/2023 11:19:15 AM :LOG DATE  
API         .                                    42708300270000 :API NUMBER
UWI         .                                    42708300270000 :UNIQUE WELL ID
XCOORD      .                                  1318170.30554107 :SURFACE X 
YCOORD      .                                  10738395.6931535 :SURFACE Y 
LAT         .                                        29.5851559 :LATITUDE  
LON         .                                       -94.0141459 :LONGITUDE 
ELEV        .FT                                              72 :ELEVATION VALUE
ELEV_TYPE   .                                                KB :ELEVATION REFERENCE TYPE
~Curve Information Section
#MNEM       .UNIT                                      API CODE :CURVE DESCRIPTION
#------------------------------------------------------------------------------
DEPT        .FT                                                 :DEPTH     
ASN         .OHMM                                               :          
CILD        .MMHO                                               :          
ILD         .OHMM                                               :          
SN          .OHMM                                               :          
SP          .MV                                                 :          
SP_NORM     .MV                                                 :SP Normalized
VSH_SP      .V/V                                                :Volume of Shale from SP
~A        DEPTH            ASN           CILD            ILD             SN             SP        SP_NORM         VSH_SP
# ...
      3330.0000         0.9195       3998.398          0.311         0.9055      -111.4963      -54.81646     0.05585152
      3330.5000         0.9136       4115.852         0.3095         0.9057      -111.7836      -55.09677      0.0509339
      3331.0000         0.9006       3989.508         0.3219         0.9028      -111.9106      -55.21677     0.04882866
      3331.5000         0.8951       3859.809         0.3545         0.8998      -111.5948      -54.89397     0.05449175
      3332.0000          0.893       3698.039         0.3988         0.8871      -110.4595      -53.75167     0.07453209
      3332.5000         0.8951       3424.059         0.4511         0.8806      -108.5476      -51.83277       0.108197
      3333.0000          0.885       3019.285          0.511         0.8681      -105.4364      -48.71457      0.1629022
      3333.5000         0.8286           2120         0.5783          0.836        -98.948      -42.21917      0.2768567
      3334.0000         0.7554       1847.422         0.6435         0.7907       -88.5454      -31.80957      0.4594811
      3334.5000         0.7457       1686.551          0.705         0.7813       -78.1379      -21.39507      0.6421917
      3335.0000         0.7763       1521.082         0.7427         0.8065       -70.8391      -14.08928      0.7703635
      3335.5000         0.8251       1406.025         0.7777         0.8438       -68.0315      -11.27468      0.8197425
      3336.0000         0.8615       1382.377         0.7919         0.8728       -67.1556      -10.39178       0.835232
      3336.5000         0.8855       1418.414         0.7964         0.8864       -67.9336      -11.16278      0.8217056
      3337.0000         0.9002       1508.193         0.7918         0.8909       -70.9169      -14.13908      0.7694898
      3337.5000         0.9019       1593.074         0.7607         0.8875       -75.0995      -18.31468      0.6962336
      3338.0000         0.8863       1654.775         0.7194         0.8755       -79.0839      -22.29208      0.6264547
      3338.5000         0.8807       1692.545         0.6933         0.8655       -81.3207      -24.52188      0.5873354
      3339.0000         0.8732       1691.633         0.6866         0.8578        -82.281      -25.47518      0.5706109
      3339.5000         0.8641       1651.078         0.7008          0.863       -81.8557      -25.04288      0.5781951
      3340.0000         0.8597       1582.334         0.7353          0.871       -79.3097      -22.48988      0.6229845
      3340.5000         0.8651       1506.795         0.7729         0.8815        -74.136      -17.30919      0.7138739
      3341.0000         0.8687       1409.422         0.8197         0.8952       -68.9598      -12.12598      0.8048073
      3341.5000         0.8827           1312         0.8667         0.9111       -63.9141      -7.073288      0.8934511
      3342.0000         0.9075       1214.629         0.9211         0.9297       -59.9724      -3.124588      0.9627265
      3342.5000         0.9357       1128.947         0.9756         0.9489       -58.0436      -1.188786      0.9966879
      3343.0000         0.9648       1058.553         1.0146          0.974       -56.9008    -0.03898621              1
      3343.5000         0.9925       1009.218         1.0483         1.0015       -56.0044      0.8644142              1
      3344.0000         1.0179        993.874         1.0594         1.0283       -55.6652       1.210609              1
      3344.5000         1.0398       994.8018         1.0628         1.0454       -55.5773       1.305508              1
      3345.0000         1.0503       1011.466         1.0604         1.0411       -55.7905       1.099308              1
      3345.5000         1.0511       1039.281         1.0389         1.0263        -56.213      0.6838074              1
      3346.0000         1.0421       1073.141         1.0114         1.0037       -56.7009      0.2029037              1
      3346.5000         1.0345       1113.035         0.9839         0.9796       -56.9287    -0.01789474              1
      3347.0000         1.0277       1160.771         0.9533         0.9539       -56.5628      0.3550034              1
      3347.5000         0.9938       1225.818         0.9227         0.9282       -56.2981      0.6267052              1
      3348.0000         0.9397       1290.867         0.8925         0.9055       -56.3536      0.5782013              1
      3348.5000         0.9081       1346.996         0.8641         0.8841       -56.4973      0.4415016              1
      3349.0000         0.8835       1402.527         0.8357         0.8627       -56.2568      0.6889992              1
      3349.5000         0.8588       1458.707         0.8035         0.8415       -56.1125      0.8403015              1
      3350.0000         0.8283       1514.887           0.77         0.8209       -56.8242       0.135601              1
      3350.5000         0.7992       1571.068         0.7449         0.8003       -57.2597     -0.2929039              1
      3351.0000         0.7693       1627.248         0.7206         0.7829       -57.0594    -0.09420395              1
      3351.5000         0.7417       1683.453         0.6982         0.7669       -56.3885      0.5690117              1
      3352.0000         0.7181       1739.607         0.6771         0.7501       -55.9078        1.04203              1
      3352.5000         0.7001       1790.967         0.6587         0.7306        -55.672       1.270149              1
      3353.0000         0.6913       1833.857         0.6418         0.7111       -55.6389       1.295567              1
      3353.5000         0.6858       1860.373         0.6332         0.6992       -55.7914       1.135384              1
      3354.0000          0.671       1869.094         0.6246         0.6874       -56.2158      0.7033005              1
      3354.5000         0.6582       1867.004         0.6237         0.6875         -56.86     0.05142212              1
      3355.0000         0.6592       1860.262         0.6239         0.6952       -57.7927     -0.8889618              1
      3355.5000         0.6739       1849.139         0.6295         0.7123       -59.3941      -2.498043      0.9737185
      3356.0000         0.7064        1830.51         0.6443         0.7416        -62.489      -5.600624      0.9192873
      3356.5000         0.7576       1796.637         0.6639         0.7794       -67.4945      -10.61381      0.8313367
      3357.0000         0.8111       1742.654         0.6891         0.8171        -72.756      -15.88298       0.738895
      3357.5000         0.8495       1653.477         0.7205         0.8506       -76.2153      -19.34997      0.6780707
      3358.0000         0.8721       1556.555         0.7612         0.8635       -76.8578      -20.00016      0.6666639
      3358.5000         0.8778       1459.582         0.8013         0.8724       -75.8672      -19.01724      0.6839081
      3359.0000         0.8886        1362.66         0.8411         0.8834       -69.3412      -12.49892      0.7982646
      3359.5000         0.9035       1285.746         0.8695         0.8962       -63.8138      -6.979198      0.8951018
      3360.0000         0.9164       1238.533         0.8932         0.9107       -61.3054      -4.478481       0.938974
      3360.5000         0.9243       1211.555         0.8987         0.9147        -61.126      -4.306763      0.9419866
      3361.0000         0.9245       1235.311         0.8956         0.9162       -62.6119      -5.800346      0.9157834
      3361.5000         0.9168       1302.908         0.8781         0.8944       -64.6619      -7.858028      0.8796837
      3362.0000         0.8975       1401.828         0.8367         0.8721       -66.0236      -9.227406      0.8556595
      3362.5000         0.8692       1508.293         0.7779         0.8404       -66.8406      -10.05209      0.8411914
      3363.0000         0.8386       1642.785          0.719         0.8088       -67.7347      -10.95388      0.8253706
