#------------------------------------------------------------------------------
# Created by    : vladimir.rabinovich
# Created on    : 09/19/2023 17:22:44
#------------------------------------------------------------------------------
~Version Information Section
VERS.           2.0     :   CWLS log ASCII Standard - VERSION 2.0
WRAP.           NO      :   One line per depth step
~Well Information Section
#MNEM       .UNIT                                         VALUE :DESCRIPTION
#------------------------------------------------------------------------------
STRT        .FT                                            3420 :START DEPTH
STOP        .FT                                           11707 :STOP DEPTH
STEP        .FT                                             0.5 :STEP      
NULL        .                                           -999.25 :NULL      
COMP        .                        TRI-UNION DEVELOPMENT CORP :COMPANY   
WELL        .                               OCS G08154 ST00BP00 :WELL      
FLD         .                                           WILDCAT :FIELD     
LOC         .                                                   :LOCATION  
CNTY        .                           HIGH ISLAND LARGE BLOCK :LOCATION  
STAT        .                                             TEXAS :STATE     
CTRY        .                                     UNITED STATES :COUNTRY   
SRVC        .                                                   :SERVICE COMPANY
DATE        .                             9/13/2023 11:19:57 AM :LOG DATE  
API         .                                    42708403520000 :API NUMBER
UWI         .                                    42708403520000 :UNIQUE WELL ID
XCOORD      .                                  1180527.91159004 :SURFACE X 
YCOORD      .                                  10524923.1623167 :SURFACE Y 
LAT         .                                        28.9940426 :LATITUDE  
LON         .                                       -94.4389714 :LONGITUDE 
ELEV        .FT                                             100 :ELEVATION VALUE
ELEV_TYPE   .                                                KB :ELEVATION REFERENCE TYPE
~Curve Information Section
#MNEM       .UNIT                                      API CODE :CURVE DESCRIPTION
#------------------------------------------------------------------------------
DEPT        .FT                                                 :DEPTH     
DCAL        .IN                                                 :          
DPHI        .%                                                  :          
DRHO        .G/C3                                               :          
GR          .GAPI                                               :          
GR_NORM     .GAPI                                               :GammaRay Normalized
ILD         .OHMM                                               :          
ILM         .OHMM                                               :          
NPHI        .%                                                  :          
SFL         .OHMM                                               :          
SP          .MV                                                 :          
SP_NORM     .MV                                                 :SP Normalized
VSH_GR      .V/V                                                :Volume of Shale from GR
VSH_SP      .V/V                                                :Volume of Shale from SP
~A        DEPTH           DCAL           DPHI           DRHO             GR        GR_NORM            ILD            ILM           NPHI            SFL             SP        SP_NORM         VSH_GR         VSH_SP
# ...
      4579.0000         2.4532        27.7047         -0.009        76.3176       76.92132         0.8089         0.8179        44.3376         0.8163       -36.9282        -2.9659      0.9344961      0.9707303
      4579.5000         2.5726        26.9441        -0.0082        76.2013       76.78951          0.828          0.831        42.4332         0.8344       -37.0989        -3.1366      0.9316918      0.9655576
      4580.0000         2.6466        26.5942        -0.0081        76.2728        76.8708         0.8454         0.8438        41.6921         0.8574       -37.2399        -3.2776      0.9334214      0.9612849
      4580.5000         2.6711        26.8973        -0.0082        79.9255       81.01587         0.8596         0.8577        41.8275         0.8721        -37.351        -3.3887              1      0.9579182
      4581.0000         2.7542        27.1376        -0.0084        81.9397       83.30165         0.8704           0.87        42.0358         0.8752       -37.5064        -3.5441              1      0.9532091
      4581.5000         2.8831        27.3149        -0.0087        81.4744        82.7738          0.874         0.8706        42.1782         0.8708       -37.6066        -3.6443              1      0.9501727
      4582.0000         3.0097        27.2376        -0.0037        79.7427       80.80891         0.8773         0.8433        42.0148         0.8499       -37.6459        -3.6836              1      0.9489818
      4582.5000         3.0384        27.1597        -0.0038        77.8889       78.70547         0.8799         0.8242        41.3658         0.8317       -37.5972        -3.6349      0.9724569      0.9504576
      4583.0000         3.0324        27.1903        -0.0035        76.0365       76.60361          0.882         0.8232        40.9207         0.8284       -37.5417        -3.5794      0.9277365      0.9521394
      4583.5000         3.0041        27.2781        -0.0042        74.7756       75.17296         0.8837         0.8213        41.6314         0.8272       -37.5054        -3.5431       0.897297      0.9532394
      4584.0000          2.997        27.4163        -0.0055        75.1594       75.60865         0.8845          0.813        42.9435         0.8145       -37.4787        -3.5164       0.906567      0.9540485
      4584.5000         3.0319        27.5858        -0.0075        75.9083       76.45862         0.8855         0.7972        43.6849         0.7949        -37.442        -3.4797      0.9246514      0.9551606
      4585.0000         3.0972        27.5503        -0.0089        76.1654       76.75052         0.8876         0.7886        43.5613         0.7914        -37.384        -3.4217      0.9308621      0.9569182
      4585.5000         3.2211        27.4792        -0.0098        72.6675       72.78144         0.8899         0.8028        42.4525         0.8063       -37.3279        -3.3656      0.8464136      0.9586182
      4586.0000         3.3756        27.5404        -0.0084         68.756       68.34301         0.8957         0.8212        41.7468          0.823       -37.2831        -3.3208      0.7519789      0.9599758
      4586.5000         3.6125        27.8445        -0.0054        67.7662       67.21999         0.9015         0.8272         42.375          0.823       -37.2705        -3.3082       0.728085      0.9603576
      4587.0000         3.8815        28.4015        -0.0024        68.8257       68.42242         0.9069         0.8271        43.1373         0.8134       -37.3745        -3.4122      0.7536684      0.9572061
      4587.5000         4.0045        28.9592         0.0006        71.7219       71.70905         0.9121         0.8227        43.9003         0.8106          -37.6        -3.6377      0.8235969      0.9503727
      4588.0000         3.7603        29.4402         0.0031        74.0621       74.36476         0.9153         0.8179        44.6633          0.826       -37.6322        -3.6699      0.8801013       0.949397
      4588.5000         3.3771        29.8018         0.0035        73.2958       73.49535         0.9131         0.8243        45.4263         0.8301       -37.4114        -3.4491      0.8616031      0.9560879
      4589.0000         2.9938        29.9106        -0.0006        72.0485       72.08013         0.9061         0.8324        45.7726         0.8273        -37.421        -3.4587      0.8314922       0.955797
      4589.5000         2.8008        29.8716        -0.0054        71.5994       71.57068         0.8939         0.8329        45.6541         0.8255       -37.4197        -3.4574      0.8206527      0.9558364
      4590.0000         2.9346        29.9145        -0.0094        72.3247       72.39388         0.8758         0.8169        45.5428         0.8038       -37.0901        -3.1278      0.8381675      0.9658242
      4590.5000         3.0831        30.0811        -0.0127        71.8165       71.81735         0.8549         0.7949        45.4393         0.7758         -36.71        -2.7477      0.8259011      0.9773424
      4591.0000         3.1825        30.1017        -0.0162        70.3646       70.16996         0.8328         0.7658        45.1776         0.7495       -36.5174        -2.5551      0.7908502      0.9831788
      4591.5000         3.3086        29.6635        -0.0172        70.4717       70.29166         0.8112         0.7389        44.1082         0.7439       -36.4882        -2.5259      0.7934395      0.9840636
      4592.0000         3.4756        29.1371         -0.016        73.1477       73.32841         0.7907         0.7203        43.5352         0.7189       -36.4954        -2.5331      0.8580512      0.9838455
      4592.5000         3.2742        29.1444        -0.0124        78.5023        79.4047         0.7718         0.7075        44.4271         0.7018       -36.4747        -2.5124      0.9873341      0.9844728
      4593.0000              3        29.0837        -0.0083        80.7988       82.01083          0.755         0.7033        45.1491          0.711       -36.4918        -2.5295              1      0.9839545
      4593.5000         2.7576         28.551        -0.0066        79.4465       80.47646         0.7451         0.7059        45.8711         0.7228       -36.5168        -2.5545              1       0.983197
      4594.0000         2.5976        27.4049        -0.0062        77.4933       78.26022         0.7402         0.7049        46.5939         0.7325       -36.4908        -2.5285      0.9629835      0.9839848
      4594.5000         2.5301        26.0046        -0.0065        75.8846       76.43491          0.739         0.7005        47.0636         0.7395       -36.4203         -2.458       0.924147      0.9861212
      4595.0000         2.5397        25.5594        -0.0065        75.0461       75.48357         0.7369         0.6939        46.8621          0.735       -36.3918        -2.4295      0.9039058      0.9869848
      4595.5000         2.5312         27.047        -0.0056        74.8867       75.30286         0.7303          0.687        46.7235         0.7251        -36.436        -2.4737      0.9000608      0.9856455
      4596.0000         2.4988        28.7426        -0.0055        74.9745       75.40266         0.7206         0.6844        47.9306          0.712        -36.437        -2.4747      0.9021842      0.9856151
      4596.5000         2.4248        30.4397        -0.0061        75.2483       75.71349          0.713         0.6862        49.2286         0.7033       -36.3608        -2.3985      0.9087977      0.9879242
      4597.0000         2.4229        31.0142        -0.0078        75.6686        76.1906         0.7119         0.6902        50.0244          0.713       -36.3758        -2.4135      0.9189489      0.9874697
      4597.5000         2.4127        30.7939        -0.0094        75.5571       76.06423         0.7126         0.6911        49.7763         0.7251       -36.4812        -2.5189      0.9162602      0.9842758
