#------------------------------------------------------------------------------
# Created by    : vladimir.rabinovich
# Created on    : 09/19/2023 17:20:03
#------------------------------------------------------------------------------
~Version Information Section
VERS.           2.0     :   CWLS log ASCII Standard - VERSION 2.0
WRAP.           NO      :   One line per depth step
~Well Information Section
#MNEM       .UNIT                                         VALUE :DESCRIPTION
#------------------------------------------------------------------------------
STRT        .FT                                            3149 :START DEPTH
STOP        .FT                                           10186 :STOP DEPTH
STEP        .FT                                             0.5 :STEP      
NULL        .                                           -999.25 :NULL      
COMP        .                                  SAMEDAN OIL CORP :COMPANY   
WELL        .                                     ST TR 00817-L :WELL      
FLD         .                                           WILDCAT :FIELD     
LOC         .                                                   :LOCATION  
CNTY        .                        MUSTANG ISLAND LARGE BLOCK :LOCATION  
STAT        .                                             TEXAS :STATE     
CTRY        .                                     UNITED STATES :COUNTRY   
SRVC        .                                                   :SERVICE COMPANY
DATE        .                             9/13/2023 11:18:55 AM :LOG DATE  
API         .                                    42702300080000 :API NUMBER
UWI         .                                    42702300080000 :UNIQUE WELL ID
XCOORD      .                                  304914.569303086 :SURFACE X 
YCOORD      .                                  10013906.4088957 :SURFACE Y 
LAT         .                                        27.5345201 :LATITUDE  
LON         .                                       -97.1203623 :LONGITUDE 
ELEV        .FT                                              65 :ELEVATION VALUE
ELEV_TYPE   .                                                KB :ELEVATION REFERENCE TYPE
~Curve Information Section
#MNEM       .UNIT                                      API CODE :CURVE DESCRIPTION
#------------------------------------------------------------------------------
DEPT        .FT                                                 :DEPTH     
ASFL        .OHMM                                               :          
CILD        .MMHO                                               :          
DT          .US/F                                               :          
GR          .GAPI                                               :          
ILD         .OHMM                                               :          
SP          .MV                                                 :          
SP_NORM     .MV                                                 :SP Normalized
VSH_SP      .V/V                                                :Volume of Shale from SP
~A        DEPTH           ASFL           CILD             DT             GR            ILD             SP        SP_NORM         VSH_SP
# ...
      4565.0000         0.7421       1530.518       135.0825        -999.25         0.7672        -50.205      0.2886467              1
      4565.5000         0.7367       1554.541         136.47        -999.25         0.7557       -50.3849      0.1040115              1
      4566.0000         0.7315       1571.646       137.5708        -999.25         0.7473        -50.565    -0.08082962              1
      4566.5000         0.7264       1588.754       138.5286        -999.25         0.7417       -50.7449     -0.2654724              1
      4567.0000         0.7214       1600.223       139.2163        -999.25         0.7361        -50.918     -0.4433136              1
      4567.5000         0.7173       1609.979       139.6709        -999.25         0.7305       -51.0724     -0.6024513              1
      4568.0000         0.7133        1619.73       139.9763        -999.25         0.7249       -51.1293      -0.664093              1
      4568.5000         0.7094       1625.113        139.585        -999.25         0.7241       -51.1556      -0.695137              1
      4569.0000         0.7057       1626.984        138.165        -999.25         0.7243       -51.2276     -0.7718735              1
      4569.5000         0.7021       1618.672       136.3379        -999.25         0.7245       -51.3455      -0.894516              1
      4570.0000         0.7005        1607.07       134.7488        -999.25         0.7248       -51.4633      -1.017056      0.9997454
      4570.5000         0.7085       1594.912       132.5593        -999.25          0.725       -51.5812      -1.139698       0.997915
      4571.0000         0.7164       1582.768       129.7249        -999.25         0.7253       -52.0728      -1.636036      0.9905069
      4571.5000         0.7273       1570.609       126.8354        -999.25         0.7393       -53.0871      -2.655079      0.9752973
      4572.0000          0.739       1550.338       124.2101        -999.25         0.7533       -52.8625      -2.435219      0.9785788
      4572.5000         0.7506       1522.527       122.5288        -999.25         0.7672       -52.6381      -2.215557      0.9818574
      4573.0000         0.7631       1436.088        120.835        -999.25         0.7816       -52.3474        -1.9296      0.9861253
      4573.5000         0.7771       1364.363       119.2521        -999.25         0.7969       -52.0529      -1.639839      0.9904501
      4574.0000         0.7911        1337.26       117.8708        -999.25         0.8123       -51.7583      -1.349983      0.9947764
      4574.5000         0.8062       1316.904        116.808        -999.25         0.8276       -51.4647      -1.061119      0.9990878
      4575.0000         0.8221       1301.037       116.1796        -999.25         0.8398       -51.3106     -0.9117622              1
      4575.5000         0.8379       1306.459       115.8833        -999.25         0.8471       -51.1566     -0.7625046              1
      4576.0000         0.8565       1311.879       115.8074        -999.25         0.8543       -51.0025     -0.6131401              1
      4576.5000         0.8708       1317.301       116.0139        -999.25         0.8586       -50.8893     -0.5046844              1
      4577.0000         0.8653       1320.936       116.3956        -999.25         0.8608        -50.898     -0.5181236              1
      4577.5000         0.8593       1320.951       116.8372        -999.25         0.8629       -50.9067     -0.5315666              1
      4578.0000         0.8533       1320.965       117.2791        -999.25         0.8651       -50.9154     -0.5450058              1
      4578.5000         0.8469       1312.523       117.2896        -999.25          0.869       -50.9241      -0.558445              1
      4579.0000         0.8487       1300.311       117.2942        -999.25         0.8751       -50.9328      -0.571888              1
      4579.5000         0.8541       1270.275       116.7837        -999.25         0.8811       -50.9415     -0.5853271              1
      4580.0000         0.8485       1228.461       114.7947        -999.25         0.8897       -50.9454     -0.5939674              1
      4580.5000          0.855       1177.482       112.0087        -999.25         0.9238       -50.9019     -0.5552101              1
      4581.0000         0.8703       1123.963       109.8604        -999.25         0.9578       -50.8584      -0.516449              1
      4581.5000         0.8837       1081.465       108.4406        -999.25         0.9946       -51.0313      -0.694088              1
      4582.0000         0.9013       1040.996       106.8314        -999.25         1.0318       -51.4506       -1.11813      0.9982369
      4582.5000         0.9203       1007.565       104.5225        -999.25         1.0704        -51.614       -1.28627      0.9957273
      4583.0000         0.9437         976.04       102.0889        -999.25         1.1092        -51.364      -1.041008      0.9993879
      4583.5000         0.9885        940.751       100.4351        -999.25         1.1463       -51.1139     -0.7956505              1
      4584.0000         1.0539        909.543        99.9435        -999.25         1.1835       -50.8636     -0.5500946              1
      4584.5000         1.1126       881.9033       100.0518        -999.25         1.2067       -50.5754     -0.2666359              1
      4585.0000         1.1618       867.1006       100.3126        -999.25           1.23       -50.2378     0.06622696              1
      4585.5000         1.2015       861.8184       100.7544        -999.25         1.2401       -50.0889      0.2103844              1
      4586.0000         1.2225       862.7627        101.002        -999.25         1.2467       -50.2574     0.03714371              1
      4586.5000         1.2341       867.8887       100.7124        -999.25         1.2532       -50.4745     -0.1841812              1
      4587.0000         1.2395       874.1318       100.2855        -999.25         1.2594       -50.8074     -0.5208855              1
      4587.5000         1.2401       880.3818        99.9733        -999.25         1.2575       -51.1404     -0.8576851              1
      4588.0000         1.2401       894.5381        99.8724        -999.25         1.2557       -51.4733      -1.194389      0.9970987
      4588.5000         1.2401       910.9727       100.2469        -999.25         1.2538       -51.8062      -1.531086      0.9920734
      4589.0000         1.2402       928.5801       101.1785        -999.25         1.2498       -52.0817       -1.81039      0.9879046
      4589.5000         1.2402       955.6338       102.7029        -999.25         1.2406       -52.3383      -2.070793       0.984018
      4590.0000         1.2348       986.5479       105.8949        -999.25         1.2265       -52.5949      -2.331192      0.9801314
      4590.5000         1.2197       1027.236       111.3822        -999.25         1.1948       -52.7355      -2.475597      0.9779761
      4591.0000         1.2002         1081.1       116.5283        -999.25         1.1587       -52.6589      -2.402802      0.9790627
      4591.5000         1.1702       1124.525       119.8113        -999.25          1.118       -52.7166      -2.464298      0.9781448
      4592.0000         1.1244       1145.164        122.119        -999.25         1.0832       -52.7993      -2.550804      0.9768537
      4592.5000         1.0901       1163.701       123.6185        -999.25         1.0502       -52.8821      -2.637405      0.9755611
      4593.0000         1.0554       1180.123       124.4611        -999.25         1.0196       -52.9648      -2.723907        0.97427
      4593.5000          1.018        1195.52       123.7579        -999.25         0.9951       -53.0475       -2.81041      0.9729789
      4594.0000         0.9731       1206.797       120.1649        -999.25         0.9777       -53.1035      -2.870213      0.9720864
