#------------------------------------------------------------------------------
# Created by    : vladimir.rabinovich
# Created on    : 09/19/2023 17:20:35
#------------------------------------------------------------------------------
~Version Information Section
VERS.           2.0     :   CWLS log ASCII Standard - VERSION 2.0
WRAP.           NO      :   One line per depth step
~Well Information Section
#MNEM       .UNIT                                         VALUE :DESCRIPTION
#------------------------------------------------------------------------------
STRT        .FT                                             504 :START DEPTH
STOP        .FT                                            9361 :STOP DEPTH
STEP        .FT                                             0.5 :STEP      
NULL        .                                           -999.25 :NULL      
COMP        .                                      SHELL OIL CO :COMPANY   
WELL        .                                OCS 00704 ST00BP00 :WELL      
FLD         .                                           WILDCAT :FIELD     
LOC         .                                                   :LOCATION  
CNTY        .                             GALVESTON LARGE BLOCK :LOCATION  
STAT        .                                             TEXAS :STATE     
CTRY        .                                     UNITED STATES :COUNTRY   
SRVC        .                                                   :SERVICE COMPANY
DATE        .                             9/13/2023 11:19:25 AM :LOG DATE  
API         .                                    42706000430000 :API NUMBER
UWI         .                                    42706000430000 :UNIQUE WELL ID
XCOORD      .                                  1136254.96267488 :SURFACE X 
YCOORD      .                                  10526383.5552877 :SURFACE Y 
LAT         .                                         28.996505 :LATITUDE  
LON         .                                        -94.577519 :LONGITUDE 
ELEV        .FT                                              42 :ELEVATION VALUE
ELEV_TYPE   .                                                KB :ELEVATION REFERENCE TYPE
~Curve Information Section
#MNEM       .UNIT                                      API CODE :CURVE DESCRIPTION
#------------------------------------------------------------------------------
DEPT        .FT                                                 :DEPTH     
ASN         .OHMM                                               :          
DT          .US/F                                               :          
LN          .OHMM                                               :          
SP          .MV                                                 :          
SP_NORM     .MV                                                 :SP Normalized
VSH_SP      .V/V                                                :Volume of Shale from SP
~A        DEPTH            ASN             DT             LN             SP        SP_NORM         VSH_SP
# ...
      1074.0000         0.5928        -999.25         1.5469       -76.1619      -1.638931       0.987919
      1074.5000         0.5812        -999.25         1.5469       -75.9188      -1.399796              1
      1075.0000         0.5696        -999.25         1.5477       -75.6758      -1.160759              1
      1075.5000         0.5595        -999.25         1.5485       -75.4348     -0.9237289              1
      1076.0000         0.5592        -999.25         1.5493       -75.1942     -0.6870956              1
      1076.5000         0.5589        -999.25         1.5501       -75.1732     -0.6700668              1
      1077.0000         0.5586        -999.25         1.5509       -75.2092     -0.7100296              1
      1077.5000         0.5595        -999.25         1.5517       -75.3958     -0.9006042              1
      1078.0000         0.5613        -999.25         1.5525       -75.5837      -1.092476              1
      1078.5000         0.5632        -999.25         1.5533       -75.7716       -1.28434              1
      1079.0000          0.565        -999.25         1.5541       -75.9596      -1.476311              1
      1079.5000         0.5668        -999.25         1.5549       -76.1567      -1.677376       0.984576
      1080.0000         0.5686        -999.25         1.5557        -76.358      -1.882645      0.9667265
      1080.5000           0.57        -999.25         1.5565       -76.5594      -2.088013      0.9488685
      1081.0000         0.5701        -999.25         1.5548       -76.7607      -2.293282       0.931019
      1081.5000         0.5702        -999.25         1.5514        -76.962       -2.49855      0.9131695
      1082.0000         0.5703        -999.25         1.5481       -77.1345      -2.675018      0.8978245
      1082.5000         0.5681        -999.25         1.5471       -77.3062      -2.850685      0.8825491
      1083.0000         0.5658        -999.25         1.5466       -77.1995      -2.747955      0.8914822
      1083.5000         0.5635        -999.25         1.5462       -76.9454      -2.497818      0.9132332
      1084.0000         0.5611        -999.25         1.5457       -76.4991      -2.055496       0.951696
      1084.5000         0.5588        -999.25         1.5452       -76.0527       -1.61306      0.9901687
      1085.0000         0.5565        -999.25         1.5448       -75.6533      -1.217628              1
      1085.5000         0.5542        -999.25         1.5443       -75.4647      -1.032997              1
      1086.0000         0.5518        -999.25         1.5438       -75.4896      -1.061867              1
      1086.5000         0.5496        -999.25         1.5434       -75.5601       -1.13633              1
      1087.0000         0.5492        -999.25         1.5429       -75.6305      -1.210701              1
      1087.5000         0.5488        -999.25         1.5424       -75.7009      -1.285072              1
      1088.0000         0.5483        -999.25         1.5463       -75.7714      -1.359543              1
      1088.5000         0.5479        -999.25         1.5506       -75.8165      -1.408607              1
      1089.0000         0.5475        -999.25         1.5549       -75.8615      -1.457581              1
      1089.5000         0.5484        -999.25         1.5592       -75.5055      -1.105545              1
      1090.0000         0.5499        -999.25         1.5634       -75.0413     -0.6453094              1
      1090.5000         0.5514        -999.25         1.5677        -74.577     -0.1849823              1
      1091.0000         0.5529        -999.25          1.572       -74.0673      0.3207474              1
      1091.5000         0.5544        -999.25         1.5763       -73.8901      0.4939804              1
      1092.0000         0.5559        -999.25         1.5806       -74.0461      0.3340149              1
      1092.5000         0.5574        -999.25         1.5849       -74.2964     0.07974243              1
      1093.0000         0.5591        -999.25         1.5892       -74.8176     -0.4454193              1
      1093.5000          0.565        -999.25         1.5935       -75.3386     -0.9703903              1
      1094.0000         0.5709        -999.25         1.5978       -75.8163      -1.452057              1
      1094.5000         0.5768        -999.25         1.6021       -76.2424      -1.882133       0.966771
      1095.0000         0.5827        -999.25         1.6063       -76.6654      -2.309097      0.9296437
      1095.5000         0.5886        -999.25         1.6106        -77.066      -2.713669      0.8944636
      1096.0000         0.5946        -999.25         1.6149       -77.4667      -3.118332      0.8592755
      1096.5000         0.6007        -999.25          1.618       -77.7985      -3.454102      0.8300781
      1097.0000         0.6073        -999.25         1.6207       -78.0165      -3.676071      0.8107764
      1097.5000          0.614        -999.25         1.6235       -78.1882      -3.851738      0.7955011
      1098.0000         0.6206        -999.25         1.6262       -77.9998      -3.667313       0.811538
      1098.5000         0.6272        -999.25         1.6289       -77.8112      -3.482681      0.8275929
      1099.0000         0.6339        -999.25         1.6316       -77.6151      -3.290543      0.8443006
      1099.5000         0.6404        -999.25         1.6343       -76.6823       -2.36171      0.9250687
      1100.0000         0.6456        -999.25         1.6371       -75.6278       -1.31118              1
      1100.5000         0.6509        -999.25         1.6398       -74.5942     -0.2815475              1
      1101.0000         0.6562        -999.25         1.6425       -74.2346     0.07408142              1
      1101.5000         0.6614        -999.25         1.6508       -74.2285     0.07621002              1
      1102.0000         0.6667        -999.25         1.6593       -74.2224     0.07834625              1
      1102.5000         0.6719        -999.25         1.6677       -74.3218    -0.02502441              1
      1103.0000         0.6789        -999.25         1.6762       -74.4292     -0.1363907              1
      1103.5000         0.6866        -999.25         1.6846       -74.5365     -0.2476578              1
      1104.0000         0.6943        -999.25          1.693       -74.6438     -0.3589249              1
      1104.5000         0.7021        -999.25         1.7015        -74.774      -0.493103              1
      1105.0000           0.71        -999.25         1.7099       -74.9091     -0.6321716              1
      1105.5000         0.7206        -999.25         1.7184       -75.0442     -0.7712326              1
      1106.0000         0.7311        -999.25         1.7291       -75.1761     -0.9071045              1
      1106.5000         0.7417        -999.25         1.7397       -75.3053      -1.040268              1
      1107.0000         0.7522        -999.25         1.7504       -75.4344       -1.17334              1
      1107.5000         0.7654        -999.25         1.7611       -75.5636      -1.306503              1
      1108.0000         0.7796        -999.25         1.7717       -75.6982      -1.445076              1
      1108.5000         0.7937        -999.25         1.7821       -75.8344      -1.585243      0.9925876
      1109.0000         0.8083        -999.25         1.7868       -75.9869      -1.741714      0.9789814
      1109.5000         0.8304        -999.25         1.7916       -76.1537      -1.912483      0.9641319
      1110.0000         0.8525        -999.25         1.7963        -76.316      -2.078751      0.9496738
      1110.5000         0.8803        -999.25          1.801       -76.4658      -2.232513      0.9363032
      1111.0000         0.9251        -999.25         1.8058       -76.6027      -2.373383      0.9240537
      1111.5000         0.9714        -999.25         1.8105       -76.6842      -2.458855      0.9166213
