#------------------------------------------------------------------------------
# Created by    : vladimir.rabinovich
# Created on    : 09/19/2023 17:21:32
#------------------------------------------------------------------------------
~Version Information Section
VERS.           2.0     :   CWLS log ASCII Standard - VERSION 2.0
WRAP.           NO      :   One line per depth step
~Well Information Section
#MNEM       .UNIT                                         VALUE :DESCRIPTION
#------------------------------------------------------------------------------
STRT        .FT                                            4185 :START DEPTH
STOP        .FT                                            8075 :STOP DEPTH
STEP        .FT                                             0.5 :STEP      
NULL        .                                           -999.25 :NULL      
COMP        .                                         HESS CORP :COMPANY   
WELL        .                               OCS G07236 ST00BP00 :WELL      
FLD         .                              GALVESTON BLOCK 0210 :FIELD     
LOC         .                                                   :LOCATION  
CNTY        .                             GALVESTON LARGE BLOCK :LOCATION  
STAT        .                                             TEXAS :STATE     
CTRY        .                                     UNITED STATES :COUNTRY   
SRVC        .                                                   :SERVICE COMPANY
DATE        .                             9/13/2023 11:19:34 AM :LOG DATE  
API         .                                    42706402930000 :API NUMBER
UWI         .                                    42706402930000 :UNIQUE WELL ID
XCOORD      .                                   1127714.7472722 :SURFACE X 
YCOORD      .                                  10563055.4663979 :SURFACE Y 
LAT         .                                         29.097041 :LATITUDE  
LON         .                                        -94.605794 :LONGITUDE 
ELEV        .FT                                              89 :ELEVATION VALUE
ELEV_TYPE   .                                                KB :ELEVATION REFERENCE TYPE
~Curve Information Section
#MNEM       .UNIT                                      API CODE :CURVE DESCRIPTION
#------------------------------------------------------------------------------
DEPT        .FT                                                 :DEPTH     
CALI        .IN                                                 :          
DRHO        .G/CC                                               :          
DT          .US/F                                               :          
ILD         .OHMM                                               :          
ILM         .OHMM                                               :          
NPHI        .%                                                  :          
RFOC        .OHMM                                               :          
RHOB        .G/CC                                               :          
SP          .MV                                                 :          
SP_NORM     .MV                                                 :SP Normalized
VSH_SP      .V/V                                                :Volume of Shale from SP
~A        DEPTH           CALI           DRHO             DT            ILD            ILM           NPHI           RFOC           RHOB             SP        SP_NORM         VSH_SP
# ...
      6277.5000        13.7203         0.0088       117.7616         0.4665         0.5133        39.4352         0.8448         2.2554       -77.0721      -19.63281      0.7382292
      6278.0000        13.7843         0.0089        116.735         0.4964         0.5342         39.071          0.875         2.2612       -73.5642      -16.13011      0.7849318
      6278.5000        13.8462         0.0088       115.8328         0.5204         0.5473        38.5583         0.9028         2.2637       -71.4156      -13.98671      0.8135105
      6279.0000        13.9044         0.0086       115.0709         0.5386         0.5532        38.1323         0.9271         2.2635       -70.8179       -13.3942      0.8214107
      6279.5000        13.9546         0.0083       114.5797         0.5534         0.5549        37.7929          0.963         2.2612       -70.3877       -12.9692      0.8270774
      6280.0000        13.9785         0.0078       114.3147         0.5667         0.5548        37.4849         1.0063         2.2592       -70.2607      -12.84739      0.8287016
      6280.5000        13.9902         0.0067       114.4758         0.5782         0.5496        37.1195         1.0409         2.2597       -70.4969      -13.08878      0.8254829
      6281.0000        13.9949         0.0056        115.627         0.5877         0.5422        36.7851          1.028         2.2669       -70.9845      -13.58157      0.8189123
      6281.5000        13.9921         0.0046       117.4094         0.5964         0.5417        37.5284         0.9825         2.2739       -71.2814      -13.88367      0.8148844
      6282.0000         13.988         0.0062       118.9188         0.6043         0.5513        38.2818         0.9256          2.287       -71.2471      -13.85456      0.8152725
      6282.5000        13.9831         0.0083       119.7823         0.6087         0.5657         35.624         0.8112         2.3324       -69.2465      -11.85916      0.8418779
      6283.0000        13.9791         0.0097       117.8872         0.6069         0.5807         33.401         0.7639         2.3779       -65.3721      -7.989952      0.8934673
      6283.5000        13.9654         0.0088       112.0101         0.5946         0.5869        33.8562          0.808         2.3923       -65.1107      -7.733749      0.8968834
      6284.0000        13.9391         0.0061        107.667         0.5731         0.5585        35.5929         0.8944         2.3773       -69.0825      -11.71074      0.8438568
      6284.5000           13.9         0.0069       107.2152          0.535         0.5271        37.5129         0.9776         2.3127       -75.5193      -18.15274      0.7579635
      6285.0000        13.8424         0.0086       111.0625          0.489         0.4898         38.262         1.0146         2.2302       -83.5552      -26.19383       0.650749
      6285.5000        13.7652         0.0099       115.6244         0.4354         0.4417         36.264         1.0123         2.1706       -92.9337      -35.57753       0.525633
      6286.0000        13.6831         0.0107         119.28         0.3765         0.3961         34.462         1.0025         2.1385      -103.6036      -46.25262      0.3832984
      6286.5000        13.6241         0.0085       122.5811         0.3339         0.3654        35.3475         0.9961         2.1311      -116.8259      -59.48011      0.2069319
      6287.0000         13.595         0.0055       123.1138         0.3106         0.3512        36.2035         1.0116         2.1274      -121.8995       -64.5589      0.1392147
      6287.5000        13.6119         0.0032        122.906         0.2946          0.341        36.1505          1.054         2.1265      -125.6611       -68.3257     0.08899068
      6288.0000         13.619         0.0015       122.8618         0.2799         0.3309        36.1436         1.1222         2.1258      -130.1709       -72.8407     0.02879069
      6288.5000        13.6052         0.0001       123.0946         0.2642         0.3119        36.5211         1.1875         2.1258      -135.4805      -78.15549              0
      6289.0000        13.5762              0       123.3364         0.2498         0.2997        37.3171         1.1679         2.1256      -137.6238      -80.30398              0
      6289.5000        13.5135         0.0005       123.5153         0.2383         0.2903        37.7491         1.1379         2.1246      -138.3286      -81.01398              0
      6290.0000        13.4929         0.0008       123.5074         0.2299         0.2816        37.8074         1.0916         2.1227      -138.3618      -81.05237              0
      6290.5000        13.5263          0.001       123.4443         0.2238         0.2734        37.7728         1.0468         2.1166      -138.3027      -80.99847              0
      6291.0000        13.5887         0.0011       123.3907           0.22          0.268        37.7998         1.0002         2.1096      -138.1265      -80.82745              0
      6291.5000        13.6557         0.0011       123.5101         0.2185         0.2636        37.9968         1.0168         2.1057      -137.9446      -80.65075              0
      6292.0000        13.7013         0.0011       123.7979         0.2181         0.2601        38.5211         1.0621         2.1071      -137.7725      -80.48386              0
      6292.5000        13.7354          0.001       124.0905         0.2277         0.2691        39.4453         1.0941         2.1124      -136.9026      -79.61915              0
      6293.0000        13.7573         0.0011       124.1565         0.2428         0.2887        40.8542         1.0598         2.1277      -134.4604      -77.18214              0
      6293.5000         13.773         0.0017       123.4523          0.263         0.3416        39.7094         0.9251         2.1627      -126.2966      -69.02353     0.07968628
      6294.0000        13.7939         0.0028       122.2173          0.287         0.3701        38.8177          0.832         2.2035      -115.9034      -58.63552      0.2181931
      6294.5000        13.8236         0.0039       120.5435          0.318         0.3864        39.7436           0.75         2.2287       -97.8433      -40.58062      0.4589251
      6295.0000        13.8573         0.0046       117.9182         0.3634         0.4085        40.6034         0.7569         2.2414       -85.2463      -27.98882      0.6268158
      6295.5000         13.894         0.0049        116.194         0.4333          0.429        41.2722         0.7709         2.2394       -75.3451      -18.09281      0.7587625
      6296.0000        13.9426         0.0047       116.5331         0.4794         0.4482        41.9106         0.7841         2.2297       -70.9019       -13.6548      0.8179359
      6296.5000        14.0049         0.0043       117.3033         0.4875         0.4623        40.5576         0.8215         2.2176       -72.6443       -15.4024      0.7946346
      6297.0000        14.0855         0.0039       118.0535         0.4715         0.4772        39.5316         0.9156         2.2086       -80.6442      -23.40749      0.6879001
      6297.5000        14.1765         0.0045       115.5001         0.4576         0.4874        38.6686         1.0514         2.2059       -91.8215      -34.58999      0.5388002
      6298.0000        14.2081         0.0063       111.4147         0.4479         0.4928        37.8962         1.1361         2.2265       -95.1117      -37.88538      0.4948615
      6298.5000         14.176         0.0067       107.4535         0.4439          0.495        38.2073         0.9337         2.2642       -81.6282      -24.40707      0.6745724
      6299.0000        14.1507         0.0064       106.7305         0.4437         0.4938        39.4671         0.8244         2.2698       -71.5835      -14.36757      0.8084323
      6299.5000        14.1641         0.0061       109.8198          0.448         0.4908         40.015         0.7873         2.2653       -65.9076      -8.696861      0.8840418
