#------------------------------------------------------------------------------
# Created by    : vladimir.rabinovich
# Created on    : 09/19/2023 17:22:39
#------------------------------------------------------------------------------
~Version Information Section
VERS.           2.0     :   CWLS log ASCII Standard - VERSION 2.0
WRAP.           NO      :   One line per depth step
~Well Information Section
#MNEM       .UNIT                                         VALUE :DESCRIPTION
#------------------------------------------------------------------------------
STRT        .FT                                            3493 :START DEPTH
STOP        .FT                                            8566 :STOP DEPTH
STEP        .FT                                             0.5 :STEP      
NULL        .                                           -999.25 :NULL      
COMP        .                          SEAGULL ENERGY E & P INC :COMPANY   
WELL        .                               OCS G09038 ST00BP00 :WELL      
FLD         .                                           WILDCAT :FIELD     
LOC         .                                                   :LOCATION  
CNTY        .                             GALVESTON LARGE BLOCK :LOCATION  
STAT        .                                             TEXAS :STATE     
CTRY        .                                     UNITED STATES :COUNTRY   
SRVC        .                                                   :SERVICE COMPANY
DATE        .                             9/13/2023 11:19:36 AM :LOG DATE  
API         .                                    42706402070000 :API NUMBER
UWI         .                                    42706402070000 :UNIQUE WELL ID
XCOORD      .                                  986976.405819811 :SURFACE X 
YCOORD      .                                  10491452.3738699 :SURFACE Y 
LAT         .                                         28.894171 :LATITUDE  
LON         .                                        -95.042508 :LONGITUDE 
ELEV        .FT                                              93 :ELEVATION VALUE
ELEV_TYPE   .                                                KB :ELEVATION REFERENCE TYPE
~Curve Information Section
#MNEM       .UNIT                                      API CODE :CURVE DESCRIPTION
#------------------------------------------------------------------------------
DEPT        .FT                                                 :DEPTH     
DCAL        .IN                                                 :          
DPHI        .%                                                  :          
DRHO        .G/C3                                               :          
GR          .GAPI                                               :          
GR_NORM     .GAPI                                               :GammaRay Normalized
ILD         .OHMM                                               :          
ILM         .OHMM                                               :          
NPHI        .%                                                  :          
SGRD        .OHMM                                               :          
SP          .MV                                                 :          
SP_NORM     .MV                                                 :SP Normalized
VSH_GR      .V/V                                                :Volume of Shale from GR
VSH_SP      .V/V                                                :Volume of Shale from SP
~A        DEPTH           DCAL           DPHI           DRHO             GR        GR_NORM            ILD            ILM           NPHI           SGRD             SP        SP_NORM         VSH_GR         VSH_SP
# ...
      7540.0000         0.6585        22.0837         0.0397        86.8319       81.37631         0.7831         0.8026        44.0119         1.0006       -43.8603      0.1642342              1              1
      7540.5000         0.6448         21.786         0.0384        86.4546       80.95708         0.7926         0.8147        43.0872         1.0168        -43.845       0.177166              1              1
      7541.0000           0.66        21.3976         0.0367        85.6493       80.06231         0.8011         0.8237        42.5114         1.0358       -43.8192      0.2006035              1              1
      7541.5000         0.6752         20.994         0.0354        84.1948        78.4462         0.8088         0.8305        42.2072         1.0547       -43.9008       0.116642      0.9669403              1
      7542.0000         0.6904        20.9082         0.0358        82.0173       76.02676         0.8148         0.8415        42.0273          1.062       -44.0043     0.01077652      0.9154629              1
      7542.5000         0.6989        21.0733         0.0362        80.5703       74.41897         0.8186         0.8524        41.8586         1.0548       -44.1711       -0.15839      0.8812546      0.9980201
      7543.0000         0.7073        21.2783         0.0365        80.2535       74.06698         0.8209         0.8644        41.7766          1.047        -44.394     -0.3836517      0.8737655      0.9952043
      7543.5000         0.7081        21.4305         0.0357         81.683        75.6553         0.8358         0.8808        41.7626         1.0404       -44.6889     -0.6809158      0.9075596      0.9914886
      7544.0000         0.7068        21.2991         0.0378        82.0173       76.02676         0.8743         0.9038        41.6912          1.032       -45.1163       -1.11068      0.9154629      0.9861165
      7544.5000         0.6775        20.9977         0.0431        80.7954       74.66909         0.9318         0.9343        41.1336         1.0278        -46.205      -2.201748      0.8865764      0.9724782
      7545.0000         0.6463        20.7315         0.0474        78.2281       71.81654         0.9901          0.984        39.8595         1.0586       -47.8243      -3.823406      0.8258837      0.9522074
      7545.5000          0.609        20.7694         0.0474        74.4969       67.67075         1.0501         1.0799        37.6101          1.165       -51.2061      -7.207573      0.7376756      0.9099053
      7546.0000         0.5752        22.1216         0.0372          68.04       60.49642         1.1095         1.2007        33.4295         1.3628        -56.617      -12.62084      0.5850302      0.8422395
      7546.5000          0.548         23.983         0.0247         63.132       55.04308         1.1626          1.313         30.465         2.5295       -61.1956       -17.2018      0.4690018      0.7849776
      7547.0000         0.5302        25.6882          0.014        64.4496       56.50708         1.1968         1.3705        29.3624         2.8077       -58.1708      -14.17936      0.5001507       0.822758
      7547.5000         0.5048        26.8583         0.0088        70.2627       62.96609         1.2133          1.271        30.5364         2.3859       -53.8964       -9.90733      0.6375763      0.8761584
      7548.0000         0.4217        26.4568          0.017        77.5142       71.02331         1.1698         1.1725         34.054         1.6563       -49.8936      -5.906891      0.8090066      0.9261639
      7548.5000         0.2991        24.7115         0.0316        84.4587       78.73942         1.1006         1.1073        37.8658         1.0834       -49.0726      -5.088257      0.9731791      0.9363968
      7549.0000         0.2722        23.0582         0.0437        86.6312       81.15331         1.0317         1.0494        41.1485         1.0274       -50.6001      -6.618122              1      0.9172735
      7549.5000         0.3825        21.5864         0.0493        84.3431       78.61098         0.9561         0.9981        41.7848         1.1273       -52.2546      -8.274982      0.9704463      0.8965627
      7550.0000         0.4976         21.547         0.0501        81.1901       75.10764          0.879         0.9492        42.0526         1.2029       -52.0383      -8.061047      0.8959073      0.8992369
      7550.5000         0.5846        21.9596         0.0464        78.6556       72.29153         0.8195         0.9088        42.0593         1.2092       -49.9112      -5.936314      0.8359901      0.9257961
      7551.0000         0.6193         22.368          0.046        82.8949       77.00186            0.8         0.8736        42.3048         1.1394       -48.1059      -4.133373      0.9362098      0.9483328
      7551.5000         0.5956        22.5052         0.0463         83.954       78.17864         0.8053         0.8509        42.7579         1.0405        -46.728      -2.757839      0.9612477       0.965527
      7552.0000         0.5455        21.8243         0.0475        84.2451       78.50209         0.8122         0.8454        43.2953          1.012       -45.5186      -1.550804      0.9681296       0.980615
      7552.5000         0.5397        21.2433          0.049        84.2124       78.46575         0.8186         0.8495         43.744         1.0151       -44.7769     -0.8114662      0.9673564      0.9898567
      7553.0000         0.5861        21.3926           0.05        82.3442       76.38998         0.8252         0.8536        43.8441         1.0315       -44.5936     -0.6305313       0.923191      0.9921184
      7553.5000         0.6477        21.1136         0.0505        81.3804       75.31908         0.8322         0.8586         43.856         1.0534       -44.5359     -0.5751953      0.9004061      0.9928101
      7554.0000          0.708        20.6029         0.0475        81.8477       75.83831         0.8398         0.8672        43.9072         1.0629       -44.5107     -0.5523567      0.9114534      0.9930955
      7554.5000         0.7187        20.1759         0.0462        82.9816       77.09819         0.8499         0.8783        43.9512         1.0573       -44.2841     -0.3281212      0.9382594      0.9958985
      7555.0000         0.7198        20.1983         0.0451        83.8113       78.02009          0.863         0.8897        42.9088         1.0347       -44.0144     -0.0607872      0.9578742      0.9992402
      7555.5000         0.7035        20.1082         0.0431        85.1503       79.50786         0.8792          0.903        41.9587         1.0828       -44.0817     -0.1304474      0.9895289      0.9983694
      7556.0000         0.6872        19.8116         0.0417        86.5759       81.09186         0.8974         0.9229        41.4406         1.1128       -44.2526     -0.3037148              1      0.9962035
      7556.5000         0.6708        19.5938         0.0396        87.3975       82.00475         0.9222          0.947        41.1563         1.1089       -44.7473     -0.8007774              1      0.9899903
      7557.0000          0.658        19.5376         0.0382        87.4043       82.01231         0.9573         0.9674        40.9158         1.1238       -45.3992       -1.45504              1       0.981812
      7557.5000         0.6539        19.6972         0.0395        86.4149       80.91298          0.998         1.0009        40.5033         1.1893       -46.2189      -2.277103              1      0.9715362
      7558.0000          0.644        19.4009         0.0399        80.1895       73.99586         1.0344          1.032        39.2723         1.3154       -47.1372      -3.197769      0.8722525      0.9600279
      7558.5000         0.6301        18.1581         0.0397        78.6279       72.26075          1.059         1.0601        38.0079           1.39       -47.3038       -3.36673      0.8353351      0.9579159
