#------------------------------------------------------------------------------
# Created by    : vladimir.rabinovich
# Created on    : 09/19/2023 17:19:46
#------------------------------------------------------------------------------
~Version Information Section
VERS.           2.0     :   CWLS log ASCII Standard - VERSION 2.0
WRAP.           NO      :   One line per depth step
~Well Information Section
#MNEM       .UNIT                                         VALUE :DESCRIPTION
#------------------------------------------------------------------------------
STRT        .FT                                             290 :START DEPTH
STOP        .FT                                         11377.5 :STOP DEPTH
STEP        .FT                                             0.5 :STEP      
NULL        .                                           -999.25 :NULL      
COMP        .                         SONAT EXPLORATION GOM INC :COMPANY   
WELL        .                               OCS G04571 ST00BP00 :WELL      
FLD         .                                           WILDCAT :FIELD     
LOC         .                                                   :LOCATION  
CNTY        .                           HIGH ISLAND LARGE BLOCK :LOCATION  
STAT        .                                             TEXAS :STATE     
CTRY        .                                     UNITED STATES :COUNTRY   
SRVC        .                                                   :SERVICE COMPANY
DATE        .                             9/13/2023 11:19:19 AM :LOG DATE  
API         .                                    42708401190000 :API NUMBER
UWI         .                                    42708401190000 :UNIQUE WELL ID
XCOORD      .                                  1324427.25220013 :SURFACE X 
YCOORD      .                                  10679041.7751219 :SURFACE Y 
LAT         .                                         29.422046 :LATITUDE  
LON         .                                        -93.992863 :LONGITUDE 
ELEV        .FT                                             116 :ELEVATION VALUE
ELEV_TYPE   .                                                KB :ELEVATION REFERENCE TYPE
~Curve Information Section
#MNEM       .UNIT                                      API CODE :CURVE DESCRIPTION
#------------------------------------------------------------------------------
DEPT        .FT                                                 :DEPTH     
ASFL        .OHMM                                               :          
CALI        .IN                                                 :          
CILD        .MMHO                                               :          
GR          .GAPI                                               :          
GR_NORM     .GAPI                                               :GammaRay Normalized
ILD         .OHMM                                               :          
RHOB        .G/C3                                               :          
SP          .MV                                                 :          
SP_NORM     .GAPI                                               :SP Normalized
VSH_GR      .V/V                                                :Volume of Shale from GR
VSH_SP      .V/V                                                :Volume of Shale from SP
~A        DEPTH           ASFL           CALI           CILD             GR        GR_NORM            ILD           RHOB             SP        SP_NORM         VSH_GR         VSH_SP
# ...
      2517.5000         0.6824        -999.25       1720.451        56.2896       64.67233         0.6231        -999.25       -52.9142      -18.62188      0.6738794      0.6275625
      2518.0000         0.6672        -999.25       1837.721        57.1503       65.77511         0.5963        -999.25       -53.6738      -19.80554      0.6973428      0.6038892
      2518.5000          0.652        -999.25       1934.705         58.548       67.56592         0.5694        -999.25       -53.7341       -19.8995      0.7354451        0.60201
      2519.0000         0.6382        -999.25       2005.582        59.9457       69.35672         0.5426        -999.25       -53.7945      -19.99362      0.7735472      0.6001276
      2519.5000         0.6311        -999.25       2060.742        60.3022       69.81348         0.5157        -999.25       -53.4343      -19.43233      0.7832655      0.6113533
      2520.0000         0.6245        -999.25       2095.422        57.1646       65.79343         0.4951        -999.25       -53.0293      -18.80124      0.6977325      0.6239753
      2520.5000         0.6179        -999.25        1985.17        54.0677       61.82552         0.5098        -999.25        -52.597      -18.12759       0.613309      0.6374481
      2521.0000         0.6213        -999.25       1873.021        53.0766       60.55568         0.5245        -999.25       -50.0219      -14.11489      0.5862911      0.7177022
      2521.5000         0.6351        -999.25       1794.602        59.5842       68.89355         0.5393        -999.25       -48.0097      -10.97934      0.7636925      0.7804133
      2522.0000          0.649        -999.25        1716.18        66.1213        77.2692          0.554        -999.25       -46.3231      -8.351156      0.9418979      0.8329769
      2522.5000         0.6628        -999.25       1637.783        68.1925       79.92293         0.5688        -999.25       -45.1628      -6.543093      0.9983602      0.8691381
      2523.0000         0.6766        -999.25       1562.596        70.2649       82.57819         0.5835        -999.25       -44.2358      -5.098578              1      0.8980284
      2523.5000         0.6893        -999.25         1521.1        73.0442       86.13916         0.5983        -999.25       -43.0253      -3.212287              1      0.9357542
      2524.0000         0.7015        -999.25       1479.604        72.4387       85.36337          0.613        -999.25       -41.3794      -0.647528              1      0.9870495
      2524.5000         0.7136        -999.25       1438.105        70.7635       83.21702         0.6277        -999.25       -40.5867      0.5877102              1              1
      2525.0000         0.7258        -999.25       1404.404        69.0885       81.07093         0.6425        -999.25       -39.7938       1.823264              1              1
      2525.5000          0.738        -999.25       1373.475        67.4135       78.92483         0.6572        -999.25       -39.4611       2.341698       0.977124              1
      2526.0000         0.7486        -999.25       1346.043        64.1238       74.70992         0.6646        -999.25       -39.2714       2.637304       0.887445              1
      2526.5000         0.7531        -999.25       1341.621        65.9558       77.05716         0.6711        -999.25       -40.4836      0.7483677      0.9373864              1
      2527.0000         0.7577        -999.25       1347.512        67.7872       79.40364         0.6776        -999.25       -41.6951      -1.139475      0.9873115      0.9772105
      2527.5000         0.7623        -999.25       1353.398        69.6187       81.75024          0.684        -999.25       -42.4748      -2.354461              1      0.9529108
      2528.0000         0.7666        -999.25       1359.287        70.2596        82.5714         0.6905        -999.25       -43.1439      -3.397103              1      0.9320579
      2528.5000          0.765        -999.25       1365.178        69.6082       81.73679          0.697        -999.25       -43.0694       -3.28101              1      0.9343798
      2529.0000         0.7635        -999.25       1371.064        67.7767       79.39018         0.7035        -999.25       -42.4803      -2.363033      0.9870251      0.9527394
      2529.5000         0.7619        -999.25       1376.953        65.8903       76.97323         0.7099        -999.25       -41.8912      -1.445055      0.9356006      0.9710989
      2530.0000         0.7534        -999.25       1386.691        64.0039       74.55628         0.7164        -999.25       -41.3022     -0.5272326      0.8841762      0.9894553
      2530.5000         0.7443        -999.25       1399.576        62.7651       72.96906         0.7229        -999.25       -40.7131      0.3907447      0.8504056              1
      2531.0000         0.7352        -999.25       1412.461        62.4561       72.57317         0.7211        -999.25        -40.124       1.308722      0.8419822              1
      2531.5000          0.726        -999.25       1425.346        63.5393       73.96101         0.7151        -999.25       -40.4897      0.7388627      0.8715109              1
      2532.0000         0.7169        -999.25        1438.23         64.623        75.3495          0.709        -999.25       -41.9317      -1.508166      0.9010532      0.9698367
      2532.5000         0.7121        -999.25       1450.172        65.7068       76.73813          0.703        -999.25       -44.9302      -6.180637      0.9305985      0.8763872
      2533.0000         0.7078        -999.25       1450.709        66.7899       78.12585          0.697        -999.25       -45.5385      -7.128539      0.9601244      0.8574292
      2533.5000         0.7035        -999.25       1451.244        67.8738        79.5146         0.6909        -999.25       -46.1309      -8.051658      0.9896724      0.8389668
      2534.0000         0.6991        -999.25       1451.779        68.5632       80.39789         0.6849        -999.25       -46.3204      -8.346948              1       0.833061
      2534.5000         0.7084        -999.25       1438.188        69.1777       81.18521         0.6789        -999.25       -46.3491      -8.391667              1      0.8321667
      2535.0000         0.7206        -999.25       1423.021        69.7926       81.97305         0.6728        -999.25       -45.0059      -6.298603              1       0.874028
      2535.5000         0.7328        -999.25       1404.416        70.4071       82.76038         0.6668        -999.25       -43.6628      -4.205687              1      0.9158863
      2536.0000          0.745        -999.25       1376.473        70.3143       82.64149         0.6607        -999.25       -43.7129      -4.283753              1      0.9143249
      2536.5000         0.7572        -999.25       1348.529        69.2566       81.28631         0.6558        -999.25       -44.1378      -4.945863              1      0.9010828
      2537.0000         0.7773        -999.25       1320.586        68.1993       79.93164         0.6598        -999.25       -44.5506      -5.589118      0.9985455      0.8882176
      2537.5000         0.7975        -999.25       1295.559        67.1421        78.5771         0.6638        -999.25       -44.8941      -6.124387      0.9697256      0.8775123
      2538.0000         0.8177        -999.25       1286.568        66.1495       77.30533         0.6678        -999.25       -44.6312      -5.714715      0.9426666      0.8857057
      2538.5000         0.8191        -999.25       1277.574        65.3101       76.22985         0.6718        -999.25       -44.0106      -4.747655      0.9197841      0.9050469
      2539.0000         0.8129        -999.25       1271.061         65.684       76.70891         0.6758        -999.25       -43.3901      -3.780744      0.9299768      0.9243851
      2539.5000         0.8045        -999.25       1279.498        66.8813       78.24295         0.6797        -999.25       -42.7686      -2.812282       0.962616      0.9437544
