#------------------------------------------------------------------------------
# Created by    : vladimir.rabinovich
# Created on    : 09/19/2023 17:19:55
#------------------------------------------------------------------------------
~Version Information Section
VERS.           2.0     :   CWLS log ASCII Standard - VERSION 2.0
WRAP.           NO      :   One line per depth step
~Well Information Section
#MNEM       .UNIT                                         VALUE :DESCRIPTION
#------------------------------------------------------------------------------
STRT        .FT                                            1601 :START DEPTH
STOP        .FT                                            6340 :STOP DEPTH
STEP        .FT                                             0.5 :STEP      
NULL        .                                           -999.25 :NULL      
COMP        .                 FAIRWAYS OFFSHORE EXPLORATION INC :COMPANY   
WELL        .                                ST TR 00629-L SE/4 :WELL      
FLD         .                                       BLOCK 630-L :FIELD     
LOC         .                                                   :LOCATION  
CNTY        .                      MATAGORDA ISLAND LARGE BLOCK :LOCATION  
STAT        .                                             TEXAS :STATE     
CTRY        .                                     UNITED STATES :COUNTRY   
SRVC        .                                                   :SERVICE COMPANY
DATE        .                             9/13/2023 11:19:05 AM :LOG DATE  
API         .                                    42703302840100 :API NUMBER
UWI         .                                    42703302840100 :UNIQUE WELL ID
XCOORD      .                                  449566.970470722 :SURFACE X 
YCOORD      .                                  10204940.3648147 :SURFACE Y 
LAT         .                                        28.0716107 :LATITUDE  
LON         .                                       -96.6925833 :LONGITUDE 
ELEV        .FT                                              82 :ELEVATION VALUE
ELEV_TYPE   .                                                KB :ELEVATION REFERENCE TYPE
~Curve Information Section
#MNEM       .UNIT                                      API CODE :CURVE DESCRIPTION
#------------------------------------------------------------------------------
DEPT        .FT                                                 :DEPTH     
ASFL        .OHMM                                               :          
CILD        .MMHO                                               :          
GR          .GAPI                                               :          
GR_NORM     .GAPI                                               :GammaRay Normalized
ILD         .OHMM                                               :          
SP          .MV                                                 :          
SP_NORM     .MV                                                 :SP Normalized
VSH_GR      .V/V                                                :Volume of Shale from GR
VSH_SP      .V/V                                                :Volume of Shale from SP
~A        DEPTH           ASFL           CILD             GR        GR_NORM            ILD             SP        SP_NORM         VSH_GR         VSH_SP
# ...
      1627.5000        -999.25        -999.25        24.5105       71.45395        -999.25        -999.25        -999.25      0.8181691        -999.25
      1628.0000        -999.25        -999.25        24.7239       71.68279        -999.25        -999.25        -999.25       0.823038        -999.25
      1628.5000        -999.25        -999.25        24.9475       71.92831        -999.25        -999.25        -999.25       0.828262        -999.25
      1629.0000        -999.25        -999.25        25.1711       72.17387        -999.25        -999.25        -999.25      0.8334867        -999.25
      1629.5000        -999.25        -999.25         25.581        72.7247        -999.25        -999.25        -999.25      0.8452064        -999.25
      1630.0000        -999.25        -999.25        26.3138        73.8046        -999.25        -999.25        -999.25      0.8681829        -999.25
      1630.5000        -999.25        -999.25        27.0988       74.97002        -999.25        -999.25        -999.25      0.8929793        -999.25
      1631.0000        -999.25        -999.25        28.4315       77.03292        -999.25        -999.25        -999.25      0.9368706        -999.25
      1631.5000        -999.25        -999.25        29.4331       78.55326        -999.25        -999.25        -999.25      0.9692183        -999.25
      1632.0000        -999.25        -999.25        29.5645       78.64776        -999.25        -999.25        -999.25      0.9712289        -999.25
      1632.5000        -999.25        -999.25        29.1293       77.81383        -999.25        -999.25        -999.25      0.9534857        -999.25
      1633.0000        -999.25        -999.25        28.6799       76.95661        -999.25        -999.25        -999.25      0.9352471        -999.25
      1633.5000        -999.25        -999.25        28.2303       76.09909        -999.25        -999.25        -999.25      0.9170019        -999.25
      1634.0000        -999.25        -999.25        27.7809       75.24189        -999.25        -999.25        -999.25      0.8987636        -999.25
      1634.5000        -999.25        -999.25        27.5213       74.69569        -999.25        -999.25        -999.25      0.8871422        -999.25
      1635.0000        -999.25        -999.25        27.3857       74.35267        -999.25        -999.25        -999.25       0.879844        -999.25
      1635.5000        -999.25        -999.25        27.6322       74.63574        -999.25        -999.25        -999.25      0.8858669        -999.25
      1636.0000        -999.25        -999.25        27.8788       74.91898        -999.25        -999.25        -999.25      0.8918931        -999.25
      1636.5000        -999.25        -999.25        28.2987       75.35307        -999.25        -999.25        -999.25      0.9011291        -999.25
      1637.0000        -999.25        -999.25        28.9399       75.28835        -999.25        -999.25        -999.25       0.899752        -999.25
      1637.5000        -999.25        -999.25        29.7422       75.48761        -999.25        -999.25        -999.25      0.9039917        -999.25
      1638.0000        -999.25        -999.25        30.8683       76.21743        -999.25        -999.25        -999.25      0.9195198        -999.25
      1638.5000        -999.25        -999.25        32.0843       77.09457        -999.25        -999.25        -999.25      0.9381822        -999.25
      1639.0000        -999.25        -999.25        33.1518       77.72836        -999.25        -999.25        -999.25      0.9516671        -999.25
      1639.5000        -999.25        -999.25        33.7378       77.57319        -999.25        -999.25        -999.25      0.9483657        -999.25
      1640.0000        -999.25        -999.25        34.1692        77.1647        -999.25        -999.25        -999.25      0.9396746        -999.25
      1640.5000        -999.25        -999.25        33.3652       74.73194        -999.25        -999.25        -999.25      0.8879136        -999.25
      1641.0000        -999.25        -999.25        33.2153       73.37096        -999.25        -999.25        -999.25      0.8589565        -999.25
      1641.5000        -999.25        -999.25        34.1649       73.81159        -999.25        -999.25        -999.25      0.8683317        -999.25
      1642.0000        -999.25        -999.25          37.95       78.89835        -999.25        -999.25        -999.25      0.9765607        -999.25
      1642.5000        -999.25        -999.25        39.2662       79.93964        -999.25        -999.25        -999.25      0.9987158        -999.25
      1643.0000        -999.25        -999.25        39.5446       79.28048        -999.25        -999.25        -999.25       0.984691        -999.25
      1643.5000        -999.25        -999.25        39.7618       78.52102        -999.25        -999.25        -999.25      0.9685323        -999.25
      1644.0000        -999.25        -999.25         39.979       77.76154        -999.25        -999.25        -999.25      0.9523731        -999.25
      1644.5000        -999.25        -999.25        40.3152       77.19706        -999.25        -999.25        -999.25       0.940363        -999.25
      1645.0000         1.1189       2248.172        40.7913       76.86182         0.3202       -56.0293       2.653336      0.9332303              1
      1645.5000         1.1189        2247.32        41.2673       76.52641          0.341       -59.1548     -0.4721642      0.9260939              1
      1646.0000         1.1189       2244.813        41.9293       76.49579         0.3654       -59.9447      -1.262062      0.9254423       0.994303
      1646.5000         1.1189       2238.887        42.5009       76.31704         0.3943       -60.1826      -1.499962      0.9216391      0.9891313
      1647.0000         1.1189       2200.141        42.7164       75.55478         0.4232       -58.0207      0.4003868      0.9054208              1
      1647.5000         1.0961       2016.781         43.205       75.24005          0.452       -55.8637      0.6409798      0.8987245              1
      1648.0000         1.0756       1808.229        48.2889       82.45494         0.4809       -53.4684       1.119873              1              1
      1648.5000         1.0544       1778.557        49.9662       84.08796         0.5113       -50.3172       2.354664              1              1
      1649.0000         1.0282       1751.248        50.7282       84.22116         0.5426       -47.1105       3.644958              1              1
      1649.5000         0.9847       1721.707        51.3297        84.0914         0.5738       -44.4634       4.375648              1              1
      1650.0000         0.9372        1692.17        51.9222        83.9469         0.6038       -43.1924        3.73024              1              1
      1650.5000         0.8642       1600.275        51.5663       82.24834         0.6321       -42.4256       2.580639              1              1
      1651.0000         0.7759       1529.414        51.2823       80.66763         0.6581       -41.7859       1.303928              1              1
      1651.5000         0.7563       1466.551        51.3193        79.6129         0.6707        -41.201      0.7206078      0.9917638              1
      1652.0000         0.7404       1421.416        51.4742       78.75138         0.6765       -40.9702      0.9654503      0.9734336              1
      1652.5000         0.7222       1383.734        51.6292          77.89         0.6703       -41.1582      0.7914886      0.9551064              1
      1653.0000         0.7082       1354.537        51.8867       77.19654         0.6642       -41.2977      0.6660309      0.9403519              1
      1653.5000         0.6937        1331.43        52.2338       76.66388         0.6581       -41.4372      0.5405693      0.9290187              1
