#------------------------------------------------------------------------------
# Created by    : vladimir.rabinovich
# Created on    : 09/19/2023 17:22:50
#------------------------------------------------------------------------------
~Version Information Section
VERS.           2.0     :   CWLS log ASCII Standard - VERSION 2.0
WRAP.           NO      :   One line per depth step
~Well Information Section
#MNEM       .UNIT                                         VALUE :DESCRIPTION
#------------------------------------------------------------------------------
STRT        .FT                                            2472 :START DEPTH
STOP        .FT                                            8382 :STOP DEPTH
STEP        .FT                                             0.5 :STEP      
NULL        .                                           -999.25 :NULL      
COMP        .                                 EPL OIL & GAS LLC :COMPANY   
WELL        .                               OCS G07215 ST00BP00 :WELL      
FLD         .                                 BRAZOS BLOCK 0376 :FIELD     
LOC         .                                                   :LOCATION  
CNTY        .                                BRAZOS LARGE BLOCK :LOCATION  
STAT        .                                             TEXAS :STATE     
CTRY        .                                     UNITED STATES :COUNTRY   
SRVC        .                                                   :SERVICE COMPANY
DATE        .                             9/13/2023 11:19:08 AM :LOG DATE  
API         .                                    42704402290000 :API NUMBER
UWI         .                                    42704402290000 :UNIQUE WELL ID
XCOORD      .                                  871225.230552878 :SURFACE X 
YCOORD      .                                  10399792.7272756 :SURFACE Y 
LAT         .                                         28.636239 :LATITUDE  
LON         .                                        -95.398308 :LONGITUDE 
ELEV        .FT                                              95 :ELEVATION VALUE
ELEV_TYPE   .                                                KB :ELEVATION REFERENCE TYPE
~Curve Information Section
#MNEM       .UNIT                                      API CODE :CURVE DESCRIPTION
#------------------------------------------------------------------------------
DEPT        .FT                                                 :DEPTH     
DT          .US/F                                               :          
GR          .GAPI                                               :          
GR_NORM     .GAPI                                               :GammaRay Normalized
ILD         .OHMM                                               :          
ILM         .OHMM                                               :          
SFL         .OHMM                                               :          
SP          .MV                                                 :          
SP_NORM     .MV                                                 :SP Normalized
VSH_GR      .V/V                                                :Volume of Shale from GR
VSH_SP      .V/V                                                :Volume of Shale from SP
~A        DEPTH             DT             GR        GR_NORM            ILD            ILM            SFL             SP        SP_NORM         VSH_GR         VSH_SP
# ...
      6000.0000       120.0011        80.3456       86.39256          0.899         0.8053         0.8203       -35.3542      -2.032448              1      0.9801452
      6000.5000       119.2827        77.1399       82.83046         0.8924         0.8078         0.8371       -35.5527      -2.231533              1      0.9763167
      6001.0000       118.3363        75.4973       81.00515         0.8904         0.8192         0.8473        -35.968      -2.647411              1       0.968319
      6001.5000       117.4337        74.2097       79.57427         0.8907         0.8273         0.8553       -36.8843      -3.564293      0.9909419      0.9506867
      6002.0000        117.234        73.1489       78.39539         0.8915         0.8418         0.8791       -38.3981      -5.078674      0.9658594       0.921564
      6002.5000       118.0857         72.327       77.48196         0.8931         0.8446         0.8945       -39.1881      -5.869251      0.9464248      0.9063606
      6003.0000       119.0953        71.9554       77.06886          0.895         0.8418         0.8922        -39.665      -6.346737      0.9376352      0.8971781
      6003.5000       120.0107        72.3229       77.47697         0.8984         0.8379         0.8903       -39.9556      -6.637917      0.9463186      0.8915786
      6004.0000       120.5071        73.6886       78.99421         0.9035         0.8367         0.8835       -40.1044      -6.787296      0.9786002      0.8887058
      6004.5000       120.6454        75.7632       81.29911         0.9123         0.8395         0.8668        -39.137      -5.820477              1      0.9072985
      6005.0000       119.9628        76.0538       81.62179         0.9181         0.8456         0.8616       -37.6063      -4.290359              1      0.9367238
      6005.5000       118.4591        74.5996        80.0058         0.9207         0.8567         0.8694       -36.1936      -2.878239              1        0.96388
      6006.0000       116.7439         73.756       79.06824          0.926         0.8688         0.8907       -35.1443      -1.829517      0.9801754      0.9840478
      6006.5000       115.9855        73.5696       78.86093          0.932          0.877         0.9385        -34.379        -1.0648      0.9757645      0.9987538
      6007.0000       115.7366        74.0099       79.34995         0.9365         0.8838         0.9702       -33.8032     -0.4895821       0.986169              1
      6007.5000       115.8827        74.8258       80.25628         0.9334         0.8863         0.9389       -33.4868     -0.1737633              1              1
      6008.0000       116.6478        75.8751       81.42196         0.9291         0.8851         0.9105       -33.5076     -0.1951408              1              1
      6008.5000       117.8655        77.4045       83.12109         0.9251          0.879         0.8879       -33.8585     -0.5466232              1              1
      6009.0000       119.3947        77.9678       83.74675         0.9217         0.8697         0.8697       -34.3212      -1.009907              1      0.9998095
      6009.5000       120.7461        76.5358       82.15544         0.9189         0.8584         0.8541       -34.5492      -1.238483              1      0.9954138
      6010.0000       121.9663        74.7885       80.21378         0.9174           0.85         0.8442       -34.5627      -1.252563              1       0.995143
      6010.5000       122.4937        73.3192       78.58102         0.9164         0.8431         0.8439       -34.4448      -1.135246      0.9698089      0.9973991
      6011.0000       122.3112        72.8223        78.0287         0.9155         0.8423          0.851        -34.269     -0.9600296      0.9580575              1
      6011.5000       121.6543        73.7332        79.0406         0.9145         0.8424          0.857       -34.3052     -0.9968071      0.9795871              1
      6012.0000       120.8727        75.0978       80.55661         0.9119         0.8431         0.8661       -34.5321      -1.224289              1      0.9956868
      6012.5000       120.2468        76.3312       81.92683         0.9091         0.8446         0.8759       -34.9424       -1.63517              1      0.9877852
      6013.0000       119.8894        76.1416       81.71596         0.9026          0.845         0.8832       -35.3062       -1.99955              1      0.9807779
      6013.5000       119.5366        75.6068       81.12152         0.8964         0.8415         0.8827       -35.6395      -2.333431              1      0.9743571
      6014.0000       119.1866        77.7078       83.45576          0.894         0.8341         0.8766       -35.8317      -2.526211              1      0.9706498
      6014.5000       118.7091        80.7355       86.81966          0.892         0.8283         0.8703       -35.7616      -2.456692              1      0.9719867
      6015.0000       118.4973        80.3889       86.43433         0.8947         0.8248         0.8636       -35.3777      -2.073376              1      0.9793581
      6015.5000       119.7778        75.4359       80.93079         0.8966         0.8214         0.8501       -34.9349      -1.631153              1      0.9878625
      6016.0000        121.077         72.099       77.22291         0.8898         0.8179         0.8371       -34.5886      -1.285435       0.940913      0.9945109
      6016.5000       121.9821        71.8644       76.96204         0.8807         0.8136         0.8295       -34.3594      -1.056816      0.9353625      0.9989074
      6017.0000       122.3193        74.1989       79.55571         0.8718         0.8092         0.8443       -34.3375        -1.0355       0.990547      0.9993173
      6017.5000       122.1783        75.1567       80.61972         0.8658          0.806         0.8568       -33.7364     -0.4349785              1              1
      6018.0000       122.1599        72.8223       78.02573         0.8643         0.8033         0.8664       -32.9042      0.3966408      0.9579943              1
      6018.5000       122.1833        71.0365       76.04131         0.8661         0.8055         0.8708       -32.0865       1.213764      0.9157724              1
      6019.0000       122.6372        70.3042       75.22742         0.8686         0.8075         0.8707       -31.6287       1.670979      0.8984559              1
      6019.5000       123.1487        70.9258       75.91788          0.872         0.8082         0.8678       -31.3387         1.9604      0.9131463              1
      6020.0000       123.4963        70.5725       75.52512         0.8742         0.8089         0.8635       -31.1101       2.188419      0.9047897              1
      6020.5000       123.7388        69.9069       74.78534         0.8758         0.8089         0.8617       -31.1588       2.139139      0.8890498              1
      6021.0000       123.7814        69.8479       74.71957         0.8731         0.8089         0.8604       -31.4028       1.894556      0.8876505              1
      6021.5000       123.6907        70.2603       75.17759         0.8703         0.8067         0.8617       -31.7719       1.524876      0.8973955              1
      6022.0000       123.3877        70.9299       75.92138         0.8691         0.8044         0.8648       -32.2081       1.088097      0.9132208              1
      6022.5000       122.6797        71.3541        76.3925         0.8683         0.8007         0.8659       -32.5159      0.7797165      0.9232447              1
      6023.0000       122.0131        71.1152       76.12684         0.8667         0.7987         0.8658       -32.7218      0.5732307      0.9175923              1
      6023.5000       121.4396        73.1832        78.4244          0.865         0.7994         0.8606       -32.6802       0.614254      0.9664766              1
      6024.0000       121.4817        76.3721       81.96741         0.8593         0.8056         0.8545       -32.5595      0.7343712              1              1
