#------------------------------------------------------------------------------
# Created by    : vladimir.rabinovich
# Created on    : 09/19/2023 17:21:34
#------------------------------------------------------------------------------
~Version Information Section
VERS.           2.0     :   CWLS log ASCII Standard - VERSION 2.0
WRAP.           NO      :   One line per depth step
~Well Information Section
#MNEM       .UNIT                                         VALUE :DESCRIPTION
#------------------------------------------------------------------------------
STRT        .FT                                            4495 :START DEPTH
STOP        .FT                                            9058 :STOP DEPTH
STEP        .FT                                             0.5 :STEP      
NULL        .                                           -999.25 :NULL      
COMP        .                          SEAGULL ENERGY E & P INC :COMPANY   
WELL        .                               OCS G11322 ST00BP00 :WELL      
FLD         .                                           WILDCAT :FIELD     
LOC         .                                                   :LOCATION  
CNTY        .                             GALVESTON LARGE BLOCK :LOCATION  
STAT        .                                             TEXAS :STATE     
CTRY        .                                     UNITED STATES :COUNTRY   
SRVC        .                                                   :SERVICE COMPANY
DATE        .                             9/13/2023 11:19:34 AM :LOG DATE  
API         .                                    42706402570000 :API NUMBER
UWI         .                                    42706402570000 :UNIQUE WELL ID
XCOORD      .                                  1032943.49501878 :SURFACE X 
YCOORD      .                                  10418025.6284813 :SURFACE Y 
LAT         .                                         28.694364 :LATITUDE  
LON         .                                        -94.895236 :LONGITUDE 
ELEV        .FT                                              97 :ELEVATION VALUE
ELEV_TYPE   .                                                KB :ELEVATION REFERENCE TYPE
~Curve Information Section
#MNEM       .UNIT                                      API CODE :CURVE DESCRIPTION
#------------------------------------------------------------------------------
DEPT        .FT                                                 :DEPTH     
CALI        .IN                                                 :          
DCAL        .IN                                                 :          
DPHI        .%                                                  :          
DRHO        .G/C3                                               :          
GR          .GAPI                                               :          
GR_1        .GAPI                                               :          
GR_NORM     .GAPI                                               :GammaRay Normalized
ILD         .OHMM                                               :          
ILM         .OHMM                                               :          
NPHI        .%                                                  :          
SGRD        .OHMM                                               :          
SP          .MV                                                 :          
SP_NORM     .MV                                                 :SP Normalized
VSH_GR      .V/V                                                :Volume of Shale from GR
VSH_SP      .V/V                                                :Volume of Shale from SP
~A        DEPTH           CALI           DCAL           DPHI           DRHO             GR           GR_1        GR_NORM            ILD            ILM           NPHI           SGRD             SP        SP_NORM         VSH_GR         VSH_SP
# ...
      6008.0000        -999.25         1.1037         22.108         0.0128        -999.25        69.2911       74.91697         0.6194           0.63        44.2865         0.8159       -44.5675      -2.345276      0.8918504       0.960912
      6008.5000        -999.25         1.0897        22.1407         0.0115        -999.25        70.5403       76.48782         0.6153         0.6272        45.0146         0.8134        -44.465      -2.242775      0.9252727      0.9626204
      6009.0000        -999.25         1.0875        22.0658         0.0102        -999.25         72.292       78.69055         0.6113         0.6242        44.9346         0.8212       -44.3004      -2.078175      0.9721394      0.9653637
      6009.5000        -999.25         1.0852        21.8345         0.0101        -999.25         73.826       80.61952         0.6093         0.6201        44.4695         0.8339       -44.0607      -1.838474              1      0.9693587
      6010.0000        -999.25         1.0811        21.5524         0.0102        -999.25        74.6986        81.7168         0.6074         0.6153        44.5243         0.8359       -43.8342      -1.611977              1      0.9731337
      6010.5000        -999.25         1.0735        21.5557         0.0091        -999.25        77.1543       84.80479          0.603         0.6101        44.7912         0.8305       -43.6577      -1.435474              1      0.9760754
      6011.0000        -999.25         1.0702        21.7449          0.007        -999.25        76.4905       83.97009         0.5982         0.6074        45.0262         0.8172       -43.4236      -1.201374              1      0.9799771
      6011.5000        -999.25         1.0713        21.8979         0.0039        -999.25         74.663       81.67205         0.5915         0.6034        45.3009         0.8048       -43.3641      -1.141876              1      0.9809687
      6012.0000        -999.25         1.0849        21.9817        -0.0005        -999.25        73.8643       80.66769          0.584         0.5994        45.5709         0.7963        -43.481      -1.258774              1      0.9790204
      6012.5000        -999.25         1.0884        21.9484        -0.0042        -999.25        73.1506       79.77022         0.5743         0.5964         45.804         0.7937       -43.5743      -1.352074       0.995111      0.9774655
      6013.0000        -999.25          1.092        21.9176         -0.007        -999.25        73.9038       80.71736         0.5657         0.5941        46.0908         0.7887       -43.7982      -1.575974              1      0.9737338
      6013.5000        -999.25         1.0988        21.8908        -0.0082        -999.25        77.1276       84.77122         0.5578         0.5924        46.5515         0.7853       -44.0164      -1.794174              1      0.9700971
      6014.0000        -999.25         1.0862        21.8919        -0.0079        -999.25        78.7494       86.81061         0.5591         0.5921        47.0628         0.7857       -44.1893      -1.967075              1      0.9672154
      6014.5000        -999.25         1.0643        21.8872        -0.0082        -999.25         80.259       88.70891         0.5712         0.5986        46.4827         0.7848        -44.335      -2.112774              1      0.9647871
      6015.0000        -999.25         1.0374        21.8613         -0.009        -999.25         81.371       90.10722         0.5845         0.6087        46.0045         0.7816       -44.5672      -2.344975              1      0.9609171
      6015.5000        -999.25         1.0156        21.7669        -0.0102        -999.25         79.114       87.26908         0.6092         0.6265        45.1591         0.7826       -45.1169      -2.894676              1      0.9517554
      6016.0000        -999.25         0.9996        21.6504        -0.0188        -999.25        74.5397       81.51699         0.6354         0.6515        42.9493         0.7996       -46.3588      -4.136574              1      0.9310571
      6016.5000        -999.25          0.987        21.4005        -0.0286        -999.25        68.2294        73.5819         0.6638         0.6809        40.9586         0.8638       -47.6699      -5.447674      0.8634447      0.9092054
      6017.0000        -999.25         0.9674        21.0151        -0.0378        -999.25        62.7211       66.65531         0.6977         0.7088        39.5895         0.9351        -48.989      -6.766773      0.7160705      0.8872204
      6017.5000        -999.25         0.9578        20.4456        -0.0437        -999.25         58.297       61.09208         0.7012         0.7235        38.5802         0.9864       -49.0463      -6.824074      0.5977039      0.8862655
      6018.0000        -999.25         0.9555        19.8574        -0.0472        -999.25        56.5875       58.94242         0.7027         0.7262        38.1373         1.0071       -48.1857      -5.963474      0.5519664      0.9006088
      6018.5000        -999.25         0.9647        19.3174        -0.0479        -999.25        58.7164       61.61947         0.7029         0.7288         38.783         0.9617       -47.5123      -5.290073      0.6089249      0.9118321
      6019.0000        -999.25         0.9768        19.1393        -0.0485        -999.25        61.8347       65.54068         0.7018         0.7309        39.4598         0.9122       -47.1006      -4.878376      0.6923549      0.9186937
      6019.5000        -999.25         0.9816        19.4452        -0.0499        -999.25        65.0583       69.59429         0.6989          0.731        40.0227         0.8735       -48.2476      -6.025375      0.7786019      0.8995771
      6020.0000        -999.25         0.9868        19.7941        -0.0513        -999.25         67.947       73.22678         0.6958          0.732        40.4672         0.8779       -49.6379      -7.415676       0.855889      0.8764054
      6020.5000        -999.25         0.9635         20.129        -0.0526        -999.25        69.7528       75.49755         0.6927         0.7341        40.5786          0.896       -50.8567      -8.634476      0.9042032      0.8560921
      6021.0000        -999.25          0.937        20.4114        -0.0578        -999.25        69.8267       75.59048         0.6895         0.7362        40.3887         0.9192         -51.97      -9.747776      0.9061804      0.8375371
      6021.5000        -999.25         0.9113         20.629        -0.0639        -999.25        69.5272       75.21386          0.688         0.7402        39.8545         0.9418       -53.1954      -10.97318      0.8981673      0.8171138
      6022.0000        -999.25         0.8774        20.8242        -0.0696        -999.25        67.1636       72.24168         0.6894         0.7442        38.9827         0.9621       -54.4286      -12.20638      0.8349293      0.7965604
      6022.5000        -999.25         0.8492        21.0153        -0.0745        -999.25         65.024       69.55117         0.6947         0.7466        38.3378         0.9794       -56.1118      -13.88958      0.7776845      0.7685071
      6023.0000        -999.25         0.8284        21.0881        -0.0789        -999.25        62.1776       65.97187         0.7033          0.753        38.1105         0.9931         -56.03      -13.80777      0.7015291      0.7698705
      6023.5000        -999.25         0.8153        20.9537        -0.0824        -999.25        59.9695       63.19522         0.7133         0.7621        37.9891         0.9961       -54.6002      -12.37798      0.6424515      0.7937004
      6024.0000        -999.25          0.812        20.5194        -0.0827        -999.25        61.3361       64.91371         0.7243         0.7743        37.8539         0.9582       -52.9579      -10.73568      0.6790152       0.821072
      6024.5000        -999.25         0.7914         20.092        -0.0804        -999.25        61.8162       65.51742         0.7314         0.7841        37.6279         0.9315       -52.5424      -10.32018        0.69186      0.8279971
