#------------------------------------------------------------------------------
# Created by    : vladimir.rabinovich
# Created on    : 09/19/2023 17:19:20
#------------------------------------------------------------------------------
~Version Information Section
VERS.           2.0     :   CWLS log ASCII Standard - VERSION 2.0
WRAP.           NO      :   One line per depth step
~Well Information Section
#MNEM       .UNIT                                         VALUE :DESCRIPTION
#------------------------------------------------------------------------------
STRT        .FT                                            4783 :START DEPTH
STOP        .FT                                            9473 :STOP DEPTH
STEP        .FT                                             0.5 :STEP      
NULL        .                                           -999.25 :NULL      
COMP        .                                   FOREST OIL CORP :COMPANY   
WELL        .                               OCS G20658 ST00BP00 :WELL      
FLD         .                            HIGH ISLAND BLOCK 0052 :FIELD     
LOC         .                                                   :LOCATION  
CNTY        .                           HIGH ISLAND LARGE BLOCK :LOCATION  
STAT        .                                             TEXAS :STATE     
CTRY        .                                     UNITED STATES :COUNTRY   
SRVC        .                                                   :SERVICE COMPANY
DATE        .                             9/13/2023 11:19:51 AM :LOG DATE  
API         .                                    42708405710000 :API NUMBER
UWI         .                                    42708405710000 :UNIQUE WELL ID
XCOORD      .                                  1254974.65209524 :SURFACE X 
YCOORD      .                                  10682885.5467737 :SURFACE Y 
LAT         .                                         29.430813 :LATITUDE  
LON         .                                        -94.211177 :LONGITUDE 
ELEV        .FT                                             108 :ELEVATION VALUE
ELEV_TYPE   .                                                KB :ELEVATION REFERENCE TYPE
~Curve Information Section
#MNEM       .UNIT                                      API CODE :CURVE DESCRIPTION
#------------------------------------------------------------------------------
DEPT        .FT                                                 :DEPTH     
A28H_COND   .MMHO                                               :          
A28H_UNC    .OHMM                                               :          
AHT10       .OHMM                                               :          
AHT20       .OHMM                                               :          
AHT30       .OHMM                                               :          
AHT60       .OHMM                                               :          
AHT90       .OHMM                                               :          
DCAL        .IN                                                 :          
DPHZ        .V/V                                                :          
DRHO        .G/CC                                               :          
DTCO        .US/F                                               :          
DTSM        .US/F                                               :          
GR          .GAPI                                               :          
GR_ARC_FIL  .GAPI                                               :          
GR_NORM     .GAPI                                               :GammaRay Normalized
GR1         .GAPI                                               :          
GRM1        .GAPI                                               :          
NPOR        .V/V                                                :          
P28H_UNC    .OHMM                                               :          
ROP5        .F/HR                                               :          
ROP5_RM     .F/HR                                               :          
SP          .MV                                                 :          
TENS        .LB                                                 :          
VSH_GR      .V/V                                                :Volume of Shale from GR
~A        DEPTH      A28H_COND       A28H_UNC          AHT10          AHT20          AHT30          AHT60          AHT90           DCAL           DPHZ           DRHO           DTCO           DTSM             GR     GR_ARC_FIL        GR_NORM            GR1           GRM1           NPOR       P28H_UNC           ROP5        ROP5_RM             SP           TENS         VSH_GR
# ...
      8556.0000        -999.25        -999.25         0.5873         0.5923         0.6037         0.6042         0.6009         0.4021         0.2478         -0.013       125.3689        321.193        73.6213        -999.25       81.37625           69.3         84.101         0.4068        -999.25         58.136        -999.25         2.9204           3134              1
      8556.5000        -999.25        -999.25         0.5794         0.5882         0.5983         0.6013         0.6051         0.4484         0.2508         -0.009        125.565        325.167         74.054        -999.25          87.56           68.7         89.048         0.4158        -999.25         57.429        -999.25         3.4729           3134              1
      8557.0000        -999.25        -999.25         0.5814         0.5921            0.6         0.6045         0.6101         0.4715         0.2484         -0.003       125.5623       327.9453        74.8893        -999.25          87.56           66.5         89.048         0.4224        -999.25         57.956        -999.25         3.4212           3134              1
      8557.5000        -999.25        -999.25          0.583         0.5955          0.601         0.6034         0.6125         0.4715         0.2412          0.005       125.1624       329.9266        75.7279        -999.25          91.27           68.5         92.016         0.4236        -999.25         56.835        -999.25         3.9737           3134              1
      8558.0000        -999.25        -999.25         0.5864         0.5993         0.6035         0.6049         0.6083         0.5178          0.234          0.011       124.9614       331.5092        77.2052        -999.25       86.32249           69.2         88.058         0.4242        -999.25         55.488        -999.25         4.0887           3134              1
      8558.5000        -999.25        -999.25         0.5956           0.61         0.6132         0.6135         0.6125          0.541          0.228          0.017       124.5622       332.8919         77.293        -999.25        90.0325           66.3         91.026         0.4121        -999.25         56.276        -999.25         4.5579           3116              1
      8559.0000        -999.25        -999.25         0.6026         0.6182           0.62         0.6184         0.6152         0.5642          0.228          0.019       123.9652        333.282        77.7691        -999.25          87.56           67.6         89.048         0.4006        -999.25         51.227        -999.25          4.777           3116              1
      8559.5000        -999.25        -999.25         0.6068         0.6214         0.6196         0.6182         0.6148         0.5487         0.2256          0.018       123.5669       333.2755        77.9145        -999.25       86.32249           69.5         88.058         0.3886        -999.25         52.711        -999.25         5.1003           3134              1
      8560.0000        -999.25        -999.25         0.6041         0.6191         0.6188         0.6186          0.613         0.5835         0.2238          0.016       123.3671       332.2787        78.9627        -999.25          87.56             70         89.048         0.3832        -999.25         51.138        -999.25         5.3403           3116              1
      8560.5000        -999.25        -999.25          0.603          0.621         0.6185         0.6187         0.6119         0.5564         0.2244          0.014       123.1683       330.6931        79.0173        -999.25       83.84875           67.9         86.079         0.3945        -999.25         50.761        -999.25         4.9345           3098              1
      8561.0000        -999.25        -999.25         0.6062         0.6156         0.6154         0.6156         0.6097          0.541         0.2214          0.011       122.7723       329.1089        78.1853        -999.25       86.32249           68.3         88.058         0.4012        -999.25         50.215        -999.25          4.487           3098              1
      8561.5000        -999.25        -999.25         0.6227         0.6312         0.6307         0.6289          0.623         0.5332         0.2172          0.014       122.5743       326.5347        76.0597        -999.25        82.6125           68.7          85.09         0.3965        -999.25         49.063        -999.25         4.1436           3116              1
      8562.0000        -999.25        -999.25         0.6468         0.6525         0.6553         0.6579         0.6499          0.622         0.2178          0.013       122.5743       323.9604        74.2236        -999.25       83.84875        72.8283         86.079         0.3876        -999.25         49.554        -999.25         4.5295           3116              1
      8562.5000        -999.25        -999.25         0.6289         0.6354          0.639         0.6423         0.6348         0.7262         0.2208          0.011       121.9802       320.5941        74.6944        -999.25       85.08625         70.101         87.069         0.3948        -999.25         47.258        -999.25         5.1445           3116              1
      8563.0000        -999.25        -999.25         0.6282         0.6315         0.6328         0.6367         0.6321         0.8343         0.2256          0.008       120.9901          317.2        76.5415        -999.25          94.98           67.5         94.984          0.411        -999.25          49.21        -999.25         5.3428           3098              1
      8563.5000        -999.25        -999.25         0.6347         0.6313         0.6356          0.641         0.6354         0.7957          0.225          0.005        120.396          313.2         78.005        -999.25       85.08625           63.2         87.069         0.4218        -999.25         49.614        -999.25          5.062           3080              1
      8564.0000        -999.25        -999.25         0.6493         0.6493         0.6497         0.6531         0.6474         0.7301         0.2202          0.006        120.198          308.8        77.6994        -999.25       88.79625           64.9         90.037         0.4236        -999.25          51.18        -999.25         4.6144           3080              1
      8564.5000        -999.25        -999.25         0.6582         0.6653         0.6663         0.6693         0.6629         0.6567         0.2172          0.007          119.8          305.2        76.4745        -999.25       85.08625           67.2         87.069         0.4271        -999.25         49.913        -999.25         4.3752           3080              1
      8565.0000        -999.25        -999.25          0.655         0.6646         0.6677         0.6697         0.6603         0.6567         0.2172          0.008          119.6            304        76.6571        -999.25       90.90117             68         91.026         0.4307        -999.25         50.549        -999.25         4.2819           3080              1
      8565.5000        -999.25        -999.25         0.6675         0.6768         0.6727         0.6726         0.6642         0.6374         0.2124          0.013          119.6            306        76.0124        -999.25       89.44768           66.9        -999.25         0.4074        -999.25         51.948        -999.25         4.2927           3062              1
      8566.0000        -999.25        -999.25         0.7032         0.7183         0.7201         0.7137          0.702         0.6374         0.2022          0.018            120          309.2        76.2681        -999.25       87.99419           65.8         84.101         0.3732        -999.25         49.742        -999.25         3.9285           3062              1
      8566.5000        -999.25        -999.25         0.7155         0.7214         0.7317         0.7278         0.7126         0.6837         0.2034          0.018       120.5941            313        74.6402        -999.25        86.5407           60.8          85.09         0.3492        -999.25         51.481        -999.25         3.6894           3044              1
