#------------------------------------------------------------------------------
# Created by    : vladimir.rabinovich
# Created on    : 09/19/2023 17:20:34
#------------------------------------------------------------------------------
~Version Information Section
VERS.           2.0     :   CWLS log ASCII Standard - VERSION 2.0
WRAP.           NO      :   One line per depth step
~Well Information Section
#MNEM       .UNIT                                         VALUE :DESCRIPTION
#------------------------------------------------------------------------------
STRT        .FT                                             495 :START DEPTH
STOP        .FT                                            9652 :STOP DEPTH
STEP        .FT                                             0.5 :STEP      
NULL        .                                           -999.25 :NULL      
COMP        .                                      SHELL OIL CO :COMPANY   
WELL        .                                OCS 00714 ST00BP00 :WELL      
FLD         .                                FEDERAL BLOCK 0288 :FIELD     
LOC         .                                                   :LOCATION  
CNTY        .                             GALVESTON LARGE BLOCK :LOCATION  
STAT        .                                             TEXAS :STATE     
CTRY        .                                     UNITED STATES :COUNTRY   
SRVC        .                                                   :SERVICE COMPANY
DATE        .                             9/13/2023 11:19:25 AM :LOG DATE  
API         .                                    42706000490000 :API NUMBER
UWI         .                                    42706000490000 :UNIQUE WELL ID
XCOORD      .                                  1093419.85109126 :SURFACE X 
YCOORD      .                                  10468907.9519753 :SURFACE Y 
LAT         .                                         28.836806 :LATITUDE  
LON         .                                        -94.708909 :LONGITUDE 
ELEV        .FT                                              83 :ELEVATION VALUE
ELEV_TYPE   .                                                KB :ELEVATION REFERENCE TYPE
~Curve Information Section
#MNEM       .UNIT                                      API CODE :CURVE DESCRIPTION
#------------------------------------------------------------------------------
DEPT        .FT                                                 :DEPTH     
ASN         .OHMM                                               :          
ASN_1       .OHMM                                               :          
CALI        .IN                                                 :          
CALI_1      .IN                                                 :          
DRHO        .G/C3                                               :          
DT          .US/F                                               :          
ILD         .OHMM                                               :          
LAT         .OHMM                                               :          
LN          .OHMM                                               :          
RHOB        .G/C3                                               :          
SP          .MV                                                 :          
SP_1        .MV                                                 :          
SP_NORM     .MV                                                 :SP Normalized
VSH_SP      .V/V                                                :Volume of Shale from SP
~A        DEPTH            ASN          ASN_1           CALI         CALI_1           DRHO             DT            ILD            LAT             LN           RHOB             SP           SP_1        SP_NORM         VSH_SP
# ...
      8379.0000         1.3871        -999.25         10.281        -999.25         0.1441        89.7377         0.9152        -999.25        -999.25         2.3397        -999.25        -49.683      -7.003498      0.8213037
      8379.5000         1.4026        -999.25        10.4602        -999.25         0.1641       100.8834         0.9007        -999.25        -999.25         2.3618        -999.25       -49.1449      -6.468132      0.8404239
      8380.0000          1.409        -999.25        10.4418        -999.25         0.1633       110.8214         0.8814        -999.25        -999.25         2.3844        -999.25       -48.7576      -6.083557      0.8541587
      8380.5000         1.3818        -999.25        10.3907        -999.25          0.146       103.1143         0.8653        -999.25        -999.25         2.4065        -999.25       -48.4526      -5.781288       0.864954
      8381.0000         1.3363        -999.25        10.4024        -999.25           0.14        91.9326         0.8525        -999.25        -999.25         2.4245        -999.25       -48.3766      -5.708015      0.8675709
      8381.5000         1.2874        -999.25        10.4676        -999.25         0.1551        99.3901         0.8378        -999.25        -999.25         2.3901        -999.25       -48.4551      -5.789246      0.8646698
      8382.0000         1.2457        -999.25        10.1039        -999.25         0.1736       107.6031         0.8168        -999.25        -999.25         2.3487        -999.25       -48.1846      -5.521477      0.8742329
      8382.5000         1.2142        -999.25        10.4236        -999.25         0.1992       101.9359         0.7977        -999.25        -999.25         2.3294        -999.25       -47.4349      -4.774502      0.9009107
      8383.0000         1.1946        -999.25        10.8615        -999.25         0.1913        97.6945         0.7882        -999.25        -999.25         2.3356        -999.25        -47.279      -4.621334       0.906381
      8383.5000         1.1899        -999.25         11.207        -999.25         0.1946       100.5596         0.7788        -999.25        -999.25         2.3886        -999.25       -47.6876      -5.032661      0.8916907
      8384.0000         1.1894        -999.25        11.0171        -999.25         0.2289       108.7096         0.7751        -999.25        -999.25         2.4248        -999.25        -47.915      -5.262791      0.8834718
      8384.5000         1.1884        -999.25        10.8557        -999.25         0.2656       108.7456         0.7724        -999.25        -999.25         2.4349        -999.25       -47.4895      -4.840019      0.8985707
      8385.0000         1.1823        -999.25        10.6453        -999.25         0.3098       105.2058         0.7703        -999.25        -999.25         2.4442        -999.25       -47.1884      -4.541649      0.9092268
      8385.5000         1.1771        -999.25        10.6431        -999.25         0.3307       103.1049         0.7728        -999.25        -999.25         2.4286        -999.25       -47.2794       -4.63538      0.9058793
      8386.0000         1.1727        -999.25        10.6653        -999.25         0.3119       106.5146         0.7754        -999.25        -999.25          2.394        -999.25       -47.5374      -4.896107      0.8965676
      8386.5000         1.1701        -999.25        10.7711        -999.25         0.2717       109.1816         0.7797        -999.25        -999.25         2.3626        -999.25       -47.9556      -5.317036      0.8815345
      8387.0000         1.1665        -999.25        10.9333        -999.25         0.2176       106.3888         0.7871        -999.25        -999.25         2.3377        -999.25       -48.2606      -5.624767       0.870544
      8387.5000         1.1622        -999.25        10.9287        -999.25         0.1635       104.4366         0.7944        -999.25        -999.25          2.311        -999.25       -48.1734      -5.540295      0.8735609
      8388.0000         1.1572        -999.25        11.0031        -999.25         0.1819       105.4937          0.799        -999.25        -999.25         2.3103        -999.25       -47.6215      -4.991123      0.8931742
      8388.5000         1.1535        -999.25         10.933        -999.25         0.2361       102.7095         0.8003        -999.25        -999.25         2.3349        -999.25       -47.4829      -4.855251      0.8980268
      8389.0000         1.1513        -999.25        10.7325        -999.25          0.264       100.0782         0.8016        -999.25        -999.25         2.3549        -999.25       -47.5531      -4.928181      0.8954221
      8389.5000         1.1538        -999.25        10.8615        -999.25         0.2202        98.8627         0.8018        -999.25        -999.25         2.3488        -999.25       -48.0012      -5.379013       0.879321
      8390.0000         1.1574        -999.25        11.0229        -999.25         0.1821        99.8444         0.8017        -999.25        -999.25          2.339        -999.25       -48.6203      -6.000839      0.8571129
      8390.5000          1.162        -999.25        11.2482        -999.25         0.1343         102.66         0.8011        -999.25        -999.25         2.3386        -999.25       -49.0632      -6.446472      0.8411974
      8391.0000         1.1652        -999.25         11.455        -999.25         0.1032       104.8595         0.7994        -999.25        -999.25         2.3426        -999.25       -48.8238      -6.209797      0.8496501
      8391.5000         1.1664        -999.25        11.2392        -999.25         0.0804        108.631         0.7969        -999.25        -999.25         2.3444        -999.25       -48.9456      -6.334324      0.8452027
      8392.0000         1.1647        -999.25        10.9157        -999.25         0.0547       108.2869         0.7864        -999.25        -999.25         2.3321        -999.25       -49.2631      -6.654556      0.8337659
      8392.5000         1.1512        -999.25        10.8635        -999.25         0.0382       105.2958         0.7761        -999.25        -999.25         2.3276        -999.25       -48.5831      -5.977283      0.8579541
      8393.0000         1.1363        -999.25        10.7888        -999.25         0.0678       107.4008         0.7727        -999.25        -999.25         2.3411        -999.25       -47.9933      -5.390217      0.8789209
      8393.5000         1.1232        -999.25        10.7621        -999.25         0.1245       109.6047         0.7694        -999.25        -999.25         2.3322        -999.25       -47.4377      -4.837341      0.8986664
      8394.0000         1.1139        -999.25        10.7005        -999.25         0.1808       109.0785         0.7602        -999.25        -999.25         2.3381        -999.25       -47.0426      -4.444969      0.9126797
      8394.5000           1.11        -999.25        10.7112        -999.25         0.2287        103.834         0.7495        -999.25        -999.25         2.3556        -999.25        -46.648      -4.053101       0.926675
      8395.0000         1.1156        -999.25        10.7957        -999.25         0.2657        97.0198         0.7515        -999.25        -999.25         2.3818        -999.25       -46.4207      -3.828529      0.9346954
      8395.5000         1.1294        -999.25        10.8532        -999.25         0.2936        96.4036         0.7573        -999.25        -999.25         2.3927        -999.25       -46.2449       -3.65546      0.9408764
      8396.0000         1.1461        -999.25        10.8665        -999.25         0.2579       100.9463         0.7682        -999.25        -999.25         2.3809        -999.25       -46.1476      -3.560886       0.944254
      8396.5000         1.1676        -999.25        10.9557        -999.25         0.1846       103.0547         0.7798        -999.25        -999.25         2.3635        -999.25       -46.3607      -3.776714      0.9365459
