#------------------------------------------------------------------------------
# Created by    : vladimir.rabinovich
# Created on    : 09/19/2023 17:19:36
#------------------------------------------------------------------------------
~Version Information Section
VERS.           2.0     :   CWLS log ASCII Standard - VERSION 2.0
WRAP.           NO      :   One line per depth step
~Well Information Section
#MNEM       .UNIT                                         VALUE :DESCRIPTION
#------------------------------------------------------------------------------
STRT        .FT                                            4496 :START DEPTH
STOP        .FT                                            7801 :STOP DEPTH
STEP        .FT                                             0.5 :STEP      
NULL        .                                           -999.25 :NULL      
COMP        .                             HELIS WM G CO LLC THE :COMPANY   
WELL        .                               OCS G12508 ST00BP00 :WELL      
FLD         .                              GALVESTON BLOCK 0395 :FIELD     
LOC         .                                                   :LOCATION  
CNTY        .                             GALVESTON LARGE BLOCK :LOCATION  
STAT        .                                             TEXAS :STATE     
CTRY        .                                     UNITED STATES :COUNTRY   
SRVC        .                                                   :SERVICE COMPANY
DATE        .                             9/13/2023 11:19:03 AM :LOG DATE  
API         .                                    42706404300000 :API NUMBER
UWI         .                                    42706404300000 :UNIQUE WELL ID
XCOORD      .                                  908236.382466376 :SURFACE X 
YCOORD      .                                  10386259.9403327 :SURFACE Y 
LAT         .                                         28.601028 :LATITUDE  
LON         .                                        -95.282181 :LONGITUDE 
ELEV        .FT                                             103 :ELEVATION VALUE
ELEV_TYPE   .                                                KB :ELEVATION REFERENCE TYPE
~Curve Information Section
#MNEM       .UNIT                                      API CODE :CURVE DESCRIPTION
#------------------------------------------------------------------------------
DEPT        .FT                                                 :DEPTH     
AHT10       .OHMM                                               :          
AHT20       .OHMM                                               :          
AHT30       .OHMM                                               :          
AHT60       .OHMM                                               :          
AHT90       .OHMM                                               :          
CPCHM       .MMHO                                               :          
DCAL        .IN                                                 :          
DPHZ        .FRAC                                               :          
GR          .GAPI                                               :          
GR_NORM     .GAPI                                               :GammaRay Normalized
GRAM        .GAPI                                               :          
HDRA        .G/CC                                               :          
NPOR        .FRAC                                               :          
RACHM       .OHMM                                               :          
ROPS        .F/HR                                               :          
RPCHM       .OHMM                                               :          
RWA         .OHMM                                               :          
SP          .MV                                                 :          
SP_NORM     .MV                                                 :SP Normalized
TENS        .LB/F                                               :          
VSH_GR      .V/V                                                :Volume of Shale from GR
VSH_SP      .V/V                                                :Volume of Shale from SP
~A        DEPTH          AHT10          AHT20          AHT30          AHT60          AHT90          CPCHM           DCAL           DPHZ             GR        GR_NORM           GRAM           HDRA           NPOR          RACHM           ROPS          RPCHM            RWA             SP        SP_NORM           TENS         VSH_GR         VSH_SP
# ...
      5168.0000         0.6328         0.5551         0.5381         0.5227         0.5027       1294.941         0.3223         0.2489        59.0385       72.47565         58.525         0.0378         0.3981          0.908        109.299          0.799         0.0408        -49.625      -16.64481           2623      0.8399074       0.743926
      5168.5000         0.6581         0.5476         0.5386         0.5349         0.5156        1127.33        -0.0624         0.2546        59.6496       73.47996         57.517         0.0373         0.4018          0.912        109.299          1.039         0.0439        -48.875      -15.59481           2595      0.8612757      0.7600799
      5169.0000         0.6879         0.6184         0.6085         0.6067         0.5974       1013.863          0.154         0.2534        61.1018       75.86205         58.309         0.0333         0.4187          0.909        109.299          0.857         0.0503        -47.625      -13.84481           2570      0.9119584      0.7870029
      5169.5000         0.7543         0.6853         0.6914         0.6956         0.7044       1131.068         0.2983         0.2353        62.9295       78.85925         62.772         0.0379         0.4219          0.872         91.841          0.741         0.0506         -45.75      -11.21981           2581      0.9757286      0.8273876
      5170.0000         0.8009         0.7426          0.729         0.7259         0.7298       1304.732        -0.0143         0.2062        62.2439       77.73946         64.081         0.0541         0.4147          0.821         91.841          0.729         0.0395        -46.625      -12.44481           2620      0.9519033      0.8085414
      5170.5000         0.8202         0.7564         0.7423         0.7432         0.7493       1380.545        -0.0744         0.1879        65.4251       82.95377          65.46         0.0723         0.3763          0.796         91.841          0.717         0.0332        -49.125      -15.94481           2618              1      0.7546952
      5171.0000         0.7869          0.747         0.7396         0.7304         0.7272       1421.299        -0.1826         0.2013        65.2829       82.72412         67.605         0.0748         0.2958          0.793         91.841          0.694         0.0374       -48.1875      -14.63231           2591              1      0.7748876
      5171.5000          0.748          0.717          0.705         0.7075         0.6983       1450.688         0.1781         0.2254        66.1999       84.22953         71.352         0.0648         0.3687          0.797        127.754          0.701         0.0457       -48.4375      -14.98231           2562              1      0.7695029
      5172.0000         0.7269         0.7047          0.688         0.6888         0.6738        1412.64         1.1759         0.2405        63.7189       80.16881         72.177          0.056         0.4082          0.816        127.754          0.745         0.0508         -49.25      -16.11981           2544              1       0.752003
      5172.5000         0.7264         0.7079         0.6952         0.6934         0.6759       1381.771         0.6349         0.2499        63.6504        80.0599         74.873         0.0521         0.3794           0.82        127.754          0.749         0.0553            -51      -18.56981           2584              1      0.7143106
      5173.0000         0.7178         0.7167         0.7076         0.7067         0.6852       1336.958          0.707         0.2592        59.8595       73.85348         75.102         0.0476         0.3135          0.821        127.754          0.741         0.0606        -51.125      -18.74481           2625      0.8692229      0.7116184
      5173.5000         0.7269         0.7301         0.7268          0.729         0.7047       1351.328         0.7551          0.267        55.3065       66.39869         70.547         0.0383          0.376          0.815        116.863          0.729         0.0665          -49.5      -16.46981           2642      0.7106104      0.7466183
      5174.0000          0.746         0.7442         0.7526         0.7569         0.7317       1380.545         0.6349         0.2592        53.8322       63.98701         66.991         0.0315         0.3527          0.822        116.863          0.708         0.0647        -48.125      -14.54481           2668       0.659298      0.7762337
      5174.5000         0.7602         0.7497         0.7679         0.7841         0.7569       1408.709          0.683         0.2397        54.3009       64.75805         65.609         0.0305         0.3805          0.839        116.863          0.727         0.0566       -46.3125      -12.00731           2612      0.6757032      0.8152722
      5175.0000         0.7702          0.754         0.7751         0.7966         0.7748       1335.368         0.8753         0.2311        57.1227       69.38364         62.863         0.0287         0.3713          0.903        116.863          0.822         0.0536            -45      -10.16981           2600      0.7741201      0.8435414
      5175.5000         0.7611         0.7484         0.7933         0.8296         0.8084       1161.228         1.5726          0.237        55.5351       66.78636         63.948           0.02         0.4084          0.949        104.683          0.958          0.059       -44.0625      -8.857308           2634      0.7188588      0.8637337
      5176.0000         0.7499         0.7395         0.7951         0.8335          0.821       1006.919         1.0677         0.2113         51.486         60.157         65.057         0.0266          0.446          0.964        104.683          1.012         0.0468        -43.125      -7.544808           2708      0.5778086       0.883926
      5176.5000           0.79         0.7627         0.8084         0.8401         0.8394       1023.808         1.5245         0.1803        46.2417       51.56983         70.213         0.0422         0.4088          0.963        104.683          0.934          0.034        -42.625      -6.844808           2770      0.3951027      0.8946953
      5177.0000         0.8981         0.8652         0.9119         0.9585         0.9609       1085.176         0.9475         0.1736        43.6171       47.27389         72.291         0.0568         0.3418          0.928        104.683          0.844         0.0359          -42.5      -6.669808           2723      0.3036997      0.8973876
      5177.5000         0.8792         0.9359         1.0265         1.0937         1.1123        1206.48         0.8032         0.2239        49.3035       56.59184         72.651         0.0461         0.3416          0.894         77.823          0.799         0.0718        -41.875      -5.794808           2614       0.501954      0.9108491
      5178.0000         0.7575         0.8018         0.8478         0.8896         0.9035       1253.991          1.224         0.2567        53.8933       64.11349         72.132         0.0385         0.3747           0.88         77.823          0.793         0.0783            -43      -7.369808           2630      0.6619891      0.8866183
      5178.5000         0.6869         0.7105         0.7409          0.768         0.7813       1267.441         1.9573         0.2626        57.4563       69.95319         71.522         0.0389         0.4105           0.86         77.823          0.779         0.0711       -43.3125      -7.807308           2627       0.786238      0.8798876
      5179.0000         0.6694         0.7016         0.7267         0.7412         0.7553       1267.441         1.7169         0.2679        53.4313       63.36331         71.426          0.038         0.3782          0.854         77.823          0.765         0.0717       -43.9375      -8.682308           2644      0.6460278      0.8664261
      5179.5000         0.6687         0.6951         0.7235         0.7494         0.7608       1351.328         0.6349         0.2793        55.7708       67.19884         70.417         0.0351         0.3455          0.838          77.49           0.73         0.0791        -44.375      -9.294808           2607       0.727635       0.857003
