#------------------------------------------------------------------------------
# Created by    : vladimir.rabinovich
# Created on    : 09/19/2023 17:21:34
#------------------------------------------------------------------------------
~Version Information Section
VERS.           2.0     :   CWLS log ASCII Standard - VERSION 2.0
WRAP.           NO      :   One line per depth step
~Well Information Section
#MNEM       .UNIT                                         VALUE :DESCRIPTION
#------------------------------------------------------------------------------
STRT        .FT                                            4500 :START DEPTH
STOP        .FT                                            8225 :STOP DEPTH
STEP        .FT                                             0.5 :STEP      
NULL        .                                           -999.25 :NULL      
COMP        .                             WALTER OIL & GAS CORP :COMPANY   
WELL        .                               OCS G08132 ST00BP00 :WELL      
FLD         .                              GALVESTON BLOCK 0385 :FIELD     
LOC         .                                                   :LOCATION  
CNTY        .                             GALVESTON LARGE BLOCK :LOCATION  
STAT        .                                             TEXAS :STATE     
CTRY        .                                     UNITED STATES :COUNTRY   
SRVC        .                                                   :SERVICE COMPANY
DATE        .                             9/13/2023 11:19:34 AM :LOG DATE  
API         .                                    42706402490000 :API NUMBER
UWI         .                                    42706402490000 :UNIQUE WELL ID
XCOORD      .                                  1009947.10754335 :SURFACE X 
YCOORD      .                                  10405011.8756564 :SURFACE Y 
LAT         .                                         28.657556 :LATITUDE  
LON         .                                        -94.966279 :LONGITUDE 
ELEV        .FT                                             101 :ELEVATION VALUE
ELEV_TYPE   .                                                KB :ELEVATION REFERENCE TYPE
~Curve Information Section
#MNEM       .UNIT                                      API CODE :CURVE DESCRIPTION
#------------------------------------------------------------------------------
DEPT        .FT                                                 :DEPTH     
CALI        .IN                                                 :          
DPHI        .%                                                  :          
DRHO        .G/C3                                               :          
GR          .GAPI                                               :          
GR_NORM     .GAPI                                               :GammaRay Normalized
ILD         .OHMM                                               :          
ILM         .OHMM                                               :          
NPHI        .%                                                  :          
SFL         .OHMM                                               :          
SP          .MV                                                 :          
SP_NORM     .MV                                                 :SP Normalized
VSH_GR      .V/V                                                :Volume of Shale from GR
VSH_SP      .V/V                                                :Volume of Shale from SP
~A        DEPTH           CALI           DPHI           DRHO             GR        GR_NORM            ILD            ILM           NPHI            SFL             SP        SP_NORM         VSH_GR         VSH_SP
# ...
      7730.0000        10.2957        19.7618         0.0326        82.4275        75.5842         0.7213         0.7714        31.9007         0.8421       -50.0373      -5.384698      0.9060467       0.910255
      7730.5000        10.3198        19.4205          0.031        80.9824       74.07889         0.7087         0.7609          32.74          0.893       -50.0535      -5.416337      0.8740189      0.9097278
      7731.0000        10.3438        20.1427          0.028        81.7406       74.86868         0.6976         0.7472        34.5435         0.8918       -50.0696      -5.447855      0.8908231      0.9092024
      7731.5000        10.3604        21.1559          0.023        83.6815       76.89046         0.6837         0.7266        36.2476         0.8143       -50.0587      -5.447877      0.9338395       0.909202
      7732.0000        10.3751        22.0433         0.0179        86.0197       79.32608         0.6683         0.7081        36.7022         0.7446       -49.8807      -5.252946      0.9856613      0.9124509
      7732.5000        10.3893        22.4535          0.015        87.6908       81.06681          0.649          0.692        35.9947         0.7084       -49.7027      -5.058024              1      0.9156996
      7733.0000        10.4006        22.1464         0.0123        87.5671       80.93796         0.6319         0.6774        35.1517         0.6965        -49.525      -4.863445              1      0.9189426
      7733.5000        10.4118        21.5217         0.0097        86.5929       79.92316         0.6135         0.6655        34.8235         0.6942       -49.2902      -4.602246      0.9983652      0.9232959
      7734.0000        10.4138        21.1186         0.0073        87.0913       80.44233         0.6017         0.6538        34.8771         0.7001       -49.0429      -4.326468              1      0.9278922
      7734.5000        10.4118        21.3756         0.0055        86.7616       80.09888         0.5902         0.6415        35.7493         0.6943        -48.796      -4.051157              1      0.9324808
      7735.0000        10.4054        21.7836         0.0037        84.4285       77.66858         0.5825         0.6294        37.4429         0.6716       -48.5864      -3.819358      0.9503953       0.936344
      7735.5000         10.391        22.0775         0.0019        82.5125       75.67274         0.5785         0.6203        38.6939         0.6648       -48.4625      -3.687548      0.9079307      0.9385409
      7736.0000         10.399        22.1187         0.0008         80.985        74.0816         0.5746         0.6132        38.7375         0.6638       -48.3387      -3.555854      0.8740767      0.9407358
      7736.5000        10.4185        22.0926        -0.0001        80.4697       73.54483         0.5773         0.6078        37.1117         0.6758       -48.2151      -3.424391      0.8626559      0.9429268
      7737.0000        10.4406        22.2804         -0.001         81.246       74.35348         0.5834         0.6063        35.7508         0.6783       -48.0943      -3.296195      0.8798612      0.9450634
      7737.5000        10.4631        22.4567        -0.0019        82.7473       75.91733         0.5913         0.6098        35.4083         0.6646       -47.9736      -3.168114      0.9131346      0.9471981
      7738.0000        10.4766        22.6131        -0.0008        83.6357       76.84274         0.6162         0.6322        36.1904         0.6431       -47.8629      -3.051703      0.9328243      0.9491383
      7738.5000        10.4684        22.3387         0.0004         83.689       76.89827         0.6422         0.6688        37.0455         0.6457       -47.7847      -2.973206      0.9340057      0.9504465
      7739.0000        10.4019        21.6639         0.0017        82.8947       76.07087         0.6828         0.7074        37.2306         0.7026       -47.7064      -2.894601      0.9164015      0.9517567
      7739.5000        10.3362        20.8262         0.0024        82.1003       75.24338         0.7244         0.7448        36.0519         0.8026       -47.7729      -2.984919      0.8987952      0.9502513
      7740.0000        10.3085        19.6098         0.0026             81       74.09722         0.7627         0.7809        34.0888         0.9218       -47.8823      -3.125292       0.874409      0.9479118
      7740.5000        10.3244        18.5184         0.0028        79.8646       72.91452         0.7974         0.8088        32.1649         1.0483        -47.966      -3.235677      0.8492451       0.946072
      7741.0000        10.3665        18.0188         0.0025        78.5781       71.57442         0.8212         0.8376        30.5564         1.1099       -47.9006      -3.172115      0.8207323      0.9471314
      7741.5000        10.4142        18.2549         0.0018        76.9745         69.904         0.8376         0.8526        31.1924         1.0652       -47.8351      -3.108433      0.7851915      0.9481928
      7742.0000        10.4619        19.1205         0.0017        75.8417       68.72399         0.8413         0.8674        32.6587         0.9817       -47.8476      -3.135759      0.7600849      0.9477373
      7742.5000         10.455        19.2274         0.0044        75.2603       68.11837         0.8381         0.8664        32.5104         0.9061        -47.879      -3.185133      0.7471994      0.9469144
      7743.0000        10.4162        18.6855           0.01        75.0198       67.86785         0.8253         0.8655        31.5823         0.8855       -47.9135       -3.23812      0.7418692      0.9460313
      7743.5000        10.3775        18.2918         0.0172        75.2521       68.10983         0.8127         0.8509         30.906         0.8734       -48.1564      -3.534238      0.7470176      0.9410961
      7744.0000        10.3746         18.824         0.0237        75.5994        68.4716         0.8005         0.8348         30.999         0.8505       -48.3997      -3.830827       0.754715      0.9361529
      7744.5000        10.4134        19.9771         0.0205        76.1445       69.03941         0.7886         0.8195        31.6907         0.8186       -48.6679      -4.156464      0.7667961      0.9307256
      7745.0000        10.7248        21.7806         0.0108        76.3477       69.25108         0.7769         0.8048        32.4291         0.7854       -48.9821      -4.535774      0.7712997      0.9244038
      7745.5000        11.3503        24.5084        -0.0028        75.9265       68.81232         0.7777         0.7906        33.3964         0.7909       -49.1231      -4.713009      0.7619644      0.9214498
      7746.0000        12.1197        29.3438        -0.0196        72.3457       65.08233         0.7791         0.7867        35.0824         0.7969       -48.9062      -4.472697      0.6826028       0.925455
      7746.5000         12.898         34.426        -0.0359        67.7394        60.2841         0.7793         0.7828        37.1765         0.8142       -48.9468      -4.532801      0.5805128      0.9244533
      7747.0000         14.168        35.7177        -0.0485        62.9283       55.27254         0.7766         0.7809        38.2242         0.8389       -49.5291      -5.224886      0.4738838      0.9129186
      7747.5000        14.3409        34.2363        -0.0513        58.9416       51.11972         0.7739           0.78        39.2539         0.8459       -50.6669      -6.565059      0.3855261      0.8905823
      7748.0000        13.8892         32.743        -0.0473        56.3787       48.45004         0.7683         0.7776        40.6223         0.8127       -52.0171      -8.153035      0.3287242      0.8641161
      7748.5000        12.5348        31.4995        -0.0418        54.2379       46.22004         0.7583         0.7721        41.9554         0.7684       -53.4784      -9.870622      0.2812774      0.8354896
