#------------------------------------------------------------------------------
# Created by    : vladimir.rabinovich
# Created on    : 09/19/2023 17:20:05
#------------------------------------------------------------------------------
~Version Information Section
VERS.           2.0     :   CWLS log ASCII Standard - VERSION 2.0
WRAP.           NO      :   One line per depth step
~Well Information Section
#MNEM       .UNIT                                         VALUE :DESCRIPTION
#------------------------------------------------------------------------------
STRT        .FT                                             712 :START DEPTH
STOP        .FT                                            9469 :STOP DEPTH
STEP        .FT                                             0.5 :STEP      
NULL        .                                           -999.25 :NULL      
COMP        .                                 MESA PETROLEUM CO :COMPANY   
WELL        .                                ST TR 00279-L SW/4 :WELL      
FLD         .                                           WILDCAT :FIELD     
LOC         .                                                   :LOCATION  
CNTY        .                             GALVESTON LARGE BLOCK :LOCATION  
STAT        .                                             TEXAS :STATE     
CTRY        .                                     UNITED STATES :COUNTRY   
SRVC        .                                                   :SERVICE COMPANY
DATE        .                             9/13/2023 11:18:53 AM :LOG DATE  
API         .                                    42706300950000 :API NUMBER
UWI         .                                    42706300950000 :UNIQUE WELL ID
XCOORD      .                                  947289.050530544 :SURFACE X 
YCOORD      .                                  10490529.0152507 :SURFACE Y 
LAT         .                                         28.889695 :LATITUDE  
LON         .                                        -95.166438 :LONGITUDE 
ELEV        .FT                                              84 :ELEVATION VALUE
ELEV_TYPE   .                                                KB :ELEVATION REFERENCE TYPE
~Curve Information Section
#MNEM       .UNIT                                      API CODE :CURVE DESCRIPTION
#------------------------------------------------------------------------------
DEPT        .FT                                                 :DEPTH     
ASFL        .OHMM                                               :          
CILD        .MMHO                                               :          
GR          .GAPI                                               :          
GR_NORM     .GAPI                                               :GammaRay Normalized
ILD         .OHMM                                               :          
SP          .MV                                                 :          
SP_NORM     .MV                                                 :SP Normalized
VSH_GR      .V/V                                                :Volume of Shale from GR
VSH_SP      .V/V                                                :Volume of Shale from SP
~A        DEPTH           ASFL           CILD             GR        GR_NORM            ILD             SP        SP_NORM         VSH_GR         VSH_SP
# ...
      1295.0000         2.0332       561.6865        35.1793       59.61567         1.8922       -72.1475      -17.06964      0.5662907      0.5122961
      1295.5000         2.0573       562.4434         35.393       59.91971          1.896       -72.4373      -17.35581      0.5727597      0.5041196
      1296.0000          2.056       563.2012        36.2262       61.09068         1.8906        -71.338      -16.25288      0.5976741       0.535632
      1296.5000         2.0548        563.959        37.0596       62.26181         1.8853       -69.9376      -14.84885      0.6225917       0.575747
      1297.0000         2.0518       565.8721        37.8927       63.43251         1.8691         -68.24      -13.14762      0.6475003      0.6243536
      1297.5000         2.0302       571.1826        38.7958       64.70116         1.8512       -65.9888       -10.8928      0.6744927      0.6887771
      1298.0000         1.9622       576.4912        39.7559       66.04969         1.8333       -62.6003      -7.500668      0.7031849      0.7856952
      1298.5000         1.8601       581.8018        40.7161       67.39822         1.8153       -60.6315       -5.52824      0.7318771      0.8420503
      1299.0000         1.7069       587.1123        41.8037       68.92502         1.7974       -59.7873      -4.680412      0.7643621      0.8662739
      1299.5000         1.5957       592.4209        43.3016       71.02605         1.7795       -59.0411      -3.930584      0.8090648      0.8876976
      1300.0000         1.5366        593.167        45.2722       73.78831         1.7607          -58.3      -3.185856      0.8678365      0.9089755
      1300.5000         1.4788       593.1475        47.7414       77.24822          1.726       -57.5812      -2.463428      0.9414515      0.9296163
      1301.0000         1.4495       593.1289        47.4542       76.85155         1.6913       -56.8625        -1.7411      0.9330117      0.9502543
      1301.5000         1.4096       593.1094         47.167       76.45474         1.6565       -56.2791      -1.154072       0.924569      0.9670265
      1302.0000         1.3979       593.0898        44.9603       73.37219         1.6111       -55.8246     -0.6959457      0.8589828      0.9801158
      1302.5000         1.4559       593.0068        39.7912       66.14484         1.4678       -55.3701     -0.2378159      0.7052093      0.9932052
      1303.0000         1.6967       590.4639        37.7734        63.3266         1.5279       -55.3417     -0.2057877      0.6452467      0.9941204
      1303.5000          1.739       587.9199         36.725       61.86472         1.5859       -55.4521     -0.3125572      0.6141429      0.9910698
      1304.0000          1.757        585.377         36.062        60.9421         1.6431       -57.4017       -2.25853      0.5945127      0.9354706
      1304.5000         1.8849        582.833         35.408        60.0322         1.7002       -59.7687      -4.621902      0.5751531      0.8679457
      1305.0000         1.9499       580.2891        34.8334       59.23326         1.7574       -62.7626      -7.612175      0.5581546      0.7825093
      1305.5000         1.9736       577.7461        34.3172       58.51604         1.7957       -65.0629      -9.908844      0.5428945      0.7168902
      1306.0000         1.9703       575.3955        34.7454       59.12036         1.8192       -66.8962      -11.73852      0.5557523      0.6646137
      1306.5000         1.9489       577.8857         35.728       60.50023         1.8309        -69.527      -14.36569      0.5851113      0.5895516
      1307.0000         1.9277        580.375        37.5013       62.98645         1.8234       -70.6952      -15.53026      0.6380096      0.5562782
      1307.5000         1.9066       582.8652        39.6177       65.95287          1.816       -68.8257      -13.65714      0.7011248      0.6097962
      1308.0000         1.8856       585.3545        42.0253       69.32657         1.8085       -63.5604      -8.388206      0.7729057      0.7603369
      1308.5000         1.8667       587.8447        45.5731       74.29566         1.8011       -61.0273      -5.851479      0.8786311      0.8328149
      1309.0000         1.8506       589.4189        46.7648       75.96825         1.7936       -59.7464      -4.566948       0.914218      0.8695158
      1309.5000         1.8346        589.874        48.2183         78.007         1.7862       -58.5287      -3.345623      0.9575956      0.9044108
      1310.0000         1.8185       590.3301        49.2142       79.40549         1.7789       -57.5262      -2.339493      0.9873509      0.9331573
      1310.5000         1.8006       590.7852        49.5433       79.87099         1.7772       -56.5382      -1.347866      0.9972552      0.9614896
      1311.0000         1.7814       591.2402         49.435       79.72464         1.7756       -55.7183     -0.5243378      0.9941413      0.9850189
      1311.5000         1.7631       591.6963        48.9842       79.09893         1.7739       -54.9156      0.2819901      0.9808283              1
      1312.0000         1.7485       590.3359        47.7299       77.34896         1.7723       -54.2422      0.9590187      0.9435949              1
      1312.5000         1.7339       583.8633        46.0388       74.98796         1.7706       -53.8647       1.340145      0.8933609              1
      1313.0000         1.7221       577.3896        44.9504       73.47013          1.769       -54.1219       1.086575      0.8610666              1
      1313.5000         1.7463        570.917        44.1151       72.30644         1.7698       -55.0742      0.1379013      0.8363073              1
      1314.0000         1.7974       564.4434        43.3802       71.28335         1.8019       -56.6351      -1.419369      0.8145393      0.9594466
      1314.5000         1.8386       557.9687        42.9631       70.70477          1.834       -58.4415      -3.222141      0.8022292      0.9079388
      1315.0000         1.8799       551.4971        44.3026       72.58402         1.8661       -60.7997      -5.576714      0.8422133      0.8406653
      1315.5000         1.9211       545.0225        45.6478       74.47139         1.8919       -59.1443      -3.917683        0.88237      0.8880662
      1316.0000         1.9624       540.0732        46.4877        75.6516         1.9118        -57.489      -2.258755       0.907481      0.9354641
      1316.5000         2.0036       535.3398        47.3278        76.8321         1.9112       -56.7986      -1.564728      0.9325979      0.9552935
      1317.0000         2.0449       530.6064        48.1329       77.96363         1.8927       -56.1432     -0.9057007       0.956673      0.9741228
      1317.5000         2.0769        525.873        48.7773       78.87045         1.8742        -55.497     -0.2558746      0.9759669      0.9926893
      1318.0000         2.0793       527.2305        49.4216       79.77697         1.8231       -54.8836      0.3611565      0.9952547              1
      1318.5000         2.0205       535.0918        50.0683       80.68686         1.7113       -54.2703      0.9780807              1              1
      1319.0000         1.5303       543.5938        50.7164       81.59885         1.6281        -53.614       1.638016              1              1
      1319.5000         1.4892        558.625        51.5495       82.76955         1.5554       -52.9355       2.320141              1              1
      1320.0000         1.4553       573.6533        52.9349       84.71302         1.4828       -52.2572       3.002071              1              1
      1320.5000         1.4281       588.6846         55.067       87.70142         1.4573        -51.667       3.595898              1              1
      1321.0000         1.4392       603.7129        54.2535       86.56819         1.4361       -51.1123       4.154224              1              1
