#------------------------------------------------------------------------------
# Created by    : vladimir.rabinovich
# Created on    : 09/19/2023 17:22:52
#------------------------------------------------------------------------------
~Version Information Section
VERS.           2.0     :   CWLS log ASCII Standard - VERSION 2.0
WRAP.           NO      :   One line per depth step
~Well Information Section
#MNEM       .UNIT                                         VALUE :DESCRIPTION
#------------------------------------------------------------------------------
STRT        .FT                                            1126 :START DEPTH
STOP        .FT                                            9906 :STOP DEPTH
STEP        .FT                                             0.5 :STEP      
NULL        .                                           -999.25 :NULL      
COMP        .                                        EXXON CORP :COMPANY   
WELL        .                               OCS G06053 ST00BP00 :WELL      
FLD         .                                           WILDCAT :FIELD     
LOC         .                                                   :LOCATION  
CNTY        .                      MATAGORDA ISLAND LARGE BLOCK :LOCATION  
STAT        .                                             TEXAS :STATE     
CTRY        .                                     UNITED STATES :COUNTRY   
SRVC        .                                                   :SERVICE COMPANY
DATE        .                             9/13/2023 11:12:11 AM :LOG DATE  
API         .                                    42703402640000 :API NUMBER
UWI         .                                    42703402640000 :UNIQUE WELL ID
XCOORD      .                                  440255.018680432 :SURFACE X 
YCOORD      .                                  10152284.9344853 :SURFACE Y 
LAT         .                                         27.926249 :LATITUDE  
LON         .                                        -96.716438 :LONGITUDE 
ELEV        .FT                                              94 :ELEVATION VALUE
ELEV_TYPE   .                                                KB :ELEVATION REFERENCE TYPE
~Curve Information Section
#MNEM       .UNIT                                      API CODE :CURVE DESCRIPTION
#------------------------------------------------------------------------------
DEPT        .FT                                                 :DEPTH     
GR          .GAPI                                               :          
GR_NORM     .GAPI                                               :GammaRay Normalized
ILD         .OHMM                                               :          
SP          .MV                                                 :          
SP_NORM     .MV                                                 :SP Normalized
VSH_GR      .V/V                                                :Volume of Shale from GR
VSH_SP      .V/V                                                :Volume of Shale from SP
~A        DEPTH             GR        GR_NORM            ILD             SP        SP_NORM         VSH_GR         VSH_SP
# ...
      9869.5000        65.4314       79.28233         0.4716       -43.2657      -1.886391      0.9847305      0.9871538
      9870.0000        66.8254       80.67634          0.473       -43.2535      -1.874191              1      0.9873306
      9870.5000        68.6956       82.54654         0.4741       -43.2413      -1.861988              1      0.9875074
      9871.0000         68.094       81.94494         0.4722       -43.2293      -1.849991              1      0.9876813
      9871.5000        65.9871       79.83804         0.4704       -43.2397       -1.86039       0.996554      0.9875306
      9872.0000        65.8156       79.66653         0.4685       -43.2501      -1.870789       0.992905      0.9873798
      9872.5000        67.2048       81.05574         0.4659       -43.2506      -1.871288              1      0.9873726
      9873.0000        67.9406       81.79153         0.4633       -43.2384      -1.859089              1      0.9875494
      9873.5000        67.1323       80.98324         0.4611       -43.2263      -1.846989              1      0.9877248
      9874.0000        65.4556       79.30653         0.4588       -43.1024      -1.723091      0.9852454      0.9895204
      9874.5000        63.6821       77.53304         0.4566       -42.9554      -1.576088      0.9475114      0.9916509
      9875.0000        62.4185       76.26944          0.452        -42.843      -1.463688      0.9206264      0.9932799
      9875.5000        61.4689       75.31984         0.4471       -42.6979      -1.318588      0.9004221      0.9953828
      9876.0000        63.3825       77.23344         0.4423       -42.7601      -1.380791       0.941137      0.9944813
      9876.5000        65.4218       79.27274         0.4379       -42.8223      -1.442989      0.9845263      0.9935799
      9877.0000        67.4755       81.32644         0.4336       -42.8848      -1.505489              1      0.9926741
      9877.5000        66.3737       80.22464         0.4297       -42.9472       -1.56789              1      0.9917697
      9878.0000        64.2523       78.10323         0.4259       -43.0224      -1.643089      0.9596432      0.9906799
      9878.5000        62.2759       76.12684         0.4238       -43.1907       -1.81139      0.9175923      0.9882407
      9879.0000        63.2883       77.13924         0.4222        -43.359      -1.979691      0.9391327      0.9858016
      9879.5000        64.3767       78.22764         0.4207       -43.3914      -2.012089      0.9622902      0.9853321
      9880.0000        65.3311       79.18204         0.4232       -43.3125      -1.933189      0.9825965      0.9864755
      9880.5000        66.1321       79.98304         0.4257       -43.2336       -1.85429      0.9996392       0.987619
      9881.0000        66.6793       80.53024         0.4292       -43.1581       -1.77879              1      0.9887132
      9881.5000        67.2253       81.07624         0.4332        -43.083       -1.70369              1      0.9898016
      9882.0000         67.769       81.61993         0.4373       -43.0269      -1.647591              1      0.9906147
      9882.5000        68.2993       82.15024         0.4417       -43.0573       -1.67799              1      0.9901741
      9883.0000        67.2339       81.08484         0.4466       -43.0877      -1.708389              1      0.9897335
      9883.5000         65.876       79.72694         0.4516       -43.1291       -1.74979      0.9941902      0.9891335
      9884.0000        64.9572       78.80814         0.4567       -43.1837       -1.80439      0.9746412      0.9883422
      9884.5000         64.785       78.63594          0.462       -43.2382      -1.858891      0.9709775      0.9875523
      9885.0000        64.6132       78.46413         0.4673       -43.2723       -1.89299       0.967322      0.9870581
      9885.5000        64.9161       78.76704         0.4705       -43.3026       -1.92329      0.9737667       0.986619
      9886.0000        65.2284       79.07934         0.4738       -43.3303      -1.950989      0.9804115      0.9862176
      9886.5000        64.0106       77.86153         0.4723       -43.3392      -1.959888      0.9545007      0.9860886
      9887.0000        61.6671       75.51804         0.4701        -43.348      -1.968689      0.9046391       0.985961
      9887.5000        59.7758       73.62674          0.468       -43.3283       -1.94899      0.8643987      0.9862465
      9888.0000        59.5701       73.42104         0.4725       -43.2587      -1.879391       0.860022      0.9872552
      9888.5000        61.2563       75.10724         0.4826       -43.1891      -1.809788      0.8958987       0.988264
      9889.0000        62.9669       76.81784         0.4925       -43.0577      -1.678391      0.9322945      0.9901683
      9889.5000        64.4794       78.33034         0.5009       -42.8041      -1.424789      0.9644753      0.9938436
      9890.0000        64.6631       78.51404         0.5095       -42.5504      -1.171089      0.9683838      0.9975204
      9890.5000        62.5079       76.35884         0.5163       -42.3447     -0.9653893      0.9225285              1
      9891.0000        60.5919       74.44284          0.523       -42.1968     -0.8174896      0.8817626              1
      9891.5000        59.2871       73.13804         0.5285       -42.0489       -0.66959      0.8540008              1
      9892.0000        58.2264       72.07733         0.5334       -41.7847     -0.4053879      0.8314326              1
      9892.5000        -999.25        -999.25         0.5315       -41.3843   -0.004989624        -999.25              1
      9893.0000        -999.25        -999.25         0.5253       -40.9838      0.3955116        -999.25              1
      9893.5000        -999.25        -999.25         0.5095       -40.6055      0.7738113        -999.25              1
      9894.0000        -999.25        -999.25         0.4939       -40.2345        1.14481        -999.25              1
      9894.5000        -999.25        -999.25         0.4763        -39.718       1.661312        -999.25              1
      9895.0000        -999.25        -999.25         0.4616       -39.0621       2.317211        -999.25              1
      9895.5000        -999.25        -999.25          0.453       -38.4061       2.973209        -999.25              1
      9896.0000        -999.25        -999.25         0.4483       -37.7474       3.631912        -999.25              1
      9896.5000        -999.25        -999.25         0.4458       -37.0886        4.29071        -999.25              1
      9897.0000        -999.25        -999.25          0.445       -36.5178       4.861511        -999.25              1
      9897.5000        -999.25        -999.25         0.4462       -36.2791       5.100212        -999.25              1
      9898.0000        -999.25        -999.25         0.4473       -36.0399       5.339409        -999.25              1
      9898.5000        -999.25        -999.25         0.4487       -36.1219       5.257412        -999.25              1
      9899.0000        -999.25        -999.25         0.4511       -36.2546        5.12471        -999.25              1
      9899.5000        -999.25        -999.25         0.4534       -36.2727       5.106609        -999.25              1
      9900.0000        -999.25        -999.25         0.4554        -36.374        5.00531        -999.25              1
      9900.5000        -999.25        -999.25         0.4561       -36.5183       4.861012        -999.25              1
      9901.0000        -999.25        -999.25         0.4567       -36.5989       4.780411        -999.25              1
      9901.5000        -999.25        -999.25         0.4572       -36.6165        4.76281        -999.25              1
      9902.0000        -999.25        -999.25         0.4568       -36.7176       4.661709        -999.25              1
      9902.5000        -999.25        -999.25         0.4563       -36.8886       4.490711        -999.25              1
