#------------------------------------------------------------------------------
# Created by    : vladimir.rabinovich
# Created on    : 09/19/2023 17:22:30
#------------------------------------------------------------------------------
~Version Information Section
VERS.           2.0     :   CWLS log ASCII Standard - VERSION 2.0
WRAP.           NO      :   One line per depth step
~Well Information Section
#MNEM       .UNIT                                         VALUE :DESCRIPTION
#------------------------------------------------------------------------------
STRT        .FT                                            1687 :START DEPTH
STOP        .FT                                            6155 :STOP DEPTH
STEP        .FT                                             0.5 :STEP      
NULL        .                                           -999.25 :NULL      
COMP        .                       AMERICAN COASTAL ENERGY INC :COMPANY   
WELL        .                                ST TR 00596-L NE/4 :WELL      
FLD         .                        SHERMAN OFFSHORE SOUTHWEST :FIELD     
LOC         .                                                   :LOCATION  
CNTY        .                      MATAGORDA ISLAND LARGE BLOCK :LOCATION  
STAT        .                                             TEXAS :STATE     
CTRY        .                                     UNITED STATES :COUNTRY   
SRVC        .                                                   :SERVICE COMPANY
DATE        .                             9/13/2023 11:12:01 AM :LOG DATE  
API         .                                    42703302820000 :API NUMBER
UWI         .                                    42703302820000 :UNIQUE WELL ID
XCOORD      .                                  484247.709270029 :SURFACE X 
YCOORD      .                                   10242127.767654 :SURFACE Y 
LAT         .                                        28.1765839 :LATITUDE  
LON         .                                       -96.5886238 :LONGITUDE 
ELEV        .FT                                              79 :ELEVATION VALUE
ELEV_TYPE   .                                                KB :ELEVATION REFERENCE TYPE
~Curve Information Section
#MNEM       .UNIT                                      API CODE :CURVE DESCRIPTION
#------------------------------------------------------------------------------
DEPT        .FT                                                 :DEPTH     
CILD        .MMHO                                               :          
DT          .US/F                                               :          
ILD         .OHMM                                               :          
SN          .OHMM                                               :          
SP          .MV                                                 :          
SP_NORM     .MV                                                 :SP Normalized
VSH_SP      .V/V                                                :Volume of Shale from SP
~A        DEPTH           CILD             DT            ILD             SN             SP        SP_NORM         VSH_SP
# ...
      4333.5000       2203.642       114.8919         0.4548         0.8846       -75.8898       -62.1087      0.1533986
      4334.0000       2187.655       115.6873         0.4653         0.8928       -75.4914       -61.7128      0.1589747
      4334.5000       2155.733        115.686         0.4654         0.8929        -74.894       -61.1179      0.1673535
      4335.0000       2123.822       115.4855         0.4654         0.8929       -74.7938       -61.0201       0.168731
      4335.5000       2147.661       114.6874         0.4633         0.8889       -75.1907       -61.4195      0.1631057
      4336.0000       2211.348       113.6902         0.4508         0.8849       -75.8858       -62.1171      0.1532803
      4336.5000       2290.969       112.8922         0.4325         0.8689        -76.581       -62.8147      0.1434549
      4337.0000       2378.558       112.0933          0.417         0.8531       -77.2761       -63.5123      0.1336296
      4337.5000       2418.342       112.4814         0.4094         0.8415       -77.7724       -64.0111      0.1266042
      4338.0000       2474.061       112.6891          0.402         0.8416       -77.8711       -64.1122      0.1251803
      4338.5000       2505.878       112.4886         0.3984         0.8455       -77.6714        -63.915      0.1279577
      4339.0000       2505.825       112.2873         0.4002         0.8456       -77.6706       -63.9167      0.1279338
      4339.5000        2481.87       112.2868         0.3984         0.8495       -77.7692       -64.0177      0.1265113
      4340.0000       2465.883       112.6838          0.404         0.8535       -77.8679       -64.1189       0.125086
      4340.5000       2457.863       113.8779         0.4077         0.8419       -77.8671       -64.1206       0.125062
      4341.0000       2449.843       115.2709         0.4134         0.8419       -78.1645       -64.4204      0.1208394
      4341.5000       2441.823       116.0663         0.4115          0.842       -78.6608       -64.9192      0.1138141
      4342.0000       2473.661       116.8614         0.4059          0.842       -79.2564       -65.5173      0.1053901
      4342.5000       2529.357       116.8601         0.3949          0.846       -79.4547        -65.718      0.1025633
      4343.0000       2608.977       117.2569         0.3842         0.8499       -80.1498       -66.4156     0.09273798
      4343.5000       2704.531       117.2559         0.3721           0.85       -80.7456       -67.0138     0.08431266
      4344.0000       2808.052       116.2584         0.3555           0.85       -81.4407       -67.7114     0.07448728
      4344.5000       2927.508        115.062         0.3349         0.8462       -81.8376       -68.1108     0.06886195
      4345.0000       3031.028       114.1648         0.3228          0.827       -82.4334       -68.7091     0.06043523
      4345.5000       3126.581        113.068         0.3112         0.8121        -83.228       -69.5061     0.04920981
      4346.0000       3198.232       113.4646         0.3018         0.7937       -83.8238       -70.1044     0.04078309
      4346.5000       3269.883       114.4592         0.2987         0.7722        -83.823        -70.106     0.04076052
      4347.0000       3309.677       115.0554         0.2973         0.7547       -83.9216       -70.2071     0.03933662
      4347.5000       3269.776       115.4525         0.2987         0.7377       -84.1197       -70.4077     0.03651127
      4348.0000       3245.821       115.6504         0.3001          0.721       -84.4172       -70.7076     0.03228727
      4348.5000       3221.865       116.2466         0.3043         0.7144       -84.4164       -70.7093     0.03226342
      4349.0000       3221.812       117.1131         0.3029         0.7178       -84.4156        -70.711     0.03223946
      4349.5000       3221.758       118.2358         0.3015         0.7113       -84.2161       -70.5139     0.03501548
      4350.0000       3189.825       118.1352         0.3044         0.7016       -83.7184       -70.0187     0.04199015
      4350.5000       3173.838       116.6397         0.3086         0.7016       -83.4076       -69.7104     0.04633234
      4351.0000       3133.949       115.6425           0.31         0.7049       -82.8222       -69.1274     0.05454361
      4351.5000       3109.994       115.2428         0.3158         0.7082       -82.3243        -68.632     0.06152107
      4352.0000       3094.006       115.2415         0.3187         0.7148       -81.9258        -68.236     0.06709859
      4352.5000       3038.183        115.041         0.3262         0.7314       -81.5272       -67.8398      0.0726789
      4353.0000        2982.36       115.0405         0.3322         0.7382        -81.327       -67.6421     0.07546341
      4353.5000       2910.604       115.5658         0.3338         0.7349       -81.2268       -67.5444     0.07683939
      4354.0000       2870.715       115.6346         0.3429         0.7383        -81.226        -67.546     0.07681693
      4354.5000       2830.827         116.43         0.3479         0.7452       -81.2252       -67.5477     0.07679297
      4355.0000       2822.807       116.0304         0.3479         0.7521       -81.4233       -67.7483     0.07396763
      4355.5000       2822.753        115.631         0.3479         0.7556       -81.8202       -68.1476     0.06834368
      4356.0000         2822.7       115.0319          0.348         0.7556       -82.0183       -68.3482     0.06551834
      4356.5000       2822.647       114.6322          0.348         0.7488       -82.1169       -68.4493     0.06409433
      4357.0000       2822.594       114.4325         0.3464          0.742       -82.5139       -68.8487     0.05846899
      4357.5000       2838.475       114.4304          0.348         0.7353       -83.2087        -69.546     0.04864792
      4358.0000       2862.323       115.0266         0.3426         0.7219       -83.4073       -69.7471     0.04581548
      4358.5000       2894.137       117.6146         0.3386         0.7089       -83.7048        -70.047     0.04159159
      4359.0000       2933.918       117.8124          0.334         0.6992       -84.0022       -70.3469     0.03736759
      4359.5000       2989.634       117.6119          0.331         0.6929       -84.1009       -70.4481     0.03594229
      4360.0000        3069.25       117.0131          0.322         0.6929       -84.3984        -70.748      0.0317183
      4360.5000       3148.865       115.3185         0.3119         0.7026       -84.2981       -70.6502     0.03309578
      4361.0000       3268.315       115.4182          0.302         0.7124       -84.6951       -71.0497     0.02746904
      4361.5000       3387.764       117.4075         0.2912         0.7223       -84.8932       -71.2502     0.02464509
      4362.0000       3487.318       118.6012         0.2807          0.729        -84.793       -71.1525     0.02602118
      4362.5000       3586.828       119.5958         0.2769         0.7425       -84.6928       -71.0548     0.02739716
      4363.0000       3650.509       119.7936         0.2645         0.7426       -84.8909       -71.2553     0.02457321
      4363.5000       3698.256       119.5932         0.2633         0.7461       -85.0889       -71.4558     0.02174925
      4364.0000       3714.135       119.5918         0.2614         0.7495       -84.8893       -71.2587     0.02452539
      4364.5000       3714.081       119.1922         0.2597         0.7635       -84.5902        -70.962     0.02870425
      4365.0000       3690.126       118.8928         0.2621         0.7812       -84.5894       -70.9637     0.02868029
      4365.5000       3626.338       118.7339         0.2633         0.7849       -84.7875       -71.1643     0.02585494
      4366.0000       3554.582       118.3916         0.2739         0.7886       -84.8862       -71.2654     0.02443093
      4366.5000       3490.794       117.9919         0.2796         0.7922       -84.7859       -71.1676     0.02580841
