#------------------------------------------------------------------------------
# Created by    : vladimir.rabinovich
# Created on    : 09/19/2023 17:20:32
#------------------------------------------------------------------------------
~Version Information Section
VERS.           2.0     :   CWLS log ASCII Standard - VERSION 2.0
WRAP.           NO      :   One line per depth step
~Well Information Section
#MNEM       .UNIT                                         VALUE :DESCRIPTION
#------------------------------------------------------------------------------
STRT        .FT                                             222 :START DEPTH
STOP        .FT                                            9192 :STOP DEPTH
STEP        .FT                                             0.5 :STEP      
NULL        .                                           -999.25 :NULL      
COMP        .                                      PAN AMERICAN :COMPANY   
WELL        .                                     ST TR 00060-L :WELL      
FLD         .                                           WILDCAT :FIELD     
LOC         .                                                   :LOCATION  
CNTY        .                             GALVESTON LARGE BLOCK :LOCATION  
STAT        .                                             TEXAS :STATE     
CTRY        .                                     UNITED STATES :COUNTRY   
SRVC        .                                                   :SERVICE COMPANY
DATE        .                             9/13/2023 11:19:24 AM :LOG DATE  
API         .                                    42706000830000 :API NUMBER
UWI         .                                    42706000830000 :UNIQUE WELL ID
XCOORD      .                                  1150669.84230747 :SURFACE X 
YCOORD      .                                  10684730.4394491 :SURFACE Y 
LAT         .                                        29.4325033 :LATITUDE  
LON         .                                       -94.5389235 :LONGITUDE 
ELEV        .FT                                              11 :ELEVATION VALUE
ELEV_TYPE   .                                                KB :ELEVATION REFERENCE TYPE
~Curve Information Section
#MNEM       .UNIT                                      API CODE :CURVE DESCRIPTION
#------------------------------------------------------------------------------
DEPT        .FT                                                 :DEPTH     
ASN         .OHMM                                               :          
CILD        .MMHO                                               :          
ILD         .OHMM                                               :          
SP          .MV                                                 :          
SP_NORM     .MV                                                 :SP Normalized
VSH_SP      .V/V                                                :Volume of Shale from SP
~A        DEPTH            ASN           CILD            ILD             SP        SP_NORM         VSH_SP
# ...
      6758.0000         0.8125        -999.25         1.1862       -52.1172      -1.905861      0.9794123
      6758.5000          0.963        -999.25         1.3497       -52.6559      -2.445938      0.9671378
      6759.0000         1.3333        -999.25         1.3801       -53.6796      -3.471016      0.9438406
      6759.5000         1.4141        -999.25         1.3342       -54.8795      -4.672295      0.9165388
      6760.0000         1.5033        -999.25         1.2883       -56.0794      -5.873569       0.889237
      6760.5000         1.6043        -999.25         1.2424       -57.8854      -7.680946      0.8481603
      6761.0000         1.7948        -999.25         1.1965       -59.7685      -9.565426      0.8053312
      6761.5000         1.7736        -999.25         1.1447       -62.6238       -12.4221      0.7404069
      6762.0000         1.7423        -999.25         1.0791       -66.0374      -15.83707      0.6627938
      6762.5000          1.711        -999.25         1.0134       -68.2609      -18.06195      0.6122283
      6763.0000         1.6918        -999.25         0.9509       -70.4722      -20.27463      0.5619403
      6763.5000         1.7392        -999.25         0.9281       -71.5122      -21.31601      0.5382726
      6764.0000         1.8025        -999.25         0.9197       -72.1729      -21.97808      0.5232254
      6764.5000         1.8807        -999.25         0.9393        -72.767      -22.57356      0.5096918
      6765.0000         1.9566        -999.25         0.9589       -72.4642      -22.27214      0.5165424
      6765.5000         1.9711        -999.25         0.9786       -72.1611      -21.97041      0.5233997
      6766.0000          1.975        -999.25         0.9982       -71.8293      -21.63999      0.5309094
      6766.5000         1.9781        -999.25         1.0178       -71.3035      -21.11556      0.5428281
      6767.0000         1.9811        -999.25         1.0375       -70.7782      -20.59164      0.5547354
      6767.5000         1.9842        -999.25          1.042       -70.2523      -20.06712      0.5666565
      6768.0000         1.9873        -999.25         1.0099       -69.7271      -19.54329      0.5785615
      6768.5000         1.8807        -999.25         0.9778       -69.2012      -19.01877      0.5904825
      6769.0000         1.3793        -999.25         0.9457       -69.2539      -19.07285      0.5892535
      6769.5000         1.1477        -999.25         0.9135        -70.739      -20.55932      0.5554699
      6770.0000         1.0089        -999.25         0.8421       -78.2911       -28.1128         0.3838
      6770.5000         0.9581        -999.25         0.7649       -82.0917      -31.91478      0.2973914
      6771.0000         0.9125        -999.25         0.6877       -85.4465      -35.27096      0.2211146
      6771.5000          0.867        -999.25         0.6106       -88.2601      -38.08593      0.1571379
      6772.0000         0.8248        -999.25         0.5343        -89.476       -39.3032      0.1294726
      6772.5000          0.789        -999.25         0.4631       -90.2853      -40.11388      0.1110481
      6773.0000         0.7532        -999.25          0.392       -91.0946      -40.92456     0.09262371
      6773.5000         0.7173        -999.25          0.323       -91.5667      -41.39804     0.08186271
      6774.0000         0.6432        -999.25         0.2705       -92.0129      -41.84562     0.07169056
      6774.5000         0.5743        -999.25         0.2185       -92.4586      -42.29269     0.06152968
      6775.0000         0.5229        -999.25         0.1909       -92.9043      -42.73977     0.05136897
      6775.5000         0.4807        -999.25         0.1816       -93.3831      -43.21994     0.04045582
      6776.0000          0.451        -999.25         0.1777        -93.896      -43.73422     0.02876767
      6776.5000         0.4332        -999.25         0.1856       -94.4091       -44.2487     0.01707502
      6777.0000         0.4238        -999.25         0.1936       -94.9221      -44.76307    0.005384792
      6777.5000         0.4254        -999.25         0.2015       -95.4344      -45.27675              0
      6778.0000         0.4269        -999.25         0.2094       -95.9548      -45.79853              0
      6778.5000         0.4285        -999.25         0.2174       -96.5334      -46.37851              0
      6779.0000         0.4317        -999.25         0.2253       -97.1113      -46.95778              0
      6779.5000         0.4448        -999.25         0.2308       -96.8499      -46.69775              0
      6780.0000         0.4578        -999.25         0.2352       -96.5784      -46.42763              0
      6780.5000         0.4709        -999.25         0.2396       -96.3069      -46.15751              0
      6781.0000          0.484        -999.25         0.2367       -96.0354      -45.88739              0
      6781.5000          0.497        -999.25         0.2216       -95.7639      -45.61726              0
      6782.0000         0.4862        -999.25         0.2065       -95.4923      -45.34704              0
      6782.5000         0.4645        -999.25         0.1907       -95.5717      -45.42782              0
      6783.0000         0.4429        -999.25         0.1742       -95.7782      -45.63569              0
      6783.5000         0.4212        -999.25         0.1577       -95.9846      -45.84346              0
      6784.0000         0.3996        -999.25         0.1413       -96.1912      -46.05145              0
      6784.5000         0.3794        -999.25         0.1297       -96.3975      -46.25912              0
      6785.0000         0.3606        -999.25         0.1214        -96.405        -46.268              0
      6785.5000         0.3417        -999.25          0.113       -96.2189      -46.08328              0
      6786.0000         0.3228        -999.25         0.1052       -96.0327      -45.89845              0
      6786.5000         0.3069        -999.25         0.0977       -95.8467      -45.71383              0
      6787.0000         0.2931        -999.25         0.0902       -95.6605        -45.529              0
      6787.5000         0.2793        -999.25         0.0934       -95.4745      -45.34438              0
      6788.0000         0.2878        -999.25         0.0968       -95.2883      -45.15956              0
      6788.5000         0.3041        -999.25         0.1314       -95.1067      -44.97933   0.0004697279
      6789.0000         0.3205        -999.25         0.1715       -94.9683      -44.84231    0.003583821
      6789.5000         0.3369        -999.25         0.2116       -94.8301      -44.70549    0.006693406
      6790.0000         0.3532        -999.25         0.2516       -94.6919      -44.56866    0.009803078
      6790.5000         0.3687        -999.25         0.2945       -94.5536      -44.43174     0.01291509
      6791.0000         0.3842        -999.25         0.3586       -94.5585      -44.43802      0.0127723
      6791.5000         0.3851        -999.25         0.3537       -94.7648      -44.64569    0.008052393
      6792.0000         0.3727        -999.25          0.322       -94.9711      -44.85337    0.003332485
      6792.5000         0.3603        -999.25         0.2875       -95.1777      -45.06134              0
      6793.0000         0.3479        -999.25         0.2513        -95.384      -45.26903              0
      6793.5000         0.3355        -999.25          0.215       -95.5903       -45.4767              0
      6794.0000         0.3239        -999.25         0.1788       -95.7969      -45.68467              0
      6794.5000         0.3153        -999.25         0.1425       -96.0032      -45.89235              0
      6795.0000         0.3067        -999.25         0.1063        -96.115      -46.00553              0
      6795.5000         0.2981        -999.25         0.0736       -95.9852      -45.87711              0
