#------------------------------------------------------------------------------
# Created by    : vladimir.rabinovich
# Created on    : 09/19/2023 17:19:22
#------------------------------------------------------------------------------
~Version Information Section
VERS.           2.0     :   CWLS log ASCII Standard - VERSION 2.0
WRAP.           NO      :   One line per depth step
~Well Information Section
#MNEM       .UNIT                                         VALUE :DESCRIPTION
#------------------------------------------------------------------------------
STRT        .FT                                            2350 :START DEPTH
STOP        .FT                                            7008 :STOP DEPTH
STEP        .FT                                             0.5 :STEP      
NULL        .                                           -999.25 :NULL      
COMP        .                                  W&T OFFSHORE INC :COMPANY   
WELL        .                               OCS G04565 ST00BP00 :WELL      
FLD         .                              GALVESTON BLOCK 0303 :FIELD     
LOC         .                                                   :LOCATION  
CNTY        .                             GALVESTON LARGE BLOCK :LOCATION  
STAT        .                                             TEXAS :STATE     
CTRY        .                                     UNITED STATES :COUNTRY   
SRVC        .                                                   :SERVICE COMPANY
DATE        .                             9/13/2023 11:19:03 AM :LOG DATE  
API         .                                    42706403950000 :API NUMBER
UWI         .                                    42706403950000 :UNIQUE WELL ID
XCOORD      .                                  979190.041446607 :SURFACE X 
YCOORD      .                                   10483081.623763 :SURFACE Y 
LAT         .                                        28.8707847 :LATITUDE  
LON         .                                       -95.0663777 :LONGITUDE 
ELEV        .FT                                              91 :ELEVATION VALUE
ELEV_TYPE   .                                                KB :ELEVATION REFERENCE TYPE
~Curve Information Section
#MNEM       .UNIT                                      API CODE :CURVE DESCRIPTION
#------------------------------------------------------------------------------
DEPT        .FT                                                 :DEPTH     
AF20        .OHMM                                               :          
AFCO        .MMHO                                               :          
AO90        .OHMM                                               :          
AT10        .OHMM                                               :          
AT20        .OHMM                                               :          
AT30        .OHMM                                               :          
AT60        .OHMM                                               :          
AT90        .OHMM                                               :          
DCAL        .IN                                                 :          
DPHI        .%                                                  :          
DRHO        .G/C3                                               :          
GR          .GAPI                                               :          
GR_NORM     .GAPI                                               :GammaRay Normalized
GRN         .GAPI                                               :          
NPOR        .%                                                  :          
RWA         .OHMM                                               :          
SP          .MV                                                 :          
SP_NORM     .MV                                                 :SP Normalized
TENR        .LBF                                                :          
TPHI        .%                                                  :          
VSH_GR      .V/V                                                :Volume of Shale from GR
VSH_SP      .V/V                                                :Volume of Shale from SP
~A        DEPTH           AF20           AFCO           AO90           AT10           AT20           AT30           AT60           AT90           DCAL           DPHI           DRHO             GR        GR_NORM            GRN           NPOR            RWA             SP        SP_NORM           TENR           TPHI         VSH_GR         VSH_SP
# ...
      6094.0000           1.42       735.2939           1.36           1.15           1.34           1.42           1.35           1.38          1.225        26.8999           0.02           79.5       76.09552         39.219        38.8561           0.13          -18.6      -7.355479           2800        33.2999       0.916926      0.8774087
      6094.5000           1.41        666.667            1.5           1.25           1.44           1.51           1.45           1.47          1.025           21.9           0.01        70.8999        67.3358         41.375        35.9885           0.09          -19.7      -8.457498           2800           29.3      0.7305489      0.8590417
      6095.0000           1.38       564.9717           1.77           1.42           1.67           1.65           1.57           1.59          0.425           14.7           0.01           63.3       59.59484        39.2809        27.5145           0.05          -21.4      -10.15951           2785        26.8999      0.5658478      0.8306748
      6095.5000            1.3       510.2036           1.96           1.49           1.78           1.65           1.55           1.58          0.325           11.9           0.01           60.6       56.84473         37.938        21.3295           0.03            -23      -11.76153           2785        26.8999      0.5073347      0.8039744
      6096.0000            1.2       526.3154            1.9           1.29            1.5           1.38           1.33           1.35          0.425           18.9           0.01           60.3       56.53916        36.7809        25.7684           0.09          -22.6      -11.36355           2785           29.3      0.5008332      0.8106075
      6096.5000           1.09       787.4014           1.27           1.01           1.11           1.08           1.06           1.08          0.825           31.6              0           63.1       59.39114          38.25        37.0188           0.17          -23.8      -12.56557           2785           33.7      0.5615135      0.7905739
      6097.0000              1       1265.822           0.79           0.84           0.87           0.89           0.89           0.91          1.225        39.3999          -0.01           68.1       64.48393        39.4059        48.4284           0.17          -24.1      -12.86759           2785        37.3999      0.6698709      0.7855402
      6097.5000           0.92       1315.789           0.76           0.79            0.8           0.83           0.82           0.84          1.225           38.8              0           71.7       68.15075         41.062         53.352           0.16          -21.6      -10.36961           2785           41.6      0.7478883      0.8271732
      6098.0000           0.87       1162.791           0.86            0.8           0.82           0.82           0.81           0.82          1.225           34.4              0           71.2       67.64147          43.25        51.6138           0.14          -19.6      -8.371623           2785           42.1      0.7370526       0.860473
      6098.5000           0.83       1030.928           0.97           0.81           0.83           0.82           0.81           0.83          1.225        32.4999          -0.01        74.2999        70.7989         43.562        47.6646           0.14          -18.3       -7.07364           2785        43.7999       0.804232       0.882106
      6099.0000            0.8       1190.475           0.84           0.79            0.8            0.8           0.82           0.84          1.225           33.9          -0.01             80        76.6048         43.562        45.9007           0.13          -17.1      -5.875659           2830           44.7      0.9277618      0.9020724
      6099.5000           0.77       980.3916           1.02           0.78           0.78           0.78           0.81           0.82          1.125           31.2              0        82.2999       78.94739        44.0309        43.8246           0.13          -15.8      -4.577677           2830           45.6       0.977604      0.9237054
      6100.0000           0.74       1063.828           0.94           0.78           0.77           0.77           0.78           0.79          1.125           25.2           0.01           83.1       79.76234        47.2809        42.4683           0.08          -17.8      -6.579695           2830        43.9999      0.9949433      0.8903384
      6100.5000           0.71       1162.791           0.86           0.79           0.75           0.74           0.73           0.75          1.125             25              0             75       71.51201         47.938        41.8681           0.07          -21.9      -10.68171           2830        44.2999      0.8194044      0.8219715
      6101.0000           0.68       1219.512           0.82           0.78           0.72            0.7           0.68           0.69          1.125           28.4              0           76.1       72.63242        44.6559         42.899           0.09          -24.7      -13.48373           2870           45.6      0.8432429      0.7752711
      6101.5000           0.65       1388.889           0.72           0.75           0.66           0.65           0.62           0.63          1.325        32.5999              0           70.5       66.92847        41.5309        45.9777            0.1          -26.8      -15.58575           2870           45.4      0.7218825      0.7402375
      6102.0000           0.61         1562.5           0.64           0.71           0.61           0.59           0.55           0.57          1.225             32              0           68.2       64.58579         40.562        46.4657           0.09          -31.9      -20.68777           2870        41.7999      0.6720381      0.6552039
      6102.5000           0.59       1785.713           0.56           0.68           0.57           0.54           0.49           0.51          1.025        32.9999           0.01           62.7       58.98371          39.25         40.935           0.08          -39.1      -27.88978           2870           41.7      0.5528448      0.5351703
      6103.0000           0.56       1923.076           0.52           0.64           0.53           0.49           0.45           0.46          0.925        33.2999           0.01           58.2       54.40019         35.625        34.6105           0.08          -42.4       -31.1918           2890           38.7      0.4553232      0.4801366
      6103.5000           0.55           2500            0.4           0.61           0.51           0.47           0.43           0.44          1.025           34.2              0           57.3       53.48348         33.312        33.4576           0.06          -40.7      -29.49382           2890        39.3999      0.4358187      0.5084363
      6104.0000           0.55       2222.219           0.45            0.6           0.51           0.46           0.43           0.44          1.125           34.7              0           54.5       50.63151         32.969        33.8614           0.08          -38.9      -27.69584           2890           39.2      0.3751386      0.5384027
      6104.5000           0.55       2127.656           0.47            0.6           0.52           0.47           0.44           0.45          0.525        33.9999           0.01           56.1        52.2612         32.844        36.6277           0.07          -33.4      -22.19786           2890        44.5999      0.4098128      0.6300357
      6105.0000           0.56       2380.949           0.42           0.61           0.54            0.5           0.48           0.49          1.125           33.7              0           59.7       55.92803           35.5        39.3851           0.07          -24.3      -13.09987           2840           45.6      0.4878304      0.7816688
      6105.5000           0.57       1612.902           0.62           0.65           0.58           0.55           0.54           0.55          1.125           29.9              0           66.1       62.44682         38.469        42.6818           0.08          -20.3      -9.101892           2840           45.7       0.626528      0.8483018
