#------------------------------------------------------------------------------
# Created by    : vladimir.rabinovich
# Created on    : 09/19/2023 17:20:37
#------------------------------------------------------------------------------
~Version Information Section
VERS.           2.0     :   CWLS log ASCII Standard - VERSION 2.0
WRAP.           NO      :   One line per depth step
~Well Information Section
#MNEM       .UNIT                                         VALUE :DESCRIPTION
#------------------------------------------------------------------------------
STRT        .FT                                             582 :START DEPTH
STOP        .FT                                            8015 :STOP DEPTH
STEP        .FT                                             0.5 :STEP      
NULL        .                                           -999.25 :NULL      
COMP        .                                CONTINENTAL OIL CO :COMPANY   
WELL        .                                OCS 00719 ST00BP00 :WELL      
FLD         .                                           WILDCAT :FIELD     
LOC         .                                                   :LOCATION  
CNTY        .                             GALVESTON LARGE BLOCK :LOCATION  
STAT        .                                             TEXAS :STATE     
CTRY        .                                     UNITED STATES :COUNTRY   
SRVC        .                                                   :SERVICE COMPANY
DATE        .                             9/13/2023 11:19:25 AM :LOG DATE  
API         .                                    42706000350000 :API NUMBER
UWI         .                                    42706000350000 :UNIQUE WELL ID
XCOORD      .                                  1010979.62119212 :SURFACE X 
YCOORD      .                                  10432235.4027546 :SURFACE Y 
LAT         .                                          28.73246 :LATITUDE  
LON         .                                        -94.964458 :LONGITUDE 
ELEV        .FT                                              63 :ELEVATION VALUE
ELEV_TYPE   .                                                KB :ELEVATION REFERENCE TYPE
~Curve Information Section
#MNEM       .UNIT                                      API CODE :CURVE DESCRIPTION
#------------------------------------------------------------------------------
DEPT        .FT                                                 :DEPTH     
ASN         .OHMM                                               :          
DT          .US/F                                               :          
LN          .OHMM                                               :          
SP          .MV                                                 :          
SP_NORM     .MV                                                 :SP Normalized
VSH_SP      .V/V                                                :Volume of Shale from SP
~A        DEPTH            ASN             DT             LN             SP        SP_NORM         VSH_SP
       582.0000         0.5893        -999.25              0       -75.7896      -1.127839              1
       582.5000         0.6248        -999.25         0.0027       -75.6393      0.6256772              1
       583.0000         0.6674        -999.25         0.0214       -74.8215       3.362514              1
       583.5000         0.6954        -999.25         0.0401       -73.4875      -0.114724              1
       584.0000          0.733        -999.25          0.067        -72.696      0.8500359              1
       584.5000          0.822        -999.25         0.1068       -71.2405     -0.3262818              1
       585.0000         0.9363        -999.25         0.1467       -70.4447     -0.3490327              1
       585.5000         0.9924        -999.25         0.2049       -69.8552       3.549636              1
       586.0000         1.0326        -999.25         0.5382       -69.0209     -0.2699547              1
       586.5000         1.0798        -999.25         0.6291       -67.8563       2.731088              1
       587.0000         1.1368        -999.25         0.6848       -66.9387     -0.7715644              1
       587.5000         1.2261        -999.25         0.7478       -66.1908       3.374449              1
       588.0000          1.332        -999.25         0.9236       -65.9695      -1.191885              1
       588.5000         1.4378        -999.25         1.0723       -65.7556      0.1658597              1
       589.0000         1.5557        -999.25         1.2007       -65.4965     -0.5109538              1
       589.5000         1.6381        -999.25          1.323       -65.2385       1.965828              1
       590.0000         1.6615        -999.25         1.4287       -64.9856     -0.7612137              1
       590.5000          1.685        -999.25         1.5092       -64.7351      0.6788594              1
       591.0000            1.7        -999.25         1.5722       -64.5557       2.249448              1
       591.5000         1.7137        -999.25         1.6352       -64.3464       1.810449              1
       592.0000         1.7253        -999.25         1.6828       -64.1342        3.52864              1
       592.5000          1.735        -999.25         1.7288       -63.8962      -1.210435              1
       593.0000         1.7346        -999.25         1.7748       -63.6583       3.594797              1
       593.5000         1.6951        -999.25         1.8109       -63.4203       1.347738              1
       594.0000         1.6351        -999.25         1.8453       -63.3222       3.010804              1
       594.5000         1.5929        -999.25         1.8661       -63.6807    -0.03286228              1
       595.0000         1.5623        -999.25         1.8858       -63.9863       0.926243              1
       595.5000         1.5331        -999.25         1.8691       -63.2905      -1.154784              1
       596.0000         1.5052        -999.25         1.8445       -62.5029       3.141289              1
       596.5000         1.4799        -999.25         1.8239        -62.148     -0.9408965              1
       597.0000         1.4523        -999.25         1.8034       -62.0031      0.8945807              1
       597.5000         1.4242        -999.25         1.7829       -61.8583       0.721131              1
       598.0000         1.4011        -999.25         1.7624       -62.1951      -1.067807              1
       598.5000         1.3706        -999.25         1.7419       -62.5357       1.646885              1
       599.0000         1.3349        -999.25         1.7237        -62.866       1.632584              1
       599.5000         1.3032        -999.25         1.7117       -63.0793       2.859288              1
       600.0000         1.2791        -999.25         1.6996       -62.5415      0.3202319              1
       600.5000         1.2578        -999.25         1.6876       -61.8355      0.4650047              1
       601.0000         1.2378        -999.25         1.6756       -61.3136       2.088151              1
       601.5000          1.218        -999.25         1.6635       -60.9952     0.07883946              1
       602.0000         1.1695        -999.25         1.6515       -60.6419       2.744097              1
       602.5000         1.1471        -999.25         1.6394       -60.0487      0.4620027              1
       603.0000         1.1276        -999.25         1.6274       -59.7498     -0.7458387              1
       603.5000         1.1099        -999.25         1.6155       -59.5198      0.1284814              1
       604.0000         1.0942        -999.25          1.606       -59.3754       1.867402              1
       604.5000         1.0807        -999.25         1.5965       -59.4297      0.2437923              1
       605.0000         1.0706        -999.25          1.587       -59.7451       1.169125              1
       605.5000         1.0606        -999.25         1.5775       -59.9338     -0.2230504              1
       606.0000         1.0506        -999.25          1.568       -60.1225     -0.5302666              1
       606.5000         1.0408        -999.25         1.5585       -60.3112     -0.8374771              1
       607.0000         1.0311        -999.25          1.549       -60.4999      -1.144688              1
       607.5000         1.0214        -999.25         1.5399       -60.5676       -1.26947              1
       608.0000         1.0148        -999.25         1.5326       -60.5258      -1.229158              1
       608.5000         1.0094        -999.25         1.5254       -60.4151      -1.084965              1
       609.0000          1.004        -999.25         1.5181       -60.3045     -0.9409274              1
       609.5000         0.9987        -999.25         1.5108       -60.2126     -0.8250829              1
       610.0000         0.9933        -999.25         1.5036       -60.2976     -0.9759476              1
       610.5000         0.9904        -999.25         1.4963       -60.3826      -1.126806              1
       611.0000         0.9878        -999.25          1.489       -60.4231      -1.210581              1
       611.5000         0.9853        -999.25         1.4824       -60.2611     -0.9890492              1
       612.0000         0.9827        -999.25         1.4758       -60.0991     -0.7675057              1
       612.5000         0.9802        -999.25         1.4691       -60.2325     -0.9913441              1
       613.0000         0.9776        -999.25         1.4625        -60.375      -1.228905              1
       613.5000         0.9754        -999.25         1.4559       -60.0433     -0.7515168              1
       614.0000         0.9734        -999.25         1.4493       -59.6266     -0.1459645              1
       614.5000         0.9714        -999.25         1.4427       -59.3064      0.3140834              1
       615.0000         0.9693        -999.25         1.4378       -58.9863      0.7739818              1
       615.5000         0.9673        -999.25         1.4329        -58.703       1.178408              1
       616.0000         0.9651        -999.25         1.4279       -58.6669       1.210121              1
       616.5000         0.9613        -999.25          1.423       -58.7562       1.052775              1
       617.0000         0.9574        -999.25         1.4181       -58.8311      0.9171339              1
       617.5000         0.9536        -999.25         1.4132       -58.9061      0.7813493              1
       618.0000         0.9497        -999.25         1.4082       -58.9811      0.6455647              1
       618.5000         0.9459        -999.25         1.4065       -59.0562      0.5096249              1
       619.0000         0.9409        -999.25          1.405       -59.1312      0.3738346              1
       619.5000         0.9357        -999.25         1.4036       -59.0891      0.4146004              1
