#------------------------------------------------------------------------------
# Created by    : vladimir.rabinovich
# Created on    : 09/19/2023 17:19:43
#------------------------------------------------------------------------------
~Version Information Section
VERS.           2.0     :   CWLS log ASCII Standard - VERSION 2.0
WRAP.           NO      :   One line per depth step
~Well Information Section
#MNEM       .UNIT                                         VALUE :DESCRIPTION
#------------------------------------------------------------------------------
STRT        .FT                                            1054 :START DEPTH
STOP        .FT                                           13910 :STOP DEPTH
STEP        .FT                                             0.5 :STEP      
NULL        .                                           -999.25 :NULL      
COMP        .                                            MTS LP :COMPANY   
WELL        .                                ST TR 00061-L SW/4 :WELL      
FLD         .                                           WILDCAT :FIELD     
LOC         .                                                   :LOCATION  
CNTY        .                           HIGH ISLAND LARGE BLOCK :LOCATION  
STAT        .                                             TEXAS :STATE     
CTRY        .                                     UNITED STATES :COUNTRY   
SRVC        .                                                   :SERVICE COMPANY
DATE        .                             9/13/2023 11:19:15 AM :LOG DATE  
API         .                                    42708302730000 :API NUMBER
UWI         .                                    42708302730000 :UNIQUE WELL ID
XCOORD      .                                  1164861.29381137 :SURFACE X 
YCOORD      .                                   10674042.082625 :SURFACE Y 
LAT         .                                        29.4036169 :LATITUDE  
LON         .                                       -94.4939126 :LONGITUDE 
ELEV        .FT                                              78 :ELEVATION VALUE
ELEV_TYPE   .                                                KB :ELEVATION REFERENCE TYPE
~Curve Information Section
#MNEM       .UNIT                                      API CODE :CURVE DESCRIPTION
#------------------------------------------------------------------------------
DEPT        .FT                                                 :DEPTH     
ASFL        .OHMM                                               :          
CILD        .MMHO                                               :          
ILD         .OHMM                                               :          
SP          .MV                                                 :          
SP_NORM     .MV                                                 :SP Normalized
VSH_SP      .V/V                                                :Volume of Shale from SP
~A        DEPTH           ASFL           CILD            ILD             SP        SP_NORM         VSH_SP
# ...
     11314.0000         0.5528       2391.023         0.4579       -39.8998      0.1002007              1
     11314.5000         0.5518       2400.945          0.457       -39.9031     0.09690094              1
     11315.0000         0.5507       2412.738         0.4562       -39.9064     0.09360123              1
     11315.5000         0.5452       2428.531         0.4553       -39.8967      0.1032982              1
     11316.0000         0.5396       2444.348         0.4544       -39.8844      0.1156006              1
     11316.5000         0.5364       2454.738         0.4535       -39.8722         0.1278              1
     11317.0000         0.5346       2463.387         0.4535         -39.86      0.1399994              1
     11317.5000         0.5328       2459.555         0.4566       -39.8477      0.1523018              1
     11318.0000         0.5343       2447.395         0.4598       -39.8355      0.1645012              1
     11318.5000         0.5409       2417.402         0.4629       -39.8233      0.1767006              1
     11319.0000         0.5505       2352.754         0.4661        -39.811      0.1889992              1
     11319.5000         0.5652       2268.945         0.4692        -39.796      0.2039986              1
     11320.0000         0.5833       2221.441         0.4742       -39.7637      0.2363014              1
     11320.5000         0.5961       2193.836         0.4804       -39.7315      0.2685013              1
     11321.0000         0.6088       2175.313         0.4865       -39.6993      0.3007011              1
     11321.5000         0.6148       2158.539         0.4927       -39.6672      0.3328018              1
     11322.0000         0.6065       2153.016         0.4988       -39.6349      0.3651009              1
     11322.5000         0.5959       2151.016          0.505       -39.6028      0.3972015              1
     11323.0000         0.5862       2149.063         0.5111       -39.5706      0.4294014              1
     11323.5000         0.5855        2147.25          0.517       -39.5382      0.4617996              1
     11324.0000         0.5863        2145.43         0.5229       -39.5018      0.4981995              1
     11324.5000         0.5872       2143.613         0.5287       -39.4655      0.5345001              1
     11325.0000         0.5893       2141.797         0.5345       -39.4291         0.5709              1
     11325.5000         0.5919       2135.426         0.5404       -39.3928      0.6072006              1
     11326.0000         0.5927       2126.387         0.5462       -39.3565      0.6435013              1
     11326.5000         0.5871       2109.535         0.5521       -39.3201      0.6799011              1
     11327.0000         0.5778       2077.555         0.5526       -39.2838      0.7162018              1
     11327.5000         0.5684       2046.264         0.5513       -39.2474      0.7526016              1
     11328.0000         0.5606        2061.59         0.5499       -39.2111      0.7888985              1
     11328.5000         0.5562       2092.586         0.5486       -39.1866      0.8134003              1
     11329.0000         0.5518       2123.633         0.5465       -39.1705      0.8294983              1
     11329.5000         0.5474       2157.234         0.5367       -39.1544      0.8456001              1
     11330.0000         0.5523       2191.918          0.527       -39.1382      0.8618011              1
     11330.5000         0.5575       2220.805         0.5173        -39.122      0.8779984              1
     11331.0000         0.5627       2202.727         0.5084       -39.1058      0.8941994              1
     11331.5000          0.569       2150.852         0.5001       -39.0897      0.9103012              1
     11332.0000         0.5807       2097.402         0.4918       -39.0735      0.9264984              1
     11332.5000         0.5923       2060.508         0.4835       -39.0574      0.9426003              1
     11333.0000         0.5994       2034.227         0.4752       -39.0659      0.9341011              1
     11333.5000         0.5825       2060.656         0.4676       -39.0981      0.9019012              1
     11334.0000          0.564        2104.77          0.464       -39.1303      0.8697014              1
     11334.5000         0.5455       2185.926         0.4605       -39.1625      0.8375015              1
     11335.0000         0.5303       2258.926         0.4569       -39.1947      0.8053017              1
     11335.5000         0.5183       2317.777         0.4534       -39.2269      0.7731018              1
     11336.0000         0.5097       2359.977         0.4501       -39.2592       0.740799              1
     11336.5000          0.511       2394.215         0.4488       -39.2913      0.7086983              1
     11337.0000         0.5191       2416.125         0.4475       -39.3235      0.6764984              1
     11337.5000         0.5275       2415.168         0.4462       -39.3557      0.6442986              1
     11338.0000         0.5353       2404.016         0.4449       -39.3879      0.6120987              1
     11338.5000          0.538       2393.086         0.4441       -39.4548      0.5452003              1
     11339.0000         0.5407       2383.348         0.4444       -39.5611         0.4389              1
     11339.5000         0.5418       2377.488         0.4448       -39.6756      0.3244019              1
     11340.0000         0.5405       2374.086         0.4451       -39.8061      0.1939011              1
     11340.5000         0.5392       2375.992         0.4455       -39.9366     0.06340027              1
     11341.0000         0.5379       2377.906         0.4474         -40.12     -0.1199989              1
     11341.5000         0.5485       2344.012         0.4513       -40.3817     -0.3816986              1
     11342.0000           0.56        2309.77         0.4553       -40.6403     -0.6403008              1
     11342.5000         0.5716       2270.422         0.4593       -40.8123     -0.8123016              1
     11343.0000         0.5835       2223.555         0.4632       -40.9844     -0.9844017              1
     11343.5000          0.595       2153.305         0.4673       -41.1565      -1.156502      0.9977319
     11344.0000         0.6002         2052.5         0.4753       -41.1833        -1.1833      0.9973435
     11344.5000         0.6055       1958.967         0.4833        -41.197      -1.196999      0.9971449
     11345.0000         0.6093       1914.607         0.4913       -41.2723      -1.272301      0.9960536
     11345.5000         0.6127       1884.248         0.4944       -41.3894        -1.3894      0.9943565
     11346.0000         0.6161        1871.23         0.4973       -41.5306      -1.530602      0.9923101
     11346.5000         0.6195       1902.229         0.5002       -41.6847        -1.6847      0.9900768
     11347.0000          0.614       1933.521         0.5031       -41.8391        -1.8391      0.9878391
     11347.5000         0.6018        1969.48         0.5038       -41.9867      -1.986698         0.9857
     11348.0000         0.5897       2006.422         0.4999        -42.134      -2.133999      0.9835652
     11348.5000         0.5758       2060.359         0.4959       -42.2183        -2.2183      0.9823435
     11349.0000         0.5586       2121.078         0.4919       -42.2555      -2.255501      0.9818043
     11349.5000          0.545       2191.035         0.4879       -42.2458        -2.2458      0.9819449
     11350.0000         0.5391       2257.648         0.4839       -42.2087      -2.208698      0.9824826
     11350.5000         0.5377        2320.48         0.4775       -42.1718      -2.171799      0.9830174
     11351.0000         0.5379       2353.297         0.4709       -42.1313      -2.131302      0.9836043
     11351.5000         0.5382        2386.16         0.4642       -42.0734      -2.073399      0.9844435
