#------------------------------------------------------------------------------
# Created by    : vladimir.rabinovich
# Created on    : 09/19/2023 17:22:53
#------------------------------------------------------------------------------
~Version Information Section
VERS.           2.0     :   CWLS log ASCII Standard - VERSION 2.0
WRAP.           NO      :   One line per depth step
~Well Information Section
#MNEM       .UNIT                                         VALUE :DESCRIPTION
#------------------------------------------------------------------------------
STRT        .FT                                             252 :START DEPTH
STOP        .FT                                           11321 :STOP DEPTH
STEP        .FT                                             0.5 :STEP      
NULL        .                                           -999.25 :NULL      
COMP        .                          HUMBLE OIL & REFINING CO :COMPANY   
WELL        .                                OCS 00615 ST00BP00 :WELL      
FLD         .                                           WILDCAT :FIELD     
LOC         .                                                   :LOCATION  
CNTY        .                             GALVESTON LARGE BLOCK :LOCATION  
STAT        .                                             TEXAS :STATE     
CTRY        .                                     UNITED STATES :COUNTRY   
SRVC        .                                                   :SERVICE COMPANY
DATE        .                             9/13/2023 11:19:42 AM :LOG DATE  
API         .                                    42706000270000 :API NUMBER
UWI         .                                    42706000270000 :UNIQUE WELL ID
XCOORD      .                                  1043929.24471964 :SURFACE X 
YCOORD      .                                  10527500.2798036 :SURFACE Y 
LAT         .                                         28.995876 :LATITUDE  
LON         .                                        -94.866344 :LONGITUDE 
ELEV        .FT                                              67 :ELEVATION VALUE
ELEV_TYPE   .                                                KB :ELEVATION REFERENCE TYPE
~Curve Information Section
#MNEM       .UNIT                                      API CODE :CURVE DESCRIPTION
#------------------------------------------------------------------------------
DEPT        .FT                                                 :DEPTH     
LAT         .OHMM                                               :          
LN          .OHMM                                               :          
SN          .OHMM                                               :          
SP          .MV                                                 :          
SP_NORM     .MV                                                 :SP Normalized
VSH_SP      .V/V                                                :Volume of Shale from SP
~A        DEPTH            LAT             LN             SN             SP        SP_NORM         VSH_SP
# ...
      4660.0000          0.475         0.4995         1.2028      -145.3047      -47.74373      0.3929386
      4660.5000         0.4135         0.4874         1.2286      -157.1406      -59.57962      0.2392257
      4661.0000         0.3531         0.4753         1.2385      -170.2939      -72.73293     0.06840356
      4661.5000         0.2927         0.4569         1.1779      -168.5889      -71.02792     0.09054644
      4662.0000          0.271          0.435         1.1173       -160.875      -63.31403      0.1907269
      4662.5000          0.278         0.4131         1.0588        -154.25      -56.68903      0.2767659
      4663.0000          0.285         0.3913         1.0042       -150.125      -52.56403      0.3303373
      4663.5000         0.3123         0.3706         0.9496      -145.3047      -47.74373      0.3929386
      4664.0000         0.3679         0.3499         0.9824      -135.3828      -37.82182      0.5217945
      4664.5000         0.4235         0.3369         1.0255      -127.1836      -29.62263      0.6282775
      4665.0000         0.4791         0.3336         1.0685      -121.3711      -23.81013      0.7037646
      4665.5000         0.5347         0.3303         1.1115      -127.0313      -29.47033      0.6302555
      4666.0000          0.582         0.3295         1.2131      -132.6875      -35.12653      0.5567983
      4666.5000         0.5681         0.3357         1.3517      -138.3477      -40.78673      0.4832892
      4667.0000         0.5543         0.3521         1.4769      -142.4609      -44.89993       0.429871
      4667.5000         0.5404         0.3794         1.5175      -146.5781      -49.01712       0.376401
      4668.0000         0.5266         0.4067         1.4569      -149.5352      -51.97423       0.337997
      4668.5000         0.5384          0.434         1.3633      -144.8203      -47.25932      0.3992296
      4669.0000          0.565         0.4613         1.2696      -137.0625      -39.50153      0.4999802
      4669.5000         0.5915         0.4846         1.1759      -129.5078      -31.94682      0.5980932
      4670.0000         0.6371         0.5078         1.0822      -122.3984      -24.83743      0.6904231
      4670.5000         0.6848          0.531         1.2136      -132.1484      -34.58743      0.5637996
      4671.0000         0.6282         0.5542         1.3926      -140.6328      -43.07182      0.4536127
      4671.5000         0.5413         0.5773         1.4736      -147.1953      -49.63432      0.3683854
      4672.0000         0.4577         0.6005         1.5424      -153.0781      -55.51712      0.2919855
      4672.5000         0.4133         0.6196         1.5984      -156.8828      -59.32182      0.2425737
      4673.0000         0.3689         0.6029         1.5931       -158.332      -60.77103      0.2237529
      4673.5000         0.3245         0.5863         1.5667      -159.3359      -61.77493      0.2107152
      4674.0000          0.281         0.5659         1.5403      -159.8931      -62.33212      0.2034789
      4674.5000         0.2691         0.5373          1.514      -160.4507      -62.88972      0.1962373
      4675.0000         0.2571         0.5087         1.4936      -160.3792      -62.81822       0.197166
      4675.5000         0.2529         0.4801         1.4736      -160.2563      -62.69533       0.198762
      4676.0000          0.253         0.4515         1.4536      -158.9082      -61.34723      0.2162697
      4676.5000         0.2547         0.4269         1.4337      -156.5566      -58.99562      0.2468101
      4677.0000           0.28         0.4122         1.4137       -154.207      -56.64603      0.2773243
      4677.5000         0.3054         0.3975         1.3937      -151.8574      -54.29643      0.3078385
      4678.0000         0.3307         0.3829         1.3738      -148.4258      -50.86482      0.3524049
      4678.5000          0.356         0.3682         1.3541      -143.4492      -45.88823       0.417036
      4679.0000         0.3813         0.3598         1.3345      -138.4727      -40.91173      0.4816659
      4679.5000         0.4067         0.3675          1.315      -126.3672      -28.80623      0.6388801
      4680.0000         0.4523         0.3902         1.2954      -119.7109      -22.14993      0.7253256
      4680.5000         0.5107         0.4129         1.2758      -113.0586      -15.49763      0.8117191
      4681.0000          0.569         0.4356         1.2562      -106.4062      -8.845222       0.898114
      4681.5000         0.6274         0.4583         1.2366      -103.0615      -5.500526      0.9415516
      4682.0000         0.6623         0.4803          1.217      -102.1367      -4.575729       0.953562
      4682.5000         0.6768         0.5014         1.1849      -101.2119      -3.650925      0.9655724
      4683.0000         0.6394         0.5225         1.1179      -103.3398      -5.778824      0.9379374
      4683.5000          0.602         0.5435          1.055      -105.6777      -8.116722       0.907575
      4684.0000         0.5646         0.5565         1.0247      -108.0137      -10.45273      0.8772373
      4684.5000         0.5325         0.5475          0.989      -110.5449      -12.98392      0.8443646
      4685.0000         0.5265         0.5282         0.9881      -113.3301      -15.76913      0.8081931
      4685.5000         0.5206         0.5039         0.9956      -123.3848      -25.82383      0.6776126
      4686.0000         0.5197         0.4796         1.0378      -120.1875      -22.62653       0.719136
      4686.5000         0.5405         0.4711           1.08      -116.9922      -19.43123      0.7606334
      4687.0000         0.5613         0.4649         0.9889      -113.7969      -16.23592      0.8021309
      4687.5000         0.5822         0.4587         0.8924      -110.5996      -13.03863      0.8436542
      4688.0000          0.603         0.4526         0.9008      -106.9844      -9.423424      0.8906049
      4688.5000         0.6238         0.4464         1.0082      -116.2187      -18.65772      0.7706789
      4689.0000         0.6446         0.4522         1.1156      -131.5391      -33.97812      0.5717127
      4689.5000         0.6198         0.4631          1.223      -137.8242      -40.26323      0.4900879
      4690.0000         0.5779          0.474         1.3303      -144.1094      -46.54843      0.4084619
      4690.5000         0.5374         0.4849          1.403      -148.1934      -50.63243       0.355423
      4691.0000          0.497         0.4954          1.401      -146.6201      -49.05913      0.3758555
      4691.5000         0.4565          0.505         1.3461      -145.0469      -47.48593      0.3962866
      4692.0000         0.4161         0.5146         1.2958      -143.4736      -45.91263      0.4167191
      4692.5000         0.3757         0.5243         1.2456      -141.9004      -44.33943      0.4371502
      4693.0000         0.3353         0.5339         1.1829      -139.8281      -42.26712      0.4640634
      4693.5000         0.3122         0.5308         1.1985      -134.9531      -37.39212       0.527375
      4694.0000         0.3124         0.5247         1.3005      -139.5039      -41.94293      0.4682736
      4694.5000         0.3125         0.5127         1.4437      -144.1875      -46.62653      0.4074477
      4695.0000         0.3127          0.521         1.6111      -148.8711      -51.31012      0.3466218
      4695.5000         0.3128         0.5333         1.6951       -153.041      -55.48003      0.2924672
      4696.0000         0.3129         0.5484         1.7694      -154.8301      -57.26912      0.2692322
      4696.5000         0.3131         0.5669         1.8055      -156.6172      -59.05623       0.246023
      4697.0000         0.3132         0.5853         1.8416      -158.4062      -60.84523      0.2227892
      4697.5000         0.3134         0.5841         1.8777      -159.5723      -62.01132      0.2076452
