#------------------------------------------------------------------------------
# Created by    : vladimir.rabinovich
# Created on    : 09/19/2023 17:20:31
#------------------------------------------------------------------------------
~Version Information Section
VERS.           2.0     :   CWLS log ASCII Standard - VERSION 2.0
WRAP.           NO      :   One line per depth step
~Well Information Section
#MNEM       .UNIT                                         VALUE :DESCRIPTION
#------------------------------------------------------------------------------
STRT        .FT                                            2310 :START DEPTH
STOP        .FT                                           12118 :STOP DEPTH
STEP        .FT                                             0.5 :STEP      
NULL        .                                           -999.25 :NULL      
COMP        .                                   FOREST OIL CORP :COMPANY   
WELL        .                               OCS G01793 ST00BP00 :WELL      
FLD         .                                           WILDCAT :FIELD     
LOC         .                                                   :LOCATION  
CNTY        .                             GALVESTON LARGE BLOCK :LOCATION  
STAT        .                                             TEXAS :STATE     
CTRY        .                                     UNITED STATES :COUNTRY   
SRVC        .                                                   :SERVICE COMPANY
DATE        .                             9/13/2023 11:19:24 AM :LOG DATE  
API         .                                    42706001380000 :API NUMBER
UWI         .                                    42706001380000 :UNIQUE WELL ID
XCOORD      .                                  1024149.02927821 :SURFACE X 
YCOORD      .                                  10425384.3690734 :SURFACE Y 
LAT         .                                         28.714212 :LATITUDE  
LON         .                                        -94.923031 :LONGITUDE 
ELEV        .FT                                              60 :ELEVATION VALUE
ELEV_TYPE   .                                                KB :ELEVATION REFERENCE TYPE
~Curve Information Section
#MNEM       .UNIT                                      API CODE :CURVE DESCRIPTION
#------------------------------------------------------------------------------
DEPT        .FT                                                 :DEPTH     
ASN         .OHMM                                               :          
CALI        .IN                                                 :          
CILD        .MMHO                                               :          
DT          .US/F                                               :          
ILD         .OHMM                                               :          
RHOB        .G/C3                                               :          
SP          .MV                                                 :          
SP_NORM     .MV                                                 :SP Normalized
VSH_SP      .V/V                                                :Volume of Shale from SP
~A        DEPTH            ASN           CALI           CILD             DT            ILD           RHOB             SP        SP_NORM         VSH_SP
# ...
      7530.5000         0.6292        11.7437       1721.385       109.9788          0.631        -999.25        -56.574      -1.425822      0.9780643
      7531.0000         0.6297        11.7592       1721.535       110.3295         0.6293        -999.25       -56.2369     -0.9538803      0.9853249
      7531.5000         0.6297         11.772       1730.551       110.7272         0.6277        -999.25       -56.6973       -1.59844      0.9754086
      7532.0000         0.6262        11.7802       1739.205        111.125          0.626        -999.25       -57.3882      -2.565698      0.9605277
      7532.5000         0.6227        11.7882       1742.678       111.3855         0.6243        -999.25       -57.8798      -3.253938      0.9499394
      7533.0000         0.6191        11.7546       1740.789       111.4319         0.6227        -999.25       -57.7802      -3.114501      0.9520846
      7533.5000         0.6158        11.7209       1738.902        108.464          0.621        -999.25       -57.2537        -2.3774      0.9634246
      7534.0000         0.6127        11.6913       1748.807       107.7246         0.6194        -999.25       -56.7266      -1.639461      0.9747775
      7534.5000         0.6096        11.6727       1759.768       107.2788         0.6177        -999.25       -56.2426     -0.9618591      0.9852022
      7535.0000         0.6102        11.6541        1770.74       107.1204         0.6158        -999.25       -56.8332      -1.788698      0.9724815
      7535.5000         0.6141        11.6355       1784.346       107.3651         0.6137        -999.25       -57.6792      -2.973099        0.95426
      7536.0000         0.6172        11.6189       1798.313       107.8292         0.6116        -999.25        -58.894      -4.673821       0.928095
      7536.5000         0.6204        11.6141       1812.303       108.6222         0.6096        -999.25       -59.4585       -5.46412      0.9159366
      7537.0000         0.6188        11.6094       1823.352       109.2358         0.6075        -999.25       -59.7421      -5.861159      0.9098283
      7537.5000         0.6134        11.6046       1829.922       109.7637         0.6054        -999.25       -59.8231      -5.974561      0.9080837
      7538.0000         0.6081        11.6073       1826.207       110.3264         0.6034        -999.25       -59.9042      -6.088102      0.9063369
      7538.5000         0.6027        11.6148       1811.305       111.0179         0.6006        -999.25       -60.0264      -6.259182      0.9037049
      7539.0000         0.5974        11.6235       1783.174       111.6597         0.5973        -999.25       -60.3569      -6.721879      0.8965865
      7539.5000         0.5921        11.6566       1755.041       111.3297         0.5939        -999.25       -61.5306      -8.365062      0.8713067
      7540.0000         0.6129        11.6897        1726.91       108.3545         0.5913        -999.25       -62.3617      -9.528597      0.8534062
      7540.5000          0.636        11.7227       1697.182       103.4248         0.5949        -999.25       -63.0607       -10.5072      0.8383508
      7541.0000          0.654        11.7558       1666.605       100.1925         0.5985        -999.25       -63.6707       -11.3612      0.8252123
      7541.5000         0.6643        11.7873       1644.908       100.6469         0.6021        -999.25       -64.1982       -12.0997      0.8138508
      7542.0000         0.6746        11.8173       1642.139       101.1019         0.6058        -999.25       -64.6007       -12.6632      0.8051815
      7542.5000         0.6751        11.8366        1656.43       103.4622          0.612        -999.25       -63.9697       -11.7798      0.8187723
      7543.0000         0.6735        11.7864       1670.695       105.0232         0.6192        -999.25       -63.3729      -10.94428      0.8316265
      7543.5000         0.6639        11.7295       1684.961       105.5405         0.6157        -999.25        -62.847      -10.20802      0.8429536
      7544.0000         0.6543        11.6727       1703.814       106.0222         0.6123        -999.25       -62.3206      -9.471058      0.8542914
      7544.5000         0.6446        11.6159       1754.344       105.7814          0.607        -999.25       -62.4165       -9.60532      0.8522258
      7545.0000          0.635        11.5723       1798.486       105.2572         0.6016        -999.25       -63.5479      -11.18928      0.8278572
      7545.5000         0.6258        11.5363       1817.254       104.7332         0.5961        -999.25       -64.8885      -13.06611      0.7989829
      7546.0000         0.6165        11.5002       1826.432        104.046         0.5907        -999.25       -66.0074      -14.63258      0.7748834
      7546.5000         0.6097        11.4641       1829.299       102.5186         0.5853        -999.25       -66.9545      -15.95852      0.7544844
      7547.0000         0.6151        11.4592        1816.23       100.5018         0.5834        -999.25       -68.3151      -17.86336      0.7251791
      7547.5000           0.63        11.4821       1803.162        99.6504         0.5817        -999.25       -70.2563      -20.58104      0.6833686
      7548.0000         0.6451        11.5049       1790.107        98.9874           0.58        -999.25       -74.2087       -26.1144        0.59824
      7548.5000         0.6602        11.5277       1777.039        98.8367         0.5784        -999.25       -76.4441      -29.24396      0.5500929
      7549.0000         0.6734        11.5506       1755.641         98.686         0.5786        -999.25       -77.7499      -31.07208       0.521968
      7549.5000         0.6856        11.5734       1729.354        99.1804         0.5804        -999.25       -78.7479      -32.46928      0.5004725
      7550.0000         0.6974        11.5956       1703.066         100.97         0.5822        -999.25       -79.5746      -33.62666      0.4826668
      7550.5000         0.6965        11.6178       1671.693       103.3103          0.584        -999.25       -78.4053      -31.98964      0.5078518
      7551.0000         0.6805        11.6399        1640.27       105.1527         0.5858        -999.25       -76.3295      -29.08352      0.5525613
      7551.5000          0.663        11.6415       1622.586       106.2783         0.5876        -999.25       -74.4529      -26.45629      0.5929802
      7552.0000         0.6484        11.6186       1608.539       106.6223         0.5894        -999.25       -72.5465      -23.78732      0.6340412
      7552.5000         0.6427        11.5957       1605.047       106.9662         0.5918        -999.25       -70.0345      -20.27052      0.6881459
      7553.0000         0.6418        11.5686       1609.082       107.3004         0.5951        -999.25       -63.7523      -11.47544      0.8234548
      7553.5000         0.6419        11.5115       1614.824       107.4165         0.5985        -999.25       -61.0247        -7.6568      0.8822031
      7554.0000         0.6419        11.4544       1623.535       107.5326         0.6018        -999.25       -60.2444       -6.56438      0.8990095
      7554.5000         0.6419        11.3974       1634.221       107.5677         0.6052        -999.25        -59.927      -6.120017      0.9058459
      7555.0000         0.6424          11.39       1644.908       106.8047         0.6067        -999.25       -60.2479      -6.569277      0.8989342
      7555.5000          0.643        11.4537       1655.594       106.1865         0.6052        -999.25       -60.6609       -7.14748      0.8900388
      7556.0000         0.6435        11.5175       1666.156         105.66         0.6037        -999.25       -61.1132      -7.780702      0.8802969
      7556.5000         0.6394        11.5725       1675.721       105.9463         0.6022        -999.25       -61.2216      -7.932459      0.8779622
