#------------------------------------------------------------------------------
# Created by    : vladimir.rabinovich
# Created on    : 09/19/2023 17:20:38
#------------------------------------------------------------------------------
~Version Information Section
VERS.           2.0     :   CWLS log ASCII Standard - VERSION 2.0
WRAP.           NO      :   One line per depth step
~Well Information Section
#MNEM       .UNIT                                         VALUE :DESCRIPTION
#------------------------------------------------------------------------------
STRT        .FT                                             540 :START DEPTH
STOP        .FT                                            8409 :STOP DEPTH
STEP        .FT                                             0.5 :STEP      
NULL        .                                           -999.25 :NULL      
COMP        .                                      SHELL OIL CO :COMPANY   
WELL        .                                OCS 00706 ST00BP00 :WELL      
FLD         .                                           WILDCAT :FIELD     
LOC         .                                                   :LOCATION  
CNTY        .                             GALVESTON LARGE BLOCK :LOCATION  
STAT        .                                             TEXAS :STATE     
CTRY        .                                     UNITED STATES :COUNTRY   
SRVC        .                                                   :SERVICE COMPANY
DATE        .                             9/13/2023 11:19:25 AM :LOG DATE  
API         .                                    42706000280000 :API NUMBER
UWI         .                                    42706000280000 :UNIQUE WELL ID
XCOORD      .                                  1100625.96198943 :SURFACE X 
YCOORD      .                                  10499283.7203345 :SURFACE Y 
LAT         .                                         28.920625 :LATITUDE  
LON         .                                        -94.687754 :LONGITUDE 
ELEV        .FT                                              78 :ELEVATION VALUE
ELEV_TYPE   .                                                KB :ELEVATION REFERENCE TYPE
~Curve Information Section
#MNEM       .UNIT                                      API CODE :CURVE DESCRIPTION
#------------------------------------------------------------------------------
DEPT        .FT                                                 :DEPTH     
ASN         .OHMM                                               :          
DT          .US/F                                               :          
ILD         .OHMM                                               :          
LAT         .OHMM                                               :          
LN          .OHMM                                               :          
SP          .MV                                                 :          
SP_NORM     .MV                                                 :SP Normalized
VSH_SP      .V/V                                                :Volume of Shale from SP
~A        DEPTH            ASN             DT            ILD            LAT             LN             SP        SP_NORM         VSH_SP
# ...
      3667.0000         0.8536       152.2599         0.8961        -999.25        -999.25       -47.0778      -3.241779      0.9620038
      3667.5000         0.8703       152.2913         0.9045        -999.25        -999.25        -47.269      -3.435226       0.958725
      3668.0000         0.8858       147.1548         0.8995        -999.25        -999.25        -47.359       -3.52747      0.9571615
      3668.5000         0.8962       141.6173         0.8944        -999.25        -999.25       -47.1871      -3.357811      0.9600371
      3669.0000         0.9066       139.9305         0.8893        -999.25        -999.25       -47.0152       -3.18816      0.9629126
      3669.5000         0.8988       138.2437         0.8842        -999.25        -999.25       -46.8433      -3.018501      0.9657881
      3670.0000          0.889       136.5569         0.8788        -999.25        -999.25       -46.6713      -2.848747      0.9686653
      3670.5000         0.8827       134.7367         0.8725        -999.25        -999.25       -46.4995      -2.679192      0.9715391
      3671.0000         0.8773       134.8061         0.8661        -999.25        -999.25        -46.604      -2.785938      0.9697298
      3671.5000         0.8719       134.0427         0.8598        -999.25        -999.25       -46.9171       -3.10128      0.9643851
      3672.0000          0.866       132.8051         0.8535        -999.25        -999.25       -47.2682      -3.454624      0.9583962
      3672.5000         0.8592       132.8221         0.8471        -999.25        -999.25       -47.4376       -3.62627       0.955487
      3673.0000         0.8524       133.3837         0.8408        -999.25        -999.25       -47.1448      -3.335712      0.9604117
      3673.5000         0.8411        134.515         0.8345        -999.25        -999.25       -46.8519      -3.045059       0.965338
      3674.0000         0.8256       136.1528         0.8371        -999.25        -999.25       -46.5588      -2.754204      0.9702677
      3674.5000         0.8354       137.1266         0.8419        -999.25        -999.25       -46.2748      -2.472446      0.9750433
      3675.0000         0.8451       138.7802         0.8468        -999.25        -999.25       -46.0192      -2.219093      0.9793374
      3675.5000         0.8549        141.505         0.8536        -999.25        -999.25       -46.1085      -2.310638      0.9777858
      3676.0000         0.8646        142.517         0.8617        -999.25        -999.25       -46.3531      -2.557484       0.973602
      3676.5000         0.8728       142.2791         0.8698        -999.25        -999.25       -46.5979      -2.804527      0.9694148
      3677.0000         0.8671       140.4014         0.8779        -999.25        -999.25       -46.7183       -2.92717      0.9673361
      3677.5000         0.8528       138.2238         0.8773        -999.25        -999.25       -46.6478      -2.858917      0.9684929
      3678.0000         0.8409       136.0462         0.8659        -999.25        -999.25       -46.3454      -2.558762      0.9735803
      3678.5000         0.8289       134.2162         0.8545        -999.25        -999.25        -45.989      -2.204605       0.979583
      3679.0000          0.817       134.0028         0.8443        -999.25        -999.25       -45.6328      -1.850651      0.9855822
      3679.5000         0.8054       134.1422         0.8358        -999.25        -999.25       -45.2767      -1.496796      0.9915797
      3680.0000         0.7955       135.2856         0.8274        -999.25        -999.25       -44.9968      -1.219139      0.9962858
      3680.5000         0.7934       137.3764         0.8189        -999.25        -999.25       -45.4062      -1.630783      0.9893088
      3681.0000         0.7914       138.2537         0.8104        -999.25        -999.25       -45.9554      -2.182228      0.9799622
      3681.5000         0.7883       139.2163          0.802        -999.25        -999.25         -45.85      -2.079071      0.9817107
      3682.0000         0.7762       140.4897         0.7935        -999.25        -999.25        -45.674      -1.905319      0.9846556
      3682.5000         0.7642        140.988          0.785        -999.25        -999.25       -45.4982      -1.731762      0.9875972
      3683.0000         0.7525       140.1383         0.7765        -999.25        -999.25       -45.3221      -1.557907       0.990544
      3683.5000         0.7417       140.2766          0.772        -999.25        -999.25        -45.178      -1.416054      0.9929482
      3684.0000         0.7309       140.6298         0.7677        -999.25        -999.25        -45.126      -1.366295      0.9937916
      3684.5000         0.7278        141.037         0.7634        -999.25        -999.25       -45.3812      -1.623741      0.9894281
      3685.0000         0.7302       144.7255         0.7591        -999.25        -999.25       -45.6447      -1.889484       0.984924
      3685.5000         0.7367        155.454         0.7548        -999.25        -999.25       -45.9081      -2.155128      0.9804215
      3686.0000         0.7432       157.6398         0.7505        -999.25        -999.25       -46.1716      -2.420876      0.9759173
      3686.5000         0.7427       158.4066         0.7462        -999.25        -999.25       -46.4351      -2.686619      0.9714133
      3687.0000         0.7388       159.0797         0.7423        -999.25        -999.25       -46.3282      -2.581966       0.973187
      3687.5000          0.735        158.828         0.7394        -999.25        -999.25       -46.1575      -2.413509      0.9760422
      3688.0000         0.7312       158.7324         0.7365        -999.25        -999.25       -45.9333      -2.191555      0.9798042
      3688.5000         0.7274       158.8122         0.7335        -999.25        -999.25       -45.7091      -1.969597      0.9835662
      3689.0000         0.7248       158.5495         0.7306        -999.25        -999.25        -45.485      -1.747742      0.9873264
      3689.5000         0.7242       158.5532         0.7277        -999.25        -999.25       -45.2609      -1.525887      0.9910867
      3690.0000         0.7236       158.5206         0.7257        -999.25        -999.25       -45.2757      -1.542931      0.9907978
      3690.5000         0.7231       158.3093         0.7237        -999.25        -999.25         -45.59      -1.859478      0.9854326
      3691.0000         0.7225       158.6559         0.7218        -999.25        -999.25       -45.9042      -2.175922      0.9800691
      3691.5000          0.722       158.6216         0.7198        -999.25        -999.25        -45.878      -2.151962      0.9804752
      3692.0000         0.7214       156.9006         0.7177        -999.25        -999.25        -45.556      -1.832211      0.9858947
      3692.5000         0.7209       145.1519         0.7154        -999.25        -999.25       -45.2343      -1.512753      0.9913093
      3693.0000         0.7203       145.9315          0.713        -999.25        -999.25       -44.9111      -1.191799      0.9967492
      3693.5000         0.7202       149.2216         0.7209        -999.25        -999.25       -44.5743     -0.8572426              1
      3694.0000         0.7208       159.2547         0.7339        -999.25        -999.25       -44.3387     -0.6238861              1
      3694.5000         0.7215       158.9313         0.7469        -999.25        -999.25       -44.6165     -0.9039345              1
      3695.0000         0.7222       157.5554         0.7598        -999.25        -999.25       -44.8942      -1.183876      0.9968835
      3695.5000         0.7293       154.7803         0.7728        -999.25        -999.25       -45.0063      -1.298225      0.9949453
      3696.0000         0.7426       146.3861         0.7858        -999.25        -999.25       -45.0978      -1.391968      0.9933565
