#------------------------------------------------------------------------------
# Created by    : vladimir.rabinovich
# Created on    : 09/19/2023 17:20:11
#------------------------------------------------------------------------------
~Version Information Section
VERS.           2.0     :   CWLS log ASCII Standard - VERSION 2.0
WRAP.           NO      :   One line per depth step
~Well Information Section
#MNEM       .UNIT                                         VALUE :DESCRIPTION
#------------------------------------------------------------------------------
STRT        .FT                                             984 :START DEPTH
STOP        .FT                                            6595 :STOP DEPTH
STEP        .FT                                             0.5 :STEP      
NULL        .                                           -999.25 :NULL      
COMP        .                   MCMORAN OFFSHORE EXPLORATION CO :COMPANY   
WELL        .                               OCS G03106 ST00BP00 :WELL      
FLD         .                                           WILDCAT :FIELD     
LOC         .                                                   :LOCATION  
CNTY        .                      MATAGORDA ISLAND LARGE BLOCK :LOCATION  
STAT        .                                             TEXAS :STATE     
CTRY        .                                     UNITED STATES :COUNTRY   
SRVC        .                                                   :SERVICE COMPANY
DATE        .                             9/13/2023 11:12:09 AM :LOG DATE  
API         .                                    42703400570000 :API NUMBER
UWI         .                                    42703400570000 :UNIQUE WELL ID
XCOORD      .                                  467986.403229072 :SURFACE X 
YCOORD      .                                  10153243.7887249 :SURFACE Y 
LAT         .                                         27.931172 :LATITUDE  
LON         .                                        -96.630795 :LONGITUDE 
ELEV        .FT                                              95 :ELEVATION VALUE
ELEV_TYPE   .                                                KB :ELEVATION REFERENCE TYPE
~Curve Information Section
#MNEM       .UNIT                                      API CODE :CURVE DESCRIPTION
#------------------------------------------------------------------------------
DEPT        .FT                                                 :DEPTH     
ASFL        .OHMM                                               :          
CILD        .MMHO                                               :          
DT          .US/F                                               :          
GR          .GAPI                                               :          
GR_NORM     .GAPI                                               :GammaRay Normalized
ILD         .OHMM                                               :          
SFL         .OHMM                                               :          
SP          .MV                                                 :          
SP_NORM     .MV                                                 :SP Normalized
VSH_GR      .V/V                                                :Volume of Shale from GR
VSH_SP      .V/V                                                :Volume of Shale from SP
~A        DEPTH           ASFL           CILD             DT             GR        GR_NORM            ILD            SFL             SP        SP_NORM         VSH_GR         VSH_SP
# ...
      5821.5000         1.1525       968.8203        96.1279        -999.25        -999.25         0.8869         1.5097       -54.3336       -19.3057        -999.25      0.6394646
      5822.0000         1.1437       968.6562        94.7821        -999.25        -999.25         0.9143         1.5726       -50.9488       -15.9142        -999.25      0.7101209
      5822.5000          1.135       968.4902        96.7726        -999.25        -999.25         0.9417         1.2899       -47.3223        -12.281        -999.25      0.7858125
      5823.0000         1.1263       954.8467        99.6527        -999.25        -999.25         0.9691         1.1856       -46.0699       -11.0218        -999.25      0.8120458
      5823.5000         1.1543       922.0518        97.0864        -999.25        -999.25         0.9965         1.5029       -47.9288        -12.874        -999.25      0.7734584
      5824.0000         1.3266       885.0742        91.4711        -999.25        -999.25         1.0411         1.8904       -49.1541       -14.0926        -999.25      0.7480708
      5824.5000          1.644       789.5176        94.1411        -999.25        -999.25         1.1143         2.6237       -49.8449       -14.7767        -999.25      0.7338188
      5825.0000         1.4358       699.6699       100.9346        -999.25        -999.25         1.1874         3.3985       -50.5358       -15.4609        -999.25      0.7195646
      5825.5000         1.7039       616.5625        99.1046        -999.25        -999.25         1.2915         4.2891       -53.2612       -18.1796        -999.25       0.662925
      5826.0000         1.9691        565.833        87.2076        -999.25        -999.25         1.5057         5.1003       -55.9879       -20.8996        -999.25      0.6062583
      5826.5000         2.6245       515.9385        72.4377        -999.25        -999.25         1.9103         5.2462       -57.6051       -22.5101        -999.25      0.5727063
      5827.0000         3.3213       485.0137        73.7173        -999.25        -999.25         2.1895         3.6658       -58.3071       -23.2054        -999.25      0.5582208
      5827.5000         4.0186       454.0884        91.5145        -999.25        -999.25         2.3869         2.4809       -58.8859       -23.7774        -999.25      0.5463042
      5828.0000         4.7158       434.1729       107.6508        -999.25        -999.25         2.5075          1.565        -59.339       -24.2238        -999.25      0.5370042
      5828.5000         5.4126       436.4116          100.5        -999.25        -999.25         2.3833         1.4389        -59.459       -24.3371        -999.25      0.5346438
      5829.0000          5.457       446.7817        98.3322        -999.25        -999.25         2.0565         1.7343       -57.4079       -22.2793        -999.25      0.5775146
      5829.5000         3.8691       458.7632       106.9169        -999.25        -999.25         1.7633          2.301       -56.3873        -21.252        -999.25      0.5989166
      5830.0000         2.2812       473.3032       106.1879        -999.25        -999.25         1.5647         3.1075        -58.219        -23.077        -999.25      0.5608959
      5830.5000         1.6714       487.8555       100.7148        -999.25        -999.25         1.4793         3.6785       -61.0984       -25.9497        -999.25      0.5010479
      5831.0000          2.252       502.4077        100.937        -999.25        -999.25          1.433         3.1213       -65.0281       -29.8727        -999.25      0.4193188
      5831.5000         2.8325         516.96        99.3944        -999.25        -999.25         1.4877         2.5827       -68.6177       -33.4556        -999.25       0.344675
      5832.0000         3.4136       531.5127        94.8219        -999.25        -999.25         1.5894         2.7057       -69.2339        -34.065        -999.25      0.3319792
      5832.5000         2.6836       546.0645        91.6086        -999.25        -999.25         1.6909         3.0208       -67.4417       -32.2661        -999.25      0.3694562
      5833.0000         2.4321       559.7314        88.9072        -999.25        -999.25         1.7945         2.8535        -65.647       -30.4647        -999.25      0.4069854
      5833.5000         2.7526       573.0654        87.1255        -999.25        -999.25         1.9045         2.1555       -63.8448       -28.6558        -999.25      0.4446708
      5834.0000         2.9415        536.999        87.9922        -999.25        -999.25         2.0146         1.7366       -62.0427        -26.847        -999.25      0.4823542
      5834.5000         3.1075       497.0938        92.0746        -999.25        -999.25         2.1191         1.5368        -59.957       -24.7546        -999.25      0.5259458
      5835.0000         3.2446       553.7285        96.0217        -999.25        -999.25         1.8092         1.2675       -57.1663       -21.9572        -999.25       0.584225
      5835.5000         2.3115       610.4121        99.5488        -999.25        -999.25         1.5381         1.0527        -55.072       -19.8562        -999.25      0.6279958
      5836.0000         1.8916        700.457       103.5177        -999.25        -999.25         1.2861         0.9428       -53.4733       -18.2508        -999.25      0.6614417
      5836.5000         1.4722       809.3965        106.125        -999.25        -999.25         1.1344         0.9094       -52.3731       -17.1439        -999.25      0.6845021
      5837.0000         1.2221        910.168       105.8644        -999.25        -999.25         0.9826         0.9004       -52.3121       -17.0761        -999.25      0.6859146
      5837.5000         1.0815       1005.725       101.9196        -999.25        -999.25         0.8433         0.9484        -50.261       -15.0183        -999.25      0.7287854
      5838.0000         0.9673       1109.447        98.7159        -999.25        -999.25         0.7394          1.099       -46.7454        -11.496        -999.25      0.8021666
      5838.5000         0.9698       1220.355        96.2052        -999.25        -999.25         0.6356         1.3084       -42.6308        -7.3747        -999.25      0.8880271
      5839.0000         1.1194       1340.711         94.432        -999.25        -999.25         0.5774         1.4406       -39.9732        -4.7104        -999.25      0.9435333
      5839.5000         1.2913       1411.811          94.03        -999.25        -999.25         0.5342         1.3267       -39.9954        -4.7259        -999.25      0.9432104
      5840.0000         1.4983       1471.301        97.3326        -999.25        -999.25          0.491         1.1864       -54.1364       -18.8602        -999.25      0.6487458
      5840.5000         1.5119       1487.955       102.8611        -999.25        -999.25         0.4785         1.0642       -56.7201       -21.4372        -999.25      0.5950583
      5841.0000         1.5005       1477.057       106.9507        -999.25        -999.25         0.4768          0.946       -54.2474       -18.9578        -999.25      0.6467125
      5841.5000         1.4501       1454.424       110.1229        -999.25        -999.25         0.4751         0.8661       -52.1124        -16.816        -999.25      0.6913334
      5842.0000          1.371       1432.219       110.5991        -999.25        -999.25         0.4774         0.8021       -49.9947       -14.6916        -999.25      0.7355917
      5842.5000         1.1651       1435.348       108.5248        -999.25        -999.25         0.4797         0.7596       -47.7217       -12.4119        -999.25      0.7830854
      5843.0000         1.0801       1438.477        105.606        -999.25        -999.25         0.4819         0.8233       -45.5732       -10.2567        -999.25      0.8279854
      5843.5000         1.0274       1441.607       102.5304        -999.25        -999.25         0.4842         0.9349       -44.9217        -9.5985        -999.25      0.8416979
