#------------------------------------------------------------------------------
# Created by    : vladimir.rabinovich
# Created on    : 09/19/2023 17:20:40
#------------------------------------------------------------------------------
~Version Information Section
VERS.           2.0     :   CWLS log ASCII Standard - VERSION 2.0
WRAP.           NO      :   One line per depth step
~Well Information Section
#MNEM       .UNIT                                         VALUE :DESCRIPTION
#------------------------------------------------------------------------------
STRT        .FT                                             546 :START DEPTH
STOP        .FT                                            8737 :STOP DEPTH
STEP        .FT                                             0.5 :STEP      
NULL        .                                           -999.25 :NULL      
COMP        .                                      SHELL OIL CO :COMPANY   
WELL        .                                OCS 00702 ST00BP00 :WELL      
FLD         .                                           WILDCAT :FIELD     
LOC         .                                                   :LOCATION  
CNTY        .                             GALVESTON LARGE BLOCK :LOCATION  
STAT        .                                             TEXAS :STATE     
CTRY        .                                     UNITED STATES :COUNTRY   
SRVC        .                                                   :SERVICE COMPANY
DATE        .                             9/13/2023 11:19:42 AM :LOG DATE  
API         .                                    42706000140000 :API NUMBER
UWI         .                                    42706000140000 :UNIQUE WELL ID
XCOORD      .                                  1138683.88536091 :SURFACE X 
YCOORD      .                                  10533063.1188688 :SURFACE Y 
LAT         .                                         29.014964 :LATITUDE  
LON         .                                        -94.570199 :LONGITUDE 
ELEV        .FT                                              72 :ELEVATION VALUE
ELEV_TYPE   .                                                KB :ELEVATION REFERENCE TYPE
~Curve Information Section
#MNEM       .UNIT                                      API CODE :CURVE DESCRIPTION
#------------------------------------------------------------------------------
DEPT        .FT                                                 :DEPTH     
ASN         .OHMM                                               :          
CILD        .MMHO                                               :          
ILD         .OHMM                                               :          
SP          .MV                                                 :          
SP_NORM     .MV                                                 :SP Normalized
VSH_SP      .V/V                                                :Volume of Shale from SP
~A        DEPTH            ASN           CILD            ILD             SP        SP_NORM         VSH_SP
# ...
      5448.0000         0.4838       2312.703         0.6406       -57.2689      -12.63062      0.6990432
      5448.5000         0.5107         2085.5         0.6687       -58.4252      -13.78782      0.6628808
      5449.0000         0.5335       1798.016         0.6958       -57.1857      -12.54921      0.7015873
      5449.5000         0.5496       1741.201         0.7161       -53.8321      -9.196503      0.8063593
      5450.0000         0.5649       1678.922         0.7365       -51.9244        -7.2897      0.8659469
      5450.5000         0.5782       1588.037         0.7568       -50.9767      -6.342896      0.8955345
      5451.0000         0.5827       1519.184         0.7771       -50.3386      -5.705692      0.9154471
      5451.5000         0.5872       1469.744         0.7899       -49.8325      -5.200485      0.9312348
      5452.0000         0.5916       1445.625         0.7971       -49.6248      -4.993683      0.9376974
      5452.5000         0.5918       1449.723         0.8043       -49.4172      -4.786976       0.944157
      5453.0000         0.5921       1458.859         0.8115       -49.2095      -4.580173      0.9506196
      5453.5000         0.5923       1468.055         0.8187       -49.0322       -4.40377      0.9561322
      5454.0000         0.5926       1477.262         0.8192       -48.8803      -4.252762      0.9608512
      5454.5000         0.5928       1486.457         0.8149       -48.7285       -4.10186      0.9655669
      5455.0000          0.593       1495.662         0.8105       -48.5765      -3.950756      0.9702889
      5455.5000         0.5946       1504.857         0.8062       -48.4246      -3.799751      0.9750078
      5456.0000         0.5971       1514.064         0.8018       -48.2728      -3.648849      0.9797235
      5456.5000         0.5996       1522.566         0.7974       -48.1208      -3.497742      0.9844456
      5457.0000         0.6021       1530.711         0.7931       -48.0061      -3.383938      0.9880019
      5457.5000         0.6048       1538.863         0.7887        -47.892      -3.270733      0.9915396
      5458.0000         0.6172       1547.014         0.7844       -47.7776       -3.15723      0.9950866
      5458.5000         0.6125       1555.166         0.7811       -47.6634      -3.043926      0.9986273
      5459.0000         0.6078       1563.311         0.7781       -47.5492      -2.930618              1
      5459.5000         0.6039       1571.463         0.7752       -47.4349      -2.817215              1
      5460.0000         0.6037       1579.885         0.7722       -47.3207      -2.703915              1
      5460.5000         0.6056       1588.803         0.7693       -47.2713      -2.655411              1
      5461.0000         0.6076       1597.721         0.7663       -47.2355      -2.620506              1
      5461.5000         0.6096       1606.627         0.7633       -47.1998      -2.585697              1
      5462.0000         0.6093       1600.197         0.7604        -47.164      -2.550797              1
      5462.5000          0.601       1587.182         0.7597       -47.1282      -2.515892              1
      5463.0000         0.5936       1574.178         0.7611       -47.0925      -2.481087              1
      5463.5000         0.5908       1561.162         0.7626       -47.0567      -2.446186              1
      5464.0000         0.5881       1546.547          0.764        -47.056      -2.446377              1
      5464.5000         0.5885       1530.867         0.7654       -47.0618      -2.453072              1
      5465.0000         0.5948       1515.186         0.7669       -47.0675      -2.459671              1
      5465.5000         0.6012       1499.506         0.7683       -47.0732      -2.466267              1
      5466.0000         0.6075       1487.734         0.7698        -47.079      -2.472961              1
      5466.5000         0.6139       1479.705         0.7717       -47.0847      -2.479557              1
      5467.0000         0.6202       1494.818         0.7739       -47.0966      -2.492352              1
      5467.5000         0.6265       1518.162          0.776       -47.1096      -2.506248              1
      5468.0000         0.6309       1541.527         0.7782       -47.1226      -2.520145              1
      5468.5000         0.6343       1578.709         0.7803       -47.1356      -2.534042              1
      5469.0000         0.6241       1624.951         0.7825       -47.1486      -2.547935              1
      5469.5000          0.614       1665.773         0.7847       -47.1556      -2.555832              1
      5470.0000         0.6038       1699.156          0.777       -47.1554      -2.556526              1
      5470.5000         0.5923       1712.693         0.7683       -47.1552      -2.557224              1
      5471.0000         0.5832       1724.844         0.7595        -47.155      -2.557919              1
      5471.5000         0.5797       1736.992         0.7466       -47.1548      -2.558613              1
      5472.0000         0.5732        1747.82         0.7229       -47.1261      -2.530807              1
      5472.5000         0.5654       1754.816         0.6992       -47.0151      -2.420704              1
      5473.0000         0.5571       1761.818         0.6775       -46.9042      -2.310703              1
      5473.5000         0.5477        1768.32         0.6585       -46.7932        -2.2006              1
      5474.0000         0.5383       1737.715         0.6399       -46.6823      -2.090591              1
      5474.5000         0.5307       1707.131         0.6549       -46.5712      -1.980389              1
      5475.0000         0.5334       1676.436         0.6708       -46.4634      -1.873486              1
      5475.5000         0.5393        1645.65          0.687       -46.3591      -1.770081              1
      5476.0000         0.5451       1614.867         0.7031       -46.2574      -1.669277              1
      5476.5000         0.5529       1597.543         0.7193        -46.178      -1.590771              1
      5477.0000         0.5685       1585.793         0.7354       -46.3669      -1.780567              1
      5477.5000         0.5841       1574.389         0.7516       -47.1531      -2.567661              1
      5478.0000         0.6078       1615.488         0.7587       -47.8778      -3.293259      0.9908357
      5478.5000         0.6351       1694.648         0.7642       -48.6552      -4.071556      0.9665139
      5479.0000         0.6496       1800.814         0.7697        -49.624      -5.041248       0.936211
      5479.5000         0.6613       1875.797         0.7751         -51.08      -6.498146      0.8906829
      5480.0000         0.6436       1922.125         0.7709       -52.4427       -7.86174      0.8480706
      5480.5000         0.6148       1947.625         0.7378       -53.5891      -9.009037      0.8122176
      5481.0000         0.5869       1973.156         0.7047        -54.175      -9.595833      0.7938802
      5481.5000         0.5579       1998.656         0.6716       -54.3231      -9.744827      0.7892241
      5482.0000         0.5118       2024.156         0.6377       -53.7599      -9.182522      0.8067962
      5482.5000         0.4882       2060.656         0.6005       -53.1552       -8.57872       0.825665
      5483.0000         0.4691       2218.176         0.5632       -52.4949      -7.919315      0.8462714
      5483.5000         0.4535       2774.684         0.5283       -51.8351       -7.26041      0.8668622
      5484.0000          0.452       2953.391         0.4981       -51.1987      -6.624905      0.8867217
      5484.5000         0.4605       3023.797          0.469       -53.3527        -8.7798      0.8193812
      5485.0000         0.4689       3095.227         0.4499       -57.9625       -13.3905      0.6752969
      5485.5000         0.4764       3152.621         0.4308       -61.3805      -16.80939      0.5684564
