#------------------------------------------------------------------------------
# Created by    : vladimir.rabinovich
# Created on    : 09/19/2023 17:19:44
#------------------------------------------------------------------------------
~Version Information Section
VERS.           2.0     :   CWLS log ASCII Standard - VERSION 2.0
WRAP.           NO      :   One line per depth step
~Well Information Section
#MNEM       .UNIT                                         VALUE :DESCRIPTION
#------------------------------------------------------------------------------
STRT        .FT                                            2932 :START DEPTH
STOP        .FT                                           14530 :STOP DEPTH
STEP        .FT                                             0.5 :STEP      
NULL        .                                           -999.25 :NULL      
COMP        .                                 MESA PETROLEUM CO :COMPANY   
WELL        .                                 ST TR 00022-L W/2 :WELL      
FLD         .                                           WILDCAT :FIELD     
LOC         .                                                   :LOCATION  
CNTY        .                           HIGH ISLAND LARGE BLOCK :LOCATION  
STAT        .                                             TEXAS :STATE     
CTRY        .                                     UNITED STATES :COUNTRY   
SRVC        .                                                   :SERVICE COMPANY
DATE        .                             9/13/2023 11:19:15 AM :LOG DATE  
API         .                                    42708300770000 :API NUMBER
UWI         .                                    42708300770000 :UNIQUE WELL ID
XCOORD      .                                  1307803.37781852 :SURFACE X 
YCOORD      .                                  10713200.3443699 :SURFACE Y 
LAT         .                                         29.515602 :LATITUDE  
LON         .                                       -94.0460534 :LONGITUDE 
ELEV        .FT                                              85 :ELEVATION VALUE
ELEV_TYPE   .                                                KB :ELEVATION REFERENCE TYPE
~Curve Information Section
#MNEM       .UNIT                                      API CODE :CURVE DESCRIPTION
#------------------------------------------------------------------------------
DEPT        .FT                                                 :DEPTH     
ASFL        .OHMM                                               :          
CILD        .MMHO                                               :          
ILD         .OHMM                                               :          
SP          .MV                                                 :          
SP_NORM     .MV                                                 :SP Normalized
VSH_SP      .V/V                                                :Volume of Shale from SP
~A        DEPTH           ASFL           CILD            ILD             SP        SP_NORM         VSH_SP
# ...
     14484.0000         2.8682        541.875         2.3787       -62.8594      -21.34997      0.6950005
     14484.5000         2.9247         581.75         2.3044       -60.0117      -18.50227      0.7356819
     14485.0000         2.8804       606.5625         2.2043       -58.2617      -16.75227      0.7606819
     14485.5000         2.6768       631.4375         2.0825       -55.2266      -13.71717      0.8040405
     14486.0000         2.1189       662.4375         1.9609       -54.2891      -12.77967      0.8174334
     14486.5000         2.0356            773         1.8247       -53.5898      -12.08037      0.8274233
     14487.0000         1.9814        833.125          1.687       -48.8359      -7.326466      0.8953362
     14487.5000         1.6733        878.625         1.5493       -47.6445      -6.135067      0.9123562
     14488.0000         1.6023          916.5         1.4202        -47.043      -5.533566       0.920949
     14488.5000         1.5756       927.8066         1.3108        -45.043      -3.533566      0.9495205
     14489.0000          1.551       926.8887         1.2817        -43.668      -2.158566      0.9691634
     14489.5000         1.5334       929.1016         1.2627       -43.3965      -1.887066      0.9730419
     14490.0000          1.541       932.6797         1.2506        -43.042      -1.532566      0.9781062
     14490.5000         1.5617       936.6562         1.2385        -42.584      -1.074566      0.9846491
     14491.0000         1.5825       944.4687         1.2245       -42.6191      -1.109665      0.9841477
     14491.5000         1.6089       952.2656         1.2067       -43.3262      -1.816765      0.9740462
     14492.0000         1.6437       960.0781         1.1889       -43.8301      -2.320667      0.9668476
     14492.5000         1.6677       967.8437         1.1835       -42.9551      -1.445667      0.9793476
     14493.0000         1.6893       974.9375         1.1793       -42.0801     -0.5706673      0.9918476
     14493.5000         1.7067       982.0313         1.1908       -41.4902      0.0192337              1
     14494.0000         1.6863       972.6563         1.2362        -42.252     -0.7425652      0.9893919
     14494.5000         1.6583       957.9375         1.2816       -43.0078      -1.498367      0.9785948
     14495.0000         1.5944         923.25         1.4609       -43.5156      -2.006165      0.9713405
     14495.5000         1.6119          888.5         1.7295       -44.1602      -2.650764      0.9621319
     14496.0000         1.7058        842.625         2.0276       -45.5469      -4.037468      0.9423219
     14496.5000         1.8406         770.75         2.1648       -48.5078      -6.998367      0.9000233
     14497.0000         2.4756         685.25         2.2678       -51.0156      -9.506165      0.8641977
     14497.5000         3.1172         579.75         2.3503       -54.3437      -12.83427      0.8166533
     14498.0000          3.396        522.875         2.4678       -57.0703      -15.56087      0.7777019
     14498.5000         3.6333        468.875         2.6108       -59.3984      -17.88897      0.7444434
     14499.0000         3.8218         430.75         2.6914       -61.6689      -20.15947      0.7120076
     14499.5000         3.9712        392.875         2.2461        -61.459      -19.94957      0.7150062
     14500.0000         4.1052        424.375         2.1316       -59.6719      -18.16247      0.7405362
     14500.5000         3.9219        476.625         2.0508       -59.0156      -17.50616       0.749912
     14501.0000         3.3872        528.875         1.9888       -58.3984      -16.88897       0.758729
     14501.5000         3.2222         574.75         1.9269       -57.8281      -16.31866      0.7668762
     14502.0000         2.5469        620.375          1.866       -57.2559      -15.74647      0.7750505
     14502.5000         2.1316            653         1.8077       -47.8125      -6.303066      0.9099562
     14503.0000         2.0831       677.3125         1.7495       -46.7988      -5.289368      0.9244376
     14503.5000         2.0347       700.1875         1.6913       -46.2402      -4.730766      0.9324176
     14504.0000         1.9867        720.625         1.6411       -45.8662      -4.356766      0.9377605
     14504.5000         1.9258       741.0625         1.5941       -46.2266      -4.717167      0.9326119
     14505.0000         1.7598         760.75         1.5778       -46.6357      -5.126266      0.9267676
     14505.5000         1.7052            780         1.5909       -47.4492      -5.939766      0.9151462
     14506.0000         1.7488       758.8125         1.6039       -48.8203      -7.310867       0.895559
     14506.5000         1.7864          735.5         1.6169       -53.8672      -12.35777      0.8234605
     14507.0000         1.8215          715.5           1.63            -53      -11.49057       0.835849
     14507.5000         1.8448       695.4375          1.643       -50.0391      -8.529667      0.8781476
     14508.0000         1.8701       677.9844         1.6561       -49.2148      -7.705368      0.8899233
     14508.5000         1.8952       675.0234         1.6632       -48.6309      -7.121468      0.8982648
     14509.0000         1.9167       672.0625         1.6608       -47.3359      -5.826466      0.9167648
     14509.5000         2.0966       669.1094         1.6584       -45.9727      -4.463264      0.9362391
     14510.0000         2.1381       665.1719         1.6559       -47.2109      -5.701466      0.9185505
     14510.5000         2.1908       656.7187         1.6535       -48.4609      -6.951466      0.9006934
     14511.0000         2.2335       648.2813         1.6397       -50.0703      -8.560867      0.8777019
     14511.5000         2.2429            654         1.6213        -50.373      -8.863567      0.8733776
     14512.0000         2.2203        695.875         1.5966       -49.6191      -8.109665      0.8841476
     14512.5000         2.1879         737.75         1.5276       -48.8633      -7.353867      0.8949448
     14513.0000         2.1301        764.875         1.4614       -48.1943      -6.684868      0.9045019
     14513.5000         1.8906         787.25         1.4233       -47.7725      -6.263065      0.9105276
     14514.0000         1.8511        812.625         1.3853       -47.3496      -5.840168      0.9165691
     14514.5000         1.5742            851         1.3972       -46.9268      -5.417366       0.922609
     14515.0000         1.5234         914.75         1.4318       -46.3965      -4.887066      0.9301848
     14515.5000         1.4998          877.5         1.4664       -45.8008      -4.291367      0.9386948
     14516.0000         1.5173         806.75          1.501        -45.168      -3.658566      0.9477348
     14516.5000         1.5602         759.75         1.5357       -53.3428      -11.83337      0.8309519
     14517.0000         1.6041        722.875         1.5703       -52.8398      -11.33037      0.8381376
     14517.5000         1.6498        686.125         1.6063       -52.2813      -10.77187      0.8461162
     14518.0000         1.7079       652.4375         1.6455       -51.4941      -9.984665      0.8573619
     14518.5000         1.7491       631.5625         1.6846        -50.707      -9.197567      0.8686062
     14519.0000         1.7896       618.3125         1.7238       -49.9199      -8.410465      0.8798505
     14519.5000         1.9536       638.1875         1.7492       -49.0645      -7.555065      0.8920705
     14520.0000         1.8447            658          1.754       -49.1484      -7.638966      0.8908719
     14520.5000         1.7695       668.6719         1.7368       -53.8516      -12.34217      0.8236833
     14521.0000         1.7472       671.5625         1.7107       -55.5859      -14.07647      0.7989076
     14521.5000         1.7047       668.4687         1.6846       -56.8516      -15.34217      0.7808262
