#------------------------------------------------------------------------------
# Created by    : vladimir.rabinovich
# Created on    : 09/19/2023 17:22:30
#------------------------------------------------------------------------------
~Version Information Section
VERS.           2.0     :   CWLS log ASCII Standard - VERSION 2.0
WRAP.           NO      :   One line per depth step
~Well Information Section
#MNEM       .UNIT                                         VALUE :DESCRIPTION
#------------------------------------------------------------------------------
STRT        .FT                                            1687 :START DEPTH
STOP        .FT                                            6155 :STOP DEPTH
STEP        .FT                                             0.5 :STEP      
NULL        .                                           -999.25 :NULL      
COMP        .                       AMERICAN COASTAL ENERGY INC :COMPANY   
WELL        .                                ST TR 00596-L NE/4 :WELL      
FLD         .                        SHERMAN OFFSHORE SOUTHWEST :FIELD     
LOC         .                                                   :LOCATION  
CNTY        .                      MATAGORDA ISLAND LARGE BLOCK :LOCATION  
STAT        .                                             TEXAS :STATE     
CTRY        .                                     UNITED STATES :COUNTRY   
SRVC        .                                                   :SERVICE COMPANY
DATE        .                             9/13/2023 11:12:01 AM :LOG DATE  
API         .                                    42703302820000 :API NUMBER
UWI         .                                    42703302820000 :UNIQUE WELL ID
XCOORD      .                                  484247.709270029 :SURFACE X 
YCOORD      .                                   10242127.767654 :SURFACE Y 
LAT         .                                        28.1765839 :LATITUDE  
LON         .                                       -96.5886238 :LONGITUDE 
ELEV        .FT                                              79 :ELEVATION VALUE
ELEV_TYPE   .                                                KB :ELEVATION REFERENCE TYPE
~Curve Information Section
#MNEM       .UNIT                                      API CODE :CURVE DESCRIPTION
#------------------------------------------------------------------------------
DEPT        .FT                                                 :DEPTH     
CILD        .MMHO                                               :          
DT          .US/F                                               :          
ILD         .OHMM                                               :          
SN          .OHMM                                               :          
SP          .MV                                                 :          
SP_NORM     .MV                                                 :SP Normalized
VSH_SP      .V/V                                                :Volume of Shale from SP
~A        DEPTH           CILD             DT            ILD             SN             SP        SP_NORM         VSH_SP
# ...
      3462.5000       1385.333       123.3944         0.7371         0.9449       -53.5246         -28.49      0.5751666
      3463.0000       1628.161       124.1904         0.6514         0.8944       -58.8871       -33.8573      0.4857117
      3463.5000       1938.641       124.1903         0.5599         0.8543       -66.8315       -41.8065       0.353225
      3464.0000       2233.236       124.5882         0.4511         0.8198       -74.7759       -49.7557      0.2207384
      3464.5000        2623.33       125.5832         0.3725         0.7975       -78.9467       -53.9313       0.151145
      3465.0000       2798.478       127.3744         0.3462         0.7653        -80.039       -55.0285      0.1328583
      3465.5000       3061.203       128.9666         0.3202         0.7411       -80.2376       -55.2319      0.1294684
      3466.0000       3180.618       128.9664         0.3073         0.7177       -79.3439        -54.343      0.1442834
      3466.5000       3244.302       128.5682         0.2976         0.7112       -75.2724       -50.2763      0.2120617
      3467.0000       3304.023        128.369          0.299         0.7145       -72.2932       -47.3019       0.261635
      3467.5000       3272.171       128.1698         0.3003          0.748       -74.7759       -49.7894      0.2201767
      3468.0000       3168.664       127.9706         0.3073         0.7796       -77.9536       -52.9719       0.167135
      3468.5000       2989.523       127.7714         0.3277         0.7977       -79.1453       -54.1684      0.1471933
      3469.0000       2710.847       127.5727         0.3559         0.7654       -77.5564       -52.5843       0.173595
      3469.5000       2563.571       126.1792          0.383         0.7515       -74.2793        -49.312      0.2281333
      3470.0000       2436.183       123.8901          0.401         0.7311       -68.2217       -43.2592      0.3290133
      3470.5000       2412.295       122.4967         0.4122         0.7655       -64.5475       -39.5898        0.39017
      3471.0000       2408.308       121.2029         0.4141         0.8162        -67.328       -42.3751      0.3437484
      3471.5000       2408.302       123.3916         0.4103         0.9029         -74.18       -49.2319      0.2294683
      3472.0000       2456.064       124.3866         0.4029         0.9496       -77.8543        -52.911        0.16815
      3472.5000       2559.535       125.5806         0.3884         0.8988       -78.3508       -53.4123       0.159795
      3473.0000       2718.754       126.5756         0.3659         0.8429       -77.6557        -52.722         0.1713
      3473.5000       2854.089       128.5658         0.3447         0.7905        -75.471       -50.5421      0.2076317
      3474.0000       2953.616       129.3617         0.3338         0.7448       -72.1939       -47.2698        0.26217
      3474.5000       3021.278       129.1625         0.3278         0.6985       -66.8315       -41.9122      0.3514633
      3475.0000       2949.602       128.1672         0.3293         0.7017       -63.8523       -38.9378      0.4010366
      3475.5000       2766.487       126.5748         0.3593         0.7347       -64.7461       -39.8364        0.38606
      3476.0000       2495.819       124.7834         0.4081         0.7798       -62.2635       -37.3586      0.4273567
      3476.5000        2256.98       122.7929         0.4635         0.7979       -52.5316       -27.6315       0.589475
      3477.0000       1942.511       121.3996         0.5264         0.8127       -43.6934       -18.7981      0.7366983
      3477.5000       1667.828       119.6082         0.5896         0.8826       -37.5365        -12.646      0.8392333
      3478.0000       1413.071        115.827         0.7314         0.9455        -36.047       -11.1613      0.8639783
      3478.5000       1214.041       114.0352         0.8827         1.0363       -35.7491       -10.8682      0.8688633
      3479.0000       1086.661       113.0399         0.9586         1.1411       -36.9407       -12.0646      0.8489233
      3479.5000       1038.893       111.8456         1.0175         1.2112       -39.2247       -14.3534      0.8107767
      3480.0000       1015.008       110.6513         1.0129         1.2507       -41.8067       -16.9402      0.7676633
      3480.5000       1102.575       110.6512         0.9456          1.228        -46.474       -21.6123       0.689795
      3481.0000       1206.065       111.4471         0.8827         1.2002       -51.8364       -26.9795      0.6003417
      3481.5000       1317.515       113.0392         0.7944          1.157       -56.0072       -31.1551      0.5307483
      3482.0000       1492.652       114.4323         0.7382         1.1205       -58.6885       -33.8412        0.48598
      3482.5000       1620.022       116.6214         0.6459         1.0851       -60.8739       -36.0314      0.4494767
      3483.0000       1755.353       119.8056         0.5979         1.0654       -62.1648       -37.3271      0.4278817
      3483.5000       1842.918       123.1888         0.5556         1.0177       -62.1648       -37.3319      0.4278016
      3484.0000        1898.66       124.9803         0.5331          0.981       -62.1648       -37.3367      0.4277216
      3484.5000       1922.537       127.5669         0.5283         0.9457       -61.2711       -36.4478      0.4425367
      3485.0000       1894.669       126.8707         0.5406         0.9159       -59.2843       -34.4658        0.47557
      3485.5000       1834.939       125.0793         0.5659         0.9075       -56.7024       -31.8887      0.5185217
      3486.0000       1739.405       123.9845         0.6007         0.8911       -53.7232       -28.9144      0.5680934
      3486.5000       1635.912       124.6671         0.6435         0.8829       -47.6656       -22.8616      0.6689733
      3487.0000       1572.222       125.5764         0.6614          0.887       -42.2039       -17.4047      0.7599217
      3487.5000       1500.572       126.2728         0.6799          0.887       -39.4233       -14.6289       0.806185
      3488.0000       1456.803       127.3667         0.7021         0.8911        -38.331       -13.5414        0.82431
      3488.5000       1516.485       129.9538         0.6925         0.8749       -37.7352       -12.9504        0.83416
      3489.0000        1619.97       131.3467         0.6465         0.8434       -38.6289       -13.8489       0.819185
      3489.5000        1803.06       133.7347         0.5899         0.8168       -41.2108       -16.4356      0.7760733
      3490.0000        2018.01       134.8296         0.5236         0.8131       -44.4879       -19.7175       0.721375
      3490.5000       2129.435       133.3363         0.4734         0.7947       -49.2545       -24.4889      0.6418517
      3491.0000       2169.253        130.948         0.4669         0.8057       -52.9288        -28.168      0.5805333
      3491.5000       2081.661       126.3705         0.4821         0.8513       -59.0857       -34.3297      0.4778383
      3492.0000        1994.09       120.5989         0.5045         0.9246       -64.4482        -39.697      0.3883834
      3492.5000       1930.401       105.1758         0.5258         1.0041       -61.0725       -36.3261       0.444565
      3493.0000       2017.962        98.9063         0.5045         1.0417       -60.7739       -36.0323      0.4494617
      3493.5000       2169.224        96.8171         0.4562         1.0561       -69.5127       -44.7759       0.303735
      3494.0000       2296.586       103.2849         0.4143         1.0181       -76.3647       -51.6327       0.189455
      3494.5000       2607.036       110.4491          0.385         0.9204       -83.1182        -58.391     0.07681669
      3495.0000       2947.014       125.1753         0.3419         0.8398       -84.1204        -59.398     0.06003335
      3495.5000       3307.514       129.2552         0.3148         0.7948       -85.2036        -60.486         0.0419
