#------------------------------------------------------------------------------
# Created by    : vladimir.rabinovich
# Created on    : 09/19/2023 17:20:33
#------------------------------------------------------------------------------
~Version Information Section
VERS.           2.0     :   CWLS log ASCII Standard - VERSION 2.0
WRAP.           NO      :   One line per depth step
~Well Information Section
#MNEM       .UNIT                                         VALUE :DESCRIPTION
#------------------------------------------------------------------------------
STRT        .FT                                             242 :START DEPTH
STOP        .FT                                            8116 :STOP DEPTH
STEP        .FT                                             0.5 :STEP      
NULL        .                                           -999.25 :NULL      
COMP        .                                       HUNT OIL CO :COMPANY   
WELL        .                                     ST TR 00005-L :WELL      
FLD         .                                           WILDCAT :FIELD     
LOC         .                                                   :LOCATION  
CNTY        .                           HIGH ISLAND LARGE BLOCK :LOCATION  
STAT        .                                             TEXAS :STATE     
CTRY        .                                     UNITED STATES :COUNTRY   
SRVC        .                                                   :SERVICE COMPANY
DATE        .                             9/13/2023 11:19:33 AM :LOG DATE  
API         .                                    42708000010000 :API NUMBER
UWI         .                                    42708000010000 :UNIQUE WELL ID
XCOORD      .                                  1328371.56215902 :SURFACE X 
YCOORD      .                                  10754892.1390607 :SURFACE Y 
LAT         .                                        29.6307718 :LATITUDE  
LON         .                                       -93.9824852 :LONGITUDE 
ELEV        .FT                                              11 :ELEVATION VALUE
ELEV_TYPE   .                                                KB :ELEVATION REFERENCE TYPE
~Curve Information Section
#MNEM       .UNIT                                      API CODE :CURVE DESCRIPTION
#------------------------------------------------------------------------------
DEPT        .FT                                                 :DEPTH     
ASN         .OHMM                                               :          
LAT         .OHMM                                               :          
LN          .OHMM                                               :          
SN          .OHMM                                               :          
SP          .MV                                                 :          
SP_NORM     .MV                                                 :SP Normalized
VSH_SP      .V/V                                                :Volume of Shale from SP
~A        DEPTH            ASN            LAT             LN             SN             SP        SP_NORM         VSH_SP
# ...
      2855.0000         0.9233          0.546         0.7083          0.865       -88.5824      -21.91573      0.5246424
      2855.5000         0.9448         0.5437         0.7125         0.8711       -93.6249      -26.95824      0.4100401
      2856.0000         0.9664         0.5413          0.717         0.8772       -95.7144      -29.04774      0.3625514
      2856.5000         0.9543          0.539         0.7214         0.8833       -96.6653      -29.99863      0.3409401
      2857.0000         0.9268         0.5367         0.7259         0.8894       -97.0941      -30.42744      0.3311946
      2857.5000         0.8993         0.5355         0.7303         0.8955       -97.3047      -30.63804      0.3264082
      2858.0000         0.8798         0.5402         0.7342         0.8968       -96.6112      -29.94453      0.3421697
      2858.5000         0.8694         0.5449         0.7335          0.886       -95.5171      -28.85043      0.3670356
      2859.0000         0.8591         0.5496         0.7327         0.8752       -94.4233      -27.75664      0.3918946
      2859.5000         0.8487         0.5544          0.732         0.8644       -93.2278      -26.56113      0.4190651
      2860.0000         0.8441         0.5591         0.7313         0.8536       -90.7014      -24.03474      0.4764833
      2860.5000         0.8454         0.5638         0.7305         0.8428       -88.1752      -21.50854      0.5338969
      2861.0000         0.8468         0.5685         0.7298         0.8319        -83.959      -17.29234      0.6297197
      2861.5000         0.8481         0.5735         0.7273         0.8211       -77.7134      -11.04674       0.771665
      2862.0000         0.8494         0.5788         0.7207         0.8103       -74.5585      -7.891838      0.8433673
      2862.5000         0.8495         0.5841         0.7141         0.7995       -73.1301      -6.463432      0.8758311
      2863.0000         0.8465         0.5895         0.7075         0.7892       -72.2784      -5.611732      0.8951879
      2863.5000         0.8435         0.5948          0.701         0.7837       -71.4268      -4.760139      0.9145423
      2864.0000         0.8405         0.6002         0.6944         0.7782       -70.6729      -4.006233      0.9316765
      2864.5000         0.8375         0.6048         0.6878         0.7727       -70.0812      -3.414536      0.9451242
      2865.0000         0.8345         0.5954         0.6828         0.7672       -72.4833      -5.816635       0.890531
      2865.5000         0.8288         0.5861         0.6792         0.7616       -75.3577      -8.691032      0.8252038
      2866.0000         0.8218         0.5767         0.6756         0.7561       -77.5021      -10.83543      0.7764674
      2866.5000         0.8148         0.5674          0.672         0.7506        -79.459      -12.79234      0.7319924
      2867.0000         0.8078         0.5581         0.6684         0.7451       -81.5112      -14.84454      0.6853514
      2867.5000         0.8008         0.5545         0.6648         0.7396       -83.6337      -16.96703      0.6371129
      2868.0000         0.7915         0.5546         0.6622         0.7341       -85.9707      -19.30404      0.5839991
      2868.5000         0.7801         0.5546         0.6671         0.7298       -87.8972      -21.23054      0.5402151
      2869.0000         0.7687         0.5547          0.672         0.7257       -89.1575      -22.49084      0.5115719
      2869.5000         0.7573         0.5548         0.6769         0.7216       -89.4463      -22.77963      0.5050083
      2870.0000         0.7455         0.5549         0.6819         0.7175       -89.6337      -22.96703      0.5007492
      2870.5000         0.7312         0.5557         0.6868         0.7134       -89.2142      -22.54754      0.5102832
      2871.0000          0.717         0.5601          0.693         0.7093       -88.7947      -22.12804      0.5198174
      2871.5000         0.7206         0.5645         0.7005         0.7052       -88.3752      -21.70853      0.5293515
      2872.0000         0.7298          0.569          0.708         0.7079       -87.9557      -21.28904      0.5388855
      2872.5000         0.7398         0.5734         0.7155         0.7173       -87.7577      -21.09103      0.5433856
      2873.0000         0.7511         0.5759           0.72         0.7266       -87.6477      -20.98103      0.5458856
      2873.5000         0.7624         0.5661         0.7176          0.736       -87.5378      -20.87114      0.5483832
      2874.0000         0.7737         0.5564         0.7153         0.7454        -87.428      -20.76134      0.5508787
      2874.5000          0.785         0.5466          0.713         0.7547       -87.3181      -20.65144      0.5533764
      2875.0000         0.7977         0.5368         0.6998         0.7834       -87.2607      -20.59403      0.5546811
      2875.5000         0.8109          0.527         0.6855         0.8314       -87.7937      -21.12704      0.5425673
      2876.0000         0.8241         0.5172         0.6712         0.8794       -88.3267      -21.66003      0.5304537
      2876.5000         0.8373         0.5086         0.6568         0.9274       -88.8794      -22.21274      0.5178923
      2877.0000         0.8702         0.5118         0.6419         0.9754       -89.7349      -23.06824      0.4984491
      2877.5000         0.9255          0.515         0.6257         1.0389       -90.7843      -24.11764      0.4745992
      2878.0000          1.013         0.5183         0.6094         1.1047       -94.7081      -28.04144      0.3854219
      2878.5000         1.0615         0.5215         0.5932         1.1704       -97.6907      -31.02403      0.3176356
      2879.0000         1.1046         0.5407         0.5949         1.2362      -100.4991      -33.83244      0.2538083
      2879.5000         1.1369         0.5791         0.6037         1.2906      -101.9575      -35.29083      0.2206629
      2880.0000         1.1692         0.6175         0.6125         1.3084      -103.3339      -36.66724       0.189381
      2880.5000         1.2854         0.6557         0.6212         1.3261      -104.5636      -37.89693      0.1614333
      2881.0000         1.3634         0.6843           0.63         1.2859      -103.2206      -36.55393      0.1919561
      2881.5000         1.3407         0.7129         0.6382         1.2338      -101.6246      -34.95794      0.2282287
      2882.0000         1.3361         0.7416         0.6414         1.1816      -100.0286      -33.36194      0.2645014
      2882.5000         1.3177         0.7702         0.6447         1.1374       -97.8301      -31.16344      0.3144673
      2883.0000         1.2386         0.7988          0.648         1.0945       -95.4744      -28.80774      0.3680059
      2883.5000         0.8528         0.8256         0.6513         1.0517       -93.2894      -26.62273      0.4176651
      2884.0000         0.8418         0.8518         0.6546         1.0088       -91.3824      -24.71574       0.461006
      2884.5000         0.8309         0.8052         0.6579          0.966       -89.4746      -22.80794       0.504365
      2885.0000           0.82         0.7552         0.6611         0.9285       -87.2964      -20.62974      0.5538696
      2885.5000         0.8157         0.7157         0.6521         0.9049       -85.5018      -18.83514       0.594656
      2886.0000         0.8142          0.685         0.6419         0.8813       -84.4229      -17.75623      0.6191765
      2886.5000         0.8128         0.6543         0.6317         0.8577       -84.8009      -18.13424      0.6105855
      2887.0000         0.8231         0.6236         0.6215         0.8341       -85.6792      -19.01254      0.5906242
      2887.5000         0.8385         0.5929         0.6115         0.8105        -86.558      -19.89133      0.5706515
      2888.0000         0.8538         0.5678         0.6014         0.8109       -88.1946      -21.52794      0.5334559
