#------------------------------------------------------------------------------
# Created by    : vladimir.rabinovich
# Created on    : 09/19/2023 17:21:25
#------------------------------------------------------------------------------
~Version Information Section
VERS.           2.0     :   CWLS log ASCII Standard - VERSION 2.0
WRAP.           NO      :   One line per depth step
~Well Information Section
#MNEM       .UNIT                                         VALUE :DESCRIPTION
#------------------------------------------------------------------------------
STRT        .FT                                            2957 :START DEPTH
STOP        .FT                                            7390 :STOP DEPTH
STEP        .FT                                             0.5 :STEP      
NULL        .                                           -999.25 :NULL      
COMP        .                              DEVON LOUISIANA CORP :COMPANY   
WELL        .                               OCS G09039 ST00BP00 :WELL      
FLD         .                              GALVESTON BLOCK 0273 :FIELD     
LOC         .                                                   :LOCATION  
CNTY        .                             GALVESTON LARGE BLOCK :LOCATION  
STAT        .                                             TEXAS :STATE     
CTRY        .                                     UNITED STATES :COUNTRY   
SRVC        .                                                   :SERVICE COMPANY
DATE        .                             9/13/2023 11:19:54 AM :LOG DATE  
API         .                                    42706403330000 :API NUMBER
UWI         .                                    42706403330000 :UNIQUE WELL ID
XCOORD      .                                  1020560.14583294 :SURFACE X 
YCOORD      .                                  10500181.0477632 :SURFACE Y 
LAT         .                                        28.9197225 :LATITUDE  
LON         .                                       -94.9380297 :LONGITUDE 
ELEV        .FT                                              98 :ELEVATION VALUE
ELEV_TYPE   .                                                KB :ELEVATION REFERENCE TYPE
~Curve Information Section
#MNEM       .UNIT                                      API CODE :CURVE DESCRIPTION
#------------------------------------------------------------------------------
DEPT        .FT                                                 :DEPTH     
CALI        .IN                                                 :          
DCAL        .IN                                                 :          
DPHI        .%                                                  :          
DRHO        .G/C3                                               :          
GR          .GAPI                                               :          
GR_NORM     .GAPI                                               :GammaRay Normalized
ILD         .OHMM                                               :          
ILM         .OHMM                                               :          
LL3         .OHMM                                               :          
NPHI        .%                                                  :          
SP          .MV                                                 :          
SP_NORM     .MV                                                 :SP Normalized
VSH_GR      .V/V                                                :Volume of Shale from GR
VSH_SP      .V/V                                                :Volume of Shale from SP
~A        DEPTH           CALI           DCAL           DPHI           DRHO             GR        GR_NORM            ILD            ILM            LL3           NPHI             SP        SP_NORM         VSH_GR         VSH_SP
# ...
      7367.0000        10.8885         0.8976        23.5847         0.0545       108.4631       104.8808         0.7059         0.7534         0.8712         40.132         2.1003      -3.433377              1      0.9509518
      7367.5000        10.8132         0.8061        23.3511         0.0607       106.8203       102.9971         0.6944         0.7462         0.8898         39.534         1.8826      -3.592927              1      0.9486725
      7368.0000         10.718         0.7195        23.0836         0.0745       105.5801        101.575         0.6856         0.7361         0.8609         39.019         1.7968      -3.620577              1      0.9482775
      7368.5000        10.6251         0.6562        22.7318         0.0971       105.3182       101.2747         0.6794         0.7256         0.8078        38.7789         1.7085      -3.650728              1      0.9478467
      7369.0000        10.5445         0.5682        22.2983          0.121       105.2454       101.1912         0.6738         0.7165         0.7922        38.8556         1.7609      -3.540179              1       0.949426
      7369.5000        10.4788         0.5535        21.8476         0.1412       105.0208       100.9337          0.667         0.7089         0.8032         39.017         1.8983      -3.344629              1      0.9522196
      7370.0000        10.4389          0.546        21.4454         0.1563       104.8676        100.758         0.6589         0.7025         0.8303        39.2726         2.0478       -3.13698              1       0.955186
      7370.5000        10.4289         0.5466        21.1287         0.1653       105.5197       101.5057         0.6512         0.6971         0.7955        39.7217         2.1741       -2.95253              1       0.957821
      7371.0000        10.4245         0.5486        20.8879         0.1712       106.3461       102.4533         0.6464         0.6934          0.819         40.498         2.2436      -2.824881              1      0.9596446
      7371.5000        10.4206         0.5443         20.746          0.176        107.554       103.8384         0.6464         0.6926         0.8152        41.3933         2.1948      -2.815532              1      0.9597781
      7372.0000        10.4203         0.5448        20.6798         0.1771       108.7708       105.2337         0.6515         0.6958         0.8233        42.1131         2.2321      -2.720082              1      0.9611417
      7372.5000         10.412         0.5474        20.6314         0.1754       109.1809       105.7039          0.661         0.7044          0.829        42.5224         2.3445      -2.549533              1      0.9635781
      7373.0000        10.4109         0.5447        20.6411         0.1743       108.3297       104.7279         0.6732         0.7193          0.835        42.7189         2.4863      -2.349583              1      0.9664345
      7373.5000        10.4243         0.5394        20.7065         0.1748       107.3724       103.6302         0.6851         0.7382         0.8338        42.8161         2.5203      -2.257434              1       0.967751
      7374.0000        10.4333         0.5367          20.83         0.1753       107.0471       103.2571         0.6953         0.7561         0.8501        42.8405          2.215      -2.504585              1      0.9642202
      7374.5000        10.4123          0.533        20.9651         0.1755        -999.25        -999.25          0.704         0.7671         0.9612        42.5402         1.4521      -3.209335        -999.25      0.9541523
      7375.0000        10.3779         0.5295        21.0685         0.1746        -999.25        -999.25         0.7124         0.7695         1.0004        41.8995         0.4432      -4.160085        -999.25      0.9405702
      7375.5000        10.3796         0.5263        21.1265         0.1729        -999.25        -999.25         0.7216         0.7672         0.8976         41.163        -0.5297      -5.074836        -999.25      0.9275023
      7376.0000        10.3804         0.5263        21.1507         0.1739        -999.25        -999.25         0.7297         0.7661         0.8945        40.6923        -1.1626      -5.649587        -999.25      0.9192916
      7376.5000        10.3905         0.5263        21.1532         0.1759        -999.25        -999.25          0.734         0.7675         0.9194        40.7091        -1.3109      -5.739738        -999.25      0.9180037
      7377.0000        10.4011         0.5265        21.1472         0.1762        -999.25        -999.25         0.7336         0.7695         0.9413        41.1629        -1.3528      -5.723488        -999.25      0.9182359
      7377.5000        10.4104         0.5275         21.137         0.1731        -999.25        -999.25         0.7309         0.7692         0.9255        41.8894        -1.5353      -5.847838        -999.25      0.9164594
      7378.0000        10.4121         0.5266        21.1324         0.1688        -999.25        -999.25         0.7285         0.7667         0.9238         42.793        -1.7552      -6.009589        -999.25      0.9141487
      7378.5000        10.4178         0.5266        21.1425         0.1654        -999.25        -999.25         0.7285         0.7643         0.8995        43.7903         -1.792      -5.988239        -999.25      0.9144537
      7379.0000        10.4144         0.5273        21.1411         0.1667        -999.25        -999.25         0.7288         0.7633         0.8789        44.6298        -1.4566       -5.59469        -999.25      0.9200758
      7379.5000        10.4096         0.5298        21.1867         0.1671        -999.25        -999.25         0.7269         0.7626         0.8895        44.9899        -0.8755      -4.955441        -999.25       0.929208
      7380.0000        10.4039         0.5268        21.2852          0.168        -999.25        -999.25         0.7219         0.7604         0.9353        43.8477        -0.5462      -4.567991        -999.25       0.934743
      7380.5000        10.4013          0.527        21.4234         0.1683        -999.25        -999.25         0.7157         0.7548         0.9318         37.462        -0.6974      -4.661042        -999.25      0.9334137
      7381.0000        10.4031         0.5232        21.5445         0.1675        -999.25        -999.25         0.7103         0.7461         0.9102        25.7001        -1.0869      -5.008469        -999.25      0.9284505
      7381.5000        10.4088         0.5188        21.6437          0.167        -999.25        -999.25         0.7071         0.7366         0.8817        -999.25        -1.4554      -5.376968        -999.25      0.9231862
      7382.0000        10.4106         0.5118        21.6785         0.1645        -999.25        -999.25         0.7055         0.7287         0.8514        -999.25        -1.6552      -5.576769        -999.25      0.9203319
      7382.5000        10.4163         0.5085        21.5609          0.162        -999.25        -999.25         0.7045         0.7224          0.803        -999.25        -1.7266      -5.648169        -999.25      0.9193119
      7383.0000        10.4124         0.5076        21.3695         0.1623        -999.25        -999.25         0.7038         0.7172          0.813        -999.25        -1.7911      -5.712668        -999.25      0.9183905
      7383.5000        10.3989         0.5076        21.1902         0.1673        -999.25        -999.25         0.7033         0.7117         0.8701        -999.25        -1.8803      -5.801868        -999.25      0.9171162
      7384.0000        10.3979         0.5076        21.0958         0.1707        -999.25        -999.25         0.7031         0.7053         0.8779        -999.25        -2.0186      -5.940168        -999.25      0.9151405
      7384.5000        10.3958         0.5076        21.1638         0.1723        -999.25        -999.25         0.7031         0.6989         0.8402        -999.25        -2.0843      -6.005869        -999.25      0.9142019
