#------------------------------------------------------------------------------
# Created by    : vladimir.rabinovich
# Created on    : 09/19/2023 17:22:28
#------------------------------------------------------------------------------
~Version Information Section
VERS.           2.0     :   CWLS log ASCII Standard - VERSION 2.0
WRAP.           NO      :   One line per depth step
~Well Information Section
#MNEM       .UNIT                                         VALUE :DESCRIPTION
#------------------------------------------------------------------------------
STRT        .FT                                            2000 :START DEPTH
STOP        .FT                                            7372 :STOP DEPTH
STEP        .FT                                             0.5 :STEP      
NULL        .                                           -999.25 :NULL      
COMP        .                       CORPUS CHRISTI OIL & GAS CO :COMPANY   
WELL        .                                ST TR 00596-L SE/4 :WELL      
FLD         .                                           WILDCAT :FIELD     
LOC         .                                                   :LOCATION  
CNTY        .                      MATAGORDA ISLAND LARGE BLOCK :LOCATION  
STAT        .                                             TEXAS :STATE     
CTRY        .                                     UNITED STATES :COUNTRY   
SRVC        .                                                   :SERVICE COMPANY
DATE        .                             9/13/2023 11:19:13 AM :LOG DATE  
API         .                                    42703300520000 :API NUMBER
UWI         .                                    42703300520000 :UNIQUE WELL ID
XCOORD      .                                  480173.649028781 :SURFACE X 
YCOORD      .                                  10231220.1013933 :SURFACE Y 
LAT         .                                        28.1462983 :LATITUDE  
LON         .                                       -96.6002451 :LONGITUDE 
ELEV        .FT                                              82 :ELEVATION VALUE
ELEV_TYPE   .                                                GL :ELEVATION REFERENCE TYPE
~Curve Information Section
#MNEM       .UNIT                                      API CODE :CURVE DESCRIPTION
#------------------------------------------------------------------------------
DEPT        .FT                                                 :DEPTH     
CILD        .MMHO                                               :          
ILD         .OHMM                                               :          
SN          .OHMM                                               :          
SP          .MV                                                 :          
SP_NORM     .MV                                                 :SP Normalized
VSH_SP      .V/V                                                :Volume of Shale from SP
~A        DEPTH           CILD            ILD             SN             SP        SP_NORM         VSH_SP
# ...
      5914.0000        1022.76         0.9777         1.6974       -50.2255       -25.1793      0.5901814
      5914.5000       1033.844         0.9673         1.6974       -48.4166      -23.37476      0.6207668
      5915.0000       1044.927          0.957         1.6934       -47.2437      -22.20622      0.6405725
      5915.5000        1056.01          0.947         1.6934       -48.6075      -23.57438      0.6173834
      5916.0000       1067.094         0.9371         1.6934       -49.9712      -24.94244       0.594196
      5916.5000       1078.177         0.9275         1.6934       -51.3349       -26.3105      0.5710085
      5917.0000        1089.26         0.9181         1.6974       -52.6986      -27.67856       0.547821
      5917.5000       1100.344         0.9088         1.7014       -54.0623      -29.04662      0.5246336
      5918.0000       1111.427         0.8997         1.7054        -55.426      -30.41467      0.5014462
      5918.5000       1124.447         0.8893         1.7173       -56.7897      -31.78274      0.4782587
      5919.0000       1128.441         0.8862         1.7213       -58.4529      -33.45029       0.449995
      5919.5000        1124.45         0.8893         1.7573       -58.5973      -33.59906      0.4474736
      5920.0000        1120.46         0.8925         1.8292       -58.7418      -33.74791      0.4449507
      5920.5000       1086.726         0.9202         1.8829       -59.4534      -34.46387      0.4328157
      5921.0000       1052.992         0.9497         1.9366       -57.2513      -32.26613      0.4700656
      5921.5000       1019.258         0.9811         2.0568        -56.538      -31.55719      0.4820815
      5922.0000       985.5241         1.0147          2.139       -55.8498      -30.87335       0.493672
      5922.5000       951.7901         1.0507         2.2213       -54.6485      -29.67641      0.5139592
      5923.0000       918.0561         1.0893         2.3035       -54.2481      -29.28037      0.5206717
      5923.5000       884.3221         1.1308         2.3857       -53.8476      -28.88423       0.527386
      5924.0000        850.588         1.1757          2.468       -53.2469      -28.28789      0.5374934
      5924.5000        816.854         1.2242          2.556       -52.8464      -27.89175      0.5442076
      5925.0000       781.0299         1.2804          2.556       -53.0465      -28.09621      0.5407422
      5925.5000       808.6591         1.2366         2.4362       -53.6469      -28.70097      0.5304921
      5926.0000       836.2884         1.1958         2.3828       -63.1077      -38.16613      0.3700657
      5926.5000       860.9128         1.1616         2.3294       -71.6622      -46.72498      0.2250003
      5927.0000       844.9418         1.1835          2.276       -67.5276      -42.59475      0.2950042
      5927.5000       810.4895         1.2338         2.2226       -63.3931       -38.4646      0.3650067
      5928.0000       776.0372         1.2886         2.1692       -59.2585      -34.33436      0.4350108
      5928.5000        741.585         1.3485         2.1158        -55.124      -30.20422      0.5050132
      5929.0000       707.1327         1.4142         2.0624       -50.9894      -26.07398      0.5750173
      5929.5000       669.2417         1.4942          2.009       -46.8549      -21.94384      0.6450197
      5930.0000       673.2395         1.4854          1.917       -42.7203       -17.8136      0.7150238
      5930.5000       708.3804         1.4117         1.7669       -38.5858      -13.68346      0.7850261
      5931.0000       743.5213          1.345         1.6659       -34.4512      -9.553217      0.8550302
      5931.5000       778.6622         1.2843         1.5649       -24.6208      0.2728214              1
      5932.0000        813.803         1.2288         1.4639       -23.0193       1.869963              1
      5932.5000       848.9439         1.1779         1.3698       -22.2186       2.666304              1
      5933.0000       884.0848         1.1311         1.3179       -21.2177       3.662846              1
      5933.5000       919.2256         1.0879         1.3019       -20.8173       4.058884              1
      5934.0000       954.3665         1.0478         1.3019        -20.417       4.454826              1
      5934.5000       989.5074         1.0106         1.3059       -19.2159       5.651566              1
      5935.0000       1004.755         0.9835         1.3259       -18.4152       6.447908              1
      5935.5000       1020.733         0.9874         1.3299       -18.0148       6.843948              1
      5936.0000       1020.737         0.9991         1.3379       -17.8146       7.039789              1
      5936.5000       1016.747         1.0111         1.3419       -17.4143       7.435728              1
      5937.0000       996.7821         1.0234         1.3818        -18.415       6.430668              1
      5937.5000       980.8112          1.036         1.3949       -19.0155       5.825811              1
      5938.0000       956.8532          1.049          1.408       -20.0162       4.820751              1
      5938.5000       950.2711         1.0622         1.4776       -20.4165       4.416092              1
      5939.0000       869.0011         1.0758         2.1765       -22.0177       2.810532              1
      5939.5000       857.0241         1.0897         2.2715        -28.575      -3.751127      0.9533707
      5940.0000       849.0408          1.104         2.3665       -35.1323      -10.31279      0.8421561
      5940.5000       840.0928         1.1187         2.4614       -41.6896      -16.87445      0.7309416
      5941.0000       825.0869         1.1337          2.516       -48.2469       -23.4361      0.6197271
      5941.5000       817.1037         1.1668         2.2843       -54.8042      -29.99776      0.5085125
      5942.0000       809.1204         1.0428         2.0527       -64.2507      -39.44862      0.3483284
      5942.5000       1060.785         0.9427         1.4872       -64.8512      -40.05348      0.3380767
      5943.0000       1162.657         0.8601         1.4139        -73.858      -49.06464       0.185345
      5943.5000       1264.529         0.7908         1.3405       -72.2827       -47.4937      0.2119711
      5944.0000       1366.402         0.7318         1.2671       -70.7073      -45.92266       0.238599
      5944.5000       1440.124         0.6944          1.214        -69.132      -44.35172      0.2652251
      5945.0000       1517.774         0.6589          1.218       -67.5566      -42.78068      0.2918529
      5945.5000       1595.425         0.6268          1.234       -65.9813      -41.20974       0.318479
      5946.0000       1673.076         0.4792         1.2699       -64.0493       -39.2821      0.3511509
      5946.5000       1750.726         0.4792         1.3474       -64.1972      -39.43436      0.3485702
      5947.0000       1787.578         0.4792         1.4249       -65.4502      -40.69172       0.327259
      5947.5000       1729.877         0.4992         1.5024       -66.5746      -41.82048      0.3081275
      5948.0000       1672.177         0.5192         1.5799       -67.6991      -42.94933      0.2889943
      5948.5000       1614.477         0.5391         1.6573       -68.8235      -44.07809      0.2698628
      5949.0000       1556.777         0.5391         1.7348        -69.948      -45.20695      0.2507297
      5949.5000       1520.026         0.5591         1.8123       -71.0724      -46.33572       0.231598
      5950.0000       1520.029         0.5591          1.861       -72.1969      -47.46457      0.2124649
      5950.5000       1528.019         0.5791         1.7728       -73.3213      -48.59333      0.1933334
      5951.0000       1532.015          0.599         1.6846       -74.4458      -49.72219      0.1742002
      5951.5000       1559.973          0.599         1.5965       -75.5702      -50.85095      0.1550687
