#------------------------------------------------------------------------------
# Created by    : vladimir.rabinovich
# Created on    : 09/19/2023 17:22:56
#------------------------------------------------------------------------------
~Version Information Section
VERS.           2.0     :   CWLS log ASCII Standard - VERSION 2.0
WRAP.           NO      :   One line per depth step
~Well Information Section
#MNEM       .UNIT                                         VALUE :DESCRIPTION
#------------------------------------------------------------------------------
STRT        .FT                                             671 :START DEPTH
STOP        .FT                                           10000 :STOP DEPTH
STEP        .FT                                             0.5 :STEP      
NULL        .                                           -999.25 :NULL      
COMP        .                                    MOBIL OIL CORP :COMPANY   
WELL        .                                     ST TR 00565-L :WELL      
FLD         .                                           WILDCAT :FIELD     
LOC         .                                                   :LOCATION  
CNTY        .                      MATAGORDA ISLAND LARGE BLOCK :LOCATION  
STAT        .                                             TEXAS :STATE     
CTRY        .                                     UNITED STATES :COUNTRY   
SRVC        .                                                   :SERVICE COMPANY
DATE        .                             9/13/2023 11:12:05 AM :LOG DATE  
API         .                                    42703000150000 :API NUMBER
UWI         .                                    42703000150000 :UNIQUE WELL ID
XCOORD      .                                  584511.465629887 :SURFACE X 
YCOORD      .                                  10263641.5286434 :SURFACE Y 
LAT         .                                         28.243485 :LATITUDE  
LON         .                                       -96.2796592 :LONGITUDE 
ELEV        .FT                                              11 :ELEVATION VALUE
ELEV_TYPE   .                                                KB :ELEVATION REFERENCE TYPE
~Curve Information Section
#MNEM       .UNIT                                      API CODE :CURVE DESCRIPTION
#------------------------------------------------------------------------------
DEPT        .FT                                                 :DEPTH     
SP          .MV                                                 :          
SP_NORM     .MV                                                 :SP Normalized
VSH_SP      .V/V                                                :Volume of Shale from SP
~A        DEPTH             SP        SP_NORM         VSH_SP
# ...
      8063.0000        12.0998        -3.9365      0.9158043
      8063.5000        12.2978        -4.1345      0.9071956
      8064.0000        12.5203         -4.357      0.8975217
      8064.5000         12.743        -4.5797      0.8878391
      8065.0000        12.9573         -4.794      0.8785217
      8065.5000         13.159        -4.9957      0.8697522
      8066.0000        13.3608        -5.1975      0.8609782
      8066.5000        13.4547        -5.2914      0.8568956
      8067.0000        13.4749        -5.3116      0.8560174
      8067.5000        13.2927        -5.1294      0.8639392
      8068.0000         12.888        -4.7247      0.8815348
      8068.5000        12.4839        -4.3206      0.8991044
      8069.0000        12.1099        -3.9466      0.9153652
      8069.5000        12.2705        -4.1072      0.9083826
      8070.0000        12.5896        -4.4263      0.8945087
      8070.5000        12.8657        -4.7024      0.8825043
      8071.0000         13.128        -4.9647         0.8711
      8071.5000        13.3903         -5.227      0.8596956
      8072.0000        13.6526        -5.4893      0.8482913
      8072.5000        13.7694        -5.6061       0.843213
      8073.0000        13.8144        -5.6511      0.8412565
      8073.5000        13.7846        -5.6213      0.8425522
      8074.0000        13.6265        -5.4632      0.8494261
      8074.5000        13.4684        -5.3051         0.8563
      8075.0000        13.3104        -5.1471      0.8631696
      8075.5000        13.1456        -4.9823      0.8703348
      8076.0000        12.9564        -4.7931      0.8785609
      8076.5000        12.9404        -4.7771      0.8792565
      8077.0000        13.1631        -4.9998      0.8695739
      8077.5000        13.3862        -5.2229      0.8598739
      8078.0000        13.3611        -5.1978      0.8609652
      8078.5000        12.8127        -4.6494      0.8848087
      8079.0000        12.3182        -4.1549      0.9063087
      8079.5000        11.8994        -3.7361      0.9245174
      8080.0000        11.6581        -3.4948      0.9350087
      8080.5000        11.4171        -3.2538       0.945487
      8081.0000        11.1762        -3.0129      0.9559609
      8081.5000        10.9862        -2.8229      0.9642217
      8082.0000        10.8504        -2.6871      0.9701261
      8082.5000        10.7145        -2.5512      0.9760348
      8083.0000        10.5787        -2.4154      0.9819391
      8083.5000        10.4428        -2.2795      0.9878478
      8084.0000        10.3984        -2.2351      0.9897783
      8084.5000        10.3592        -2.1959      0.9914826
      8085.0000        10.3201        -2.1568      0.9931826
      8085.5000         10.281        -2.1177      0.9948826
      8086.0000        10.3365        -2.1732      0.9924695
      8086.5000        10.4954        -2.3321      0.9855609
      8087.0000        10.6544        -2.4911      0.9786478
      8087.5000        10.8133          -2.65      0.9717391
      8088.0000        10.9708        -2.8075      0.9648913
      8088.5000        11.1211        -2.9578      0.9583565
      8089.0000        11.2716        -3.1083       0.951813
      8089.5000        11.4218        -3.2585      0.9452826
      8090.0000        11.5723         -3.409      0.9387391
      8090.5000        11.7226        -3.5593      0.9322044
      8091.0000        11.8037        -3.6404      0.9286783
      8091.5000        11.8117        -3.6484      0.9283304
      8092.0000        11.8197        -3.6564      0.9279826
      8092.5000        11.8278        -3.6645      0.9276304
      8093.0000        11.8358        -3.6725      0.9272826
      8093.5000        11.8438        -3.6805      0.9269348
      8094.0000        11.5665        -3.4032      0.9389913
      8094.5000        11.3214        -3.1581      0.9496478
      8095.0000        11.0761        -2.9128       0.960313
      8095.5000        10.8279        -2.6646      0.9711043
      8096.0000        10.5437        -2.3804      0.9834608
      8096.5000        10.4522        -2.2889      0.9874392
      8097.0000        10.5931        -2.4298       0.981313
      8097.5000         10.734        -2.5707      0.9751869
      8098.0000         10.939        -2.7757      0.9662739
      8098.5000        11.2276        -3.0643      0.9537261
      8099.0000        11.5163         -3.353      0.9411739
      8099.5000        11.5034        -3.3401      0.9417348
      8100.0000        11.3563         -3.193      0.9481304
      8100.5000        11.1712        -3.0079      0.9561782
      8101.0000        11.0145        -2.8512      0.9629913
      8101.5000        11.0736        -2.9103      0.9604217
      8102.0000        11.1327        -2.9694      0.9578522
      8102.5000        11.3387        -3.1754      0.9488956
      8103.0000        11.5483         -3.385      0.9397826
      8103.5000        11.7579        -3.5946      0.9306695
      8104.0000        11.9674        -3.8041      0.9215609
      8104.5000        12.1896        -4.0263         0.9119
      8105.0000         12.429        -4.2657      0.9014913
      8105.5000        12.6687        -4.5054      0.8910695
      8106.0000        12.4945        -4.3312      0.8986435
      8106.5000           12.3        -4.1367         0.9071
      8107.0000        12.0653         -3.902      0.9173043
      8107.5000        11.7927        -3.6294      0.9291565
      8108.0000        11.5204        -3.3571      0.9409956
      8108.5000        11.2512        -3.0879         0.9527
      8109.0000         11.282        -3.1187      0.9513609
      8109.5000        11.3128        -3.1495      0.9500217
      8110.0000        11.5527        -3.3894      0.9395913
      8110.5000        11.8269        -3.6636      0.9276696
      8111.0000        11.8476        -3.6843      0.9267696
      8111.5000        11.7572        -3.5939         0.9307
      8112.0000        11.4978        -3.3345      0.9419783
      8112.5000         11.238        -3.0747      0.9532739
      8113.0000        10.9785        -2.8152      0.9645565
      8113.5000        10.7736        -2.6103      0.9734652
      8114.0000        10.6975        -2.5342      0.9767739
      8114.5000        10.6214        -2.4581      0.9800826
      8115.0000        10.5453         -2.382      0.9833913
      8115.5000        10.4692        -2.3059         0.9867
      8116.0000         10.491        -2.3277      0.9857522
      8116.5000        10.5518        -2.3885      0.9831087
      8117.0000        10.6126        -2.4493      0.9804652
      8117.5000        10.6734        -2.5101      0.9778218
      8118.0000        10.7342        -2.5709      0.9751782
      8118.5000        10.7951        -2.6318      0.9725304
      8119.0000        10.7716        -2.6083      0.9735522
      8119.5000        10.6576        -2.4943      0.9785087
      8120.0000        10.5435        -2.3802      0.9834695
      8120.5000        10.4295        -2.2662      0.9884261
      8121.0000        10.4852        -2.3219      0.9860044
      8121.5000        10.5656        -2.4023      0.9825087
      8122.0000        10.7005        -2.5372      0.9766435
      8122.5000         10.881        -2.7177      0.9687957
      8123.0000        11.0428        -2.8795      0.9617609
      8123.5000        10.9075        -2.7442      0.9676435
      8124.0000        10.7721        -2.6088      0.9735304
      8124.5000        10.6411        -2.4778      0.9792261
      8125.0000         10.526        -2.3627      0.9842305
      8125.5000        10.6751        -2.5118      0.9777478
      8126.0000        10.8243         -2.661      0.9712608
      8126.5000        10.9269        -2.7636         0.9668
      8127.0000        10.7802        -2.6169      0.9731783
      8127.5000        10.6337        -2.4704      0.9795478
      8128.0000         10.487        -2.3237      0.9859261
      8128.5000        10.3556        -2.1923      0.9916391
