#------------------------------------------------------------------------------
# Created by    : vladimir.rabinovich
# Created on    : 09/19/2023 17:22:39
#------------------------------------------------------------------------------
~Version Information Section
VERS.           2.0     :   CWLS log ASCII Standard - VERSION 2.0
WRAP.           NO      :   One line per depth step
~Well Information Section
#MNEM       .UNIT                                         VALUE :DESCRIPTION
#------------------------------------------------------------------------------
STRT        .FT                                            3493 :START DEPTH
STOP        .FT                                            8566 :STOP DEPTH
STEP        .FT                                             0.5 :STEP      
NULL        .                                           -999.25 :NULL      
COMP        .                          SEAGULL ENERGY E & P INC :COMPANY   
WELL        .                               OCS G09038 ST00BP00 :WELL      
FLD         .                                           WILDCAT :FIELD     
LOC         .                                                   :LOCATION  
CNTY        .                             GALVESTON LARGE BLOCK :LOCATION  
STAT        .                                             TEXAS :STATE     
CTRY        .                                     UNITED STATES :COUNTRY   
SRVC        .                                                   :SERVICE COMPANY
DATE        .                             9/13/2023 11:19:36 AM :LOG DATE  
API         .                                    42706402070000 :API NUMBER
UWI         .                                    42706402070000 :UNIQUE WELL ID
XCOORD      .                                  986976.405819811 :SURFACE X 
YCOORD      .                                  10491452.3738699 :SURFACE Y 
LAT         .                                         28.894171 :LATITUDE  
LON         .                                        -95.042508 :LONGITUDE 
ELEV        .FT                                              93 :ELEVATION VALUE
ELEV_TYPE   .                                                KB :ELEVATION REFERENCE TYPE
~Curve Information Section
#MNEM       .UNIT                                      API CODE :CURVE DESCRIPTION
#------------------------------------------------------------------------------
DEPT        .FT                                                 :DEPTH     
DCAL        .IN                                                 :          
DPHI        .%                                                  :          
DRHO        .G/C3                                               :          
GR          .GAPI                                               :          
GR_NORM     .GAPI                                               :GammaRay Normalized
ILD         .OHMM                                               :          
ILM         .OHMM                                               :          
NPHI        .%                                                  :          
SGRD        .OHMM                                               :          
SP          .MV                                                 :          
SP_NORM     .MV                                                 :SP Normalized
VSH_GR      .V/V                                                :Volume of Shale from GR
VSH_SP      .V/V                                                :Volume of Shale from SP
~A        DEPTH           DCAL           DPHI           DRHO             GR        GR_NORM            ILD            ILM           NPHI           SGRD             SP        SP_NORM         VSH_GR         VSH_SP
# ...
      6856.0000         1.0091        17.7159         0.0433        81.1379       76.77312         1.1264         1.1535        40.0898         1.3264        -52.176       -1.61343      0.9313431       0.976951
      6856.5000         0.9361        17.6746         0.0442        81.8004       77.50417         1.1399         1.1722        39.8069         1.2919       -52.2374       -1.67347      0.9468973      0.9760933
      6857.0000         0.9043        17.6969         0.0435        82.3872        78.1511         1.1567         1.1929        39.4208         1.2802       -52.2781      -1.712811      0.9606617      0.9755313
      6857.5000         0.9827         17.476         0.0417        82.2195        77.9597         1.1749         1.2145        38.9429         1.3034       -52.2571      -1.690453      0.9565894      0.9758507
      6858.0000         1.0735         16.957         0.0391        82.0205       77.73353         1.1949         1.2286        38.3652         1.3359        -52.198      -1.629993      0.9517772      0.9767144
      6858.5000         1.1499        16.3674         0.0349        82.2233        77.9538         1.2157         1.2426        37.6836         1.3689       -52.0769      -1.507534      0.9564638      0.9784638
      6859.0000         1.2144        15.6954         0.0317        81.6011       77.25739         1.2358         1.2524        36.9908         1.4066       -51.8599      -1.289177      0.9416466      0.9815832
      6859.5000         1.2653        14.9232         0.0337        80.0575       75.53723         1.2478         1.2484        36.1673         1.4306       -51.6031      -1.031017      0.9050475      0.9852712
      6860.0000         1.2821        15.2231         0.0368        78.3041       73.58393         1.2444         1.2333        36.3723         1.4019       -51.4934     -0.9199562      0.8634879      0.9868578
      6860.5000         1.2614        15.7637         0.0395        77.7788        72.9952         1.2175          1.209        37.3093         1.3659       -51.4057     -0.8308983      0.8509617        0.98813
      6861.0000         1.2841        16.2902         0.0419        78.6022       73.90503         1.1837         1.1834        37.7986         1.3324       -51.4271     -0.8509407      0.8703198      0.9878437
      6861.5000           1.33        16.7171         0.0437        79.7992       75.22996         1.1505         1.1655        38.0582         1.3091       -51.4486     -0.8710785      0.8985097       0.987556
      6862.0000         1.3634        16.7799         0.0447        82.6083       78.34612         1.1346         1.1506        38.5531         1.2926       -51.4701     -0.8912201       0.964811      0.9872683
      6862.5000         1.3967        16.8345          0.045        83.1223       78.91216         1.1296         1.1415        39.1219          1.275       -51.5596     -0.9793625      0.9768544      0.9860091
      6863.0000         1.4301        17.1352         0.0449        82.3943       78.09821         1.1277         1.1424        39.5206         1.2687       -51.5383     -0.9566994      0.9595364      0.9863329
      6863.5000         1.4452        17.4125         0.0442        82.9447        78.7047         1.1261         1.1404        39.3706         1.2738        -51.478     -0.8950424      0.9724404      0.9872137
      6864.0000         1.4567        17.2339         0.0418         82.787       78.52441         1.1251         1.1405        38.7877         1.2872       -51.4044     -0.8200836      0.9686046      0.9882845
      6864.5000         1.4639        16.7327         0.0397         81.033       76.57045         1.1245         1.1407         38.144         1.3059       -51.4603     -0.8746223      0.9270309      0.9875054
      6865.0000         1.4666        17.0791          0.038        82.2257       77.89061         1.1213         1.1357        37.8492         1.3258       -51.5111     -0.9240646      0.9551194      0.9867991
      6865.5000         1.4601         17.525         0.0366        83.2378        79.0101          1.117         1.1293        38.6905         1.3309        -51.485     -0.8966064      0.9789383      0.9871913
      6866.0000         1.4427         17.942         0.0347        83.8433       79.67781         1.1086         1.1187        39.7538         1.3009       -51.4828     -0.8930435      0.9931449      0.9872422
      6866.5000         1.4206        18.3571         0.0323        84.1222       79.98264         1.1002          1.108          40.46         1.2723       -51.5043     -0.9131851      0.9996306      0.9869545
      6867.0000         1.3985        18.9054         0.0295         83.783       79.60068          1.092         1.1001        40.6457         1.2524       -51.4016     -0.8091278      0.9915038      0.9884411
      6867.5000         1.3901        19.4415         0.0264        82.7994       78.50273         1.0851         1.0937         40.395         1.2439       -51.2396      -0.645771      0.9681432      0.9907747
      6868.0000         1.4175        19.8704         0.0228        81.6433       77.21311          1.079         1.0903        39.9498         1.2418       -50.9149     -0.3197098      0.9407045      0.9954327
      6868.5000         1.4468        19.6517         0.0207        80.6934       76.15259         1.0757         1.0899        39.5273         1.2442        -50.702     -0.1054497      0.9181402      0.9984936
      6869.0000         1.4921        19.1943          0.026        79.7458       75.09464         1.0757          1.091        39.1921         1.2477       -50.6858    -0.08789063      0.8956305      0.9987444
      6869.5000           1.56        18.6478          0.033        78.8157       74.05612          1.081         1.0934        38.9979         1.2538       -50.7104     -0.1111298      0.8735345      0.9984124
      6870.0000         1.6075         18.119         0.0384        79.5992       74.92162         1.0881         1.0987        38.9683         1.2663       -50.8544     -0.2537727      0.8919494      0.9963747
      6870.5000         1.5745         17.606         0.0425        80.4884       75.90456         1.0963         1.1068        39.1501         1.2756       -51.0179     -0.4159126      0.9128629      0.9940584
      6871.0000          1.523        17.0869         0.0445        81.4856        77.0075         1.1087         1.1161        39.4783         1.2831       -51.2256     -0.6222534      0.9363298      0.9911107
      6871.5000         1.4494        17.6958         0.0439        82.9869       78.67053         1.1215         1.1258        39.9431         1.2792       -51.3908     -0.7860947      0.9717134      0.9887701
      6872.0000         1.3599        17.8684         0.0441        84.0314       79.82603         1.1347         1.1383        40.4673         1.2881       -51.5277     -0.9216347      0.9962986      0.9868338
      6872.5000         1.2955        17.7125         0.0438        82.4641       78.07952         1.1463         1.1505        40.1373         1.3028       -51.7143      -1.106873      0.9591388      0.9841875
      6873.0000         1.2917        17.3383         0.0427        81.8873       77.43356         1.1549         1.1606        40.2739         1.3121       -51.9443      -1.335518      0.9453948      0.9809211
      6873.5000          1.305        17.0301          0.041        82.2568       77.83905         1.1626         1.1719        40.7013         1.3088       -52.1329      -1.522758      0.9540223      0.9782463
      6874.0000         1.2933         17.502         0.0394        83.1086       78.78043         1.1694         1.1854        41.2382         1.2984       -52.2974      -1.685902      0.9740516      0.9759157
      6874.5000           1.25        18.3129         0.0408        84.5902       80.42159          1.177         1.1982        41.8366          1.303       -52.5929      -1.980038              1      0.9717137
