#------------------------------------------------------------------------------
# Created by    : vladimir.rabinovich
# Created on    : 09/19/2023 17:21:25
#------------------------------------------------------------------------------
~Version Information Section
VERS.           2.0     :   CWLS log ASCII Standard - VERSION 2.0
WRAP.           NO      :   One line per depth step
~Well Information Section
#MNEM       .UNIT                                         VALUE :DESCRIPTION
#------------------------------------------------------------------------------
STRT        .FT                                            3400 :START DEPTH
STOP        .FT                                            8653 :STOP DEPTH
STEP        .FT                                             0.5 :STEP      
NULL        .                                           -999.25 :NULL      
COMP        .                          KING RANCH OIL & GAS INC :COMPANY   
WELL        .                               OCS G13784 ST00BP00 :WELL      
FLD         .                                           WILDCAT :FIELD     
LOC         .                                                   :LOCATION  
CNTY        .                             GALVESTON LARGE BLOCK :LOCATION  
STAT        .                                             TEXAS :STATE     
CTRY        .                                     UNITED STATES :COUNTRY   
SRVC        .                                                   :SERVICE COMPANY
DATE        .                             9/13/2023 11:19:54 AM :LOG DATE  
API         .                                    42706403430000 :API NUMBER
UWI         .                                    42706403430000 :UNIQUE WELL ID
XCOORD      .                                   967589.17441186 :SURFACE X 
YCOORD      .                                  10424680.8833423 :SURFACE Y 
LAT         .                                         28.709654 :LATITUDE  
LON         .                                        -95.099391 :LONGITUDE 
ELEV        .FT                                             106 :ELEVATION VALUE
ELEV_TYPE   .                                                KB :ELEVATION REFERENCE TYPE
~Curve Information Section
#MNEM       .UNIT                                      API CODE :CURVE DESCRIPTION
#------------------------------------------------------------------------------
DEPT        .FT                                                 :DEPTH     
CALI        .IN                                                 :          
DPHI        .%                                                  :          
DRHO        .G/C3                                               :          
DTLN        .US/F                                               :          
GR          .GAPI                                               :          
GR_1        .GAPI                                               :          
GR_NORM     .GAPI                                               :GammaRay Normalized
ILD         .OHMM                                               :          
ILM         .OHMM                                               :          
NPHI        .%                                                  :          
SFL         .OHMM                                               :          
SP          .MV                                                 :          
SP_NORM     .MV                                                 :SP Normalized
VSH_GR      .V/V                                                :Volume of Shale from GR
VSH_SP      .V/V                                                :Volume of Shale from SP
~A        DEPTH           CALI           DPHI           DRHO           DTLN             GR           GR_1        GR_NORM            ILD            ILM           NPHI            SFL             SP        SP_NORM         VSH_GR         VSH_SP
# ...
      5491.0000        -999.25        -999.25        -999.25       113.3585        -999.25        55.1619       55.18766         0.4817         0.5128        -999.25         0.6825       -75.9825      -25.34196      0.4720778      0.4571636
      5491.5000        -999.25        -999.25        -999.25       114.4641        -999.25        56.4743       57.32422         0.4693         0.5023        -999.25         0.6363       -76.7517      -26.11234      0.5175366      0.4392478
      5492.0000        -999.25        -999.25        -999.25       115.4833        -999.25        57.4279       58.87674         0.4623         0.4991        -999.25         0.5918       -74.9994      -24.36121       0.550569      0.4799719
      5492.5000        -999.25        -999.25        -999.25       116.6351        -999.25        57.6055       59.16611         0.4563         0.4978        -999.25         0.5761       -72.7087      -22.07169      0.5567257      0.5332165
      5493.0000        -999.25        -999.25        -999.25        115.676        -999.25        56.7938       57.84513          0.452         0.4992        -999.25         0.5836       -70.6467      -20.01086      0.5286198      0.5811428
      5493.5000        -999.25        -999.25        -999.25       114.3564        -999.25        56.2108       56.89641         0.4477         0.5035        -999.25          0.594       -68.8746      -18.23994      0.5084343       0.622327
      5494.0000        -999.25        -999.25        -999.25        114.236        -999.25        56.0104       56.57049         0.4453         0.5179        -999.25          0.607       -67.6575      -17.02401      0.5014998      0.6506044
      5494.5000        -999.25        -999.25        -999.25        115.209        -999.25        55.8204        56.2615          0.445         0.5277        -999.25         0.6388       -67.6237      -16.99138      0.4949255      0.6513632
      5495.0000        -999.25        -999.25        -999.25       119.2305        -999.25        55.3093       55.42982         0.4449         0.5258        -999.25         0.6725       -69.5236      -18.89245      0.4772303      0.6071523
      5495.5000        -999.25        -999.25        -999.25       122.1953        -999.25        53.8088       52.98763         0.4469         0.5187        -999.25         0.7036       -71.7847      -21.15472      0.4252686      0.5545413
      5496.0000        -999.25        -999.25        -999.25       123.6451        -999.25        51.3695       49.01729         0.4488         0.5058        -999.25         0.7222       -73.9548        -23.326      0.3407935      0.5040464
      5496.5000        -999.25        -999.25        -999.25       122.1201        -999.25        49.8015       46.46522         0.4496         0.4986        -999.25         0.7342       -75.8793      -25.25167      0.2864941      0.4592634
      5497.0000        -999.25        -999.25        -999.25       116.6864        -999.25        51.2749       48.86386         0.4499          0.496        -999.25         0.6976       -75.9272      -25.30075       0.337529      0.4581222
      5497.5000        -999.25        -999.25        -999.25        113.624        -999.25        53.1747       51.95658         0.4501         0.4952        -999.25          0.657       -74.7205      -24.09522      0.4033315      0.4861577
      5498.0000        -999.25        -999.25        -999.25       112.1766        -999.25        54.1971        53.6211         0.4522         0.4947        -999.25          0.608       -73.7103      -23.08619      0.4387468      0.5096235
      5498.5000        -999.25        -999.25        -999.25       106.1796        -999.25        50.5302        47.6525         0.4558         0.4959        -999.25         0.5692       -73.5297      -22.90677      0.3117553      0.5137961
      5499.0000        -999.25        -999.25        -999.25        94.5508        -999.25        48.2838       43.99614         0.4594         0.4973        -999.25         0.5924       -75.5696      -24.94784      0.2339605      0.4663293
      5499.5000        -999.25        -999.25        -999.25        91.5234        -999.25        46.3594       40.86395         0.4719         0.5035        -999.25         0.6768       -77.7496      -27.12902      0.1673181      0.4156043
      5500.0000        -999.25        -999.25        -999.25        91.7601        -999.25         45.482       39.43602          0.488         0.5104        -999.25         0.8579       -79.8584      -29.23898      0.1369365      0.3665353
      5500.5000        -999.25        -999.25        -999.25        97.3053        -999.25        49.8813       46.59736         0.5049         0.5216        -999.25         1.0926       -80.7112      -30.09296      0.2893055      0.3466754
      5501.0000        -999.25        -999.25        -999.25       108.8539        -999.25        55.1606       55.19111          0.523         0.5495        -999.25         0.9712       -75.0731      -24.45603      0.4721513      0.4777667
      5501.5000        -999.25        -999.25        -999.25       113.4812        -999.25        59.4346       62.14849         0.5418          0.583        -999.25           0.81       -69.3761       -18.7602      0.6201807      0.6102278
      5502.0000        -999.25        -999.25        -999.25       116.8167        -999.25        60.6432       64.11609         0.5613         0.6222        -999.25         0.7142        -63.679      -13.06428      0.6620445      0.7426911
      5502.5000        -999.25        -999.25        -999.25       119.6437        -999.25        60.2973       63.55333         0.5912         0.6597        -999.25         0.7179       -59.4467      -8.833153      0.6500708      0.8410895
      5503.0000        -999.25        -999.25        -999.25       120.4255        -999.25        60.0414       63.13706         0.6008         0.6882        -999.25         0.7431       -57.6243      -7.011925       0.641214      0.8834436
      5503.5000        -999.25        -999.25        -999.25       119.7745        -999.25        59.8395        62.8087         0.6067         0.7016        -999.25         0.7546       -56.6871      -6.075897      0.6342276      0.9052117
      5504.0000        -999.25        -999.25        -999.25       117.9935        -999.25        60.0801       63.20061         0.6084          0.703        -999.25         0.7403       -57.1832      -6.573174      0.6425661      0.8936471
      5504.5000        -999.25        -999.25        -999.25       115.8187        -999.25        60.7324        64.2627         0.6027         0.6871        -999.25          0.686       -58.3174      -7.708549      0.6651638      0.8672431
      5505.0000        -999.25        -999.25        -999.25       114.0873        -999.25        60.2826       63.53079          0.588         0.6655        -999.25         0.6508       -59.5131      -8.905418      0.6495913      0.8394089
      5505.5000        -999.25        -999.25        -999.25       112.3682        -999.25        58.4368       60.52654         0.5729         0.6396        -999.25         0.6868        -60.715      -10.10849      0.5856711      0.8114304
      5506.0000        -999.25        -999.25        -999.25       111.5035        -999.25        58.4073       60.47879         0.5546         0.6138        -999.25         0.7041       -62.1711      -11.56577      0.5846551      0.7775403
      5506.5000        -999.25        -999.25        -999.25       111.3489        -999.25        60.5775       64.01167         0.5356         0.5985        -999.25         0.7041       -63.9125      -13.30834      0.6598226      0.7370154
      5507.0000        -999.25        -999.25        -999.25        111.761        -999.25        61.6343       65.73216         0.5179         0.5837        -999.25          0.698       -65.8049      -15.20191       0.696429      0.6929788
      5507.5000        -999.25        -999.25        -999.25        113.972        -999.25        61.9225       66.20158         0.5014         0.5693        -999.25         0.6932       -68.5232      -17.92139      0.7064165      0.6297352
