#------------------------------------------------------------------------------
# Created by    : vladimir.rabinovich
# Created on    : 09/19/2023 17:19:47
#------------------------------------------------------------------------------
~Version Information Section
VERS.           2.0     :   CWLS log ASCII Standard - VERSION 2.0
WRAP.           NO      :   One line per depth step
~Well Information Section
#MNEM       .UNIT                                         VALUE :DESCRIPTION
#------------------------------------------------------------------------------
STRT        .FT                                             970 :START DEPTH
STOP        .FT                                            9511 :STOP DEPTH
STEP        .FT                                             0.5 :STEP      
NULL        .                                           -999.25 :NULL      
COMP        .                                SHELL OFFSHORE INC :COMPANY   
WELL        .                               OCS G06097 ST00BP00 :WELL      
FLD         .                                           WILDCAT :FIELD     
LOC         .                                                   :LOCATION  
CNTY        .                             GALVESTON LARGE BLOCK :LOCATION  
STAT        .                                             TEXAS :STATE     
CTRY        .                                     UNITED STATES :COUNTRY   
SRVC        .                                                   :SERVICE COMPANY
DATE        .                             9/13/2023 11:19:27 AM :LOG DATE  
API         .                                    42706401130000 :API NUMBER
UWI         .                                    42706401130000 :UNIQUE WELL ID
XCOORD      .                                  1026820.46089783 :SURFACE X 
YCOORD      .                                  10482391.3243497 :SURFACE Y 
LAT         .                                         28.871086 :LATITUDE  
LON         .                                        -94.917566 :LONGITUDE 
ELEV        .FT                                             107 :ELEVATION VALUE
ELEV_TYPE   .                                                KB :ELEVATION REFERENCE TYPE
~Curve Information Section
#MNEM       .UNIT                                      API CODE :CURVE DESCRIPTION
#------------------------------------------------------------------------------
DEPT        .FT                                                 :DEPTH     
ASFL        .OHMM                                               :          
CALI        .IN                                                 :          
CILD        .MMHO                                               :          
DT          .US/F                                               :          
GR          .GAPI                                               :          
GR_NORM     .GAPI                                               :GammaRay Normalized
ILD         .OHMM                                               :          
ILM         .OHMM                                               :          
RHOB        .G/C3                                               :          
SP          .MV                                                 :          
SP_NORM     .MV                                                 :SP Normalized
VSH_GR      .V/V                                                :Volume of Shale from GR
VSH_SP      .V/V                                                :Volume of Shale from SP
~A        DEPTH           ASFL           CALI           CILD             DT             GR        GR_NORM            ILD            ILM           RHOB             SP        SP_NORM         VSH_GR         VSH_SP
# ...
      5530.0000         0.8261         9.8814        1392.76        104.161        55.3853       72.44383         0.5226         0.6337          2.318       -96.5244      -30.70904      0.8392305      0.5612994
      5530.5000         0.8351        10.0471       1345.924       107.0524        56.8067       76.19161         0.5439         0.6696         2.3138       -91.4905      -25.67638      0.9189705      0.6331946
      5531.0000         0.8441        10.2153       1325.596       108.4659        57.6694       78.46584         0.5796         0.7048         2.3182       -83.7412      -17.92831      0.9673584      0.7438812
      5531.5000         0.8531        10.3317       1315.555        109.089         58.499       80.65285         0.6153         0.7357         2.3331       -81.6051      -15.79344              1      0.7743794
      5532.0000         0.8712        10.5096       1332.271       110.9073        59.1606       82.39673          0.651         0.7554         2.3507       -81.4387      -15.62827              1      0.7767389
      5532.5000         0.8905        10.4507       1356.051       115.4878        59.6003       83.55537         0.6867         0.7698         2.3625       -82.1624      -16.35321              1      0.7663827
      5533.0000         0.9041        10.1978       1382.732        116.592        60.0399       84.71378         0.7207         0.7684         2.3631       -82.8859      -17.07795              1      0.7560293
      5533.5000         0.9174         9.9534       1416.514       113.4373        60.4798       85.87298         0.7407         0.7535         2.3606        -84.099      -18.29227              1      0.7386818
      5534.0000         0.9291         9.8173       1440.242       108.8042        60.9016       86.98438         0.7607         0.7386         2.3554       -85.4286      -19.62311              1      0.7196699
      5534.5000         0.9343         9.8612       1462.854       106.2881        61.2842       87.99244         0.7591         0.7229         2.3446       -86.5118      -20.70755              1      0.7041779
      5535.0000         0.9221         9.9603       1487.996       107.4991         61.498       88.55534         0.7495         0.7075         2.3403       -87.4835      -21.68048              1      0.6902788
      5535.5000         0.9069        10.0553        1513.76       112.0519        60.6954       86.43755         0.7399          0.694         2.3407        -88.345      -22.54321              1      0.6779541
      5536.0000         0.8832        10.1405       1543.967       116.2231        59.8928        84.3198         0.7303          0.684         2.3428       -87.2128      -21.41225              1      0.6941108
      5536.5000         0.8569         10.209       1570.449       120.8688        59.0902       82.20206         0.7206         0.6756         2.3391       -86.0817      -20.28239              1      0.7102516
      5537.0000         0.8396        10.2388       1569.258       124.1666        58.2858       80.07954         0.7165         0.6813         2.3322       -82.4865      -16.68842              1      0.7615939
      5537.5000         0.8274        10.1869        1559.74        123.351          56.77       76.08073          0.713          0.687         2.3298       -81.9019      -16.10505      0.9166114      0.7699279
      5538.0000         0.8152        10.0996       1542.738       118.1256        55.2529       72.07861         0.7095         0.7004         2.3262       -83.5328      -17.73718      0.8314597      0.7466117
      5538.5000         0.8236        10.0178       1525.748       109.3413        53.6832       69.54186          0.706         0.7168         2.3204         -86.41      -20.61562      0.7774864      0.7054911
      5539.0000         0.8492          9.972       1505.742       104.0431        52.0841       66.17413         0.7025         0.7322         2.3109       -88.4075      -22.61435      0.7058325      0.6769379
      5539.5000         0.8747        10.0043       1358.607       103.8574        50.8097       63.49008          0.699          0.746         2.2954       -89.8619      -24.06998      0.6487251      0.6561431
      5540.0000         0.9245        10.1542       1340.004       106.3898        49.5549       60.84729         0.6992          0.759         2.2931       -91.2443      -25.45362      0.5924956      0.6363769
      5540.5000         0.9629        10.3653       1330.896       109.9899        48.2205        58.0369         0.7039         0.7676         2.3164       -91.5187      -25.72926      0.5327001      0.6324392
      5541.0000         0.9952        10.2947       1335.271        109.217        46.5515         54.522         0.7085          0.775         2.3356       -90.6266      -24.83839      0.4579149      0.6451659
      5541.5000         0.9978        10.2026       1339.646       107.4414        44.8825       51.00712         0.7131         0.7742         2.3307       -89.0948      -23.30782      0.3831302      0.6670311
      5542.0000         0.9798        11.1371       1344.037       105.8275        45.3372       51.96368         0.7177         0.7733         2.2926       -87.5619      -21.77615      0.4034826      0.6889121
      5542.5000         0.9466        11.5259       1349.883       110.6564         46.902       55.25758         0.7224         0.7693         2.2801       -85.0597      -19.27519      0.4735655      0.7246401
      5543.0000         0.9065        11.7543       1355.721       115.4476        48.4668       58.55148         0.7263         0.7649         2.2881       -82.3541      -16.57082      0.5436486       0.763274
      5543.5000         0.8752        11.6633       1361.566       118.3778        50.0303       61.84264         0.7281         0.7604         2.3137       -77.5505      -11.76846      0.6136731      0.8318792
      5544.0000         0.8479        11.5133       1361.756       116.1578        51.6086       65.16497         0.7299         0.7558         2.3309       -71.9089       -6.12809      0.6843611      0.9124559
      5544.5000          0.827        11.4486       1360.424       113.2692        51.5155       64.96815         0.7317         0.7511         2.3333       -70.1052       -4.32563      0.6801735      0.9382053
      5545.0000          0.811        11.4888       1359.094       112.4459        50.0463       61.87392         0.7336         0.7463         2.3259       -68.9092      -3.130859      0.6143388      0.9552734
      5545.5000         0.8013        11.4993        1357.75       113.1461        48.6506       58.93447         0.7354          0.743         2.3144       -67.8947      -2.117592      0.5517973      0.9697487
      5546.0000         0.8094        11.4346        1352.16        115.075         47.549       56.61425         0.7372         0.7395         2.3089       -67.1232      -1.347328      0.5024308      0.9807525
      5546.5000         0.8174         11.356       1346.568       115.5796        46.4461       54.29128         0.7386         0.7336         2.3111       -66.5038     -0.7291565       0.453006      0.9895835
      5547.0000         0.8231        11.2697       1340.979       115.5439        47.7524        57.0409         0.7311          0.726         2.3109       -66.0449      -0.271492      0.5115085      0.9961215
      5547.5000         0.8278        11.1861        1337.49       115.8353        49.3282       60.35796         0.7236         0.7212         2.3074       -65.5857        0.18647      0.5820842              1
      5548.0000         0.8284        11.0867       1340.711       116.2765        50.9041       63.67523         0.7161         0.7167         2.3015       -65.2692      0.5017319      0.6526645              1
      5548.5000         0.8252        11.0847         1362.9       115.8121        52.7495       67.55993         0.7086         0.7139         2.3021       -65.0027      0.7670059      0.7353176              1
