#------------------------------------------------------------------------------
# Created by    : vladimir.rabinovich
# Created on    : 09/19/2023 17:22:45
#------------------------------------------------------------------------------
~Version Information Section
VERS.           2.0     :   CWLS log ASCII Standard - VERSION 2.0
WRAP.           NO      :   One line per depth step
~Well Information Section
#MNEM       .UNIT                                         VALUE :DESCRIPTION
#------------------------------------------------------------------------------
STRT        .FT                                             270 :START DEPTH
STOP        .FT                                            9392 :STOP DEPTH
STEP        .FT                                             0.5 :STEP      
NULL        .                                           -999.25 :NULL      
COMP        .                                     TALOS ERT LLC :COMPANY   
WELL        .                               OCS G12363 ST00BP00 :WELL      
FLD         .                                 BRAZOS BLOCK 0453 :FIELD     
LOC         .                                                   :LOCATION  
CNTY        .                                BRAZOS LARGE BLOCK :LOCATION  
STAT        .                                             TEXAS :STATE     
CTRY        .                                     UNITED STATES :COUNTRY   
SRVC        .                                                   :SERVICE COMPANY
DATE        .                             9/13/2023 11:19:08 AM :LOG DATE  
API         .                                    42704401340000 :API NUMBER
UWI         .                                    42704401340000 :UNIQUE WELL ID
XCOORD      .                                  788791.944469438 :SURFACE X 
YCOORD      .                                  10354739.7167093 :SURFACE Y 
LAT         .                                         28.507622 :LATITUDE  
LON         .                                        -95.652007 :LONGITUDE 
ELEV        .FT                                             100 :ELEVATION VALUE
ELEV_TYPE   .                                                KB :ELEVATION REFERENCE TYPE
~Curve Information Section
#MNEM       .UNIT                                      API CODE :CURVE DESCRIPTION
#------------------------------------------------------------------------------
DEPT        .FT                                                 :DEPTH     
DPHI        .%                                                  :          
DT          .US/F                                               :          
GR          .GAPI                                               :          
GR_NORM     .GAPI                                               :GammaRay Normalized
ILD         .OHMM                                               :          
ILM         .OHMM                                               :          
LL          .OHMM                                               :          
NPHI        .%                                                  :          
SP          .MV                                                 :          
SP_NORM     .MV                                                 :SP Normalized
VSH_GR      .V/V                                                :Volume of Shale from GR
VSH_SP      .V/V                                                :Volume of Shale from SP
~A        DEPTH           DPHI             DT             GR        GR_NORM            ILD            ILM             LL           NPHI             SP        SP_NORM         VSH_GR         VSH_SP
# ...
      8757.0000         17.486        103.076        60.8292       71.50626         1.0448          1.114         1.1853         39.183       -40.6582        -4.7694      0.8192822      0.8798535
      8757.5000        16.7836       102.8562        62.5598       73.68571         1.0389         1.1193         1.1891        40.7767       -40.5301        -4.6472      0.8656535      0.8844286
      8758.0000        15.9021       102.6061        62.0664       73.06854         1.0318         1.1212         1.1932        41.7502       -40.3848        -4.5078      0.8525222      0.8896179
      8758.5000        15.5004       102.3846        57.3678       67.16341         1.0229         1.1152         1.1911        44.2611       -40.3041         -4.433       0.726881         0.8925
      8759.0000        16.1453       102.1078        54.9547       64.13225         1.0173         1.1043         1.1826        46.0077       -40.2938        -4.4286      0.6623883      0.8928679
      8759.5000        16.9015       101.6815        56.0986       65.57394         1.0137         1.0815         1.1746        46.8923       -40.3383         -4.479      0.6930625      0.8912786
      8760.0000        17.4003       103.6403         57.903       67.84622         1.0107         1.0649         1.1653        46.6087       -40.4877        -4.6344       0.741409      0.8859429
      8760.5000        17.5177         105.14        59.8226       70.26334         1.0088         1.0531         1.1508        45.1533       -40.6217        -4.7743      0.7928371      0.8811572
      8761.0000        17.5229       105.4784        61.1826       71.97678         1.0069         1.0461          1.133         43.694       -40.6458        -4.8043      0.8292933      0.8802964
      8761.5000         17.511       105.3633        60.4382       71.04398         1.0049         1.0406         1.1161        42.0194       -40.6544        -4.8188      0.8094465      0.8799893
      8762.0000        17.6533       105.0127        61.4723       72.34762          1.003          1.041         1.1018        40.4658       -40.6693        -4.8396      0.8371834      0.8794572
      8762.5000        18.1486       104.7931        62.9673        74.2308          1.001         1.0414         1.0944        40.4105       -40.7848         -4.961      0.8772511      0.8753322
      8763.0000        18.6549       104.6106        63.0532       74.34209         0.9991         1.0383         1.0885        40.7473       -40.9224        -5.1045       0.879619      0.8704178
      8763.5000        19.0059       104.5968        62.4432        73.5783         0.9968         1.0347         1.0848        41.2891       -41.0181        -5.2062      0.8633681          0.867
      8764.0000        18.7924       104.6152        61.9694       72.98578          0.994           1.03         1.0863        41.8506       -41.0873        -5.2813      0.8507612      0.8645286
      8764.5000        18.4463       104.7227        62.6887       73.89355         0.9916         1.0242         1.0883        42.3541       -41.0349        -5.2348      0.8700755         0.8664
      8765.0000        19.3543       105.0465        63.6387       75.09141         0.9927         1.0214         1.0911        42.6997       -40.9681        -5.1739      0.8955619      0.8687857
      8765.5000        20.2845       105.6782        64.6342       76.34651         0.9938         1.0227         1.0967        42.4852       -40.8187        -5.0304      0.9222662      0.8741214
      8766.0000        21.2234       106.1194        63.4239       74.82786         0.9995         1.0268         1.0976        40.6987       -40.7033        -4.9209      0.8899544      0.8782429
      8766.5000        21.9951       106.9425        63.0845       74.40433         1.0081         1.0373         1.0824        38.2046       -40.6078        -4.8313      0.8809431      0.8816535
      8767.0000        22.9496       110.3702        63.9517       75.49808         1.0184          1.064         1.0549        36.0259       -40.5187        -4.7482      0.9042144      0.8848357
      8767.5000        24.2482       118.2642         65.119       76.96921         1.0354         1.1348         1.0267        34.0831       -40.5396         -4.775       0.935515      0.8840893
      8768.0000        25.1039       129.9573        64.5004        76.1946         1.0924         1.2701         1.0186         32.155       -41.2144        -5.4557      0.9190339      0.8599893
      8768.5000        24.5371       133.6631        64.6307        76.3617         1.3394         1.4203         1.0128        30.8269       -43.9515        -8.1987      0.9225894      0.7622357
      8769.0000         22.615       133.4319        64.8655       76.66023         1.5672         1.5063         1.0459        29.5843       -46.6519        -10.905      0.9289411      0.6657929
      8769.5000        20.1592       129.8589        63.9321       75.48976         1.6684         1.4642         1.1099        28.4036       -48.1518       -12.4108      0.9040375       0.612225
      8770.0000        17.5501       126.3204        61.5092       72.44627         1.6697         1.3887         1.2217         27.329       -48.9364       -13.2013      0.8392824      0.5842036
      8770.5000         16.076       122.6638        59.6729       70.14044         1.5738         1.3389          1.367        27.2055       -49.0845       -13.3554      0.7902222      0.5789143
      8771.0000        18.2075       120.2179        58.1509        68.2298         1.4961         1.3477           1.52        28.3461        -49.075       -13.3518      0.7495703      0.5792536
      8771.5000        20.4157        119.535        56.5577       66.22967         1.4775         1.4043         1.6639        30.1945       -49.0925       -13.3752      0.7070142      0.5786286
      8772.0000        22.4882       118.9703        57.6796       67.64368         1.4913         1.4637           1.66        31.9811       -49.1435       -13.4321      0.7370996      0.5768071
      8772.5000        24.3986       117.7153        58.9781        69.2798         1.5108         1.5154         1.5489        33.3755       -49.2973       -13.5918      0.7719107      0.5713143
      8773.0000        25.2027       116.0618        59.9601       70.51791         1.5413         1.5505         1.4483        33.9656       -49.5498       -13.8502      0.7982535      0.5622965
      8773.5000        25.3423       114.5632        60.5294       71.23708         1.5797         1.5523         1.3412        34.2047       -49.8511       -14.1574      0.8135548      0.5515357
      8774.0000        25.2921       113.4177        60.7561       71.52541         1.6253         1.5457          1.322        35.2049        -50.293       -14.6053      0.8196895      0.5357535
      8774.5000        25.2334       112.5442        60.2191       70.85341         1.6767         1.5388         1.3305        36.1107       -50.8436       -15.1618      0.8053917      0.5160893
      8775.0000        25.4923       111.9242        59.2826       69.67905         1.7305         1.5335         1.3395        36.5256       -51.4271       -15.7512      0.7804052        0.49525
      8775.5000        25.9994       111.4917        57.9791       68.04318         1.7803         1.5289         1.3525        36.0259       -51.9009       -16.2309      0.7455996      0.4783286
      8776.0000        25.3051       111.2108        56.4938       66.17871         1.8243         1.5254          1.375        34.7848       -52.0193       -16.3552        0.70593         0.4741
      8776.5000        24.3116       112.0533        55.5319        64.9724         1.8247         1.5245         1.4127        33.4397       -51.4695       -15.8113      0.6802639      0.4937357
      8777.0000        23.4832       114.5533        56.1281       65.72538         1.8028         1.5264         1.4648        33.6822       -50.3145       -14.6622      0.6962847      0.5349857
