#------------------------------------------------------------------------------
# Created by    : vladimir.rabinovich
# Created on    : 09/19/2023 17:21:52
#------------------------------------------------------------------------------
~Version Information Section
VERS.           2.0     :   CWLS log ASCII Standard - VERSION 2.0
WRAP.           NO      :   One line per depth step
~Well Information Section
#MNEM       .UNIT                                         VALUE :DESCRIPTION
#------------------------------------------------------------------------------
STRT        .FT                                            1924 :START DEPTH
STOP        .FT                                            6497 :STOP DEPTH
STEP        .FT                                             0.5 :STEP      
NULL        .                                           -999.25 :NULL      
COMP        .                                ATP OIL & GAS CORP :COMPANY   
WELL        .                               OCS G12451 ST00BP00 :WELL      
FLD         .                                           WILDCAT :FIELD     
LOC         .                                                   :LOCATION  
CNTY        .                                BRAZOS LARGE BLOCK :LOCATION  
STAT        .                                             TEXAS :STATE     
CTRY        .                                     UNITED STATES :COUNTRY   
SRVC        .                                                   :SERVICE COMPANY
DATE        .                             9/13/2023 11:09:51 AM :LOG DATE  
API         .                                    42704402900000 :API NUMBER
UWI         .                                    42704402900000 :UNIQUE WELL ID
XCOORD      .                                  861130.254262163 :SURFACE X 
YCOORD      .                                  10349158.9913488 :SURFACE Y 
LAT         .                                        28.4964901 :LATITUDE  
LON         .                                       -95.4265639 :LONGITUDE 
ELEV        .FT                                              91 :ELEVATION VALUE
ELEV_TYPE   .                                                KB :ELEVATION REFERENCE TYPE
~Curve Information Section
#MNEM       .UNIT                                      API CODE :CURVE DESCRIPTION
#------------------------------------------------------------------------------
DEPT        .FT                                                 :DEPTH     
CALI        .IN                                                 :          
DPHI        .G/C3                                               :          
DRHO        .G/C3                                               :          
GR          .GAPI                                               :          
GR_NORM     .GAPI                                               :GammaRay Normalized
ILD         .OHMM                                               :          
ILM         .OHMM                                               :          
NPHI        .%                                                  :          
SFL         .OHMM                                               :          
SP          .MV                                                 :          
SP_NORM     .MV                                                 :SP Normalized
VSH_GR      .V/V                                                :Volume of Shale from GR
VSH_SP      .V/V                                                :Volume of Shale from SP
~A        DEPTH           CALI           DPHI           DRHO             GR        GR_NORM            ILD            ILM           NPHI            SFL             SP        SP_NORM         VSH_GR         VSH_SP
# ...
      4983.0000        10.1319        23.3859         0.0412        70.6874       53.51759         0.5213         0.5563        33.0895         0.6929        -70.369      -21.30096      0.4365444      0.6559159
      4983.5000        10.2169         23.617         0.0412        73.8894       56.71958         0.5183         0.5505        33.2321         0.6807       -68.8859      -19.82011      0.5046719      0.6810151
      4984.0000        10.2978        23.8861         0.0425        72.7839       55.61408         0.5206          0.545        33.7901         0.6997       -70.0471      -20.98356      0.4811507      0.6612956
      4984.5000        10.4028        24.1666         0.0329        70.3186       53.14879         0.5299         0.5438        34.1409         0.8204       -72.4781      -23.41682      0.4286976      0.6200539
      4985.0000        10.5231        24.4202         0.0124        68.4077       51.23788         0.5444         0.5513         34.152          0.849       -73.0682      -24.00917      0.3880401      0.6100141
      4985.5000        10.5817        24.5844         0.0107        68.4121       51.24229         0.5527         0.5581        33.9772         0.8719       -72.6741      -23.61732      0.3881338      0.6166556
      4986.0000        10.5921        24.4535         0.0222        68.4269       51.25709         0.5404         0.5476        33.7637         0.9488       -71.9608      -22.90627      0.3884487      0.6287072
      4986.5000        10.6387        24.1308         0.0252         67.405       50.23518         0.5246         0.5198        33.5986           1.01       -71.8485      -22.79623       0.366706      0.6305724
      4987.0000        10.7206        24.2802         0.0202        66.2964       49.12659         0.5127         0.5005        33.6315         0.9858       -71.2601      -22.21008      0.3431189      0.6405072
      4987.5000        10.8567        24.7739         0.0137        66.9342       49.76438         0.5014         0.4908        33.8812         0.7769       -69.9435      -20.89573       0.356689      0.6627843
      4988.0000        11.0111        25.3749         0.0091        68.8763       51.70648         0.4943         0.4897        34.8056         0.6211       -70.0496      -21.00408      0.3980103      0.6609477
      4988.5000        11.0761        25.9994         0.0165        69.6039       52.43408         0.4882         0.4926        36.3384         0.6024       -71.0333      -21.99004      0.4134911      0.6442367
      4989.0000        11.0057        26.4279         0.0328        69.5221       52.35229         0.4627         0.4916        36.9593         0.6487       -70.8527      -21.81169      0.4117508      0.6472595
      4989.5000         10.731        26.2778         0.0424        69.9985       52.82868         0.4482         0.4812        36.4744         0.8294       -69.6914      -20.65264      0.4218869      0.6669044
      4990.0000        10.5079        25.5579         0.0366        73.9745       56.80469         0.4499         0.4696         34.347         0.8551       -69.3864      -20.34989      0.5064827      0.6720358
      4990.5000        10.4429        24.3941         0.0248        74.3568       57.18698         0.4639         0.4678        33.0815         0.8336       -70.1931      -21.15885      0.5146166      0.6583246
      4991.0000        10.4636        24.1593         0.0144        74.0864       56.91659         0.4898          0.488        32.8429         0.7393       -70.5363       -21.5043      0.5088636      0.6524695
      4991.5000        10.4954        24.4284         0.0192        76.1272       58.95738          0.512          0.514        32.8261          0.723       -68.8541      -19.82436      0.5522847      0.6809431
      4992.0000         10.463         24.499         0.0265        79.7139       62.54408         0.5374         0.5408        32.7853         0.7477       -65.3248       -16.2973      0.6285975      0.7407237
      4992.5000        10.3898          23.86         0.0221         82.254       65.08418         0.5599         0.5642        32.6309         0.8709       -64.6428      -15.61756      0.6826422      0.7522448
      4993.0000        10.3653        22.9524         0.0172         83.381       66.21118         0.5777         0.5844        32.6115         0.8659       -63.7712      -14.74821      0.7066209      0.7669795
      4993.5000          10.39        22.2782          0.012        84.1362       66.96638         0.5936         0.5993        33.1821         0.8273       -61.8668      -12.84606       0.722689      0.7992193
      4994.0000        10.4135        21.9226         0.0151        85.9698       68.79999         0.5956         0.5916        33.6791         0.8138       -61.5056      -12.48711      0.7617019      0.8053032
      4994.5000        10.4481        21.9294         0.0208        88.6971       71.52728         0.5581         0.5421        35.7125         0.8128       -63.3332      -14.31697      0.8197294      0.7742887
      4995.0000        10.5016        22.5983         0.0269             90       72.83018         0.4867         0.4863        37.3253         0.6687       -66.7175      -17.70352      0.8474507      0.7168895
      4995.5000        10.5193         23.662         0.0367           83.6       66.43018         0.4141         0.4458        38.5817         0.6526       -71.1204      -22.10867      0.7112805      0.6422259
      4996.0000        10.5049        25.6072         0.0476        78.2687       61.09888         0.3688          0.406        39.3428         0.6893       -79.1621      -30.15263      0.5978486      0.5058877
      4996.5000        10.4973        27.8631         0.0433        72.1775       55.00768          0.346         0.3622        39.8962         0.6936       -83.2828      -34.27558      0.4682486      0.4360072
      4997.0000          10.54        28.8503         0.0221        66.0975       48.92769         0.3366         0.3539        39.9644         0.6348        -83.826      -34.82103       0.338887      0.4267623
      4997.5000        10.5432        29.0143         0.0048        64.6519       47.48209         0.3292          0.351         39.378         0.6347       -82.9384      -33.93568      0.3081295      0.4417681
      4998.0000          10.45        28.4009         0.0018        66.3408       49.17098         0.3355         0.3551        38.6273          0.706       -79.9384      -30.93793      0.3440635      0.4925774
      4998.5000         10.302        27.7189         0.0091        73.7986       56.62878         0.3741          0.379         37.946         0.6945       -75.0488      -26.05059      0.5027401      0.5754138
      4999.0000        10.2476        26.6739         0.0184        78.9426       61.77278         0.4265         0.4224        37.3282         0.5849       -69.1311      -20.13514      0.6121868      0.6756755
      4999.5000        10.3086         25.407         0.0253        82.3158       65.14599         0.4565         0.4634        37.0067         0.5785       -67.3977      -18.40399      0.6839572      0.7050171
      5000.0000        10.4003        24.1214          0.027        82.2197       65.04989         0.4625         0.5075        36.9581         0.6847       -67.0729      -18.08144      0.6819125       0.710484
      5000.5000        10.3984         23.414         0.0224        79.6052       62.43539         0.4641         0.5145        36.9776         0.9127       -66.6353       -17.6461      0.6262848      0.7178627
      5001.0000        10.3614         23.252         0.0222        75.7738       58.60399         0.4523         0.4726        36.2413         0.9542       -66.8861      -17.89915      0.5447657      0.7135737
      5001.5000        10.3331        23.5941          0.032        72.0616       54.89178         0.4257         0.4266        35.5261         0.9667       -72.6877        -23.703      0.4657826      0.6152033
