#------------------------------------------------------------------------------
# Created by    : vladimir.rabinovich
# Created on    : 09/19/2023 17:19:45
#------------------------------------------------------------------------------
~Version Information Section
VERS.           2.0     :   CWLS log ASCII Standard - VERSION 2.0
WRAP.           NO      :   One line per depth step
~Well Information Section
#MNEM       .UNIT                                         VALUE :DESCRIPTION
#------------------------------------------------------------------------------
STRT        .FT                                            3127 :START DEPTH
STOP        .FT                                           13892 :STOP DEPTH
STEP        .FT                                             0.5 :STEP      
NULL        .                                           -999.25 :NULL      
COMP        .                                       MONSANTO CO :COMPANY   
WELL        .                                     ST TR 00010-L :WELL      
FLD         .                                           WILDCAT :FIELD     
LOC         .                                                   :LOCATION  
CNTY        .                           HIGH ISLAND LARGE BLOCK :LOCATION  
STAT        .                                             TEXAS :STATE     
CTRY        .                                     UNITED STATES :COUNTRY   
SRVC        .                                                   :SERVICE COMPANY
DATE        .                             9/13/2023 11:19:15 AM :LOG DATE  
API         .                                    42708300750000 :API NUMBER
UWI         .                                    42708300750000 :UNIQUE WELL ID
XCOORD      .                                  1327265.43976741 :SURFACE X 
YCOORD      .                                  10725214.5969587 :SURFACE Y 
LAT         .                                        29.5491158 :LATITUDE  
LON         .                                       -93.9851741 :LONGITUDE 
ELEV        .FT                                              54 :ELEVATION VALUE
ELEV_TYPE   .                                                KB :ELEVATION REFERENCE TYPE
~Curve Information Section
#MNEM       .UNIT                                      API CODE :CURVE DESCRIPTION
#------------------------------------------------------------------------------
DEPT        .FT                                                 :DEPTH     
ASFL        .OHMM                                               :          
CILD        .MMHO                                               :          
ILD         .OHMM                                               :          
SP          .MV                                                 :          
SP_NORM     .MV                                                 :SP Normalized
VSH_SP      .V/V                                                :Volume of Shale from SP
~A        DEPTH           ASFL           CILD            ILD             SP        SP_NORM         VSH_SP
# ...
     13121.0000         1.5958       2173.395         0.3891      -111.2776      -63.81891              0
     13121.5000         1.6699       2458.523         0.3799      -112.1833      -64.72746              0
     13122.0000         1.5227       2519.426         0.3743      -112.8605       -65.4075              0
     13122.5000         1.4205       2551.813         0.3686      -113.4789      -66.02875              0
     13123.0000         1.3869       2543.766          0.363      -113.2299       -65.7826              0
     13123.5000         1.3472       2504.422         0.3579      -112.6714      -65.22695              0
     13124.0000         1.3002       2465.082         0.3599      -111.7224      -64.28079              0
     13124.5000         1.2509        2398.32         0.3775      -109.6862      -62.24745              0
     13125.0000         1.1554       2274.828         0.4221       -99.4749      -52.03899      0.1349323
     13125.5000         1.1069       2216.512         0.4763       -63.9578      -16.52475      0.7368687
     13126.0000         1.0801       2133.059         0.5352       -59.8406      -12.41039      0.8066036
     13126.5000         1.0638       2027.551          0.567       -57.9204      -10.49304      0.8391011
     13127.0000         1.0321       1907.936         0.5952       -58.6025      -11.17799      0.8274917
     13127.5000         1.0257       1560.064         0.6119       -60.1718      -12.75013      0.8008452
     13128.0000         1.1047       1538.109         0.6286       -65.2279      -17.80908      0.7151003
     13128.5000         1.1379       1509.646         0.6453       -62.0623      -14.64633      0.7687063
     13129.0000         1.1712       1414.072         0.6598       -60.9947      -13.58158      0.7867529
     13129.5000         1.2336       1375.227         0.6732       -60.0433      -12.63303        0.80283
     13130.0000         1.2779       1338.467         0.6789       -64.8375      -17.43008      0.7215241
     13130.5000         1.4506       1364.596         0.6662       -86.3129      -38.90832      0.3574861
     13131.0000         1.9939       1441.393         0.6421       -88.8038      -41.40207      0.3152191
     13131.5000          2.005       1510.342         0.6135        -91.028      -43.62912      0.2774726
     13132.0000         2.0161       1595.582          0.585       -105.218      -57.82197     0.03691573
     13132.5000         2.2677       1809.281         0.5564      -109.1696      -61.77642              0
     13133.0000         2.1488       1879.322          0.512      -110.6475      -63.25716              0
     13133.5000          2.027       2054.176          0.467      -112.2562      -64.86871              0
     13134.0000          2.001       2228.633         0.4235      -114.8875      -67.50285              0
     13134.5000         1.9293        2589.07         0.3817      -114.5144      -67.13261              0
     13135.0000         1.8101       2752.797           0.34      -114.1406      -66.76166              0
     13135.5000         1.6413       2907.383         0.3288      -113.9564      -66.58031              0
     13136.0000         1.6226       2942.055          0.323      -113.4746      -66.10135              0
     13136.5000         1.6062       2971.363         0.3173      -112.4441       -65.0737              0
     13137.0000         1.5938       2914.535         0.3115      -109.0337      -61.66615              0
     13137.5000         1.5835       2498.461         0.3365      -106.2164       -58.8517     0.01946278
     13138.0000         1.5739       2339.902         0.3739       -98.5654      -51.20354      0.1490925
     13138.5000         1.5647       2216.313         0.4114       -71.1615      -23.80249       0.613517
     13139.0000         1.5503       1750.963         0.4625       -70.6215      -23.26534      0.6226214
     13139.5000         1.5496       1639.693         0.5176       -70.8279      -23.47459      0.6190747
     13140.0000         1.5822       1585.449         0.5684       -80.3472      -32.99673      0.4576825
     13140.5000         1.6078       1499.711         0.6122       -82.2401      -34.89248      0.4255511
     13141.0000         1.6279       1447.553         0.6417       -83.9354      -36.59064      0.3967689
     13141.5000         1.6417       1479.939         0.6228       -85.1587      -37.81678      0.3759868
     13142.0000         1.6521       1526.832         0.6038        -94.174      -46.83493      0.2231367
     13142.5000         1.6595       1646.846         0.5849        -95.286      -47.94978       0.204241
     13143.0000         1.6669       1715.795         0.5703       -95.8378      -48.50443      0.1948403
     13143.5000         1.6539       1755.037         0.5564       -95.6959      -48.36538       0.197197
     13144.0000         1.6021       1804.016         0.5489       -91.8188      -44.49112      0.2628623
     13144.5000         1.4871       1812.957         0.5556       -86.5995      -39.27467      0.3512767
     13145.0000         1.4418       1754.738         0.5622       -83.7773      -36.45531      0.3990625
     13145.5000          1.304       1695.727         0.5805       -67.2791      -19.95996      0.6786447
     13146.0000         1.2809       1655.439         0.5993       -62.2662      -14.94992      0.7635607
     13146.5000         1.2483       1632.043         0.6181       -61.6854      -14.37196      0.7733566
     13147.0000         1.1913       1609.242         0.6263       -58.9262      -11.61561      0.8200744
     13147.5000         1.1476       1590.912         0.6318       -58.4135      -11.10576      0.8287159
     13148.0000         1.1632       1572.633         0.6373       -61.5754      -14.27051      0.7750762
     13148.5000         1.2802        1551.77         0.6403       -65.1785      -17.87645      0.7139584
     13149.0000          1.333       1530.807         0.6355       -71.5692         -24.27      0.6055932
     13149.5000         1.3877       1564.486         0.6308       -77.1345      -29.83815      0.5112178
     13150.0000         1.3698       1691.752          0.626       -85.6882       -38.3947      0.3661915
     13150.5000         1.3311       1723.295         0.6141       -85.4725      -38.18185      0.3697991
     13151.0000         1.2744       1731.988         0.6127       -84.4446       -37.1568      0.3871729
     13151.5000         1.2221       1675.658         0.6343       -63.4635      -16.17854      0.7427366
     13152.0000         1.1446       1593.793         0.6558       -55.8829      -8.600792       0.871173
     13152.5000         1.0973        1464.84         0.6822       -57.3891      -10.10984      0.8455959
     13153.0000         1.2758       1376.021           0.71       -67.9661      -20.68969      0.6662765
     13153.5000          1.333       1294.754         0.7402       -73.2819      -26.00834      0.5761299
     13154.0000          1.404       1248.457         0.7804       -73.3785      -26.10778      0.5744444
     13154.5000         1.4516       1205.143         0.8305       -71.4407      -24.17283      0.6072402
     13155.0000         1.4847       1164.607         0.8625       -62.2872      -15.02218      0.7623359
     13155.5000         1.4744       1105.594         0.8905       -57.3076      -10.04543      0.8466877
     13156.0000         1.3119       1077.082         0.9186       -56.2919      -9.032578      0.8638546
     13156.5000         1.2338       1109.568         0.8688       -52.8964      -5.639923      0.9213572
     13157.0000         1.1568        1177.92         0.8101       -51.1504       -3.89677      0.9509022
     13157.5000         1.0426        1246.67         0.7631       -49.6886       -2.43782      0.9756302
     13158.0000         0.9786       1325.354         0.7212       -47.9439     -0.6959686              1
     13158.5000         0.9275       1393.309         0.6893        -49.308      -2.062916      0.9819845
