#------------------------------------------------------------------------------
# Created by    : vladimir.rabinovich
# Created on    : 09/19/2023 17:20:40
#------------------------------------------------------------------------------
~Version Information Section
VERS.           2.0     :   CWLS log ASCII Standard - VERSION 2.0
WRAP.           NO      :   One line per depth step
~Well Information Section
#MNEM       .UNIT                                         VALUE :DESCRIPTION
#------------------------------------------------------------------------------
STRT        .FT                                             546 :START DEPTH
STOP        .FT                                            8737 :STOP DEPTH
STEP        .FT                                             0.5 :STEP      
NULL        .                                           -999.25 :NULL      
COMP        .                                      SHELL OIL CO :COMPANY   
WELL        .                                OCS 00702 ST00BP00 :WELL      
FLD         .                                           WILDCAT :FIELD     
LOC         .                                                   :LOCATION  
CNTY        .                             GALVESTON LARGE BLOCK :LOCATION  
STAT        .                                             TEXAS :STATE     
CTRY        .                                     UNITED STATES :COUNTRY   
SRVC        .                                                   :SERVICE COMPANY
DATE        .                             9/13/2023 11:19:42 AM :LOG DATE  
API         .                                    42706000140000 :API NUMBER
UWI         .                                    42706000140000 :UNIQUE WELL ID
XCOORD      .                                  1138683.88536091 :SURFACE X 
YCOORD      .                                  10533063.1188688 :SURFACE Y 
LAT         .                                         29.014964 :LATITUDE  
LON         .                                        -94.570199 :LONGITUDE 
ELEV        .FT                                              72 :ELEVATION VALUE
ELEV_TYPE   .                                                KB :ELEVATION REFERENCE TYPE
~Curve Information Section
#MNEM       .UNIT                                      API CODE :CURVE DESCRIPTION
#------------------------------------------------------------------------------
DEPT        .FT                                                 :DEPTH     
ASN         .OHMM                                               :          
CILD        .MMHO                                               :          
ILD         .OHMM                                               :          
SP          .MV                                                 :          
SP_NORM     .MV                                                 :SP Normalized
VSH_SP      .V/V                                                :Volume of Shale from SP
~A        DEPTH            ASN           CILD            ILD             SP        SP_NORM         VSH_SP
# ...
      8716.0000         1.1284       903.6904         1.1506       -38.8138       2.649612              1
      8716.5000         1.1367       900.1797         1.1591       -38.7891       2.674313              1
      8717.0000         1.1345       896.6689         1.1676       -38.7645       2.698914              1
      8717.5000         1.1241       893.1582         1.1761       -38.7476       2.715813              1
      8718.0000         1.1099       889.6475         1.1673       -38.7782       2.685215              1
      8718.5000         1.0947       886.1367          1.152       -38.8088       2.654613              1
      8719.0000         1.0795        882.627         1.1367       -38.8395       2.623913              1
      8719.5000         1.0641       886.7949         1.1215       -38.8701       2.593315              1
      8720.0000         1.0467       895.8887         1.1062       -38.9008       2.562614              1
      8720.5000         1.0411       904.9824         1.0909       -38.9314       2.532013              1
      8721.0000         1.0448       914.0654         1.0699        -38.962       2.501411              1
      8721.5000         1.0484         924.04         1.0473       -38.9927       2.470715              1
      8722.0000         1.0503       958.0098         1.0247       -39.0233       2.440113              1
      8722.5000         1.0344       993.8516         1.0021        -39.054       2.409412              1
      8723.0000         0.9598       1038.072         0.9795       -39.0846       2.378815              1
      8723.5000          0.919       1114.883         0.9569       -39.1069       2.356514              1
      8724.0000         0.8991       1152.373         0.9343       -39.1254       2.338013              1
      8724.5000          0.883       1191.604         0.9184       -39.1439       2.319511              1
      8725.0000         0.8682       1231.814         0.9088       -39.1624       2.301014              1
      8725.5000         0.8546       1277.195         0.8992        -39.181       2.282413              1
      8726.0000         0.8413       1303.941         0.8896       -39.1995       2.263912              1
      8726.5000         0.8284       1324.561           0.88        -39.218       2.245415              1
      8727.0000         0.8148       1331.268         0.8705       -39.2365       2.226913              1
      8727.5000          0.813       1330.014         0.8713       -39.2551       2.208313              1
      8728.0000         0.8312       1314.775         0.8754       -39.2736       2.189812              1
      8728.5000         0.8493       1299.463         0.8794       -39.2921       2.171314              1
      8729.0000         0.8666       1284.127         0.8834       -39.2999       2.163513              1
      8729.5000         0.8794       1268.814         0.8874       -39.2937       2.169712              1
      8730.0000         0.8794       1253.479         0.8914       -39.2875       2.175915              1
      8730.5000         0.8685       1238.166         0.8954       -39.2813       2.182114              1
      8731.0000         0.8577       1232.973         0.8977       -39.2751       2.188313              1
      8731.5000         0.8468       1230.711            0.9       -39.2689       2.194511              1
      8732.0000         0.8285       1228.447         0.9023       -39.2627       2.200714              1
      8732.5000         0.8302       1226.188         0.9046       -39.2565       2.206913              1
      8733.0000         0.8351       1223.926         0.9068       -39.2503       2.213112              1
      8733.5000         0.8401       1223.803         0.9091       -39.2441       2.219315              1
      8734.0000          0.845       1224.107         0.9114       -39.2379       2.225513              1
      8734.5000           0.85       1224.412         0.9137       -39.2318       2.231613              1
      8735.0000         0.8549       1224.719          0.916       -39.2255       2.237915              1
      8735.5000         0.8598       1225.023         0.9182       -39.1959       2.267513              1
      8736.0000          0.863       1225.328         0.9205       -39.1654       2.298012              1
      8736.5000         0.8658       1225.633         0.9228       -39.1349       2.328514              1
      8737.0000         0.8686       1225.938         0.9251       -39.1044       2.359013              1
