#------------------------------------------------------------------------------
# Created by    : vladimir.rabinovich
# Created on    : 09/19/2023 17:20:57
#------------------------------------------------------------------------------
~Version Information Section
VERS.           2.0     :   CWLS log ASCII Standard - VERSION 2.0
WRAP.           NO      :   One line per depth step
~Well Information Section
#MNEM       .UNIT                                         VALUE :DESCRIPTION
#------------------------------------------------------------------------------
STRT        .FT                                             727 :START DEPTH
STOP        .FT                                            8206 :STOP DEPTH
STEP        .FT                                             0.5 :STEP      
NULL        .                                           -999.25 :NULL      
COMP        .                              PHOENIX RESOURCES CO :COMPANY   
WELL        .                                          BLK 335L :WELL      
FLD         .                                 BRAZOS BLOCK 0309 :FIELD     
LOC         .                                                   :LOCATION  
CNTY        .                                BRAZOS LARGE BLOCK :LOCATION  
STAT        .                                             TEXAS :STATE     
CTRY        .                                     UNITED STATES :COUNTRY   
SRVC        .                                                   :SERVICE COMPANY
DATE        .                             9/13/2023 11:18:52 AM :LOG DATE  
API         .                                    42704300210000 :API NUMBER
UWI         .                                    42704300210000 :UNIQUE WELL ID
XCOORD      .                                  898426.347293712 :SURFACE X 
YCOORD      .                                  10460523.5569112 :SURFACE Y 
LAT         .                                        28.8046676 :LATITUDE  
LON         .                                       -95.3172337 :LONGITUDE 
ELEV        .FT                                              70 :ELEVATION VALUE
ELEV_TYPE   .                                                DF :ELEVATION REFERENCE TYPE
~Curve Information Section
#MNEM       .UNIT                                      API CODE :CURVE DESCRIPTION
#------------------------------------------------------------------------------
DEPT        .FT                                                 :DEPTH     
ASN         .OHMM                                               :          
CALI        .IN                                                 :          
DT          .US/F                                               :          
ILD         .OHMM                                               :          
SP          .MV                                                 :          
SP_NORM     .MV                                                 :SP Normalized
VSH_SP      .V/V                                                :Volume of Shale from SP
~A        DEPTH            ASN           CALI             DT            ILD             SP        SP_NORM         VSH_SP
# ...
      2201.0000         1.0838        -999.25       171.1201         0.8059       -59.9003      -4.575218       0.888034
      2201.5000         1.0918        -999.25       173.1809         0.8045       -59.8546      -4.533611       0.889843
      2202.0000         1.0999        -999.25       175.4529         0.8135       -59.8472      -4.530304      0.8899868
      2202.5000         1.1079        -999.25       177.7771         0.8224       -60.0378      -4.724998      0.8815218
      2203.0000          1.116        -999.25       174.9097         0.8313       -60.4745      -5.165787      0.8623571
      2203.5000         1.1326        -999.25       174.8533         0.8403       -60.1342      -4.829582      0.8769747
      2204.0000         1.1498        -999.25       175.7656         0.8492       -59.5917      -4.291176      0.9003837
      2204.5000         1.1669        -999.25       175.1396         0.8581       -59.0016      -3.705166      0.9258624
      2205.0000         1.1666        -999.25       174.1167         0.8671       -58.3894      -3.097057      0.9523019
      2205.5000         1.1663        -999.25       172.0657          0.876       -57.8776      -2.589352       0.974376
      2206.0000         1.1661        -999.25       166.7612         0.8824       -57.3618      -2.077644      0.9966242
      2206.5000          1.169        -999.25       165.0139         0.8848       -57.6293      -2.349232       0.984816
      2207.0000         1.1728        -999.25       163.6597         0.8872       -58.3372      -3.061226      0.9538597
      2207.5000         1.1765        -999.25       162.3589         0.8896          -58.9       -3.62812      0.9292122
      2208.0000         1.1802        -999.25       161.1755          0.892       -59.2418       -3.97401      0.9141735
      2208.5000          1.184        -999.25       157.3516         0.8945       -59.5826      -4.318901      0.8991782
      2209.0000         1.1891        -999.25         162.22         0.8951       -59.9499      -4.690296      0.8830306
      2209.5000         1.2009        -999.25       162.5623         0.8928       -59.7441      -4.488586      0.8918006
      2210.0000         1.2127        -999.25       159.9333         0.8905       -59.6089      -4.357479      0.8975009
      2210.5000         1.2119        -999.25        162.064         0.8883       -59.8734      -4.626072       0.885823
      2211.0000         1.2057        -999.25       162.9827          0.886       -60.2925      -5.049263      0.8674234
      2211.5000         1.1996        -999.25       163.7214         0.8838       -60.0978      -4.858658      0.8757105
      2212.0000         1.1934        -999.25       164.1057         0.8793       -59.7631      -4.528049      0.8900848
      2212.5000         1.1855        -999.25       164.0288         0.8733       -60.2085      -4.977539      0.8705418
      2213.0000         1.1763        -999.25       164.1951         0.8673        -60.059       -4.83213      0.8768639
      2213.5000         1.1671        -999.25       164.8269         0.8614       -59.5936      -4.370827      0.8969206
      2214.0000         1.1579        -999.25       165.9316         0.8554       -59.5159      -4.297218      0.9001209
      2214.5000         1.1487        -999.25       166.0151         0.8494       -59.7648      -4.550209      0.8891214
      2215.0000         1.1473        -999.25       165.2092         0.8488       -60.2377      -5.027203      0.8683825
      2215.5000         1.1542        -999.25       164.2976         0.8555       -60.6326      -5.426193      0.8510351
      2216.0000         1.1607        -999.25       163.5559         0.8621       -60.7793      -5.576988      0.8444788
      2216.5000         1.1665        -999.25       164.9858         0.8688       -60.6556      -5.457378      0.8496792
      2217.0000         1.1723        -999.25       166.0056         0.8775       -60.3088       -5.11467      0.8645796
      2217.5000         1.1781        -999.25       165.7139         0.8889       -59.9303      -4.740265      0.8808581
      2218.0000         1.1868        -999.25        163.678         0.9003       -60.1134      -4.927456      0.8727193
      2218.5000         1.1998        -999.25       158.2034         0.9117       -59.7842      -4.602345      0.8868546
      2219.0000         1.2237        -999.25       152.7046         0.9231       -59.2059      -4.028137      0.9118201
      2219.5000         1.2481        -999.25       152.8101         0.9346       -58.8842      -3.710533       0.925629
      2220.0000         1.2725        -999.25        155.887          0.942         -59.19      -4.020424      0.9121555
      2220.5000         1.2771        -999.25       161.9402         0.9493       -59.6593      -4.493816      0.8915732
      2221.0000         1.2677        -999.25       165.4172         0.9509       -60.8299      -5.668507      0.8404997
      2221.5000         1.2605        -999.25       167.5598         0.9431       -62.6012      -7.443901      0.7633086
      2222.0000         1.2534        -999.25       159.5544         0.9354        -64.328      -9.174793      0.6880525
      2222.5000         1.2476        -999.25       157.5112         0.9276       -66.0254      -10.87628      0.6140747
      2223.0000         1.2421        -999.25       157.4539         0.9197       -67.3253      -12.18028      0.5573792
      2223.5000         1.2365        -999.25       165.7187         0.9113       -67.5103      -12.36937      0.5491579
      2224.0000          1.223        -999.25       172.8928         0.9029       -66.0937      -10.95686      0.6105715
      2224.5000         1.2057        -999.25       169.4641         0.8944        -64.222      -9.089252      0.6917716
      2225.0000         1.1814        -999.25       167.0134          0.886       -62.6849      -7.556244      0.7584242
      2225.5000         1.1517        -999.25       169.2529         0.8776        -61.774      -6.649437      0.7978505
      2226.0000         1.1311        -999.25       164.8987         0.8684          -61.1      -5.979527      0.8269771
      2226.5000         1.1117        -999.25       165.9382         0.8583       -60.4877      -5.371323      0.8534207
      2227.0000          1.107        -999.25       168.2429         0.8518       -59.8599      -4.747616      0.8805385
      2227.5000         1.1026        -999.25       168.9739         0.8499       -59.1708      -4.062607      0.9103214
      2228.0000         1.1076        -999.25       169.5432         0.8479       -58.6216      -3.517498      0.9340218
      2228.5000         1.1127        -999.25       170.0371         0.8433       -58.6796       -3.57959      0.9313222
      2229.0000         1.1249        -999.25       170.4153         0.8387       -58.6042      -3.508282      0.9344226
      2229.5000         1.1351        -999.25       171.1155         0.8341       -58.3804      -3.288578      0.9439749
      2230.0000         1.1317        -999.25       174.1167         0.8295       -58.6817      -3.593967      0.9306971
      2230.5000         1.1283        -999.25       178.3909         0.8249       -58.7275       -3.64386      0.9285278
      2231.0000         1.1246        -999.25       178.8835         0.8151       -58.5958      -3.516251      0.9340761
      2231.5000         1.1208        -999.25       178.3914         0.8028       -58.3688      -3.293346      0.9437675
      2232.0000         1.1169        -999.25       177.8032         0.7904       -58.0707      -2.999336      0.9565506
      2232.5000          1.113        -999.25       177.0762         0.7802       -57.6757      -2.608429      0.9735466
      2233.0000         1.1091        -999.25       173.2119         0.7925       -57.1432      -2.080021      0.9965208
      2233.5000         1.1069        -999.25       165.1155         0.8048        -57.042      -1.982914              1
      2234.0000         1.1058        -999.25       160.5767          0.817       -57.5381      -2.483105      0.9789954
