#------------------------------------------------------------------------------
# Created by    : vladimir.rabinovich
# Created on    : 09/19/2023 17:20:57
#------------------------------------------------------------------------------
~Version Information Section
VERS.           2.0     :   CWLS log ASCII Standard - VERSION 2.0
WRAP.           NO      :   One line per depth step
~Well Information Section
#MNEM       .UNIT                                         VALUE :DESCRIPTION
#------------------------------------------------------------------------------
STRT        .FT                                             598 :START DEPTH
STOP        .FT                                           10008 :STOP DEPTH
STEP        .FT                                             0.5 :STEP      
NULL        .                                           -999.25 :NULL      
COMP        .                                        SUN OIL CO :COMPANY   
WELL        .                               OCS G01712 ST00BP00 :WELL      
FLD         .                                           WILDCAT :FIELD     
LOC         .                                                   :LOCATION  
CNTY        .                                BRAZOS LARGE BLOCK :LOCATION  
STAT        .                                             TEXAS :STATE     
CTRY        .                                     UNITED STATES :COUNTRY   
SRVC        .                                                   :SERVICE COMPANY
DATE        .                             9/13/2023 11:18:52 AM :LOG DATE  
API         .                                    42704300120000 :API NUMBER
UWI         .                                    42704300120000 :UNIQUE WELL ID
XCOORD      .                                   818594.06951761 :SURFACE X 
YCOORD      .                                  10373365.4427938 :SURFACE Y 
LAT         .                                         28.560597 :LATITUDE  
LON         .                                        -95.560517 :LONGITUDE 
ELEV        .FT                                              89 :ELEVATION VALUE
ELEV_TYPE   .                                                KB :ELEVATION REFERENCE TYPE
~Curve Information Section
#MNEM       .UNIT                                      API CODE :CURVE DESCRIPTION
#------------------------------------------------------------------------------
DEPT        .FT                                                 :DEPTH     
ASN         .OHMM                                               :          
CALI        .IN                                                 :          
CILD        .MMHO                                               :          
ILD         .OHMM                                               :          
SP          .MV                                                 :          
SP_NORM     .MV                                                 :SP Normalized
VSH_SP      .V/V                                                :Volume of Shale from SP
~A        DEPTH            ASN           CALI           CILD            ILD             SP        SP_NORM         VSH_SP
# ...
      4986.5000          0.884        12.6097       1459.959         0.6875       -55.4214      -3.521877      0.9485331
      4987.0000         0.8686         12.542       1484.166         0.6777       -56.9118      -5.017151      0.9180173
      4987.5000         0.8538        12.4713       1508.375         0.6693       -58.5945      -6.704727       0.883577
      4988.0000         0.8391        12.3779       1530.939         0.6608       -62.9899        -11.105      0.7937756
      4988.5000         0.8252        12.3009       1553.164         0.6523       -64.6162      -12.73617      0.7604863
      4989.0000         0.8104        12.2694       1550.955         0.6455       -65.9219      -14.04674        0.73374
      4989.5000         0.8221        12.2684       1532.855         0.6402       -68.4277      -16.55741      0.6825018
      4990.0000         0.8408        12.3053       1514.756         0.6349       -52.0678     -0.2023849              1
      4990.5000         0.8581        12.4296       1492.352         0.6297        -49.877       1.983543              1
      4991.0000         0.8754        12.5156       1423.086         0.6327       -50.7215       1.134167              1
      4991.5000         0.8923        12.5566       1302.916         0.6428       -51.5817      0.2690964              1
      4992.0000         0.9091        12.6268       1270.971          0.653       -52.6693     -0.8233757              1
      4992.5000         0.9259        12.7245       1254.289         0.6631       -54.6502      -2.809147      0.9630786
      4993.0000          0.945        12.7607       1239.629         0.6733        -57.532      -5.695824      0.9041669
      4993.5000         0.9641        12.7441       1230.852         0.6964       -59.8049      -7.973595      0.8576818
      4994.0000         0.9797        12.6678       1222.076         0.7205       -61.0992      -9.272766      0.8311681
      4994.5000         0.9952        12.6219       1201.781         0.7447       -60.9727      -9.151134      0.8336503
      4995.0000         1.0106        12.5911       1178.592         0.7654        -58.775      -6.958313      0.8784018
      4995.5000         1.0259        12.5714       1154.211         0.7825       -57.0057      -5.193882      0.9144106
      4996.0000         1.0418        12.5588       1129.854         0.7762       -55.6551      -3.848156      0.9418744
      4996.5000         1.0327        12.5597       1116.654         0.7667       -54.3733      -2.571228      0.9679341
      4997.0000         1.0054        12.5503       1119.137         0.7571       -53.0721      -1.274902      0.9943898
      4997.5000         0.9816        12.5182       1122.225         0.7476       -52.4099     -0.6175728              1
      4998.0000         0.9431        12.4482       1125.316          0.738       -51.7859    0.001556396              1
      4998.5000         0.9082        12.3598       1131.986         0.7244       -51.0955      0.6870804              1
      4999.0000          0.892        12.2568       1141.074         0.7093       -50.9915      0.7862091              1
      4999.5000         0.8757        12.1695        1150.16         0.6941       -52.3773     -0.6044617              1
      5000.0000         0.8043        12.1434       1316.793         0.6788         -51.78    -0.01203156              1
      5000.5000          0.799         12.139       1342.367         0.6923        -52.104     -0.3409081              1
      5001.0000          0.812        12.1401       1367.295         0.7058       -52.4737     -0.7154808              1
      5001.5000          0.854        12.1598       1385.785         0.7193        -53.808      -2.054649      0.9784765
      5002.0000         0.9561        12.2211       1401.791         0.7328       -55.2016      -3.453125      0.9499362
      5002.5000          0.999        12.3243       1417.783         0.7499       -56.9736      -5.229996      0.9136736
      5003.0000         1.1044        12.3575       1433.727         0.7698       -59.7955       -8.05677      0.8559843
      5003.5000         1.2842        12.3303        1449.98         0.7897       -63.8441      -12.11024      0.7732604
      5004.0000         1.3585        12.2087       1480.201         0.8097       -67.7467      -16.01771      0.6935161
      5004.5000         1.3993        12.1514       1380.268         0.8036       -71.8721      -20.14799      0.6092247
      5005.0000         1.4469        12.1363       1322.311         0.7895       -87.1946      -35.47536      0.2964212
      5005.5000         1.5222        12.1485        1285.23         0.7729       -88.9641      -37.24973      0.2602095
      5006.0000         1.5837        12.1632       1276.656         0.7463       -90.4041       -38.6946      0.2307224
      5006.5000         1.7387         12.182       1290.238         0.7247       -91.4348      -39.73018      0.2095883
      5007.0000         1.8438        12.2164       1302.926         0.7191       -92.1249      -40.42515      0.1954051
      5007.5000          1.879        12.3377       1321.018         0.7134        -92.459      -40.76412      0.1884873
      5008.0000         1.8625         12.472       1366.475         0.7077       -92.7418      -41.05179      0.1826165
      5008.5000         1.1071         12.583       1391.029         0.7157       -93.2576      -41.57246      0.1719905
      5009.0000         1.0822        12.5287        1411.52         0.7302       -92.7153      -41.03504      0.1829584
      5009.5000         1.0511        12.4226       1428.568         0.7447       -91.3705      -39.69511      0.2103039
      5010.0000         1.0175        12.3283       1453.434         0.7592       -87.1512      -35.48068      0.2963126
      5010.5000          0.977        12.2661       1522.824         0.7795       -83.7123      -32.04666      0.3663948
      5011.0000         0.9574        12.2254       1537.189         0.8137       -82.3063      -30.64552      0.3949893
      5011.5000         0.9362        12.1918        1506.67         0.8479       -80.2115       -28.5556      0.4376408
      5012.0000         0.9416        12.1665       1215.021         0.8822       -71.0608      -19.40977      0.6242904
      5012.5000         0.9531        12.1569        1198.42         0.9164       -67.8754      -16.22924      0.6891991
      5013.0000         0.9645        12.1485       1174.982         0.9506       -65.6718      -14.03051      0.7340711
      5013.5000         0.9759        12.1401       1148.154         0.9583       -63.0873      -11.45089      0.7867165
      5014.0000         1.0025        12.1342       1233.934         0.9361       -59.5161      -7.884563      0.8594987
      5014.5000         1.0405        12.1357        1354.52         0.9139       -59.7943      -8.167633      0.8537218
      5015.0000         1.0947        12.1373       1381.447         0.8917       -66.4014      -14.77961      0.7187836
      5015.5000         1.1533        12.1388       1396.646         0.8695       -71.0509      -19.43398      0.6237963
      5016.0000         1.1921        12.1543        1410.65         0.8473       -76.0665      -24.45445      0.5213378
      5016.5000         1.2282        12.1706       1424.232         0.8251       -80.5306      -28.92342      0.4301342
      5017.0000         1.3026        12.1894       1452.465         0.7857       -82.5302      -30.92789      0.3892266
      5017.5000          1.347        12.2089       1503.439         0.7417       -84.1563      -32.55887      0.3559414
      5018.0000          1.666         12.274        1545.34         0.6978       -87.5692      -35.97664       0.286191
      5018.5000          1.796        12.4285       1596.189         0.6538       -89.5168      -37.92911      0.2463447
      5019.0000         1.8797        12.5501       1648.281         0.6085       -90.9105      -39.32769      0.2178023
      5019.5000         1.8852        12.6429       1732.682         0.5627       -92.1495      -40.57156      0.1924172
