#------------------------------------------------------------------------------
# Created by    : vladimir.rabinovich
# Created on    : 09/19/2023 17:22:30
#------------------------------------------------------------------------------
~Version Information Section
VERS.           2.0     :   CWLS log ASCII Standard - VERSION 2.0
WRAP.           NO      :   One line per depth step
~Well Information Section
#MNEM       .UNIT                                         VALUE :DESCRIPTION
#------------------------------------------------------------------------------
STRT        .FT                                            1687 :START DEPTH
STOP        .FT                                            6155 :STOP DEPTH
STEP        .FT                                             0.5 :STEP      
NULL        .                                           -999.25 :NULL      
COMP        .                       AMERICAN COASTAL ENERGY INC :COMPANY   
WELL        .                                ST TR 00596-L NE/4 :WELL      
FLD         .                        SHERMAN OFFSHORE SOUTHWEST :FIELD     
LOC         .                                                   :LOCATION  
CNTY        .                      MATAGORDA ISLAND LARGE BLOCK :LOCATION  
STAT        .                                             TEXAS :STATE     
CTRY        .                                     UNITED STATES :COUNTRY   
SRVC        .                                                   :SERVICE COMPANY
DATE        .                             9/13/2023 11:12:01 AM :LOG DATE  
API         .                                    42703302820000 :API NUMBER
UWI         .                                    42703302820000 :UNIQUE WELL ID
XCOORD      .                                  484247.709270029 :SURFACE X 
YCOORD      .                                   10242127.767654 :SURFACE Y 
LAT         .                                        28.1765839 :LATITUDE  
LON         .                                       -96.5886238 :LONGITUDE 
ELEV        .FT                                              79 :ELEVATION VALUE
ELEV_TYPE   .                                                KB :ELEVATION REFERENCE TYPE
~Curve Information Section
#MNEM       .UNIT                                      API CODE :CURVE DESCRIPTION
#------------------------------------------------------------------------------
DEPT        .FT                                                 :DEPTH     
CILD        .MMHO                                               :          
DT          .US/F                                               :          
ILD         .OHMM                                               :          
SN          .OHMM                                               :          
SP          .MV                                                 :          
SP_NORM     .MV                                                 :SP Normalized
VSH_SP      .V/V                                                :Volume of Shale from SP
~A        DEPTH           CILD             DT            ILD             SN             SP        SP_NORM         VSH_SP
# ...
      4635.0000       2354.879       117.0787         0.4239         1.0187       -69.9149        -57.621      0.1820441
      4635.5000       2211.404       115.0859         0.4647         1.1426       -66.0338       -53.7424      0.2390823
      4636.0000       2059.958       112.6945         0.5382         1.2934       -63.8443       -51.5553      0.2712456
      4636.5000       1685.364       102.7318         0.6679         1.6649       -62.7493       -50.4628      0.2873118
      4637.0000       1390.463        98.7462         0.7988         1.8418       -62.5498       -50.2658      0.2902088
      4637.5000        1223.08        84.0023         0.9423         1.8503       -63.2462       -50.9646      0.2799323
      4638.0000       1011.871        90.8754         1.0667         1.8167       -63.6438       -51.3647      0.2740485
      4638.5000       880.3386       103.3273          1.223         1.8251       -63.7428       -51.4662      0.2725559
      4639.0000       856.4102       108.9055         1.2063         1.9373       -63.4438       -51.1696      0.2769176
      4639.5000       991.8588       107.9083         1.1209         2.0755       -64.6368       -52.3651      0.2593367
      4640.0000       1103.407       103.5243         0.8099          2.163       -67.2238       -54.9546      0.2212559
      4640.5000       1446.079       100.8342         0.6803         1.8505       -70.7055       -58.4387      0.1700191
      4641.0000       1780.769       104.0214         0.5334          1.418       -74.5856       -62.3213      0.1129221
      4641.5000       1995.928       111.6914         0.4501         1.0378       -77.6697       -65.4079     0.06753092
      4642.0000       2505.969       121.7954         0.3868         0.8838       -79.0622       -66.8028      0.0470176
      4642.5000       2936.315       133.4077         0.3175         0.7916       -79.5592       -67.3023     0.03967207
      4643.0000       3366.655       132.2118         0.2857         0.7808       -79.9568       -67.7024     0.03378823
      4643.5000       3541.979       127.4293         0.2787         0.7844       -79.8568       -67.6048     0.03522357
      4644.0000       3629.626       122.4476         0.2704          0.788       -79.9558       -67.7063      0.0337309
      4644.5000       3685.395        114.079          0.263          0.788       -80.0548       -67.8078     0.03223823
      4645.0000       3701.314       114.1783         0.2595         0.7809       -80.2533       -68.0087     0.02928386
      4645.5000       3741.143       118.2621         0.2571         0.7424       -80.5512       -68.3091     0.02486622
      4646.0000       3780.972       122.2464         0.2511         0.7091       -80.7498       -68.5101     0.02191027
      4646.5000       3844.711       128.6214         0.2479         0.6867       -80.6498       -68.4126     0.02334415
      4647.0000       3916.421       139.1809         0.2445         0.6681       -79.8532       -67.6185     0.03502206
      4647.5000       3988.131       143.6641         0.2411         0.6559       -79.2557       -67.0234     0.04377354
      4648.0000       4020.004       138.5822         0.2402         0.6499       -79.0562       -66.8264     0.04667058
      4648.5000       3980.121       133.2019         0.2422          0.644       -79.4537       -67.2264      0.0407882
      4649.0000        3884.46       125.2312         0.2479         0.6381       -79.4532       -67.2283     0.04076026
      4649.5000       3796.769       123.0389         0.2502         0.6294       -79.5522       -67.3298      0.0392676
      4650.0000       3756.898       121.4446         0.2548         0.6352       -79.2532       -67.0333     0.04362791
      4650.5000       3685.147        120.647         0.2619          0.644       -78.7552       -66.5378     0.05091465
      4651.0000       3613.395        119.052          0.268           0.65       -78.1577       -65.9427     0.05966613
      4651.5000       3509.762       117.0589         0.2768         0.6774       -77.9582       -65.7457     0.06256328
      4652.0000       3326.427        116.062         0.2965         0.6963       -77.5597       -65.3496     0.06838821
      4652.5000       3111.209       114.0692          0.322         0.7158       -76.3652       -64.1576     0.08591764
      4653.0000       2832.229       111.0797         0.3612         0.7494       -74.7727       -62.5676         0.1093
      4653.5000       2513.396       107.7914         0.4033         0.7883       -71.7871       -59.5844      0.1531706
      4654.0000       2170.651       103.3264          0.458         0.8445        -68.702       -56.5018      0.1985029
      4654.5000       1800.011       100.5167         0.5727         0.9257       -64.7219       -52.5242       0.256997
      4655.0000       1588.765         98.723         0.7191         1.1539       -64.4226       -52.2273      0.2613633
      4655.5000       1325.723        93.1431         0.8291         1.5059       -70.8896       -58.6968      0.1662235
      4656.0000        1166.29        89.1572         0.9595         1.8012       -73.8742       -61.6839      0.1222956
      4656.5000       1082.586        84.9721         0.9728         1.8686       -73.3761       -61.1882      0.1295853
      4657.0000       1174.206        86.7651         0.8965         1.6508       -71.6841       -59.4987      0.1544309
      4657.5000       1253.895        89.1555         0.8141         1.4517       -70.8877       -58.7048      0.1661059
      4658.0000       1373.408        94.9331         0.7258         1.3123       -71.8821       -59.7016      0.1514471
      4658.5000       1453.091       102.6042         0.6775          1.225       -72.7771       -60.5991      0.1382486
      4659.0000        1548.71       101.9061         0.6354          1.154       -72.5776       -60.4021      0.1411456
      4659.5000       1755.912        99.3149         0.5877         1.1023       -71.8804       -59.7073      0.1513633
      4660.0000       1835.596        97.7201         0.5436         1.0773       -71.6811       -59.5105      0.1542573
      4660.5000        1971.08        98.3173         0.5051         1.0625       -71.6806       -59.5125      0.1542279
      4661.0000       2100.265        99.9107         0.4608         1.0056       -71.9787        -59.813      0.1498088
      4661.5000       2369.548       103.3974         0.4165         0.9174       -73.3712        -61.208      0.1292941
      4662.0000       2600.671       105.4889         0.3765         0.8722       -74.9627        -62.802       0.105853
      4662.5000       2783.988       107.4809         0.3531         0.8142       -76.6538       -64.4955     0.08094855
      4663.0000       2823.819       109.8714         0.3563         0.8068       -77.7478        -65.592     0.06482349
      4663.5000       2704.219       111.6642         0.3697         0.8142       -77.6478       -65.4945     0.06625737
      4664.0000        2624.49       111.4643         0.3923         0.9091       -76.3538       -64.2029     0.08525141
      4664.5000       2572.677       106.8807         0.3806          1.015       -74.3632       -62.2148      0.1144882
      4665.0000       2664.297       103.4924         0.3696         1.1075       -73.6662       -61.5203      0.1247014
      4665.5000       2775.864        87.1513          0.353         1.1281       -74.8598       -62.7163      0.1071132
      4666.0000        2871.49        84.5607         0.3403         0.9475       -75.6552       -63.5142     0.09537943
      4666.5000       3054.794        94.8147          0.312         0.7958       -76.4507       -64.3122     0.08364408
      4667.0000       3293.896       105.8809         0.2899         0.6998       -76.5498       -64.4137     0.08215152
      4667.5000       3596.765       115.8438         0.2681         0.6685       -76.9473       -64.8137     0.07626915
      4668.0000       3819.927       117.4375         0.2526          0.684       -77.1458       -65.0147     0.07331321
