#------------------------------------------------------------------------------
# Created by    : vladimir.rabinovich
# Created on    : 09/19/2023 17:20:37
#------------------------------------------------------------------------------
~Version Information Section
VERS.           2.0     :   CWLS log ASCII Standard - VERSION 2.0
WRAP.           NO      :   One line per depth step
~Well Information Section
#MNEM       .UNIT                                         VALUE :DESCRIPTION
#------------------------------------------------------------------------------
STRT        .FT                                             254 :START DEPTH
STOP        .FT                                            9030 :STOP DEPTH
STEP        .FT                                             0.5 :STEP      
NULL        .                                           -999.25 :NULL      
COMP        .                                    MOBIL OIL CORP :COMPANY   
WELL        .                                OCS 00724 ST00BP00 :WELL      
FLD         .                                           WILDCAT :FIELD     
LOC         .                                                   :LOCATION  
CNTY        .                             GALVESTON LARGE BLOCK :LOCATION  
STAT        .                                             TEXAS :STATE     
CTRY        .                                     UNITED STATES :COUNTRY   
SRVC        .                                                   :SERVICE COMPANY
DATE        .                             9/13/2023 11:19:25 AM :LOG DATE  
API         .                                    42706000340000 :API NUMBER
UWI         .                                    42706000340000 :UNIQUE WELL ID
XCOORD      .                                  1011870.95166473 :SURFACE X 
YCOORD      .                                   10400634.765487 :SURFACE Y 
LAT         .                                         28.645607 :LATITUDE  
LON         .                                        -94.960058 :LONGITUDE 
ELEV        .FT                                              34 :ELEVATION VALUE
ELEV_TYPE   .                                                KB :ELEVATION REFERENCE TYPE
~Curve Information Section
#MNEM       .UNIT                                      API CODE :CURVE DESCRIPTION
#------------------------------------------------------------------------------
DEPT        .FT                                                 :DEPTH     
ASN         .OHMM                                               :          
CALI        .IN                                                 :          
CILD        .MMHO                                               :          
DT          .US/F                                               :          
ILD         .OHMM                                               :          
SP          .MV                                                 :          
SP_NORM     .MV                                                 :SP Normalized
VSH_SP      .V/V                                                :Volume of Shale from SP
~A        DEPTH            ASN           CALI           CILD             DT            ILD             SP        SP_NORM         VSH_SP
# ...
      1994.5000          0.632        -999.25       1832.316        -999.25         0.4701       -63.0278      -8.216248      0.4348866
      1995.0000         0.6378        -999.25       1819.234        -999.25         0.4728       -63.5424       -8.72287        0.38883
      1995.5000         0.6467        -999.25       1776.539        -999.25         0.4761        -64.057      -9.229488      0.3427738
      1996.0000         0.6376        -999.25       1746.084        -999.25         0.4794        -64.219      -9.383511      0.3287718
      1996.5000         0.6225        -999.25       1716.781        -999.25         0.4827       -64.0474       -9.20393      0.3450973
      1997.0000         0.6064        -999.25       1695.172        -999.25         0.4866       -63.8757      -9.024254      0.3614315
      1997.5000           0.62        -999.25       1673.563        -999.25         0.4924       -63.3603       -8.50087      0.4090118
      1998.0000         0.6506        -999.25       1655.424        -999.25         0.4982       -62.8407      -7.973289      0.4569737
      1998.5000         0.6702        -999.25         1637.5        -999.25          0.504       -62.5712      -7.695816      0.4821985
      1999.0000         0.6891        -999.25       1614.408        -999.25         0.5098       -62.4132      -7.529835      0.4972878
      1999.5000         0.7023        -999.25       1589.598        -999.25         0.5156       -62.5298      -7.638454      0.4874132
      2000.0000         0.7019        -999.25       1552.988        -999.25         0.5213       -62.4615      -7.562176      0.4943477
      2000.5000         0.7008        -999.25       1522.566        -999.25         0.5377       -62.1861      -7.278797      0.5201094
      2001.0000         0.7164        -999.25       1494.395        -999.25         0.5561       -61.9107      -6.995419       0.545871
      2001.5000         0.8053        -999.25       1456.275        -999.25         0.6028       -61.3228      -6.399536      0.6000422
      2002.0000         0.8241        -999.25       1408.162        -999.25         0.6595        -60.379      -5.447762      0.6865671
      2002.5000         0.8431        -999.25       1325.541        -999.25         0.7095       -59.7449      -4.805679      0.7449383
      2003.0000         0.8813        -999.25       1227.455        -999.25         0.7559       -59.0015      -4.054298      0.8132456
      2003.5000         0.9015        -999.25       1119.193        -999.25         0.7923       -58.4442      -3.489021      0.8646345
      2004.0000          0.925        -999.25       1044.771        -999.25           0.82       -58.2277      -3.264542      0.8850417
      2004.5000         0.9398        -999.25       1004.125        -999.25         0.8295       -58.0112      -3.040062      0.9054489
      2005.0000          0.952        -999.25       982.5957        -999.25         0.8381       -57.8435      -2.864384      0.9214197
      2005.5000         0.9459        -999.25       969.2246        -999.25         0.8467       -58.2578      -3.270706      0.8844813
      2006.0000         0.9374        -999.25       960.8955        -999.25         0.8554       -58.6721      -3.677025      0.8475432
      2006.5000         0.9386        -999.25       952.5664        -999.25         0.8641       -59.0865      -4.083443      0.8105961
      2007.0000         0.9489        -999.25       939.9512        -999.25         0.8764       -59.4504      -4.439369      0.7782392
      2007.5000         0.9598        -999.25       924.9785        -999.25         0.8949       -59.7522      -4.733189      0.7515283
      2008.0000         0.9733        -999.25       910.0068        -999.25         0.9147       -59.7648      -4.737808      0.7511083
      2008.5000         0.9775        -999.25       895.0293        -999.25         0.9369       -59.7774      -4.742432       0.750688
      2009.0000         0.9796        -999.25        877.542        -999.25         0.9567         -59.79      -4.747051       0.750268
      2009.5000         0.9814        -999.25       857.7041        -999.25         0.9732       -59.8026      -4.751671      0.7498481
      2010.0000           0.99        -999.25       841.9658        -999.25         0.9863       -59.8277      -4.768795      0.7482914
      2010.5000         0.9969        -999.25       827.5449        -999.25         0.9975       -59.9376      -4.870712      0.7390261
      2011.0000         1.0006        -999.25       818.6875        -999.25         0.9985       -59.6271      -4.552235      0.7679787
      2011.5000          0.997        -999.25       838.2871        -999.25         0.9933       -58.9199      -3.837051      0.8329954
      2012.0000         0.9915        -999.25       870.5469        -999.25         0.9739       -58.1449      -3.054077      0.9041748
      2012.5000         0.9747        -999.25       910.3818        -999.25         0.9454       -57.1951      -2.096294       0.991246
      2013.0000         0.9467        -999.25       981.8857        -999.25         0.9061       -57.0536      -1.946815              1
      2013.5000         0.9051        -999.25       1091.918        -999.25          0.859        -56.912      -1.797237              1
      2014.0000         0.8479        -999.25       1186.371        -999.25         0.8127       -56.8737      -1.750957              1
      2014.5000         0.8297        -999.25       1336.715        -999.25         0.7668       -56.9371      -1.806377              1
      2015.0000           0.82        -999.25        1490.42        -999.25         0.7208       -57.1538      -2.015102      0.9986271
      2015.5000         0.8086        -999.25       1608.742        -999.25         0.6247       -57.7458      -2.599121      0.9455345
      2016.0000         0.7846        -999.25       1634.373        -999.25         0.4978       -58.8646      -3.709942      0.8445507
      2016.5000         0.7565        -999.25       1699.266        -999.25         0.4735       -59.4568      -4.294159      0.7914401
      2017.0000         0.7024        -999.25       1726.145        -999.25         0.4604       -59.7543      -4.583683      0.7651197
      2017.5000         0.6738        -999.25       1737.758        -999.25         0.4545       -59.8774      -4.698803      0.7546543
      2018.0000         0.6622        -999.25       1748.211        -999.25         0.4518       -60.0007      -4.814125      0.7441704
      2018.5000         0.6597        -999.25       1758.484        -999.25           0.45       -60.1238      -4.929245       0.733705
      2019.0000         0.6612        -999.25       1768.709        -999.25         0.4482       -60.2471      -5.044567      0.7232212
      2019.5000         0.6606        -999.25       1783.471        -999.25         0.4449       -60.3702      -5.159687      0.7127557
      2020.0000         0.6524        -999.25       1819.758        -999.25         0.4336       -60.5305      -5.312008      0.6989084
      2020.5000         0.6435        -999.25       1884.301        -999.25         0.4223       -60.8038      -5.577328      0.6747884
      2021.0000         0.6337        -999.25       1943.143        -999.25         0.4148       -61.2377       -6.00325      0.6360682
      2021.5000         0.6072        -999.25       1976.879        -999.25         0.4075       -61.9005       -6.65807      0.5765391
      2022.0000         0.5796        -999.25       1995.422        -999.25         0.4041       -62.5334      -7.282993      0.5197279
      2022.5000         0.5663        -999.25       2014.098        -999.25         0.4043       -62.5416      -7.283211      0.5197081
      2023.0000         0.5591        -999.25        2063.82        -999.25         0.4072       -62.2735       -7.00713      0.5448064
      2023.5000         0.5594        -999.25       2084.234        -999.25         0.4281        -61.874      -6.599655      0.5818495
