#------------------------------------------------------------------------------
# Created by    : vladimir.rabinovich
# Created on    : 09/19/2023 17:20:24
#------------------------------------------------------------------------------
~Version Information Section
VERS.           2.0     :   CWLS log ASCII Standard - VERSION 2.0
WRAP.           NO      :   One line per depth step
~Well Information Section
#MNEM       .UNIT                                         VALUE :DESCRIPTION
#------------------------------------------------------------------------------
STRT        .FT                                            1590 :START DEPTH
STOP        .FT                                            8991 :STOP DEPTH
STEP        .FT                                             0.5 :STEP      
NULL        .                                           -999.25 :NULL      
COMP        .                                 C & K OFFSHORE CO :COMPANY   
WELL        .                                OCS 00507 ST00BP00 :WELL      
FLD         .                                           WILDCAT :FIELD     
LOC         .                                                   :LOCATION  
CNTY        .                           HIGH ISLAND LARGE BLOCK :LOCATION  
STAT        .                                             TEXAS :STATE     
CTRY        .                                     UNITED STATES :COUNTRY   
SRVC        .                                                   :SERVICE COMPANY
DATE        .                             9/13/2023 11:19:15 AM :LOG DATE  
API         .                                    42708300260000 :API NUMBER
UWI         .                                    42708300260000 :UNIQUE WELL ID
XCOORD      .                                  1287575.74118613 :SURFACE X 
YCOORD      .                                  10681645.7296129 :SURFACE Y 
LAT         .                                         29.428295 :LATITUDE  
LON         .                                        -94.108714 :LONGITUDE 
ELEV        .FT                                              73 :ELEVATION VALUE
ELEV_TYPE   .                                                KB :ELEVATION REFERENCE TYPE
~Curve Information Section
#MNEM       .UNIT                                      API CODE :CURVE DESCRIPTION
#------------------------------------------------------------------------------
DEPT        .FT                                                 :DEPTH     
ASN         .OHMM                                               :          
CALI        .IN                                                 :          
CILD        .MMHO                                               :          
DT          .US/F                                               :          
GR          .GAPI                                               :          
GR_NORM     .GAPI                                               :GammaRay Normalized
ILD         .OHMM                                               :          
SP          .MV                                                 :          
SP_NORM     .MV                                                 :SP Normalized
VSH_GR      .V/V                                                :Volume of Shale from GR
VSH_SP      .V/V                                                :Volume of Shale from SP
~A        DEPTH            ASN           CALI           CILD             DT             GR        GR_NORM            ILD             SP        SP_NORM         VSH_GR         VSH_SP
# ...
      2085.0000          0.758        11.7515       1931.084       149.9175        58.9132       69.44043         0.4384       -58.3768      -19.91526      0.7753283      0.7154963
      2085.5000         0.7458         11.832       1938.775       149.1902        59.2935        69.9118          0.426       -59.2994      -20.83786      0.7853575      0.7023163
      2086.0000         0.7733        11.9454       1946.467        148.551        60.6439        71.5958         0.4138       -65.0117      -26.55016      0.8211873       0.620712
      2086.5000         0.8001        12.0698       1954.158       148.2241        59.5688       70.24792         0.4153       -70.3378      -31.87626      0.7925089      0.5446249
      2087.0000         0.8231        12.1758        1961.85       147.7629        55.0672       64.61692         0.4168       -72.0861      -33.62456      0.6727005      0.5196492
      2087.5000         0.8432        12.2227       1972.885       146.9624         49.446       57.58641         0.4215       -73.6833      -35.22176      0.5231151       0.496832
      2088.0000         0.8549        12.2117       2001.902       146.4028        43.9644       50.73041         0.4269        -75.046      -36.58446      0.3772427      0.4773649
      2088.5000          0.862         12.177       2050.176       146.1084        43.3982       50.01865         0.4323       -75.7611      -37.29956       0.362099      0.4671491
      2089.0000         0.8549        12.1633       1998.201       146.2849        42.6718       49.10664         0.4377       -75.9008      -37.43926      0.3426946      0.4651534
      2089.5000           0.84        12.1638       2002.729       147.2886           40.6       46.51289         0.4431       -72.7277      -34.26616      0.2875083      0.5104834
      2090.0000         0.8228         12.136       1975.613       147.7476        42.1832       48.48789         0.4482       -69.3367      -30.87516      0.3295296      0.5589263
      2090.5000         0.7907        12.1123       1888.096       149.6775          46.41       53.76738         0.4523       -63.7436      -25.28206      0.4418592      0.6388277
      2091.0000         0.7546        12.1129       1825.115       152.4749        50.0849         58.357         0.4564       -60.1949      -21.73336      0.5395107      0.6895234
      2091.5000         0.7231        12.2057       1783.023       153.0222        53.5571       62.69324         0.4606       -57.4238      -18.96226      0.6317711      0.7291105
      2092.0000         0.7286        12.2603       1746.725       154.1558        58.9518       69.43262         0.4687        -54.049      -15.58746       0.775162       0.777322
      2092.5000         0.7334        12.3143       1713.725       156.5222        65.5875       77.72324         0.4791       -47.3715      -8.909958      0.9515584      0.8727149
      2093.0000         0.7382        12.3711       1690.125       157.9233         66.043       78.28861         0.4893        -46.439      -7.977459      0.9635875      0.8860363
      2093.5000          0.743        12.2617        1672.65        159.144        66.9385       79.40398         0.4963       -46.2423      -7.780758      0.9873188      0.8888463
      2094.0000         0.7466        12.1874       1655.176       160.0693        67.5022        80.1046         0.5032        -46.048       -7.58646              1       0.891622
      2094.5000         0.7497        12.1149       1637.707       158.9297        66.4014       78.72459         0.5101       -45.8761      -7.414558      0.9728637      0.8940777
      2095.0000         0.7594        12.0654       1620.912       157.5869        64.6738       76.56109         0.5171        -45.704      -7.242458      0.9268317      0.8965363
      2095.5000          0.769        12.0994        1604.33       156.3564        65.0001       76.96496         0.5168       -45.5321       -7.07056      0.9354246       0.898992
      2096.0000         0.7811        12.3176       1588.074       155.5876        66.8989       79.33446         0.5125       -45.3526       -6.89106      0.9858395      0.9015563
      2096.5000         0.7853        12.5312       1590.508       154.9849         68.494       81.32433         0.5108       -45.1723      -6.710758              1       0.904132
      2097.0000         0.7867         12.716       1601.734       156.0801        70.0818       83.30508         0.5105       -45.0441      -6.582561              1      0.9059634
      2097.5000         0.7838        12.8625       1616.105       157.2593        71.4183       84.97169         0.5102       -44.9633      -6.501759              1      0.9071177
      2098.0000         0.7774        12.9646       1630.477       159.9875        69.4218       82.47207         0.5125        -44.884      -6.422459              1      0.9082506
      2098.5000          0.771        13.0143       1649.219       164.7739        65.9703       78.15369          0.516       -44.8138      -6.352261      0.9607167      0.9092534
      2099.0000          0.763        13.0185       1674.059       166.1179        65.2133       77.20344         0.5195       -44.7435       -6.28196      0.9404987      0.9102577
      2099.5000         0.7529        13.0247       1685.523       165.4385        68.0105       80.69592          0.523       -44.7924       -6.33086              1      0.9095591
      2100.0000         0.7436        13.0269       1696.986       163.5664        71.4614       85.00555         0.5255        -44.845      -6.383461              1      0.9088077
      2100.5000         0.7363        13.0189       1708.451       163.4358        71.8219       85.45216         0.5268       -44.8977      -6.436161              1      0.9080548
      2101.0000         0.7291        13.0088       1720.609       163.8984        70.0754       83.26504         0.5282       -44.9625      -6.500961              1      0.9071291
      2101.5000         0.7218        12.9478       1733.025       163.7229        68.2612       80.99328         0.5295       -45.2036      -6.742062              1      0.9036849
      2102.0000         0.7186        12.8639       1741.291       162.5813        67.8359       80.45766         0.5309       -45.4447      -6.983158              1      0.9002406
      2102.5000         0.7286         12.737       1746.729       160.1409        65.9313        78.0729         0.5316       -45.6859      -7.224361      0.9589978      0.8967949
      2103.0000         0.7375        12.5001        1733.59       158.9609        63.7402       75.33003         0.5307       -45.9575       -7.49596       0.900639      0.8929148
      2103.5000         0.7456        12.5641       1708.598       159.1936        62.7926       74.14153         0.5298       -46.5351      -8.073559      0.8753516      0.8846635
      2104.0000         0.7512        12.8411           1690       159.7634        62.1149       73.29039         0.5288       -47.1127      -8.651161      0.8572423       0.876412
      2104.5000          0.752         12.849       1678.977       161.4644        61.4261       72.42538         0.5279       -47.7957       -9.33416       0.838838      0.8666549
      2105.0000         0.7527        12.6364       1686.479       161.6826        62.9229       74.29237         0.5268       -47.8085      -9.346958      0.8785611       0.866472
      2105.5000         0.7516        12.3279       1708.441       161.3997        64.0951       75.75362         0.5238        -47.649      -9.187458      0.9096516      0.8687506
      2106.0000         0.7465        12.3489       1725.998       161.2937        62.2746       73.47398         0.5208       -47.4895      -9.027958      0.8611486      0.8710292
      2106.5000         0.7415        12.5489       1744.203       162.2253        61.9704       73.08974         0.5186       -47.3241       -8.86256      0.8529731       0.873392
      2107.0000          0.736         12.795       1762.408       163.7051        63.5672       75.08174         0.5185       -47.1467      -8.685162      0.8953562      0.8759263
