#------------------------------------------------------------------------------
# Created by    : vladimir.rabinovich
# Created on    : 09/19/2023 17:19:55
#------------------------------------------------------------------------------
~Version Information Section
VERS.           2.0     :   CWLS log ASCII Standard - VERSION 2.0
WRAP.           NO      :   One line per depth step
~Well Information Section
#MNEM       .UNIT                                         VALUE :DESCRIPTION
#------------------------------------------------------------------------------
STRT        .FT                                            1601 :START DEPTH
STOP        .FT                                            6340 :STOP DEPTH
STEP        .FT                                             0.5 :STEP      
NULL        .                                           -999.25 :NULL      
COMP        .                 FAIRWAYS OFFSHORE EXPLORATION INC :COMPANY   
WELL        .                                ST TR 00629-L SE/4 :WELL      
FLD         .                                       BLOCK 630-L :FIELD     
LOC         .                                                   :LOCATION  
CNTY        .                      MATAGORDA ISLAND LARGE BLOCK :LOCATION  
STAT        .                                             TEXAS :STATE     
CTRY        .                                     UNITED STATES :COUNTRY   
SRVC        .                                                   :SERVICE COMPANY
DATE        .                             9/13/2023 11:19:05 AM :LOG DATE  
API         .                                    42703302840100 :API NUMBER
UWI         .                                    42703302840100 :UNIQUE WELL ID
XCOORD      .                                  449566.970470722 :SURFACE X 
YCOORD      .                                  10204940.3648147 :SURFACE Y 
LAT         .                                        28.0716107 :LATITUDE  
LON         .                                       -96.6925833 :LONGITUDE 
ELEV        .FT                                              82 :ELEVATION VALUE
ELEV_TYPE   .                                                KB :ELEVATION REFERENCE TYPE
~Curve Information Section
#MNEM       .UNIT                                      API CODE :CURVE DESCRIPTION
#------------------------------------------------------------------------------
DEPT        .FT                                                 :DEPTH     
ASFL        .OHMM                                               :          
CILD        .MMHO                                               :          
GR          .GAPI                                               :          
GR_NORM     .GAPI                                               :GammaRay Normalized
ILD         .OHMM                                               :          
SP          .MV                                                 :          
SP_NORM     .MV                                                 :SP Normalized
VSH_GR      .V/V                                                :Volume of Shale from GR
VSH_SP      .V/V                                                :Volume of Shale from SP
~A        DEPTH           ASFL           CILD             GR        GR_NORM            ILD             SP        SP_NORM         VSH_GR         VSH_SP
# ...
      1945.5000         0.5494       1762.873        56.6312       79.11287          0.547        -43.665    -0.01145554      0.9811249              1
      1946.0000         0.5463       1780.184        57.3932       80.36146         0.5413        -43.795      -0.124733              1              1
      1946.5000         0.5432       1798.395        58.1606       81.61889         0.5355       -43.9922     -0.3052139              1              1
      1947.0000         0.5401       1816.754        58.7661       82.61104         0.5297       -44.1895     -0.4857941              1              1
      1947.5000          0.537       1835.119        58.4611       82.11127         0.5239       -44.3866     -0.6661758              1              1
      1948.0000         0.5348       1856.535        58.1559       81.61119         0.5202       -44.5823     -0.8451576              1              1
      1948.5000         0.5329       1879.881        57.9246       81.23218         0.5175       -44.7782      -1.024338              1      0.9994709
      1949.0000          0.531       1907.668        57.7773       80.99083         0.5148       -44.9745      -1.203918              1       0.995567
      1949.5000         0.5291       1921.605        57.8537       81.11603         0.5147       -45.2245      -1.437199              1      0.9904957
      1950.0000         0.5272       1935.426        58.1317       81.57154         0.5193       -45.4747      -1.670685              1      0.9854199
      1950.5000         0.5261       1946.764        58.9373       82.89156         0.5239       -45.6735      -1.852764              1      0.9814616
      1951.0000         0.5254       1953.857         59.881       84.43787         0.5285        -45.641      -1.803543              1      0.9825317
      1951.5000         0.5252       1956.184         60.947       86.18456         0.5333       -45.6085      -1.754326              1      0.9836016
      1952.0000         0.5262        1954.74         60.921       86.14198         0.5382       -45.3038      -1.432907              1       0.990589
      1952.5000         0.5274       1953.297        60.7506       85.86275         0.5432       -44.9883      -1.100689              1      0.9978111
      1953.0000           0.53       1935.664        60.3434       85.19554         0.5482       -44.6876      -0.783268              1              1
      1953.5000         0.5327       1907.865        59.9363       84.52849         0.5568       -44.4813     -0.5602493              1              1
      1954.0000         0.5451       1864.447        59.4545       83.73902         0.5671       -44.2861     -0.3483276              1              1
      1954.5000         0.5467       1826.439        58.9128        82.8514         0.5773       -44.2239      -0.269413              1              1
      1955.0000         0.5501       1797.168         59.024       83.03363         0.5875       -44.1616     -0.1903915              1              1
      1955.5000          0.559       1762.486         59.578       83.94138         0.5923       -44.2684     -0.2804718              1              1
      1956.0000          0.568       1719.461        60.2868       85.10279          0.597       -44.4849     -0.4802551              1              1
      1956.5000          0.577       1693.164        61.1575        86.5295         0.6018       -44.7987     -0.7773361              1              1
      1957.0000         0.5848       1677.445        61.8926       87.73399         0.6062       -45.1125      -1.074417              1      0.9983822
      1957.5000         0.5912       1678.951        62.6164       88.91998         0.6084       -45.4307      -1.375896              1      0.9918283
      1958.0000         0.5929       1686.549        62.7989       89.21902         0.6106       -45.7584      -1.686878              1      0.9850678
      1958.5000         0.5929       1697.826        62.5264       88.77251         0.6128       -46.0861      -1.997864              1      0.9783073
      1959.0000         0.5928        1710.83        62.2211       88.27227         0.6102       -46.4137      -2.308743              1      0.9715491
      1959.5000         0.5919       1729.688        61.3433       86.83393         0.6076       -46.7412      -2.619522              1       0.964793
      1960.0000         0.5908       1738.402        60.2385       85.02366         0.6049       -47.0156      -2.877201              1      0.9591913
      1960.5000         0.5896       1741.205        58.6602       82.43751         0.6038       -47.1404      -2.985283              1      0.9568416
      1961.0000         0.5888       1741.459        57.3651       80.31541         0.6035       -47.2653      -3.093468              1      0.9544898
      1961.5000         0.5901       1734.377        56.5817       79.03177         0.6031       -47.3725      -3.183949      0.9793993      0.9525229
      1962.0000         0.5913       1721.664        58.1158       81.54549         0.6076       -47.4722      -3.266926              1       0.950719
      1962.5000         0.5926       1709.723        59.3369       83.54633         0.6126       -47.4622      -3.240208              1      0.9512998
      1963.0000         0.5967       1697.654         60.717       85.80771         0.6211       -47.4017      -3.162991              1      0.9529785
      1963.5000         0.6026       1681.221         62.643       88.96357         0.6314       -47.2965      -3.041073              1      0.9556289
      1964.0000         0.6085        1657.15        61.9708       87.86212         0.6427       -47.2139      -2.941753              1       0.957788
      1964.5000         0.6176       1627.443        61.2049       86.60716         0.6553       -47.2986      -3.009731              1      0.9563102
      1965.0000         0.6279       1594.791        60.2556       85.05168          0.668       -47.3834      -3.077816              1      0.9548301
      1965.5000         0.6365       1558.367        59.3131       83.50733         0.6806       -47.3638      -3.075912              1      0.9548715
      1966.0000         0.6448       1516.262        58.4188       82.04194         0.6932       -47.2967      -3.044754              1      0.9555488
      1966.5000          0.652       1474.551        57.9744       81.31378          0.712        -47.188         -2.972              1      0.9571304
      1967.0000         0.6703       1436.703        57.7681       80.97576         0.7344       -47.0793      -2.899242              1      0.9587121
      1967.5000         0.6942       1397.225        57.4406       80.43913         0.7612       -46.9645      -2.820389              1      0.9604263
      1968.0000         0.7156       1328.926        57.1129       79.90218         0.7912       -46.8099      -2.701729      0.9979187      0.9630059
      1968.5000         0.7411       1213.826        56.4366       78.79401         0.8217       -46.6553      -2.583076      0.9743407      0.9655853
      1969.0000         0.7695       1093.475         55.612       77.44286         0.8559       -46.4583       -2.42202      0.9455927      0.9690865
      1969.5000         0.7941        961.543        54.4648        75.5631         0.8949         -46.02      -2.019661      0.9055977      0.9778334
      1970.0000         0.8017       933.9824        53.0279       73.20865         0.9407       -45.5819      -1.617508      0.8555031      0.9865759
      1970.5000         0.8458       915.3525        51.8376       71.25826         0.9783       -44.8281     -0.8996468      0.8140056              1
      1971.0000         0.9812       900.5264        51.4871       70.68394         1.0122       -45.0292      -1.136696      0.8017859      0.9970284
      1971.5000         1.0311       893.1807        52.1162       71.71477         1.0346       -45.2302      -1.373638      0.8237184      0.9918774
