#------------------------------------------------------------------------------
# Created by    : vladimir.rabinovich
# Created on    : 09/19/2023 17:20:37
#------------------------------------------------------------------------------
~Version Information Section
VERS.           2.0     :   CWLS log ASCII Standard - VERSION 2.0
WRAP.           NO      :   One line per depth step
~Well Information Section
#MNEM       .UNIT                                         VALUE :DESCRIPTION
#------------------------------------------------------------------------------
STRT        .FT                                             495 :START DEPTH
STOP        .FT                                            7007 :STOP DEPTH
STEP        .FT                                             0.5 :STEP      
NULL        .                                           -999.25 :NULL      
COMP        .                                      SHELL OIL CO :COMPANY   
WELL        .                                OCS 00718 ST00BP00 :WELL      
FLD         .                                           WILDCAT :FIELD     
LOC         .                                                   :LOCATION  
CNTY        .                             GALVESTON LARGE BLOCK :LOCATION  
STAT        .                                             TEXAS :STATE     
CTRY        .                                     UNITED STATES :COUNTRY   
SRVC        .                                                   :SERVICE COMPANY
DATE        .                             9/13/2023 11:19:25 AM :LOG DATE  
API         .                                    42706000330000 :API NUMBER
UWI         .                                    42706000330000 :UNIQUE WELL ID
XCOORD      .                                  1012682.17104467 :SURFACE X 
YCOORD      .                                  10442833.5651685 :SURFACE Y 
LAT         .                                         28.761679 :LATITUDE  
LON         .                                        -94.959691 :LONGITUDE 
ELEV        .FT                                              75 :ELEVATION VALUE
ELEV_TYPE   .                                                KB :ELEVATION REFERENCE TYPE
~Curve Information Section
#MNEM       .UNIT                                      API CODE :CURVE DESCRIPTION
#------------------------------------------------------------------------------
DEPT        .FT                                                 :DEPTH     
ASN         .OHMM                                               :          
CILD        .MMHO                                               :          
DT          .US/F                                               :          
ILD         .OHMM                                               :          
LAT         .OHMM                                               :          
LN          .OHMM                                               :          
SP          .MV                                                 :          
SP_NORM     .MV                                                 :SP Normalized
VSH_SP      .V/V                                                :Volume of Shale from SP
~A        DEPTH            ASN           CILD             DT            ILD            LAT             LN             SP        SP_NORM         VSH_SP
# ...
      1793.5000         0.7644        -999.25        -999.25        -999.25         0.5952         0.7418       -77.2809       -21.8258       0.563484
      1794.0000         0.7665        -999.25        -999.25        -999.25          0.602         0.7645       -78.1278      -23.20451      0.5359098
      1794.5000         0.7641        -999.25        -999.25        -999.25         0.6103         0.7698       -78.3428      -23.55721      0.5288558
      1795.0000         0.7636        -999.25        -999.25        -999.25         0.6293         0.7438       -77.9335      -22.89628      0.5420744
      1795.5000         0.7653        -999.25        -999.25        -999.25         0.6478         0.7048       -76.5967      -20.72937      0.5854125
      1796.0000         0.7739        -999.25        -999.25        -999.25         0.6659         0.6876       -75.3281      -18.67321      0.6265359
      1796.5000         0.7671        -999.25        -999.25        -999.25           0.68         0.6897       -73.8717      -16.31211      0.6737578
      1797.0000         0.7454        -999.25        -999.25        -999.25         0.6991         0.6908       -72.0348      -13.33321      0.7333358
      1797.5000         0.7232        -999.25        -999.25        -999.25         0.7193         0.6912       -69.6515      -9.467143      0.8106571
      1798.0000         0.7318        -999.25        -999.25        -999.25         0.7369         0.6942       -67.7151      -6.326698       0.873466
      1798.5000         0.7462        -999.25        -999.25        -999.25         0.7582         0.6983       -67.2068      -5.505004      0.8898999
      1799.0000         0.7614        -999.25        -999.25        -999.25         0.7802         0.7027       -67.4275      -5.866963      0.8826607
      1799.5000         0.7775        -999.25        -999.25        -999.25            0.8         0.7069       -67.9165      -6.664552      0.8667089
      1800.0000         0.7919        -999.25        -999.25        -999.25         0.8085         0.7233       -68.6152      -7.802627      0.8439475
      1800.5000         0.7999        -999.25        -999.25        -999.25         0.8115         0.7509       -68.7134      -7.965703       0.840686
      1801.0000          0.801        -999.25        -999.25        -999.25         0.8054         0.7711       -68.3014      -7.300365      0.8539927
      1801.5000         0.7965        -999.25        -999.25        -999.25         0.7954         0.7797       -67.6268      -6.208663      0.8758267
      1802.0000         0.7876        -999.25        -999.25        -999.25         0.7895         0.7793        -67.219      -5.550151       0.888997
      1802.5000         0.7792        -999.25        -999.25        -999.25         0.8339         0.7689       -67.3541      -5.773128      0.8845375
      1803.0000         0.7711        -999.25        -999.25        -999.25         0.8382         0.7469        -67.562      -6.114301       0.877714
      1803.5000         0.7653        -999.25        -999.25        -999.25         0.8457         0.7248       -67.7311      -6.392489      0.8721502
      1804.0000         0.7601        -999.25        -999.25        -999.25         0.8582           0.72       -67.5406      -6.086807      0.8782639
      1804.5000         0.7625        -999.25        -999.25        -999.25         0.8712         0.7223       -67.2938      -5.689697      0.8862061
      1805.0000         0.7708        -999.25        -999.25        -999.25         0.8843         0.7278       -67.5574      -6.121319      0.8775736
      1805.5000         0.7802        -999.25        -999.25        -999.25         0.9006         0.7383       -67.1632      -5.484886      0.8903023
      1806.0000         0.7915        -999.25        -999.25        -999.25          0.917         0.7589       -66.8921      -5.048322      0.8990335
      1806.5000         0.8003        -999.25        -999.25        -999.25         0.9297         0.7758       -66.6111      -4.595692      0.9080862
      1807.0000         0.8005        -999.25        -999.25        -999.25         0.9411         0.7887       -66.3013      -4.096303       0.918074
      1807.5000         0.8011        -999.25        -999.25        -999.25         0.9486         0.7981       -66.4564      -4.351748      0.9129651
      1808.0000         0.8034        -999.25        -999.25        -999.25         0.9549         0.8034       -67.1735      -5.519708      0.8896058
      1808.5000         0.8119        -999.25        -999.25        -999.25         0.9552         0.8082       -67.7179      -6.407255      0.8718549
      1809.0000         0.8206        -999.25        -999.25        -999.25         0.9494         0.8132       -68.0706      -6.983539      0.8603292
      1809.5000         0.8246        -999.25        -999.25        -999.25         0.9212         0.8183       -68.1251      -7.075647      0.8584871
      1810.0000         0.8228        -999.25        -999.25        -999.25         0.8851          0.822       -68.1957      -7.193899       0.856122
      1810.5000         0.8185        -999.25        -999.25        -999.25         0.8699         0.8228       -68.4373      -7.589801       0.848204
      1811.0000         0.8049        -999.25        -999.25        -999.25         0.8642         0.8207       -68.7896      -8.165428      0.8366914
      1811.5000          0.794        -999.25        -999.25        -999.25         0.8777         0.8118       -69.0964      -8.667189      0.8266562
      1812.0000         0.7766        -999.25        -999.25        -999.25         0.8975         0.7951       -69.1603       -8.77457      0.8245086
      1812.5000         0.7649        -999.25        -999.25        -999.25          0.916         0.7756       -69.0782      -8.644884      0.8271023
      1813.0000         0.7467        -999.25        -999.25        -999.25         0.9229         0.7522       -69.0104      -8.538413      0.8292317
      1813.5000         0.7074        -999.25        -999.25        -999.25         0.9148          0.723       -68.8888      -8.344603      0.8331079
      1814.0000          0.678        -999.25        -999.25        -999.25         0.9128         0.6951       -68.0638      -7.008686      0.8598263
      1814.5000         0.6659        -999.25        -999.25        -999.25         0.9206         0.6733       -67.3481      -5.850253      0.8829949
      1815.0000         0.6606        -999.25        -999.25        -999.25         0.9399         0.6647       -66.9972      -5.284126      0.8943174
      1815.5000         0.6685        -999.25        -999.25        -999.25         0.9826         0.6714       -66.3987      -4.315973      0.9136806
      1816.0000         0.6859        -999.25        -999.25        -999.25         1.0059         0.6948       -65.5773      -2.985922      0.9402816
      1816.5000          0.709        -999.25        -999.25        -999.25         0.9925         0.7152       -64.6731      -1.521421      0.9695716
      1817.0000         0.7366        -999.25        -999.25        -999.25          0.969         0.7312       -64.3107      -0.936621      0.9812676
      1817.5000         0.7568        -999.25        -999.25        -999.25         0.9513         0.7493       -64.5237      -1.286075      0.9742785
      1818.0000         0.7787        -999.25        -999.25        -999.25           0.94         0.7688       -65.0287      -2.109653      0.9578069
      1818.5000         0.8093        -999.25        -999.25        -999.25         0.9335         0.7973        -65.536      -2.936966      0.9412607
      1819.0000         0.8425        -999.25        -999.25        -999.25         0.9261         0.8266       -65.6569      -3.136877      0.9372625
      1819.5000          0.887        -999.25        -999.25        -999.25         0.9135         0.8553       -65.2579      -2.492647       0.950147
