#------------------------------------------------------------------------------
# Created by    : vladimir.rabinovich
# Created on    : 09/19/2023 17:20:39
#------------------------------------------------------------------------------
~Version Information Section
VERS.           2.0     :   CWLS log ASCII Standard - VERSION 2.0
WRAP.           NO      :   One line per depth step
~Well Information Section
#MNEM       .UNIT                                         VALUE :DESCRIPTION
#------------------------------------------------------------------------------
STRT        .FT                                             523 :START DEPTH
STOP        .FT                                           11863 :STOP DEPTH
STEP        .FT                                             0.5 :STEP      
NULL        .                                           -999.25 :NULL      
COMP        .                                      SHELL OIL CO :COMPANY   
WELL        .                                OCS 00727 ST00BP00 :WELL      
FLD         .                                           WILDCAT :FIELD     
LOC         .                                                   :LOCATION  
CNTY        .                             GALVESTON LARGE BLOCK :LOCATION  
STAT        .                                             TEXAS :STATE     
CTRY        .                                     UNITED STATES :COUNTRY   
SRVC        .                                                   :SERVICE COMPANY
DATE        .                             9/13/2023 11:19:42 AM :LOG DATE  
API         .                                    42706000240000 :API NUMBER
UWI         .                                    42706000240000 :UNIQUE WELL ID
XCOORD      .                                  977080.798970248 :SURFACE X 
YCOORD      .                                   10388448.113324 :SURFACE Y 
LAT         .                                         28.610486 :LATITUDE  
LON         .                                        -95.067834 :LONGITUDE 
ELEV        .FT                                              76 :ELEVATION VALUE
ELEV_TYPE   .                                                KB :ELEVATION REFERENCE TYPE
~Curve Information Section
#MNEM       .UNIT                                      API CODE :CURVE DESCRIPTION
#------------------------------------------------------------------------------
DEPT        .FT                                                 :DEPTH     
ASN         .OHMM                                               :          
ILD         .OHMM                                               :          
LN          .OHMM                                               :          
SP          .MV                                                 :          
SP_NORM     .MV                                                 :SP Normalized
VSH_SP      .V/V                                                :Volume of Shale from SP
~A        DEPTH            ASN            ILD             LN             SP        SP_NORM         VSH_SP
       523.0000         0.0719        -999.25              0       -15.2356       1.382435              1
       523.5000         0.6286        -999.25         0.0341       -17.9118      -1.099387      0.9941537
       524.0000         0.6576        -999.25         0.3222       -50.5378       3.374036              1
       524.5000         0.6855        -999.25         0.6039       -48.9716      0.2466631              1
       525.0000         0.7122        -999.25         0.7284       -47.6041        3.29511              1
       525.5000         0.7629        -999.25           0.82       -46.7802       3.746449              1
       526.0000         0.9229        -999.25         0.8875       -45.9562        3.72966              1
       526.5000         1.0659        -999.25         0.9412       -45.3641       3.416386              1
       527.0000         1.1082        -999.25          0.995       -44.8519       3.928589              1
       527.5000         1.1302        -999.25         1.0488       -45.4055       3.374989              1
       528.0000         1.1522        -999.25         1.0855       -46.4634       2.317085              1
       528.5000         1.1584        -999.25          1.114       -47.4054       1.375088              1
       529.0000         1.1634        -999.25         1.1426       -47.9304      0.8500862              1
       529.5000         1.1684        -999.25         1.1711       -48.4554      0.3250885              1
       530.0000         1.1735        -999.25         1.2026       -48.9804      -0.199913              1
       530.5000         1.1782        -999.25         1.2363       -49.5054     -0.7249146              1
       531.0000         1.1828        -999.25           1.27       -49.7315     -0.9510117              1
       531.5000         1.1874        -999.25         1.3037       -49.9357      -1.155212      0.9908699
       532.0000         1.1921        -999.25         1.3374       -50.0292      -1.248714      0.9853697
       532.5000         1.2016        -999.25         1.3686       -49.9205      -1.140015      0.9917638
       533.0000         1.2156        -999.25         1.3999       -49.8117      -1.031212       0.998164
       533.5000         1.2296        -999.25         1.4311       -49.7029     -0.9224129              1
       534.0000         1.2435        -999.25         1.4624        -49.609     -0.8285141              1
       534.5000         1.2588        -999.25         1.4856       -49.6289     -0.8484116              1
       535.0000         1.2849        -999.25         1.5106       -49.6489      -0.868412              1
       535.5000         1.3109        -999.25         1.5491       -49.6688     -0.8883133              1
       536.0000         1.3678        -999.25         1.5876       -49.7477     -0.9672127              1
       536.5000         1.4463        -999.25         1.6261       -49.8508      -1.070313       0.995864
       537.0000          1.499        -999.25         1.6646       -49.9539      -1.173412      0.9897993
       537.5000         1.5155        -999.25         1.6871       -49.9581      -1.177612      0.9895522
       538.0000          1.532        -999.25         1.7086       -49.7513     -0.9708138              1
       538.5000         1.5481        -999.25           1.73       -49.5445     -0.7640114              1
       539.0000         1.5629        -999.25         1.7515       -49.3566     -0.5761147              1
       539.5000         1.5777        -999.25          1.773       -49.4108     -0.6303139              1
       540.0000         1.5936        -999.25         1.7945       -49.4651     -0.6846123              1
       540.5000         1.6107        -999.25          1.816       -49.5194     -0.7389145              1
       541.0000          1.628        -999.25         1.8214         -49.67     -0.8895111              1
       541.5000         1.6456        -999.25         1.8265       -49.8346      -1.054111       0.996817
       542.0000          1.663        -999.25         1.8316       -49.9992      -1.218712      0.9871346
       542.5000         1.6778        -999.25         1.8367       -50.7458      -1.965313      0.9432169
       543.0000         1.6926        -999.25         1.8418       -51.5629      -2.782413      0.8951522
       543.5000         1.7092        -999.25         1.8469       -52.5901      -3.809612      0.8347287
       544.0000         1.6595        -999.25          1.852       -53.4664      -4.685913      0.7831816
       544.5000         1.6442        -999.25         1.8571       -53.9774      -5.196915      0.7531227
       545.0000         1.6383        -999.25          1.856       -54.3498      -5.569313      0.7312169
       545.5000         1.6323        -999.25         1.8475       -54.7023      -5.921814      0.7104815
       546.0000         1.6266        -999.25          1.839       -54.8643      -6.083813      0.7009522
       546.5000         1.6209        -999.25         1.8305       -54.1072      -5.326714      0.7454875
       547.0000         1.6199        -999.25         1.8221        -53.526      -4.745514      0.7796757
       547.5000         1.6404        -999.25         1.8136       -53.1421      -4.361614       0.802258
       548.0000         1.6651        -999.25         1.8051       -52.7582      -3.977715      0.8248403
       548.5000         1.6899        -999.25         1.7967       -53.3777      -4.597214      0.7883992
       549.0000         1.7146        -999.25         1.7797        -53.982      -5.201511      0.7528523
       549.5000         1.7394        -999.25         1.7571       -52.7711      -3.990612      0.8240817
       550.0000         1.7639        -999.25         1.7346       -51.5192      -2.738712      0.8977228
       550.5000         1.7915        -999.25          1.712       -50.5288      -1.748314      0.9559816
       551.0000         1.7861        -999.25         1.6845       -51.3314      -2.550915      0.9087697
       551.5000         1.7714        -999.25          1.657       -52.1381      -3.357613      0.8613169
       552.0000         1.7566        -999.25         1.6295       -52.1401      -3.359612      0.8611993
       552.5000         1.7419        -999.25          1.602       -51.8523      -3.071812      0.8781287
       553.0000         1.7267        -999.25         1.5746       -51.5496      -2.769112      0.8959346
       553.5000         1.7107        -999.25         1.5489       -51.2468      -2.466312      0.9137464
       554.0000         1.6151        -999.25         1.5294       -50.9441      -2.163612      0.9315522
       554.5000         1.5367        -999.25         1.5098       -50.8286      -2.048115      0.9383462
       555.0000         1.4897        -999.25         1.4903        -50.806      -2.025513      0.9396757
       555.5000         1.4266        -999.25         1.4708       -50.7833      -2.002811      0.9410111
       556.0000         1.3466        -999.25         1.4513       -50.7606      -1.980114      0.9423462
       556.5000         1.2896        -999.25         1.4318       -50.7379      -1.957413      0.9436816
       557.0000         1.2606        -999.25         1.4123       -50.7153      -1.934814      0.9450109
       557.5000         1.2282        -999.25         1.4026       -50.7304      -1.949913      0.9441228
       558.0000          1.183        -999.25         1.3951       -50.8638      -2.083313      0.9362757
       558.5000         1.1645        -999.25         1.3876       -50.9973      -2.216812      0.9284228
       559.0000         1.1511        -999.25         1.3801       -51.1307      -2.350212      0.9205757
       559.5000         1.1377        -999.25         1.3726       -51.2641      -2.483612      0.9127287
       560.0000         1.1246        -999.25         1.3651       -51.3975      -2.617012      0.9048817
       560.5000         1.1169        -999.25         1.3576       -51.5011      -2.720612      0.8987876
