#------------------------------------------------------------------------------
# Created by    : vladimir.rabinovich
# Created on    : 09/19/2023 17:22:16
#------------------------------------------------------------------------------
~Version Information Section
VERS.           2.0     :   CWLS log ASCII Standard - VERSION 2.0
WRAP.           NO      :   One line per depth step
~Well Information Section
#MNEM       .UNIT                                         VALUE :DESCRIPTION
#------------------------------------------------------------------------------
STRT        .FT                                              10 :START DEPTH
STOP        .FT                                            7932 :STOP DEPTH
STEP        .FT                                             0.5 :STEP      
NULL        .                                           -999.25 :NULL      
COMP        .                                       ALLIED CORP :COMPANY   
WELL        .                               OCS G04069 ST00BP00 :WELL      
FLD         .                                           WILDCAT :FIELD     
LOC         .                                                   :LOCATION  
CNTY        .                             GALVESTON LARGE BLOCK :LOCATION  
STAT        .                                             TEXAS :STATE     
CTRY        .                                     UNITED STATES :COUNTRY   
SRVC        .                                                   :SERVICE COMPANY
DATE        .                             9/13/2023 11:18:53 AM :LOG DATE  
API         .                                    42706400790000 :API NUMBER
UWI         .                                    42706400790000 :UNIQUE WELL ID
XCOORD      .                                  993545.470392299 :SURFACE X 
YCOORD      .                                  10396443.6120929 :SURFACE Y 
LAT         .                                         28.633244 :LATITUDE  
LON         .                                        -95.016955 :LONGITUDE 
ELEV        .FT                                              82 :ELEVATION VALUE
ELEV_TYPE   .                                                KB :ELEVATION REFERENCE TYPE
~Curve Information Section
#MNEM       .UNIT                                      API CODE :CURVE DESCRIPTION
#------------------------------------------------------------------------------
DEPT        .FT                                                 :DEPTH     
CALI        .IN                                                 :          
CILD        .MMHO                                               :          
DPHI        .B                                                  :          
DRHO        .G/C3                                               :          
DT          .US/F                                               :          
GR          .GAPI                                               :          
GR_1        .GAPI                                               :          
GR_NORM     .GAPI                                               :GammaRay Normalized
ILD         .OHMM                                               :          
ILM         .OHMM                                               :          
NPHI        .%                                                  :          
SFL         .OHMM                                               :          
SP          .MV                                                 :          
SP_NORM     .MV                                                 :SP Normalized
VSH_GR      .V/V                                                :Volume of Shale from GR
VSH_SP      .V/V                                                :Volume of Shale from SP
~A        DEPTH           CALI           CILD           DPHI           DRHO             DT             GR           GR_1        GR_NORM            ILD            ILM           NPHI            SFL             SP        SP_NORM         VSH_GR         VSH_SP
# ...
      6394.0000        17.5909       1170.533        36.8685        -0.1069         121.36        43.8225         52.158       54.33381         0.8046         0.9367        45.0769         1.0964       -51.8318      -5.295887      0.4539107      0.9243445
      6394.5000        17.5853       1175.303        39.2504        -0.1262       114.5085        44.2859        50.7755       54.92056         0.7999         0.9345        48.9467         1.1067       -51.1425       -4.61121      0.4663948      0.9341256
      6395.0000        17.5832       1168.322        41.2057        -0.1598       109.7806        45.5389        50.2164       56.49429         0.7952         0.9347        53.2591         1.0903       -50.1887      -3.662029      0.4998785      0.9476853
      6395.5000        17.5858       1161.344        41.8069        -0.1757       109.5459        46.6811        52.2083       57.92953         0.8021           0.94        55.7953         1.0747       -49.8818      -3.359753      0.5304157      0.9520035
      6396.0000        17.5883        1149.02        39.9114        -0.1689       109.9073        47.8135        54.0126       59.35253           0.81         0.9533        56.9535         1.0667       -49.6138      -3.096371      0.5606921      0.9557661
      6396.5000        17.5921       1133.859        38.7008        -0.1554       110.5691        48.0076        52.2796       59.60265         0.8284         0.9694        55.5886         1.0706       -49.7846       -3.27179      0.5660139      0.9532601
      6397.0000        17.5962       1118.699        40.2346        -0.1608       111.4528        47.0011        50.0406       58.35201         0.8475         0.9779        52.9388         1.1088       -50.0689      -3.560715      0.5394045      0.9491326
      6397.5000        17.5946       1106.684        41.0007        -0.1581       113.5283        45.5635        50.0701       56.56251         0.8667          0.979        50.8875          1.128        -50.353      -3.849434        0.50133      0.9450081
      6398.0000        17.5663       1101.717        37.8876        -0.1425       116.2141        45.0053        51.0157       55.87225         0.8862         0.9786        49.3253         1.1458       -50.9283      -4.429352      0.4866437      0.9367235
      6398.5000         17.538       1096.758        31.8951        -0.1203       117.1703        45.7556        50.7104       56.81763         0.9058         0.9786        49.1651         1.1311       -51.5733      -5.078976       0.506758      0.9274432
      6399.0000        17.5015       1091.791        32.2242         -0.097       115.3771        49.1009        49.9012       61.00674         0.9144         0.9794        53.5095         1.1122        -51.989      -5.499294       0.595888      0.9214386
      6399.5000        17.4566        1086.83        35.1826        -0.1223       112.3347        51.9417         50.636       64.56523         0.9231         0.9854        53.9872         1.1128       -51.8047      -5.319614      0.6716006      0.9240055
      6400.0000        17.4117       1081.863         37.809        -0.1804       107.5309        51.1195        53.1718       63.54498         0.9319         0.9946        49.9572         1.1205       -51.4564      -4.975941      0.6498932      0.9289151
      6400.5000        17.4061       1080.332        41.4983        -0.2162        103.808        44.6601        54.6697       55.47823         0.9335         1.0038        48.1431         1.1528       -50.5308      -4.054958      0.4782601       0.942072
      6401.0000        17.4435       1080.934        42.2233        -0.2242       103.2755        41.8994        54.8528       52.03484         0.9321         1.0107        47.5709         1.1831       -49.8009      -3.329678      0.4049965      0.9524332
      6401.5000        17.4953        1083.25        36.2162        -0.1818       105.5754        42.2599        53.7481       52.49296         0.9308         1.0103        48.7415         1.1755       -49.4236      -2.957001      0.4147438      0.9577571
      6402.0000        17.5466       1090.434        30.4713        -0.1295       110.2822        45.0983        53.8086       56.04845         0.9232         1.0075        50.4973          1.168       -49.0464      -2.584419      0.4903927      0.9630798
      6402.5000         17.553       1097.617        29.8621        -0.0688       114.8434        49.9083        55.0765       62.06845         0.9087         0.9989        50.9166         1.1333       -49.2513      -2.793941      0.6184776      0.9600865
      6403.0000        17.5398       1104.803        30.7741        -0.0619        116.444        55.4126        57.2564       68.95631         0.8945         0.9901        48.1256         1.1057       -49.5449      -3.092163      0.7650279      0.9558262
      6403.5000        17.5134       1117.795        32.3275        -0.0816       114.9355        58.5709        58.3538       72.91168         0.8744         0.9812        44.9211         1.1098       -49.9135      -3.465385      0.8491848      0.9504945
      6404.0000         17.484       1135.605        34.0717        -0.1227       112.3929        60.3488        58.2788       75.14156         0.8461         0.9724        45.6622         1.1183       -50.3145      -3.871002      0.8966289      0.9446999
      6404.5000         17.414       1153.416        36.0386        -0.1526       110.6486        60.8997         56.932       75.83767         0.8187         0.9619        49.4301         1.1338       -50.5137      -4.074825      0.9114398      0.9417882
      6405.0000        17.2592       1168.936        38.2385        -0.1698       110.2396        59.0411        56.8749       73.52191         0.8017         0.9531        53.1252          1.147       -50.5684      -4.134148      0.8621683      0.9409407
      6405.5000        16.6415       1181.594        38.8558        -0.1603       110.6255         55.713        58.0724       69.36928         0.7913         0.9499        54.4151          1.123          -49.9      -3.470367      0.7738144      0.9504233
      6406.0000        16.1352       1194.252        36.1609        -0.1093       110.0105        52.9559        60.3261        65.9304          0.781         0.9574        51.7246         1.0995       -49.2858       -2.86079      0.7006468      0.9591315
      6406.5000        15.6819       1206.961        28.7795        -0.0456       106.5216        51.4401        61.4652       64.04315         0.7926         0.9692        43.4609         1.0837       -48.7129      -2.292507      0.6604926      0.9672499
      6407.0000        15.4937       1219.779        26.7296        -0.0158       101.0482        51.7432        60.4564        64.4295         0.8072         0.9902        40.4807         1.0753       -48.9535      -2.537727      0.6687129      0.9637467
      6407.5000        15.4051       1232.611        26.2227        -0.0306        97.0621        54.5707        57.1557       67.97138         0.8247         1.0142        39.8011         1.1186         -49.42       -3.00885       0.744072      0.9570164
      6408.0000        15.3605        1187.18        26.4839        -0.0301        96.9869         59.691        55.0801       74.37926         0.8462         1.0443        42.2379         1.1658       -50.1061       -3.69957      0.8804097       0.947149
      6408.5000        15.3573         1152.5        26.1312        -0.0107        99.5149         61.924        56.2808       77.17798         0.8683         1.0801        48.3818         1.2353       -50.9542      -4.552292       0.939957      0.9349673
      6409.0000        15.4329       1117.818        27.1984         0.0037       102.7321        60.9833        58.8103       76.00961         0.9012         1.1036        50.4252         1.2955       -51.7986      -5.401314       0.915098      0.9228384
      6409.5000        15.6265       1090.545        31.5457        -0.0193       106.1722        56.9093        58.5885       70.92461         0.9539          1.108        49.5378         1.3189       -52.6207      -6.228035      0.8069065      0.9110281
