#------------------------------------------------------------------------------
# Created by    : vladimir.rabinovich
# Created on    : 09/19/2023 17:20:57
#------------------------------------------------------------------------------
~Version Information Section
VERS.           2.0     :   CWLS log ASCII Standard - VERSION 2.0
WRAP.           NO      :   One line per depth step
~Well Information Section
#MNEM       .UNIT                                         VALUE :DESCRIPTION
#------------------------------------------------------------------------------
STRT        .FT                                             601 :START DEPTH
STOP        .FT                                            9006 :STOP DEPTH
STEP        .FT                                             0.5 :STEP      
NULL        .                                           -999.25 :NULL      
COMP        .                                        SUN OIL CO :COMPANY   
WELL        .                               OCS G01715 ST00BP00 :WELL      
FLD         .                                           WILDCAT :FIELD     
LOC         .                                                   :LOCATION  
CNTY        .                                BRAZOS LARGE BLOCK :LOCATION  
STAT        .                                             TEXAS :STATE     
CTRY        .                                     UNITED STATES :COUNTRY   
SRVC        .                                                   :SERVICE COMPANY
DATE        .                             9/13/2023 11:18:52 AM :LOG DATE  
API         .                                    42704000710000 :API NUMBER
UWI         .                                    42704000710000 :UNIQUE WELL ID
XCOORD      .                                  842225.693118258 :SURFACE X 
YCOORD      .                                  10368215.6352389 :SURFACE Y 
LAT         .                                          28.54781 :LATITUDE  
LON         .                                        -95.486614 :LONGITUDE 
ELEV        .FT                                              79 :ELEVATION VALUE
ELEV_TYPE   .                                                KB :ELEVATION REFERENCE TYPE
~Curve Information Section
#MNEM       .UNIT                                      API CODE :CURVE DESCRIPTION
#------------------------------------------------------------------------------
DEPT        .FT                                                 :DEPTH     
ASN         .OHMM                                               :          
CALI        .IN                                                 :          
CILD        .MMHO                                               :          
DT          .US/F                                               :          
ILD         .OHMM                                               :          
SP          .MV                                                 :          
SP_NORM     .MV                                                 :SP Normalized
VSH_SP      .V/V                                                :Volume of Shale from SP
~A        DEPTH            ASN           CALI           CILD             DT            ILD             SP        SP_NORM         VSH_SP
# ...
      6176.5000         1.2274        12.1741         922.54       130.8608         0.7792       -47.8071      -9.717335      0.8220952
      6177.0000         1.1987        12.2538       965.3945       132.6899         0.7802       -48.0974      -10.02351      0.8158468
      6177.5000         1.1996           12.2       1000.356       134.3425         0.8131         -50.17      -12.11197      0.7732251
      6178.0000         1.2184        12.1549       1030.191       133.6077         0.8447       -53.3871      -15.34494      0.7072461
      6178.5000         1.2408        12.1245       1274.195       131.9187         0.8624       -55.4591      -17.43281      0.6646365
      6179.0000         1.2596        12.1798       1289.432       130.0696         0.8878       -52.6738      -14.66338      0.7211555
      6179.5000         1.2745        12.2999       1246.332        128.313         0.9169       -43.6483      -5.653751      0.9050255
      6180.0000          1.287        12.3794       1214.117       128.9666         0.9557       -39.2871      -1.308422      0.9937057
      6180.5000         1.2873         12.326       1181.877       131.1562         0.9854       -38.2548     -0.2919884              1
      6181.0000         1.2776        12.2714       1149.662       133.0706         1.0001       -37.4978      0.4491425              1
      6181.5000         1.2678        12.2178        1109.16       133.9458         0.9953       -37.0459      0.8851738              1
      6182.0000         1.2643        12.1784       1028.514       133.9512         0.9925       -36.6799       1.235302              1
      6182.5000         1.2789        12.2111        1014.22        133.793         0.9901       -36.4627       1.436634              1
      6183.0000         1.2934        12.3162       999.9268       133.3127         0.9878       -36.3382       1.545265              1
      6183.5000         1.2976        12.3956        994.375       133.2183         0.9855       -36.2792       1.588394              1
      6184.0000         1.3071        12.3927       993.3164        133.261         0.9833       -36.3306       1.521126              1
      6184.5000         1.3203        12.3807       992.2559       132.6924         0.9811       -36.4331       1.402756              1
      6185.0000         1.3351         12.396       991.1973        131.855         0.9789       -36.8603      0.9596901              1
      6185.5000         1.3462        12.4988       994.3125       132.5005         0.9794       -37.6446      0.1595192              1
      6186.0000          1.352        12.5569       998.6641       132.5815          0.982       -38.7764     -0.9881516              1
      6186.5000         1.3474        12.5141       1003.016       131.4192         0.9853       -40.2443       -2.47192      0.9699608
      6187.0000         1.3434        12.4454       1007.374       129.4685         0.9907       -41.7752      -4.018688      0.9383941
      6187.5000         1.3633        12.3591       1011.726        128.561         0.9962       -43.4372      -5.696552       0.904152
      6188.0000         1.3981        12.2415       1014.388        127.739         1.0032        -45.531      -7.806221      0.8610975
      6188.5000         1.4028        12.1219       1014.783       128.8252         1.0109       -46.7438      -9.034893      0.8360226
      6189.0000         1.3642        12.0555       1015.179        127.816         1.0231       -46.7247      -9.031662      0.8360885
      6189.5000         1.3242        12.1602       1015.574       124.5585         1.0428       -45.8416      -8.164429      0.8537872
      6190.0000         1.3816        12.2885       1004.597       124.3982         1.0697       -44.3604        -6.6991      0.8836918
      6190.5000         1.4457        12.4021        992.498       127.3654         1.1032       -42.8403       -5.19487      0.9143904
      6191.0000         1.4719        12.4671       980.3994        129.749          1.127       -41.2196      -3.590038      0.9471421
      6191.5000          1.466        12.4698       968.2998        131.885         1.1382       -39.6802      -2.066505      0.9782346
      6192.0000         1.4481        12.4561       955.9561       132.0139         1.1314        -38.518     -0.9201775              1
      6192.5000          1.432        12.4453       935.1904       130.8408         1.1195       -37.7238     -0.1418457              1
      6193.0000         1.4193        12.4402       914.4004       129.9744          1.108       -37.3726      0.1934853              1
      6193.5000         1.4039         12.445       893.6104       129.8201         1.1031       -37.1205       0.429718              1
      6194.0000         1.3837        12.4209       888.3965        130.313         1.0991       -36.8649      0.6694489              1
      6194.5000         1.3604         12.395       888.8174       130.7219         1.1001       -36.6064      0.9120789              1
      6195.0000         1.3432        12.3727       889.2393       132.2817          1.101        -36.403       1.099609              1
      6195.5000          1.334        12.3639       889.1982       133.4805         1.1067       -36.2222       1.264542              1
      6196.0000         1.3359        12.3733        888.498        133.644         1.1135       -36.1153       1.355572              1
      6196.5000         1.3531        12.3812       887.7959       132.1768         1.1209       -36.0412       1.413803              1
      6197.0000          1.374        12.3843       887.0947       130.5254         1.1265       -36.0764       1.362732              1
      6197.5000         1.3903        12.3801       886.3936       128.5547         1.1311       -36.1107       1.312565              1
      6198.0000         1.4025         12.413       885.6924       127.9143         1.1313       -36.1318       1.275593              1
      6198.5000         1.4099        12.4789       883.9141       128.0571         1.1275       -36.2292       1.162327              1
      6199.0000         1.4138        12.5534       880.3525       128.0164         1.1027       -36.3631       1.012562              1
      6199.5000         1.4055        12.5702       876.7949       127.5294         1.0692       -36.5305      0.8292923              1
      6200.0000          1.391        12.5444       873.2334       127.3574         1.0303       -36.8967      0.4472198              1
      6200.5000         1.3682        12.4725       869.6758       127.4634          1.005        -37.812     -0.4839478              1
      6201.0000          1.344         12.418       866.1143          128.7         0.9837       -39.3271      -2.014915      0.9792874
      6201.5000         1.3228        12.4137       862.5566        129.853         0.9774       -40.9564      -3.660088      0.9457125
      6202.0000         1.3064         12.425       880.5186       130.3638         0.9746       -42.5541      -5.273655      0.9127825
      6202.5000         1.3115        12.3989       900.3281       130.7888         0.9756       -44.5654      -7.300823      0.8714118
      6203.0000          1.339        12.3492       920.5293       130.3901         0.9773       -45.5504      -8.301693      0.8509859
      6203.5000         1.3706        12.3295       940.7314       124.8213         0.9925       -43.8642      -6.631363      0.8850742
      6204.0000         1.4023        12.3753       961.3008       122.4526         1.0077       -41.7388      -4.521832      0.9281259
      6204.5000         1.4358        12.4076       982.2139       121.6458         1.0393       -40.7986        -3.5975      0.9469898
      6205.0000         1.4613        12.4075       1003.102       120.9302         1.0726       -40.5034      -3.318169      0.9526904
      6205.5000         1.4704          12.42       1007.932       124.8088         1.1032       -40.5336      -3.364239      0.9517502
