#------------------------------------------------------------------------------
# Created by    : vladimir.rabinovich
# Created on    : 09/19/2023 17:21:15
#------------------------------------------------------------------------------
~Version Information Section
VERS.           2.0     :   CWLS log ASCII Standard - VERSION 2.0
WRAP.           NO      :   One line per depth step
~Well Information Section
#MNEM       .UNIT                                         VALUE :DESCRIPTION
#------------------------------------------------------------------------------
STRT        .FT                                            2893 :START DEPTH
STOP        .FT                                           11505 :STOP DEPTH
STEP        .FT                                             0.5 :STEP      
NULL        .                                           -999.25 :NULL      
COMP        .                               SEAGULL ENERGY CORP :COMPANY   
WELL        .                               OCS G06105 ST00BP00 :WELL      
FLD         .                              GALVESTON BLOCK 0343 :FIELD     
LOC         .                                                   :LOCATION  
CNTY        .                             GALVESTON LARGE BLOCK :LOCATION  
STAT        .                                             TEXAS :STATE     
CTRY        .                                     UNITED STATES :COUNTRY   
SRVC        .                                                   :SERVICE COMPANY
DATE        .                             9/13/2023 11:19:54 AM :LOG DATE  
API         .                                    42706403720000 :API NUMBER
UWI         .                                    42706403720000 :UNIQUE WELL ID
XCOORD      .                                  915246.934514234 :SURFACE X 
YCOORD      .                                  10428990.3748243 :SURFACE Y 
LAT         .                                         28.718869 :LATITUDE  
LON         .                                        -95.262866 :LONGITUDE 
ELEV        .FT                                              96 :ELEVATION VALUE
ELEV_TYPE   .                                                KB :ELEVATION REFERENCE TYPE
~Curve Information Section
#MNEM       .UNIT                                      API CODE :CURVE DESCRIPTION
#------------------------------------------------------------------------------
DEPT        .FT                                                 :DEPTH     
CAL         .IN                                                 :          
CNCSS       .%                                                  :          
CORR        .G/CM3                                              :          
DT24        .US/FT                                              :          
GR_NORM     .GAPI                                               :GammaRay Normalized
GRR         .GAPI                                               :          
ILD         .OHMM                                               :          
ILM         .OHMM                                               :          
PORDSS      .%                                                  :          
RFOC        .OHMM                                               :          
SP          .MV                                                 :          
SP_NORM     .MV                                                 :SP Normalized
VSH_GR      .V/V                                                :Volume of Shale from GR
VSH_SP      .V/V                                                :Volume of Shale from SP
~A        DEPTH            CAL          CNCSS           CORR           DT24        GR_NORM            GRR            ILD            ILM         PORDSS           RFOC             SP        SP_NORM         VSH_GR         VSH_SP
# ...
     10309.0000         7.4412        42.2394        -0.0899       130.3839       79.18832        83.5377         0.2714         0.2739        24.9412         0.4072         -2.095        -5.2657      0.9827302         0.9357
     10309.5000         7.4412        42.2397        -0.0586       134.4757       78.91875        83.3379          0.284         0.2814        24.3529         0.4072        -1.7975        -4.9702      0.9769946      0.9399143
     10310.0000         7.4412        41.7599        -0.0392       136.9347       75.25875        80.5885         0.2973         0.2892          23.64         0.4146        -1.7993         -4.974      0.8991224      0.9398528
     10310.5000          7.402          40.92        -0.0745       132.8571       71.08266         77.451         0.3113         0.2945          23.28         0.4335           -1.8        -4.9767      0.8102695      0.9398071
     10311.0000         7.3235          40.08        -0.1137          127.2       67.94981         75.098         0.3261         0.3085          23.04         0.4413           -2.4        -5.5787      0.7436129      0.9312015
     10311.5000         7.1275           39.6        -0.1059          121.6       68.98901        75.8824         0.3353         0.3231          22.68         0.4452           -2.4        -5.5807      0.7657237      0.9311657
     10312.0000         7.0882          40.44        -0.0745       117.7551       69.76732        76.4706         0.3513         0.3231          22.08         0.4573           -2.7        -5.8827      0.7822834      0.9268443
     10312.5000         6.9706          40.92        -0.0471       118.7755       69.24191        76.0784         0.3545         0.3142          21.12         0.4655           -2.7        -5.8847      0.7711044      0.9268086
     10313.0000         7.0098          41.16        -0.0275          120.8       69.23802        76.0784         0.3578         0.3056          20.76         0.4739           -2.7        -5.8867      0.7710217      0.9267743
     10313.5000         7.0882          41.04        -0.0157          123.8       70.01648        76.6667         0.3513         0.2972          20.64         0.4573           -2.7        -5.8886      0.7875847      0.9267386
     10314.0000         7.1667          41.64        -0.0118          126.4       71.57697        77.8431         0.3353         0.2865          21.12         0.4413           -2.4        -5.5906      0.8207867      0.9309886
     10314.5000         7.2451          42.72        -0.0039          128.8       71.57309        77.8431         0.3231         0.2813           21.6         0.4296           -1.8        -4.9926       0.820704      0.9395257
     10315.0000         7.3235          43.44              0       131.4286        69.4833        76.2745         0.3085         0.2813          21.72         0.4145           -1.2        -4.3946      0.7762404      0.9480614
     10315.5000         7.4412          43.92        -0.0196       133.6735        68.1757        75.2941            0.3         0.2787          22.32            0.4           -0.3        -3.4966      0.7484192      0.9608828
     10316.0000         7.4804           43.8        -0.0392        135.102       70.51852        77.0588            0.3         0.2839          23.16            0.4         0.8824        -2.3162      0.7982663      0.9777386
     10316.5000         7.5196          43.32        -0.0275       134.0816       72.86131        78.8235         0.2972         0.2865        24.1176         0.4109         0.8824        -2.3182      0.8481131      0.9777043
     10317.0000         7.4804          42.72        -0.0118       131.8367       75.20412        80.5882         0.2918         0.2865        24.7059         0.4296         0.8824        -2.3202      0.8979599      0.9776686
     10317.5000         7.4804           42.6         0.0041       130.6122       74.67883        80.1961         0.2918         0.2839             24         0.4413         0.5882        -2.6164      0.8867835        0.97343
     10318.0000         7.4804           43.2        -0.0314       130.2041       74.15341        79.8039         0.2918         0.2813          23.04         0.4258         0.2941        -2.9125      0.8756045      0.9691929
     10318.5000         7.4804           43.2        -0.0784       131.4286       73.88876        79.6078         0.2972         0.2761          22.92         0.4145              0        -3.2086      0.8699737      0.9649571
     10319.0000         7.4804          42.96        -0.0902       132.6531        72.5813        78.6275         0.2945         0.2761          23.28         0.4072           -0.3        -3.5105      0.8421553      0.9606357
     10319.5000         7.5196          43.68         -0.098       133.6735       71.01292         77.451         0.2891         0.2711          23.52         0.4036           -0.6        -3.8125      0.8087854      0.9563143
     10320.0000         7.5196          44.64         -0.102       134.4898       69.96609        76.6667         0.2813         0.2661          23.88         0.3963              0        -3.2145      0.7865127        0.96485
     10320.5000         7.5196          45.48        -0.1059       135.9184       69.69373        76.4648         0.2711         0.2589        24.2388         0.3926         0.2855         -2.931      0.7807177      0.9688943
     10321.0000         7.5196          45.96        -0.0982       137.1429       71.24133        77.6315         0.2711         0.2565        24.9506          0.389         0.2712        -2.9473      0.8136452      0.9686543
     10321.5000         7.5588          46.08        -0.0786       138.5714       73.31045        79.1904         0.2711         0.2565        25.6623         0.3854         0.5518        -2.6687      0.8576691      0.9726272
     10322.0000         7.5588          45.84        -0.0669       139.5918       74.33649        79.9649         0.2711         0.2613        26.6093         0.3854         0.5377        -2.6848      0.8794997        0.97239
     10322.5000         7.5196           45.6        -0.0512       139.5918       74.84352        80.3491         0.2736         0.2637        27.0857          0.389         0.5236        -2.7009      0.8902877      0.9721543
     10323.0000         7.5196          45.48        -0.0631       138.3673       75.61359        80.9311         0.2761         0.2686         26.621         0.3963         0.5095         -2.717      0.9066721      0.9719172
     10323.5000         7.5196          45.24        -0.0829        137.551       77.69734         82.501         0.2787         0.2711        25.5681         0.4072         0.1993        -3.0292      0.9510072        0.96745
     10324.0000         7.5196          44.88        -0.0869       136.7347        78.4718        83.0863         0.2787         0.2686        24.6329         0.4072         0.1848        -3.0456      0.9674851      0.9672071
     10324.5000         7.5588          44.64         -0.087       136.7347       76.61832        81.6954         0.2787         0.2661        24.2859         0.4072         0.1703        -3.0621      0.9280493      0.9669657
     10325.0000         7.5196          44.52        -0.0831       137.3469       76.07721        81.2914         0.2736         0.2637        24.4094         0.4036         0.1558        -3.0786      0.9165364      0.9667228
     10325.5000         7.5196          44.64        -0.0912       139.1837       77.64076        82.4701         0.2686         0.2589        25.0034         0.3926         0.1383        -3.0981      0.9498035      0.9664372
     10326.0000         7.5196          44.88        -0.1031            141       78.94579        83.4544         0.2637         0.2565        25.2446          0.389         0.1237        -3.1147      0.9775701      0.9661943
     10326.5000         7.4804             45        -0.1231          142.4       78.40536        83.0509         0.2518         0.2518        25.1328         0.3854         0.1091        -3.1313      0.9660714        0.96595
