#------------------------------------------------------------------------------
# Created by    : vladimir.rabinovich
# Created on    : 09/19/2023 17:22:54
#------------------------------------------------------------------------------
~Version Information Section
VERS.           2.0     :   CWLS log ASCII Standard - VERSION 2.0
WRAP.           NO      :   One line per depth step
~Well Information Section
#MNEM       .UNIT                                         VALUE :DESCRIPTION
#------------------------------------------------------------------------------
STRT        .FT                                             606 :START DEPTH
STOP        .FT                                           12703 :STOP DEPTH
STEP        .FT                                             0.5 :STEP      
NULL        .                                           -999.25 :NULL      
COMP        .                                       PURE OIL CO :COMPANY   
WELL        .                                OCS 00099 ST00BP00 :WELL      
FLD         .                                           WILDCAT :FIELD     
LOC         .                                                   :LOCATION  
CNTY        .                             GALVESTON LARGE BLOCK :LOCATION  
STAT        .                                             TEXAS :STATE     
CTRY        .                                     UNITED STATES :COUNTRY   
SRVC        .                                                   :SERVICE COMPANY
DATE        .                             9/13/2023 11:19:42 AM :LOG DATE  
API         .                                    42706000130000 :API NUMBER
UWI         .                                    42706000130000 :UNIQUE WELL ID
XCOORD      .                                  1105531.03723184 :SURFACE X 
YCOORD      .                                  10576678.2721464 :SURFACE Y 
LAT         .                                         29.133654 :LATITUDE  
LON         .                                        -94.675857 :LONGITUDE 
ELEV        .FT                                              66 :ELEVATION VALUE
ELEV_TYPE   .                                                KB :ELEVATION REFERENCE TYPE
~Curve Information Section
#MNEM       .UNIT                                      API CODE :CURVE DESCRIPTION
#------------------------------------------------------------------------------
DEPT        .FT                                                 :DEPTH     
LAT         .OHMM                                               :          
LN          .OHMM                                               :          
SN          .OHMM                                               :          
SP          .MV                                                 :          
SP_NORM     .MV                                                 :SP Normalized
VSH_SP      .V/V                                                :Volume of Shale from SP
~A        DEPTH            LAT             LN             SN             SP        SP_NORM         VSH_SP
# ...
      1404.0000         1.5573         1.6428         1.6721       -73.8967      -8.036186       0.612601
      1404.5000         1.5484         1.6396         1.6721       -74.3563      -8.505928      0.5764671
      1405.0000         1.5396         1.6365          1.672       -74.8801      -9.039864      0.5353951
      1405.5000         1.5341         1.6334         1.6719       -75.4038      -9.573708      0.4943302
      1406.0000         1.5324         1.6303         1.6719       -75.9276      -10.10764      0.4532588
      1406.5000         1.5308         1.6264         1.6718       -76.5416      -10.73178      0.4052476
      1407.0000         1.5291         1.6207          1.672       -75.5668       -9.76712      0.4794523
      1407.5000         1.5274          1.615         1.6743       -74.2942      -8.504654      0.5765651
      1408.0000         1.5338         1.6093         1.6767       -73.2361      -7.456688      0.6571779
      1408.5000         1.5439         1.6036          1.679       -73.3002       -7.53093       0.651467
      1409.0000          1.554         1.5962         1.6814       -73.3644       -7.60527      0.6457484
      1409.5000         1.5642         1.5783         1.6838       -72.7991       -7.05011      0.6884531
      1410.0000         1.5883         1.5605         1.6826       -72.1233      -6.384438      0.7396587
      1410.5000         1.6274         1.5427         1.6561       -71.4475      -5.718781       0.790863
      1411.0000         1.6665         1.5249         1.6295       -70.7719      -5.053314      0.8420528
      1411.5000         1.7056          1.507         1.6029        -69.965      -4.256554       0.903342
      1412.0000         1.7576         1.4892         1.5764       -69.1346      -3.436287      0.9664395
      1412.5000         1.8469         1.4638         1.5459       -68.3043      -2.616127              1
      1413.0000         1.9362         1.4384         1.4973       -67.5656      -1.887566              1
      1413.5000         2.0254          1.413         1.4487       -67.1115      -1.443611              1
      1414.0000         2.1366         1.3875         1.4001       -66.6571     -0.9993362              1
      1414.5000         2.2825         1.3621         1.3515        -66.203     -0.5553818              1
      1415.0000         2.4205         1.3385         1.3029       -65.7489     -0.1114197              1
      1415.5000         2.4973         1.3201         1.3054       -65.2318      0.3955536              1
      1416.0000         2.4743         1.3017         1.3627       -64.5203       1.096909              1
      1416.5000         2.4398         1.3023         1.4199       -64.6086      0.9984741              1
      1417.0000         2.4053         1.3231         1.4771       -65.1418      0.4551315              1
      1417.5000          2.351         1.3439         1.5343        -65.675    -0.08820343              1
      1418.0000         2.2794         1.3648         1.5916       -66.2081     -0.6314392              1
      1418.5000         2.2077         1.3856         1.6488       -66.7412      -1.174683              1
      1419.0000          2.124          1.407         1.7158       -67.2744      -1.718018              1
      1419.5000         1.9917         1.4301         1.7993       -67.8076      -2.261353              1
      1420.0000         1.8595         1.4531         1.8828        -68.425      -2.888893              1
      1420.5000         1.7535         1.4762         1.9663       -69.0551      -3.529129      0.9592978
      1421.0000         1.6594         1.4993         1.9611       -69.6851      -4.169266      0.9100565
      1421.5000         1.5734         1.5223          1.938       -70.3149      -4.809204      0.8608304
      1422.0000         1.5326         1.5454         1.9077       -70.9238      -5.428238      0.8132125
      1422.5000         1.5016         1.5681         1.8774       -71.4816      -5.996178      0.7695248
      1423.0000         1.4869         1.5801         1.8471       -72.0392      -6.563919      0.7258524
      1423.5000         1.4722         1.5921         1.8169       -72.0826      -6.617455      0.7217343
      1424.0000         1.4575         1.6042         1.7866       -71.9076      -6.452591      0.7344161
      1424.5000         1.4372         1.6162         1.7563       -71.5691      -6.124229      0.7596747
      1425.0000         1.4084         1.6231          1.726       -70.8577      -5.422966       0.813618
      1425.5000         1.3796          1.613         1.7233       -70.1461      -4.721504      0.8675766
      1426.0000         1.3706         1.6028         1.7274       -69.5325      -4.118042      0.9139968
      1426.5000         1.3734         1.5926         1.7316       -69.7762       -4.37188      0.8944708
      1427.0000          1.377         1.5825         1.7357       -70.1581      -4.763908      0.8643147
      1427.5000         1.3831         1.5723         1.7398       -70.8507      -5.466652      0.8102576
      1428.0000         1.3892         1.5556         1.7589       -71.5435      -6.169594      0.7561851
      1428.5000         1.3953         1.5314         1.7875       -72.2362      -6.872429      0.7021208
      1429.0000         1.4014         1.5072          1.816       -72.9288      -7.575165      0.6480643
      1429.5000          1.425          1.483         1.8446       -73.3066      -7.963104      0.6182228
      1430.0000         1.4583         1.4588         1.8732       -73.5676      -8.234238      0.5973663
      1430.5000         1.4916         1.4346         1.9018       -73.8285       -8.50528       0.576517
      1431.0000          1.528         1.4118         1.8618        -73.384      -8.070915      0.6099296
      1431.5000         1.5661         1.3978         1.8018       -72.8922      -7.589249      0.6469809
      1432.0000         1.6043         1.3837         1.7417       -72.4006      -7.107788      0.6840163
      1432.5000         1.6424         1.3697         1.6817       -71.9089      -6.626228      0.7210594
      1433.0000         1.6805         1.3557         1.6217       -71.4172      -6.144661       0.758103
      1433.5000         1.7187         1.3754         1.5617       -70.7395      -5.477104      0.8094535
      1434.0000         1.7516         1.3964         1.5153       -69.9956       -4.74334      0.8658969
      1434.5000         1.7831         1.4174         1.4746       -69.2518      -4.009682      0.9223322
      1435.0000         1.8146         1.4383         1.5033       -68.5079      -3.275909      0.9787762
      1435.5000         1.8206         1.4593         1.5563       -67.7534      -2.531555              1
      1436.0000         1.7839         1.4802         1.6093       -66.9769       -1.76519              1
      1436.5000         1.7473         1.5023         1.6623       -66.4608      -1.259232              1
      1437.0000         1.7106         1.5247         1.7153       -67.6671      -2.475662              1
      1437.5000         1.6739         1.5471         1.7512       -68.8732      -3.691902      0.9467767
      1438.0000         1.6372         1.5695         1.7786       -70.0793      -4.908142      0.8532199
      1438.5000         1.6089         1.5919         1.8061       -71.2854      -6.124374      0.7596635
      1439.0000         1.5851         1.6143         1.8336        -72.087      -6.936111      0.6972222
      1439.5000         1.5614         1.6306         1.8409       -72.8712      -7.730453      0.6361189
      1440.0000         1.5491         1.6463         1.8231       -73.2582      -8.127594      0.6055697
      1440.5000         1.5678          1.662         1.8054       -73.3469      -8.226425      0.5979673
      1441.0000         1.5865         1.6777         1.7876       -73.4357      -8.325363      0.5903567
      1441.5000         1.6052         1.6866         1.7698       -73.5583      -8.458099      0.5801462
