#------------------------------------------------------------------------------
# Created by    : vladimir.rabinovich
# Created on    : 09/19/2023 17:20:38
#------------------------------------------------------------------------------
~Version Information Section
VERS.           2.0     :   CWLS log ASCII Standard - VERSION 2.0
WRAP.           NO      :   One line per depth step
~Well Information Section
#MNEM       .UNIT                                         VALUE :DESCRIPTION
#------------------------------------------------------------------------------
STRT        .FT                                             510 :START DEPTH
STOP        .FT                                            8711 :STOP DEPTH
STEP        .FT                                             0.5 :STEP      
NULL        .                                           -999.25 :NULL      
COMP        .                                      SHELL OIL CO :COMPANY   
WELL        .                                OCS 00708 ST00BP00 :WELL      
FLD         .                                           WILDCAT :FIELD     
LOC         .                                                   :LOCATION  
CNTY        .                             GALVESTON LARGE BLOCK :LOCATION  
STAT        .                                             TEXAS :STATE     
CTRY        .                                     UNITED STATES :COUNTRY   
SRVC        .                                                   :SERVICE COMPANY
DATE        .                             9/13/2023 11:19:25 AM :LOG DATE  
API         .                                    42706000300000 :API NUMBER
UWI         .                                    42706000300000 :UNIQUE WELL ID
XCOORD      .                                  1082576.09526943 :SURFACE X 
YCOORD      .                                  10493698.2734572 :SURFACE Y 
LAT         .                                         28.904546 :LATITUDE  
LON         .                                        -94.743912 :LONGITUDE 
ELEV        .FT                                              92 :ELEVATION VALUE
ELEV_TYPE   .                                                KB :ELEVATION REFERENCE TYPE
~Curve Information Section
#MNEM       .UNIT                                      API CODE :CURVE DESCRIPTION
#------------------------------------------------------------------------------
DEPT        .FT                                                 :DEPTH     
ASN         .OHMM                                               :          
CILD        .MMHO                                               :          
DT          .US/F                                               :          
ILD         .OHMM                                               :          
SP          .MV                                                 :          
SP_NORM     .MV                                                 :SP Normalized
VSH_SP      .V/V                                                :Volume of Shale from SP
~A        DEPTH            ASN           CILD             DT            ILD             SP        SP_NORM         VSH_SP
# ...
      1046.0000         1.2199       711.8711        -999.25         1.4555       -91.7882      -1.544296              1
      1046.5000         1.2062       715.9482        -999.25         1.4736       -92.0729      -1.828995              1
      1047.0000          1.206       716.6895        -999.25         1.4917       -92.3573      -2.113396      0.9929128
      1047.5000         1.2123       712.6816        -999.25         1.5098       -92.6431      -2.399193      0.9750504
      1048.0000         1.2186       702.9355        -999.25         1.5279       -92.9327      -2.688797      0.9569502
      1048.5000         1.2249        691.833        -999.25          1.546       -93.2224      -2.978493      0.9388442
      1049.0000         1.2312        682.167        -999.25         1.5566        -92.969      -2.725098      0.9546814
      1049.5000         1.2375       675.0859        -999.25         1.5644       -92.5554      -2.311493      0.9805317
      1050.0000         1.2438       668.0068        -999.25         1.5722       -92.1417      -1.897797              1
      1050.5000         1.2479       662.9385        -999.25           1.58       -91.8618      -1.617897              1
      1051.0000         1.2492       659.6699        -999.25         1.5878       -91.6334      -1.389496              1
      1051.5000         1.2488        656.667        -999.25         1.5956        -91.405      -1.161095              1
      1052.0000         1.2484       655.4834        -999.25         1.6037       -91.2594      -1.015495              1
      1052.5000          1.248       654.2998        -999.25          1.612       -91.3903      -1.146393              1
      1053.0000         1.2467       658.5254        -999.25         1.5745       -91.5211      -1.277199              1
      1053.5000         1.2434       667.5205        -999.25          1.531        -91.652      -1.408096              1
      1054.0000         1.2379       678.6953        -999.25         1.4875       -91.7828      -1.538895              1
      1054.5000           1.22       696.3848        -999.25         1.4441       -91.9137      -1.669792              1
      1055.0000          1.195       713.6816        -999.25         1.4152       -92.0356      -1.791695              1
      1055.5000         1.1772       729.9424        -999.25         1.3907       -92.1517      -1.907799              1
      1056.0000         1.1702       747.1807        -999.25         1.3661       -91.8555      -1.611595              1
      1056.5000         1.1634       755.4219        -999.25         1.3453       -91.4589      -1.214996              1
      1057.0000         1.1581       757.7549        -999.25         1.3488       -91.0624     -0.8184967              1
      1057.5000         1.1528       760.0869        -999.25         1.3522       -90.6658     -0.4218979              1
      1058.0000         1.1491       754.9219        -999.25         1.3926        -90.907     -0.6630936              1
      1058.5000         1.1487       748.8701        -999.25         1.4343       -91.1573     -0.9133987              1
      1059.0000         1.1691       742.8164        -999.25         1.4759       -91.4077      -1.163795              1
      1059.5000         1.2073        723.792        -999.25         1.5195        -91.645      -1.401093              1
      1060.0000         1.2483       690.4355        -999.25         1.5731       -91.8776      -1.633698              1
      1060.5000         1.2661        661.625        -999.25         1.6109       -91.3495      -1.105598              1
      1061.0000         1.2822       639.8564        -999.25         1.6095       -90.9199     -0.6759949              1
      1061.5000         1.2927       627.7354        -999.25         1.6081       -90.6071     -0.3631973              1
      1062.0000         1.3032       625.0605        -999.25         1.6231       -90.2941    -0.05019379              1
      1062.5000         1.3137       622.3848        -999.25         1.6396       -89.9982      0.2457047              1
      1063.0000         1.3242         619.71        -999.25         1.6561       -89.8115      0.4324036              1
      1063.5000         1.3424       616.9492        -999.25         1.6819       -89.6249      0.6190033              1
      1064.0000         1.3638       608.9424        -999.25         1.7208         -89.98      0.2639008              1
      1064.5000         1.3856       600.9346        -999.25         1.7596       -90.6921     -0.4481964              1
      1065.0000         1.4087       592.9277        -999.25         1.7968       -91.1417     -0.8977966              1
      1065.5000         1.4354       579.6436        -999.25         1.8254       -91.5519      -1.307999              1
      1066.0000         1.4602       566.2354        -999.25         1.8541       -91.7169         -1.473              1
      1066.5000         1.4801       553.4297        -999.25         1.8827       -91.8818      -1.637894              1
      1067.0000         1.4923       541.9863        -999.25         1.9068       -92.0469      -1.802994              1
      1067.5000         1.5017        530.543        -999.25         1.9304       -92.2158      -1.971893              1
      1068.0000         1.5111       520.8203        -999.25         1.9539       -92.3905      -2.146599      0.9908376
      1068.5000         1.5191       516.5918        -999.25         1.9768       -92.5652      -2.321297       0.979919
      1069.0000         1.5214       512.3633        -999.25         1.9973       -92.7399      -2.495995      0.9690003
      1069.5000         1.5203       508.2153        -999.25         2.0135       -92.8916      -2.647697      0.9595189
      1070.0000         1.5191       506.7925        -999.25         1.9158       -93.0371      -2.793198      0.9504251
      1070.5000         1.5179        505.605        -999.25          1.838       -93.0586      -2.814697      0.9490814
      1071.0000         1.5116       510.5044        -999.25         1.7937       -92.8719      -2.627998      0.9607501
      1071.5000         1.5052       518.3965        -999.25         1.7608       -92.6853      -2.441399      0.9724126
      1072.0000         1.4988       534.2168        -999.25         1.7279       -92.4766      -2.232697      0.9854565
      1072.5000         1.4844       550.8379        -999.25         1.6934       -92.2559      -2.011993      0.9992504
      1073.0000         1.4629       568.8301        -999.25          1.657       -92.0043      -1.760399              1
      1073.5000          1.398       595.7383        -999.25         1.6207       -92.1082      -1.864296              1
      1074.0000         1.3519       631.3857        -999.25         1.5812       -92.3466      -2.102699      0.9935813
      1074.5000         1.3291       656.2627        -999.25         1.5411       -92.5754      -2.331497      0.9792814
      1075.0000         1.3206       672.6992        -999.25         1.4984       -92.8043      -2.560394      0.9649754
      1075.5000          1.312       686.7402        -999.25         1.4569       -93.0333      -2.789398      0.9506626
      1076.0000         1.3064       700.6689        -999.25         1.4603       -93.2064      -2.962494      0.9398441
      1076.5000          1.301         707.04        -999.25         1.5074       -93.3713      -3.127396      0.9295378
      1077.0000          1.296       704.0684        -999.25         1.5591       -93.5363      -3.292397      0.9192252
      1077.5000         1.2921       701.0967        -999.25         1.6107       -93.7179      -3.473999      0.9078751
      1078.0000          1.317       685.1514        -999.25         1.6951        -93.923      -3.679092      0.8950567
      1078.5000         1.3529       660.2803        -999.25         1.8054       -93.2401      -2.996193      0.9377379
      1079.0000         1.3888       632.0469        -999.25         1.9157       -92.5574      -2.313499      0.9804063
