#------------------------------------------------------------------------------
# Created by    : vladimir.rabinovich
# Created on    : 09/19/2023 17:20:32
#------------------------------------------------------------------------------
~Version Information Section
VERS.           2.0     :   CWLS log ASCII Standard - VERSION 2.0
WRAP.           NO      :   One line per depth step
~Well Information Section
#MNEM       .UNIT                                         VALUE :DESCRIPTION
#------------------------------------------------------------------------------
STRT        .FT                                             502 :START DEPTH
STOP        .FT                                            9122 :STOP DEPTH
STEP        .FT                                             0.5 :STEP      
NULL        .                                           -999.25 :NULL      
COMP        .                       BLUE DOLPHIN EXPLORATION CO :COMPANY   
WELL        .                                OCS 00714 ST00BP00 :WELL      
FLD         .                              GALVESTON BLOCK 0288 :FIELD     
LOC         .                                                   :LOCATION  
CNTY        .                             GALVESTON LARGE BLOCK :LOCATION  
STAT        .                                             TEXAS :STATE     
CTRY        .                                     UNITED STATES :COUNTRY   
SRVC        .                                                   :SERVICE COMPANY
DATE        .                             9/13/2023 11:19:24 AM :LOG DATE  
API         .                                    42706000680000 :API NUMBER
UWI         .                                    42706000680000 :UNIQUE WELL ID
XCOORD      .                                  1088404.51782723 :SURFACE X 
YCOORD      .                                  10474534.8869196 :SURFACE Y 
LAT         .                                        28.8520809 :LATITUDE  
LON         .                                       -94.7248272 :LONGITUDE 
ELEV        .FT                                              85 :ELEVATION VALUE
ELEV_TYPE   .                                                KB :ELEVATION REFERENCE TYPE
~Curve Information Section
#MNEM       .UNIT                                      API CODE :CURVE DESCRIPTION
#------------------------------------------------------------------------------
DEPT        .FT                                                 :DEPTH     
ASN         .OHMM                                               :          
ASN_1       .OHMM                                               :          
DT          .US/F                                               :          
ILD         .OHMM                                               :          
LAT         .OHMM                                               :          
LN          .OHMM                                               :          
SP          .MV                                                 :          
SP_NORM     .MV                                                 :SP Normalized
VSH_SP      .V/V                                                :Volume of Shale from SP
~A        DEPTH            ASN          ASN_1             DT            ILD            LAT             LN             SP        SP_NORM         VSH_SP
# ...
      2913.5000        -999.25         0.9988        -999.25        -999.25         1.4086         0.7719       -40.1981      -1.218925      0.9915798
      2914.0000        -999.25         1.0023        -999.25        -999.25         1.4062          0.771       -40.8961      -1.910305      0.9649883
      2914.5000        -999.25         0.9974        -999.25        -999.25         1.4037         0.7701       -41.2294      -2.236988      0.9524235
      2915.0000        -999.25         0.9863        -999.25        -999.25         1.3992         0.7692       -41.0826      -2.083569      0.9583243
      2915.5000        -999.25         0.9871        -999.25        -999.25         1.3947         0.7683       -40.4266      -1.420952      0.9838095
      2916.0000        -999.25         0.9898        -999.25        -999.25         1.3934         0.7674       -40.1422      -1.129932      0.9950026
      2916.5000        -999.25         0.9915        -999.25        -999.25         1.3923         0.7661       -40.7059      -1.687016      0.9735763
      2917.0000        -999.25         0.9825        -999.25        -999.25         1.3888         0.7615       -41.0021      -1.976601      0.9624385
      2917.5000        -999.25         0.9736        -999.25        -999.25         1.3821         0.7569       -41.0337      -2.001579      0.9614777
      2918.0000        -999.25         0.9662        -999.25        -999.25         1.3754         0.7523       -40.6735      -1.634762      0.9755861
      2918.5000        -999.25         0.9629        -999.25        -999.25         1.3668         0.7478       -40.2175      -1.172142      0.9933792
      2919.0000        -999.25         0.9662        -999.25        -999.25         1.3508         0.7436       -39.7782      -0.726223              1
      2919.5000        -999.25         0.9755        -999.25        -999.25         1.3348         0.7394       -39.1837     -0.1251068              1
      2920.0000        -999.25         0.9753        -999.25        -999.25         1.3184         0.7352       -39.5984     -0.5331879              1
      2920.5000        -999.25         0.9618        -999.25        -999.25         1.2982         0.7309       -39.7144     -0.6425743              1
      2921.0000        -999.25         0.9526        -999.25        -999.25         1.2779         0.7316       -39.7307      -0.652256              1
      2921.5000        -999.25         0.9461        -999.25        -999.25         1.2643         0.7328       -40.4429      -1.357838       0.986237
      2922.0000        -999.25         0.9429        -999.25        -999.25         1.2703          0.734       -41.1032      -2.011517      0.9610955
      2922.5000        -999.25         0.9409        -999.25        -999.25         1.2764         0.7356       -41.6757        -2.5774      0.9393308
      2923.0000        -999.25          0.941        -999.25        -999.25         1.2846         0.7377        -42.701      -3.596081      0.9001507
      2923.5000        -999.25         0.9408        -999.25        -999.25            1.3         0.7398       -42.6495      -3.537964       0.902386
      2924.0000        -999.25         0.9398        -999.25        -999.25         1.3155         0.7419       -41.8819      -2.763744      0.9321637
      2924.5000        -999.25         0.9393        -999.25        -999.25         1.3274         0.7466         -41.13       -2.00523      0.9613373
      2925.0000        -999.25         0.9391        -999.25        -999.25         1.3339         0.7517       -40.6306       -1.49921      0.9807996
      2925.5000        -999.25          0.939        -999.25        -999.25         1.3403         0.7568       -40.5102      -1.372192      0.9856849
      2926.0000        -999.25          0.937        -999.25        -999.25         1.3407         0.7599        -40.413      -1.268372       0.989678
      2926.5000        -999.25         0.9344        -999.25        -999.25         1.3411         0.7628       -39.6735     -0.5222549              1
      2927.0000        -999.25         0.9265        -999.25        -999.25         1.3388         0.7655       -39.0068       0.151062              1
      2927.5000        -999.25         0.9191        -999.25        -999.25         1.3337         0.7632       -38.6155      0.5489807              1
      2928.0000        -999.25          0.915        -999.25        -999.25         1.3286         0.7608       -39.2653    -0.09420395              1
      2928.5000        -999.25         0.9186        -999.25        -999.25         1.3193         0.7567       -40.0316     -0.8538857              1
      2929.0000        -999.25         0.9232        -999.25        -999.25         1.3089         0.7511       -40.1879      -1.003567      0.9998628
      2929.5000        -999.25         0.9263        -999.25        -999.25         1.2967         0.7474       -39.8318     -0.6408463              1
      2930.0000        -999.25         0.9267        -999.25        -999.25         1.2827         0.7492       -39.7027     -0.5051308              1
      2930.5000        -999.25         0.9257        -999.25        -999.25         1.2686         0.7509       -40.6862       -1.48201      0.9814612
      2931.0000        -999.25          0.925        -999.25        -999.25         1.2585         0.7549       -41.3117      -2.100891      0.9576581
      2931.5000        -999.25         0.9234        -999.25        -999.25         1.2538         0.7609       -41.5773      -2.359875      0.9476971
      2932.0000        -999.25         0.9204        -999.25        -999.25         1.2492         0.7669       -41.5269       -2.30286        0.94989
      2932.5000        -999.25         0.9116        -999.25        -999.25         1.2479         0.7705        -41.657      -2.426342      0.9451407
      2933.0000        -999.25         0.9013        -999.25        -999.25          1.252         0.7739       -41.6777      -2.440422      0.9445992
      2933.5000        -999.25          0.896        -999.25        -999.25         1.2561          0.776        -41.137      -1.893105      0.9656498
      2934.0000        -999.25         0.8929        -999.25        -999.25         1.2553         0.7765       -40.3228      -1.072285      0.9972198
      2934.5000        -999.25         0.8937        -999.25        -999.25         1.2513         0.7769       -39.8422     -0.5850677              1
      2935.0000        -999.25         0.8989        -999.25        -999.25         1.2459          0.779       -40.2977      -1.033947      0.9986944
      2935.5000        -999.25         0.9139        -999.25        -999.25         1.2314         0.7816       -41.0355      -1.765129      0.9705719
      2936.0000        -999.25         0.9293        -999.25        -999.25         1.2169         0.7869       -41.9891      -2.712116      0.9341494
      2936.5000        -999.25         0.9411        -999.25        -999.25         1.1894         0.7934       -41.8977      -2.614098      0.9379193
      2937.0000        -999.25          0.954        -999.25        -999.25         1.1616         0.8013       -41.5178      -2.227577      0.9527855
      2937.5000        -999.25         0.9722        -999.25        -999.25         1.1429         0.8134        -41.582       -2.28516      0.9505708
      2938.0000        -999.25         0.9891        -999.25        -999.25         1.1283         0.8255        -41.457      -2.153542       0.955633
      2938.5000        -999.25         0.9967        -999.25        -999.25          1.114         0.8336       -40.7962      -1.486122       0.981303
      2939.0000        -999.25         0.9929        -999.25        -999.25         1.1155         0.8406       -40.1801     -0.8634033              1
      2939.5000        -999.25         0.9818        -999.25        -999.25          1.117         0.8452       -39.8202     -0.4968872              1
