#------------------------------------------------------------------------------
# Created by    : vladimir.rabinovich
# Created on    : 09/19/2023 17:20:32
#------------------------------------------------------------------------------
~Version Information Section
VERS.           2.0     :   CWLS log ASCII Standard - VERSION 2.0
WRAP.           NO      :   One line per depth step
~Well Information Section
#MNEM       .UNIT                                         VALUE :DESCRIPTION
#------------------------------------------------------------------------------
STRT        .FT                                             502 :START DEPTH
STOP        .FT                                            9122 :STOP DEPTH
STEP        .FT                                             0.5 :STEP      
NULL        .                                           -999.25 :NULL      
COMP        .                       BLUE DOLPHIN EXPLORATION CO :COMPANY   
WELL        .                                OCS 00714 ST00BP00 :WELL      
FLD         .                              GALVESTON BLOCK 0288 :FIELD     
LOC         .                                                   :LOCATION  
CNTY        .                             GALVESTON LARGE BLOCK :LOCATION  
STAT        .                                             TEXAS :STATE     
CTRY        .                                     UNITED STATES :COUNTRY   
SRVC        .                                                   :SERVICE COMPANY
DATE        .                             9/13/2023 11:19:24 AM :LOG DATE  
API         .                                    42706000680000 :API NUMBER
UWI         .                                    42706000680000 :UNIQUE WELL ID
XCOORD      .                                  1088404.51782723 :SURFACE X 
YCOORD      .                                  10474534.8869196 :SURFACE Y 
LAT         .                                        28.8520809 :LATITUDE  
LON         .                                       -94.7248272 :LONGITUDE 
ELEV        .FT                                              85 :ELEVATION VALUE
ELEV_TYPE   .                                                KB :ELEVATION REFERENCE TYPE
~Curve Information Section
#MNEM       .UNIT                                      API CODE :CURVE DESCRIPTION
#------------------------------------------------------------------------------
DEPT        .FT                                                 :DEPTH     
ASN         .OHMM                                               :          
ASN_1       .OHMM                                               :          
DT          .US/F                                               :          
ILD         .OHMM                                               :          
LAT         .OHMM                                               :          
LN          .OHMM                                               :          
SP          .MV                                                 :          
SP_NORM     .MV                                                 :SP Normalized
VSH_SP      .V/V                                                :Volume of Shale from SP
~A        DEPTH            ASN          ASN_1             DT            ILD            LAT             LN             SP        SP_NORM         VSH_SP
# ...
       740.5000        -999.25         1.7849        -999.25        -999.25          1.948         1.7001       -34.4822      -1.148865      0.9942744
       741.0000        -999.25         1.7165        -999.25        -999.25         2.0114         1.6824       -34.9448      -1.611465      0.9764821
       741.5000        -999.25          1.674        -999.25        -999.25         2.0841         1.6599       -35.1875      -1.854164      0.9671475
       742.0000        -999.25         1.6222        -999.25        -999.25         2.1791         1.6363       -35.1294      -1.796062      0.9693822
       742.5000        -999.25         1.5539        -999.25        -999.25         2.2822         1.5974       -34.6671      -1.333763      0.9871629
       743.0000        -999.25         1.4971        -999.25        -999.25         2.3957         1.5479       -33.9745     -0.6411629              1
       743.5000        -999.25         1.4557        -999.25        -999.25          2.502          1.497       -33.2107      0.1226349              1
       744.0000        -999.25         1.4252        -999.25        -999.25         2.6254         1.4413       -32.7534       0.579937              1
       744.5000        -999.25         1.4038        -999.25        -999.25         2.7197         1.3857       -32.3408      0.9925346              1
       745.0000        -999.25         1.3702        -999.25        -999.25         2.7356          1.334       -32.4134      0.9199371              1
       745.5000        -999.25         1.3556        -999.25        -999.25         2.7129         1.2843       -32.7426      0.5907364              1
       746.0000        -999.25         1.3519        -999.25        -999.25         2.6713         1.2375        -32.857      0.4763374              1
       746.5000        -999.25          1.361        -999.25        -999.25         2.5921         1.1954       -32.4368      0.8965378              1
       747.0000        -999.25          1.359        -999.25        -999.25         2.5107         1.1712       -31.7833       1.550035              1
       747.5000        -999.25         1.3252        -999.25        -999.25         2.4255         1.1543       -31.7131       1.620235              1
       748.0000        -999.25         1.2953        -999.25        -999.25         2.3489         1.1444       -32.1781       1.155235              1
       748.5000        -999.25         1.2787        -999.25        -999.25         2.2843         1.1377       -32.5534      0.7799377              1
       749.0000        -999.25         1.2762        -999.25        -999.25         2.2338         1.1324       -32.9407      0.3926353              1
       749.5000        -999.25         1.2781        -999.25        -999.25         2.1927         1.1315       -33.0808      0.2525368              1
       750.0000        -999.25         1.2866        -999.25        -999.25         2.1381         1.1303       -33.0363      0.2970352              1
       750.5000        -999.25         1.3007        -999.25        -999.25         2.1143         1.1281        -33.151      0.1823349              1
       751.0000        -999.25          1.298        -999.25        -999.25         2.1023         1.1258       -33.4342     -0.1008644              1
       751.5000        -999.25         1.2839        -999.25        -999.25         2.0994         1.1211       -34.0371     -0.7037659              1
       752.0000        -999.25         1.2687        -999.25        -999.25         2.0883         1.1161       -33.5217     -0.1883659              1
       752.5000        -999.25         1.2556        -999.25        -999.25         2.0763         1.1094       -32.6409      0.6924362              1
       753.0000        -999.25         1.2445        -999.25        -999.25         2.0698         1.1007       -32.4194      0.9139366              1
       753.5000        -999.25         1.2357        -999.25        -999.25         2.0731         1.0919       -32.5284      0.8049355              1
       754.0000        -999.25         1.2297        -999.25        -999.25         2.0765         1.0868        -33.361    -0.02766418              1
       754.5000        -999.25         1.2273        -999.25        -999.25         2.0934         1.0826       -34.5765      -1.243164      0.9906476
       755.0000        -999.25         1.2291        -999.25        -999.25          2.119         1.0785       -35.4294      -2.096066      0.9578437
       755.5000        -999.25         1.2324        -999.25        -999.25         2.1435         1.0767       -35.9393      -2.605965      0.9382321
       756.0000        -999.25         1.2349        -999.25        -999.25         2.1651          1.076        -35.973      -2.639664       0.936936
       756.5000        -999.25          1.236        -999.25        -999.25          2.186         1.0754       -35.6095      -2.276165      0.9509167
       757.0000        -999.25         1.2311        -999.25        -999.25         2.2009         1.0726       -34.7963      -1.462963      0.9821937
       757.5000        -999.25         1.2208        -999.25        -999.25         2.1944         1.0649       -33.1682      0.1651344              1
       758.0000        -999.25         1.2115        -999.25        -999.25          2.175         1.0572       -31.9023       1.431036              1
       758.5000        -999.25         1.2049        -999.25        -999.25         2.1333         1.0492       -31.7577       1.575636              1
       759.0000        -999.25          1.201        -999.25        -999.25         2.0866         1.0412       -31.9389       1.394436              1
       759.5000        -999.25         1.1988        -999.25        -999.25         2.0374         1.0355       -32.3425      0.9908371              1
       760.0000        -999.25         1.1985        -999.25        -999.25         1.9967         1.0348       -32.9958      0.3375359              1
       760.5000        -999.25         1.2013        -999.25        -999.25          1.956         1.0335       -33.0754      0.2579346              1
       761.0000        -999.25         1.1986        -999.25        -999.25          1.912         1.0295       -32.9332       0.400135              1
       761.5000        -999.25         1.1902        -999.25        -999.25         1.8536         1.0254       -32.6662      0.6671371              1
       762.0000        -999.25         1.1845        -999.25        -999.25         1.7913         1.0214       -32.4673      0.8660355              1
       762.5000        -999.25         1.1859        -999.25        -999.25         1.7272         1.0208       -32.6229      0.7104378              1
       763.0000        -999.25         1.1931        -999.25        -999.25         1.6782         1.0201       -33.0037      0.3296356              1
       763.5000        -999.25         1.2023        -999.25        -999.25         1.6414         1.0217       -33.5065     -0.1731644              1
       764.0000        -999.25         1.2097        -999.25        -999.25         1.6211         1.0244       -34.0965     -0.7631645              1
       764.5000        -999.25         1.2085        -999.25        -999.25         1.6097         1.0225       -34.4985      -1.165165      0.9936475
       765.0000        -999.25         1.1996        -999.25        -999.25         1.5993         1.0203       -34.9844      -1.651066       0.974959
       765.5000        -999.25         1.1911        -999.25        -999.25         1.5889         1.0301       -35.8268      -2.493465       0.942559
       766.0000        -999.25         1.1864        -999.25        -999.25         1.5774         1.0399        -36.188      -2.854664      0.9286668
       766.5000        -999.25          1.191        -999.25        -999.25         1.5664         1.0356       -36.0262      -2.692863      0.9348899
