#------------------------------------------------------------------------------
# Created by    : vladimir.rabinovich
# Created on    : 09/19/2023 17:22:53
#------------------------------------------------------------------------------
~Version Information Section
VERS.           2.0     :   CWLS log ASCII Standard - VERSION 2.0
WRAP.           NO      :   One line per depth step
~Well Information Section
#MNEM       .UNIT                                         VALUE :DESCRIPTION
#------------------------------------------------------------------------------
STRT        .FT                                             252 :START DEPTH
STOP        .FT                                           11321 :STOP DEPTH
STEP        .FT                                             0.5 :STEP      
NULL        .                                           -999.25 :NULL      
COMP        .                          HUMBLE OIL & REFINING CO :COMPANY   
WELL        .                                OCS 00615 ST00BP00 :WELL      
FLD         .                                           WILDCAT :FIELD     
LOC         .                                                   :LOCATION  
CNTY        .                             GALVESTON LARGE BLOCK :LOCATION  
STAT        .                                             TEXAS :STATE     
CTRY        .                                     UNITED STATES :COUNTRY   
SRVC        .                                                   :SERVICE COMPANY
DATE        .                             9/13/2023 11:19:42 AM :LOG DATE  
API         .                                    42706000270000 :API NUMBER
UWI         .                                    42706000270000 :UNIQUE WELL ID
XCOORD      .                                  1043929.24471964 :SURFACE X 
YCOORD      .                                  10527500.2798036 :SURFACE Y 
LAT         .                                         28.995876 :LATITUDE  
LON         .                                        -94.866344 :LONGITUDE 
ELEV        .FT                                              67 :ELEVATION VALUE
ELEV_TYPE   .                                                KB :ELEVATION REFERENCE TYPE
~Curve Information Section
#MNEM       .UNIT                                      API CODE :CURVE DESCRIPTION
#------------------------------------------------------------------------------
DEPT        .FT                                                 :DEPTH     
LAT         .OHMM                                               :          
LN          .OHMM                                               :          
SN          .OHMM                                               :          
SP          .MV                                                 :          
SP_NORM     .MV                                                 :SP Normalized
VSH_SP      .V/V                                                :Volume of Shale from SP
~A        DEPTH            LAT             LN             SN             SP        SP_NORM         VSH_SP
# ...
      1734.0000         0.6074         0.5178         0.7442      -127.9172      -27.66949      0.3161668
      1734.5000         0.5915         0.5039         0.7382      -126.9502      -26.69652      0.3411149
      1735.0000         0.5755           0.49         0.7321      -125.9834      -25.72373      0.3660581
      1735.5000          0.566         0.4759         0.7261      -125.0164      -24.75076      0.3910061
      1736.0000         0.5607         0.4619           0.72      -124.0493      -23.77768      0.4159569
      1736.5000         0.5554         0.4478         0.7106      -122.9702       -22.6926      0.4437796
      1737.0000         0.5501         0.4337         0.6994      -121.8477      -21.56413      0.4727148
      1737.5000         0.5448         0.4196         0.6883      -120.7251      -20.43554      0.5016528
      1738.0000         0.5515         0.4055         0.6692      -121.2139      -20.91836      0.4892729
      1738.5000         0.5648          0.419         0.6465      -122.8193      -22.51778      0.4482622
      1739.0000         0.5781         0.4367         0.6642      -125.6133       -25.3058      0.3767743
      1739.5000         0.5913         0.4543         0.6852      -131.1719      -30.85843      0.2343993
      1740.0000         0.5915          0.472         0.7061      -135.8975      -35.57805      0.1133834
      1740.5000         0.5845         0.4969         0.7083       -136.269      -35.94357      0.1040111
      1741.0000         0.5774         0.5308         0.7024      -135.4736      -35.14219      0.1245593
      1741.5000          0.569         0.5648         0.6965       -134.678       -34.3406      0.1451128
      1742.0000          0.559         0.5987         0.6947      -133.8826      -33.53923      0.1656608
      1742.5000          0.549         0.6326         0.6965      -133.0872      -32.73785      0.1862089
      1743.0000          0.539         0.6665         0.6984      -133.0903      -32.73497      0.1862828
      1743.5000          0.529         0.6281         0.7002      -134.8589      -34.49759      0.1410875
      1744.0000         0.5282          0.587         0.7021      -135.7085      -35.34121      0.1194562
      1744.5000          0.545         0.5475         0.7097      -133.8071      -33.43383      0.1683633
      1745.0000         0.5617          0.508         0.7281      -131.9053      -31.52605      0.2172807
      1745.5000         0.5785         0.4686         0.7464      -130.0039      -29.61868      0.2661876
      1746.0000         0.5952         0.4291         0.7647      -128.1025      -27.71129      0.3150952
      1746.5000          0.612         0.3965         0.7831      -126.7449      -26.34772      0.3500585
      1747.0000         0.6287         0.3988         0.8014      -125.7898      -25.38663      0.3747017
      1747.5000         0.6455         0.4011          0.812      -124.8345      -24.42536      0.3993497
      1748.0000         0.6361         0.4033         0.8219      -123.8516      -23.43648      0.4247057
      1748.5000         0.6248         0.4056         0.8318      -122.5562      -22.13509      0.4580745
      1749.0000         0.6134         0.4079         0.8284      -121.2612      -20.83412      0.4914328
      1749.5000         0.6007         0.4102         0.8197      -119.9663      -19.53324      0.5247887
      1750.0000         0.5855         0.4124         0.8138      -118.6479      -18.20886      0.5587471
      1750.5000         0.5704          0.437         0.8238      -121.3008      -20.85577      0.4908776
      1751.0000         0.5552         0.4616         0.8339      -131.1426       -30.6916       0.238677
      1751.5000           0.54         0.4863         0.8247      -134.0029      -33.54592      0.1654892
      1752.0000         0.5249         0.5109         0.7788      -135.8828      -35.41984      0.1174401
      1752.5000         0.5097         0.5356         0.7328      -137.6328      -37.16386     0.07272143
      1753.0000         0.4946         0.5602         0.6869      -139.0151      -38.54019     0.03743098
      1753.5000         0.4666         0.5849         0.6421      -140.3975      -39.91661    0.002138187
      1754.0000         0.4328         0.6095         0.6378      -141.7798      -41.29293              0
      1754.5000          0.399         0.6339         0.6967      -141.1196      -40.62675              0
      1755.0000         0.3848         0.6574         0.7556      -139.0771      -38.57827     0.03645462
      1755.5000         0.4037          0.681         0.8145      -137.0352      -36.53039     0.08896441
      1756.0000         0.4225         0.7045         0.8718      -135.0156      -34.50481      0.1409024
      1756.5000         0.4449         0.7166         0.9281      -133.0317      -32.51492       0.191925
      1757.0000         0.4856         0.7187         0.9843      -131.0479      -30.52515       0.242945
      1757.5000         0.5263         0.6691         0.9463       -129.064      -28.53527      0.2939674
      1758.0000         0.5671         0.6196         0.8995      -127.3789      -26.84419      0.3373284
      1758.5000         0.5586         0.5654         0.8595       -128.707      -28.16631      0.3034279
      1759.0000         0.5456         0.5036         0.8457      -130.8105      -30.26383      0.2496453
      1759.5000         0.5148         0.4419          0.832      -132.8379      -32.28526      0.1978138
      1760.0000         0.4829         0.3801         0.8182      -133.7153      -33.15668      0.1754698
      1760.5000          0.451         0.3239         0.8044      -131.5698      -31.00519      0.2306362
      1761.0000         0.4191         0.2966         0.7906      -129.4243      -28.85372       0.285802
      1761.5000         0.3872         0.2693         0.7811      -127.2788      -26.70224      0.3409682
      1762.0000         0.3698          0.242         0.8133       -124.749      -24.16646      0.4059882
      1762.5000         0.3904           0.26         0.8455       -122.208      -21.61948      0.4712953
      1763.0000         0.4109          0.287         0.8777       -121.041       -20.4465      0.5013717
      1763.5000         0.4314          0.314         0.9099      -124.9551      -24.35462      0.4011635
      1764.0000          0.466          0.341         0.8992      -128.1709      -27.56444      0.3188606
      1764.5000         0.5171         0.3679         0.8311      -131.3867      -30.77427      0.2365572
      1765.0000         0.5473         0.3949         0.7629      -134.6816      -34.06318      0.1522262
      1765.5000          0.504         0.4219         0.7111      -137.1621       -36.5377     0.08877701
      1766.0000         0.4606         0.4538          0.672       -138.916      -38.28563     0.04395822
      1766.5000         0.4173         0.4898         0.6329      -138.3125      -37.67615     0.05958596
      1767.0000         0.3868         0.5257         0.5938      -136.7256      -36.08327       0.100429
      1767.5000         0.3612         0.5617         0.5671      -135.1997      -34.55139      0.1397079
      1768.0000         0.3438         0.5976         0.5536      -133.6738      -33.01951       0.178987
      1768.5000          0.365         0.5917         0.5498      -132.1479      -31.48763      0.2182658
      1769.0000         0.3861         0.5798          0.567      -130.6221      -29.95585      0.2575423
      1769.5000         0.4073          0.568         0.5842      -129.0962      -28.42398       0.296821
      1770.0000         0.4284         0.5561         0.6014      -128.1355      -27.45729      0.3216079
      1770.5000         0.4496         0.5442         0.6186      -127.2131      -26.52891      0.3454126
      1771.0000         0.4708         0.5323         0.6358      -122.7754      -22.08524      0.4593529
      1771.5000         0.4919         0.5204          0.653      -120.7119      -20.01575      0.5124165
