#------------------------------------------------------------------------------
# Created by    : vladimir.rabinovich
# Created on    : 09/19/2023 17:20:39
#------------------------------------------------------------------------------
~Version Information Section
VERS.           2.0     :   CWLS log ASCII Standard - VERSION 2.0
WRAP.           NO      :   One line per depth step
~Well Information Section
#MNEM       .UNIT                                         VALUE :DESCRIPTION
#------------------------------------------------------------------------------
STRT        .FT                                             520 :START DEPTH
STOP        .FT                                           11478 :STOP DEPTH
STEP        .FT                                             0.5 :STEP      
NULL        .                                           -999.25 :NULL      
COMP        .                                      SHELL OIL CO :COMPANY   
WELL        .                                OCS 00730 ST00BP00 :WELL      
FLD         .                                           WILDCAT :FIELD     
LOC         .                                                   :LOCATION  
CNTY        .                             GALVESTON LARGE BLOCK :LOCATION  
STAT        .                                             TEXAS :STATE     
CTRY        .                                     UNITED STATES :COUNTRY   
SRVC        .                                                   :SERVICE COMPANY
DATE        .                             9/13/2023 11:19:42 AM :LOG DATE  
API         .                                    42706000260000 :API NUMBER
UWI         .                                    42706000260000 :UNIQUE WELL ID
XCOORD      .                                  961416.888637646 :SURFACE X 
YCOORD      .                                  10353223.2377546 :SURFACE Y 
LAT         .                                         28.512881 :LATITUDE  
LON         .                                        -95.114699 :LONGITUDE 
ELEV        .FT                                              72 :ELEVATION VALUE
ELEV_TYPE   .                                                KB :ELEVATION REFERENCE TYPE
~Curve Information Section
#MNEM       .UNIT                                      API CODE :CURVE DESCRIPTION
#------------------------------------------------------------------------------
DEPT        .FT                                                 :DEPTH     
ASN         .OHMM                                               :          
CILD        .MMHO                                               :          
ILD         .OHMM                                               :          
LAT         .OHMM                                               :          
LN          .OHMM                                               :          
SP          .MV                                                 :          
SP_NORM     .MV                                                 :SP Normalized
VSH_SP      .V/V                                                :Volume of Shale from SP
~A        DEPTH            ASN           CILD            ILD            LAT             LN             SP        SP_NORM         VSH_SP
# ...
      1965.5000         0.6724        -999.25        -999.25         0.5164         0.5601       -66.9802      -4.947674      0.8771803
      1966.0000         0.6783        -999.25        -999.25         0.5362         0.5613       -66.0894      -4.053364      0.9144432
      1966.5000         0.6835        -999.25        -999.25         0.5559         0.5613       -65.1986      -3.159054      0.9517061
      1967.0000         0.6795        -999.25        -999.25         0.5757         0.5602       -64.3077      -2.264645      0.9889731
      1967.5000         0.6755        -999.25        -999.25         0.5954         0.5591       -63.1997       -1.15313              1
      1968.0000         0.6716        -999.25        -999.25         0.6152         0.5581       -62.0522   -0.002120972              1
      1968.5000         0.6676        -999.25        -999.25          0.635          0.557       -61.3079      0.7456894              1
      1969.0000         0.6637        -999.25        -999.25         0.6547         0.5559       -60.7559       1.301197              1
      1969.5000         0.6603        -999.25        -999.25         0.6621         0.5549       -60.2037       1.856907              1
      1970.0000         0.6576        -999.25        -999.25         0.6672         0.5538       -59.1471       2.917019              1
      1970.5000         0.6549        -999.25        -999.25         0.6722         0.5528       -57.8845       4.183132              1
      1971.0000         0.6521        -999.25        -999.25         0.6772         0.5517       -56.7553       5.315842              1
      1971.5000         0.6494        -999.25        -999.25         0.6822         0.5506       -55.6736       6.401051              1
      1972.0000         0.6467        -999.25        -999.25         0.6872         0.5496       -55.9413        6.13686              1
      1972.5000         0.6439        -999.25        -999.25         0.6906         0.5485       -56.2971       5.784569              1
      1973.0000         0.6412        -999.25        -999.25         0.6828         0.5474       -56.6538       5.431377              1
      1973.5000         0.6384        -999.25        -999.25          0.675         0.5464       -57.0107       5.077991              1
      1974.0000         0.6357        -999.25        -999.25         0.6672         0.5453       -57.3675       4.724701              1
      1974.5000         0.6344        -999.25        -999.25         0.6594         0.5442       -57.7242        4.37151              1
      1975.0000         0.6351        -999.25        -999.25         0.6517         0.5432       -57.7274       4.371819              1
      1975.5000         0.6358        -999.25        -999.25         0.6439         0.5421       -57.5045       4.598228              1
      1976.0000         0.6366        -999.25        -999.25         0.6361         0.5419       -57.2816       4.824638              1
      1976.5000         0.6373        -999.25        -999.25         0.6283         0.5417       -57.1879       4.921852              1
      1977.0000          0.638        -999.25        -999.25         0.6205         0.5415       -57.4959       4.617363              1
      1977.5000         0.6388        -999.25        -999.25         0.6127         0.5413       -57.8353       4.281471              1
      1978.0000         0.6395        -999.25        -999.25          0.605         0.5411       -58.6679       3.452381              1
      1978.5000         0.6402        -999.25        -999.25         0.5972         0.5409       -59.5005       2.623291              1
      1979.0000         0.6409        -999.25        -999.25         0.5894         0.5407       -60.3332       1.794102              1
      1979.5000         0.6417        -999.25        -999.25         0.5816         0.5405       -61.1658      0.9650154              1
      1980.0000         0.6434        -999.25        -999.25         0.5738         0.5403       -61.9984      0.1359215              1
      1980.5000         0.6469        -999.25        -999.25         0.5699         0.5401       -62.8399     -0.7020683              1
      1981.0000         0.6504        -999.25        -999.25         0.5679         0.5398       -63.6848      -1.543457              1
      1981.5000          0.654        -999.25        -999.25         0.5659         0.5396       -64.5298      -2.384949      0.9839604
      1982.0000         0.6575        -999.25        -999.25         0.5639         0.5392        -65.375      -3.226639        0.94889
      1982.5000          0.661        -999.25        -999.25         0.5619         0.5387       -64.9575      -2.805622      0.9664324
      1983.0000         0.6602        -999.25        -999.25         0.5599         0.5381        -64.321      -2.165615      0.9930994
      1983.5000         0.6541        -999.25        -999.25         0.5579         0.5376       -63.4879      -1.329006              1
      1984.0000          0.648        -999.25        -999.25         0.5559          0.537       -62.6547     -0.4922981              1
      1984.5000          0.642        -999.25        -999.25         0.5538         0.5365       -61.8965       0.269413              1
      1985.0000         0.6362        -999.25        -999.25         0.5518         0.5359       -61.5106      0.6588211              1
      1985.5000         0.6304        -999.25        -999.25         0.5498         0.5354       -61.2867      0.8862343              1
      1986.0000         0.6245        -999.25        -999.25         0.5478         0.5348       -61.8667      0.3097458              1
      1986.5000         0.6187        -999.25        -999.25         0.5458         0.5343       -62.4468     -0.2668457              1
      1987.0000         0.6128        -999.25        -999.25         0.5438         0.5338        -63.069     -0.8855362              1
      1987.5000          0.607        -999.25        -999.25         0.5418         0.5323       -63.7009      -1.513927              1
      1988.0000         0.6012        -999.25        -999.25         0.5398         0.5298        -64.333      -2.142517      0.9940618
      1988.5000         0.5953        -999.25        -999.25         0.5379         0.5272       -64.9648      -2.770805      0.9678831
      1989.0000         0.5895        -999.25        -999.25         0.5379         0.5246       -65.5953      -3.397793      0.9417586
      1989.5000         0.5837        -999.25        -999.25         0.5379         0.5221       -66.1903      -3.989285      0.9171131
      1990.0000          0.579        -999.25        -999.25         0.5379         0.5195       -66.7853      -4.580776      0.8924677
      1990.5000         0.5769        -999.25        -999.25         0.5379         0.5169        -67.328      -5.119968      0.8700013
      1991.0000         0.5749        -999.25        -999.25         0.5379         0.5144       -66.9677      -4.756153      0.8851603
      1991.5000         0.5728        -999.25        -999.25         0.5379         0.5118       -66.6074      -4.392345      0.9003189
      1992.0000         0.5708        -999.25        -999.25         0.5379         0.5092       -66.1271      -3.908531      0.9204779
      1992.5000         0.5687        -999.25        -999.25         0.5379         0.5067       -65.3439      -3.121826      0.9532573
      1993.0000         0.5667        -999.25        -999.25         0.5379         0.5041       -64.5607      -2.335114       0.986037
      1993.5000         0.5652        -999.25        -999.25         0.5379         0.5015       -63.7775      -1.548405              1
      1994.0000         0.5638        -999.25        -999.25         0.5379          0.499       -62.9943     -0.7616959              1
      1994.5000         0.5625        -999.25        -999.25         0.5379         0.4988       -62.4995     -0.2633858              1
