#------------------------------------------------------------------------------
# Created by    : vladimir.rabinovich
# Created on    : 09/19/2023 17:19:44
#------------------------------------------------------------------------------
~Version Information Section
VERS.           2.0     :   CWLS log ASCII Standard - VERSION 2.0
WRAP.           NO      :   One line per depth step
~Well Information Section
#MNEM       .UNIT                                         VALUE :DESCRIPTION
#------------------------------------------------------------------------------
STRT        .FT                                            3520 :START DEPTH
STOP        .FT                                           13769 :STOP DEPTH
STEP        .FT                                             0.5 :STEP      
NULL        .                                           -999.25 :NULL      
COMP        .                           WILLIAMS EXPLORATION CO :COMPANY   
WELL        .                                          SL 73414 :WELL      
FLD         .                                           WILDCAT :FIELD     
LOC         .                                                   :LOCATION  
CNTY        .                           HIGH ISLAND LARGE BLOCK :LOCATION  
STAT        .                                             TEXAS :STATE     
CTRY        .                                     UNITED STATES :COUNTRY   
SRVC        .                                                   :SERVICE COMPANY
DATE        .                             9/13/2023 11:19:15 AM :LOG DATE  
API         .                                    42708301040000 :API NUMBER
UWI         .                                    42708301040000 :UNIQUE WELL ID
XCOORD      .                                  1272749.25589155 :SURFACE X 
YCOORD      .                                  10699068.0748216 :SURFACE Y 
LAT         .                                        29.4758188 :LATITUDE  
LON         .                                       -94.1558378 :LONGITUDE 
ELEV        .FT                                             106 :ELEVATION VALUE
ELEV_TYPE   .                                                KB :ELEVATION REFERENCE TYPE
~Curve Information Section
#MNEM       .UNIT                                      API CODE :CURVE DESCRIPTION
#------------------------------------------------------------------------------
DEPT        .FT                                                 :DEPTH     
ASFL        .OHMM                                               :          
CILD        .MMHO                                               :          
ILD         .OHMM                                               :          
SP          .MV                                                 :          
SP_NORM     .MV                                                 :SP Normalized
VSH_SP      .V/V                                                :Volume of Shale from SP
~A        DEPTH           ASFL           CILD            ILD             SP        SP_NORM         VSH_SP
# ...
      6940.0000         0.5086       4030.684         0.3198      -121.4532      -42.50938      0.1528697
      6940.5000         0.5332        3616.18         0.3684      -116.1799      -37.23563      0.2604973
      6941.0000         0.5589       2369.172         0.4335      -114.0959      -35.15118       0.303037
      6941.5000         0.6067       1823.307         0.4986      -114.2139      -35.26873      0.3006382
      6942.0000         0.6543       1576.703         0.5724      -115.7119      -36.76628      0.2700759
      6942.5000         0.6956       1612.236         0.6513       -117.208      -38.26193      0.2395524
      6943.0000         0.7299       1647.771         0.7301      -118.7189      -39.77238      0.2087268
      6943.5000         0.7642       1803.598          0.736      -120.2961      -41.34913      0.1765484
      6944.0000         0.8084       1980.178         0.6659      -121.8752      -42.92778       0.144331
      6944.5000         0.8539       2139.637           0.59       -123.423      -44.47513      0.1127525
      6945.0000         0.8244       2287.949         0.5142      -124.7017      -45.75338     0.08666572
      6945.5000         0.8046       2413.965         0.4384      -125.8368      -46.88803     0.06350957
      6946.0000         0.7931       2532.215         0.4019      -125.1292      -46.17999     0.07795934
      6946.5000         0.7817       2604.977         0.3899      -124.0089      -45.05924      0.1008318
      6947.0000         0.7702       2679.531         0.3893      -122.8905      -43.94039      0.1236655
      6947.5000         0.7588       2699.637         0.3887      -121.7703      -42.81974      0.1465359
      6948.0000         0.7528       2725.914         0.3881      -120.6517      -41.70069      0.1693736
      6948.5000         0.7497       2805.742         0.3875      -119.2957      -40.34424      0.1970564
      6949.0000         0.7466       2885.574         0.3866      -117.8861      -38.93419      0.2258329
      6949.5000         0.7435       2979.336         0.3732      -116.3457      -37.39334      0.2572787
      6950.0000         0.7404       3080.469         0.3598      -116.0675      -37.11469      0.2629656
      6950.5000         0.7368       3181.598         0.3465      -118.8608      -39.90754      0.2059686
      6951.0000         0.7331        3285.02         0.3331      -120.3883      -41.43459      0.1748044
      6951.5000         0.7293       3389.035         0.3198      -121.2958      -42.34164      0.1562931
      6952.0000         0.7256       3776.238         0.3064      -122.2032      -43.24859      0.1377839
      6952.5000         0.7218        3866.02         0.3025      -123.0586      -44.10354       0.120336
      6953.0000         0.7185       3850.293         0.3045      -122.8564      -43.90089      0.1244717
      6953.5000         0.7154       3273.871         0.3065      -122.6542      -43.69824      0.1286073
      6954.0000         0.7123       3185.383         0.3085      -121.8623      -42.90589      0.1447777
      6954.5000         0.7093       3081.863         0.3106      -120.7909      -41.83405      0.1666521
      6955.0000         0.7067       3220.121         0.3132      -119.7185      -40.76119      0.1885471
      6955.5000         0.7043        3312.59         0.3158      -118.2435      -39.28574      0.2186583
      6956.0000         0.7019       3405.063         0.3184      -118.2656       -39.3074      0.2182164
      6956.5000         0.6935       3516.246         0.3209      -118.6627      -39.70404      0.2101216
      6957.0000         0.6811        3648.43         0.3209      -119.0115      -40.05239      0.2030124
      6957.5000         0.6688       3733.734         0.3132      -119.3601      -40.40054      0.1959073
      6958.0000         0.6568       3803.313         0.3055      -119.7089      -40.74889      0.1887981
      6958.5000         0.6452       4374.828         0.3047      -118.8682      -39.90775      0.2059644
      6959.0000         0.6336       4066.664         0.3241      -117.2522      -38.29129      0.2389533
      6959.5000          0.622       4037.797         0.3436      -114.6008      -35.63944      0.2930726
      6960.0000          0.615        3136.41         0.3631      -110.0092      -31.04739      0.3867879
      6960.5000         0.6232       2825.453         0.3826      -110.0183      -31.05605      0.3866112
      6961.0000         0.7162        1994.91          0.402      -111.6766       -32.7139      0.3527776
      6961.5000         0.9118       1928.668          0.427       -113.335      -34.37185      0.3189419
      6962.0000         0.9795       1939.318         0.4573      -114.9785       -36.0149      0.2854102
      6962.5000         1.0203        1998.99         0.4875      -116.6129      -37.64885      0.2520643
      6963.0000         1.0588       2136.254         0.4874      -118.2472       -39.2827      0.2187204
      6963.5000         1.0945       2619.211         0.4771      -119.4385      -40.47355      0.1944174
      6964.0000         1.1011       2747.813         0.4668      -120.2058       -41.2404      0.1787673
      6964.5000         1.0737        2832.52         0.4565      -120.5919      -41.62605      0.1708969
      6965.0000         0.8933       2883.633         0.4462      -120.9364       -41.9701      0.1638755
      6965.5000          0.766       2934.793         0.4359      -121.2815      -42.31475      0.1568418
      6966.0000         0.7338       2995.066         0.4233      -121.6366       -42.6694      0.1496042
      6966.5000         0.7208       3057.875         0.4062      -122.0028      -43.03515      0.1421398
      6967.0000         0.7114       3121.379         0.3891      -120.7587       -41.7906      0.1675389
      6967.5000         0.7036       3185.184          0.372      -119.8889      -40.92035       0.185299
      6968.0000         0.7017       3274.566         0.3549      -121.4901       -42.5211      0.1526306
      6968.5000         0.7103       3395.008         0.3378      -123.0913      -44.12186      0.1199621
      6969.0000         0.7232       3546.902         0.3207      -123.8541      -44.88421      0.1044039
      6969.5000          0.736        3790.57         0.3036      -124.5562      -45.58585     0.09008462
      6970.0000         0.7462       4687.781         0.2878      -125.2582      -46.28741      0.0757672
      6970.5000         0.7039       4889.641         0.2814      -125.3947      -46.42345     0.07299073
      6971.0000         0.6494       4871.727          0.275      -125.4835       -46.5118      0.0711877
      6971.5000         0.5952       4827.625         0.2686      -125.5724      -46.60026     0.06938249
      6972.0000         0.6025        4409.07         0.2622      -125.6614       -46.6888     0.06757542
      6972.5000         0.6176       4351.539         0.2558      -125.7502      -46.77715     0.06577238
      6973.0000         0.6328       4432.367         0.2494      -125.7556       -46.7821     0.06567134
      6973.5000         0.6479       4461.852          0.243      -125.3328      -46.35886     0.07430906
      6974.0000         0.6629       4488.852         0.2366      -124.6925       -45.7181     0.08738568
      6974.5000         0.6772       4515.828         0.2308      -123.1614      -44.18655      0.1186418
      6975.0000          0.683       4542.797         0.2293      -121.6246      -42.64931      0.1500141
      6975.5000         0.6679       4559.969         0.2278      -119.9902      -41.01446      0.1833784
      6976.0000         0.6528       4571.867         0.2264       -118.356      -39.37981      0.2167385
      6976.5000         0.6381       4588.039         0.2249      -117.7532      -38.77656      0.2290498
      6977.0000         0.6251       4617.055         0.2234      -117.4784      -38.50131      0.2346671
      6977.5000         0.6122       4639.227         0.2219      -117.2904      -38.31286      0.2385131
