#------------------------------------------------------------------------------
# Created by    : vladimir.rabinovich
# Created on    : 09/19/2023 17:22:46
#------------------------------------------------------------------------------
~Version Information Section
VERS.           2.0     :   CWLS log ASCII Standard - VERSION 2.0
WRAP.           NO      :   One line per depth step
~Well Information Section
#MNEM       .UNIT                                         VALUE :DESCRIPTION
#------------------------------------------------------------------------------
STRT        .FT                                             862 :START DEPTH
STOP        .FT                                           11792 :STOP DEPTH
STEP        .FT                                             0.5 :STEP      
NULL        .                                           -999.25 :NULL      
COMP        .                     FREEPORT-MCMORAN OIL & GAS CO :COMPANY   
WELL        .                               OCS G08155 ST00BP00 :WELL      
FLD         .                            HIGH ISLAND BLOCK 0262 :FIELD     
LOC         .                                                   :LOCATION  
CNTY        .                           HIGH ISLAND LARGE BLOCK :LOCATION  
STAT        .                                             TEXAS :STATE     
CTRY        .                                     UNITED STATES :COUNTRY   
SRVC        .                                                   :SERVICE COMPANY
DATE        .                             9/13/2023 11:19:59 AM :LOG DATE  
API         .                                    42708403380000 :API NUMBER
UWI         .                                    42708403380000 :UNIQUE WELL ID
XCOORD      .                                  1194111.75057656 :SURFACE X 
YCOORD      .                                  10524686.1808471 :SURFACE Y 
LAT         .                                         28.993839 :LATITUDE  
LON         .                                         -94.39647 :LONGITUDE 
ELEV        .FT                                              98 :ELEVATION VALUE
ELEV_TYPE   .                                                KB :ELEVATION REFERENCE TYPE
~Curve Information Section
#MNEM       .UNIT                                      API CODE :CURVE DESCRIPTION
#------------------------------------------------------------------------------
DEPT        .FT                                                 :DEPTH     
DT          .US/F                                               :          
GR          .GAPI                                               :          
GR_NORM     .GAPI                                               :GammaRay Normalized
ILD         .OHMM                                               :          
ILM         .OHMM                                               :          
SFL         .OHMM                                               :          
SP          .MV                                                 :          
SP_NORM     .MV                                                 :SP Normalized
VSH_GR      .V/V                                                :Volume of Shale from GR
VSH_SP      .V/V                                                :Volume of Shale from SP
~A        DEPTH             DT             GR        GR_NORM            ILD            ILM            SFL             SP        SP_NORM         VSH_GR         VSH_SP
# ...
     11764.5000        86.6083        88.5397       91.59291         1.4669         1.3562          1.336       -44.3661      -9.201267              1      0.4460564
     11765.0000        86.5658        88.5814       91.64767         1.5156         1.4308         1.5456       -43.8838      -8.718967              1      0.4831564
     11765.5000        86.5078        88.5514       91.60827         1.5585         1.4974         1.7713       -43.5233      -8.358467              1      0.5108871
     11766.0000        86.4504        88.4818       91.51685         1.5534         1.5639         1.8011       -43.2439      -8.079067              1      0.5323794
     11766.5000        86.3943         88.434       91.45408         1.4599         1.6121         1.7786       -43.2684      -8.103565              1       0.530495
     11767.0000        86.3381         88.417       91.43176         1.3404         1.5871         1.7302       -43.5587      -8.393867              1       0.508164
     11767.5000        86.2972        88.3931       91.40037         1.2394         1.5032         1.6472       -43.9041      -8.739265              1       0.481595
     11768.0000        86.2621        88.3602       91.35715         1.1569         1.3483         1.4624       -44.3032      -9.138367              1      0.4508949
     11768.5000        86.2269          88.33        91.3175         1.0954         1.1839         1.1557       -44.6047      -9.439865              1      0.4277027
     11769.0000        86.2402        88.3585       91.35493         1.0555         1.0764         1.0569       -44.8439      -9.679066              1      0.4093027
     11769.5000        86.2637        88.4082        91.4202         1.0446         0.9954         0.9989       -44.9579      -9.793068              1      0.4005332
     11770.0000        86.2877        88.4258       91.44331         1.0628         0.9468         0.9399       -45.0328      -9.867966              1      0.3947719
     11770.5000        86.3883        88.4407       91.46288         1.0969         0.9449         1.0011       -44.9523      -9.787468              1       0.400964
     11771.0000        86.4888        88.4556       91.48245         1.1322         1.0106          1.217       -44.8275      -9.662666              1      0.4105641
     11771.5000         86.467        88.4706       91.50215         1.1734         1.0888         1.3931       -44.7023      -9.537468              1      0.4201948
     11772.0000        86.3789        88.4821       91.51726         1.2161         1.1642         1.3995        -44.564      -9.399166              1      0.4308334
     11772.5000        86.2915        88.4835       91.51909         1.2662         1.2241         1.3555       -44.4117      -9.246868              1      0.4425486
     11773.0000        86.2107        88.4849       91.52094         1.3224         1.2952          1.293       -44.2593      -9.094467              1      0.4542718
     11773.5000          86.13        88.4863       91.52277          1.356         1.3128         1.3071       -44.1093      -8.944466              1      0.4658103
     11774.0000        86.0566        88.4877        91.5246         1.3898         1.3258         1.3927       -43.9592      -8.794369              1      0.4773563
     11774.5000        86.0043        88.4891       91.52645         1.4203         1.3389         1.4967       -43.7763      -8.611465              1      0.4914257
     11775.0000        85.9519        88.4905       91.52829         1.4499         1.3849         1.5729       -43.5529      -8.388065              1      0.5086104
     11775.5000        85.9014        88.4919       91.53013         1.4787         1.4366         1.6472       -43.3317      -8.166866              1      0.5256256
     11776.0000        85.8523        88.4933       91.53197         1.5068         1.4886         1.7259        -43.136      -7.971169              1      0.5406793
     11776.5000        85.8032        88.4948       91.53394         1.5342         1.5291         1.8087        -42.946      -7.781166              1      0.5552949
     11777.0000        85.7947        88.4961       91.53564         1.5587         1.5646          1.811        -42.769      -7.604168              1      0.5689102
     11777.5000         85.816        88.4976       91.53762         1.5714         1.5531         1.7294       -42.5246      -7.359768              1      0.5877101
     11778.0000        85.8375        88.4989       91.53933         1.5646         1.5126         1.6322       -42.2369      -7.072067              1       0.609841
     11778.5000        85.8529        88.5004       91.54128         1.5439          1.489         1.5462       -41.9203      -6.755466              1      0.6341949
     11779.0000        85.8633        88.5017         91.543         1.5547         1.4911         1.4928       -41.6759      -6.511066              1      0.6529949
     11779.5000        85.8716        88.5032       91.54496         1.5805         1.5032         1.4955       -41.4423      -6.277466              1      0.6709642
     11780.0000        85.7719        88.5045       91.54668         1.6152         1.5257          1.517       -41.2237      -6.058868              1      0.6877794
     11780.5000        85.6721         88.506       91.54865         1.6471         1.5503         1.5407       -40.9203      -5.755466              1       0.711118
     11781.0000         85.575        88.5073       91.55036         1.6643         1.5631         1.5562       -40.5342      -5.369366              1       0.740818
     11781.5000        85.4838        88.5088       91.55232          1.662          1.549         1.5666       -40.1483      -4.983467              1      0.7705025
     11782.0000        85.4218        88.5101       91.55404         1.6438         1.5012         1.5964       -39.9326      -4.767765              1       0.787095
     11782.5000        85.4155        88.5116       91.55599         1.6163         1.4715         1.6119       -39.7446      -4.579765              1      0.8015565
     11783.0000         85.418        88.5129        91.5577         1.5789         1.4579         1.5756       -39.6174      -4.452568              1      0.8113409
     11783.5000        85.4429        88.5144       91.55967         1.5333         1.4522         1.5305       -39.4968      -4.331966              1       0.820618
     11784.0000        85.4677        88.5157       91.56139         1.5086         1.4545         1.4869        -39.469      -4.304169              1      0.8227562
     11784.5000        85.4969        88.5172       91.56335         1.4946         1.4594         1.4897       -39.4412      -4.276367              1      0.8248948
     11785.0000        85.5295        88.5186       91.56519         1.4932         1.4647         1.5125       -39.4645      -4.299667              1      0.8231025
     11785.5000        85.5621          88.52       91.56703         1.4919         1.4718         1.5089        -39.509      -4.344166              1      0.8196796
     11786.0000        85.5867        88.5214       91.56887         1.4939         1.4815         1.5265        -39.532      -4.367168              1      0.8179101
     11786.5000        85.5957        88.5228       91.57071         1.4998           1.49         1.5986        -39.522      -4.357166              1      0.8186795
     11787.0000        85.6047        88.5242       91.57255         1.5001         1.4942         1.6747       -39.5213      -4.356468              1      0.8187332
     11787.5000         85.585        88.5256       91.57439         1.4993         1.4947         1.7358       -39.5566      -4.391766              1       0.816018
     11788.0000        85.5465         88.527       91.57623         1.4999         1.4926         1.7862       -39.5906      -4.425766              1      0.8134026
     11788.5000        85.5081        88.5283       91.57793         1.5006         1.4905         1.7932       -39.6221      -4.457268              1      0.8109794
