#------------------------------------------------------------------------------
# Created by    : vladimir.rabinovich
# Created on    : 09/19/2023 17:22:28
#------------------------------------------------------------------------------
~Version Information Section
VERS.           2.0     :   CWLS log ASCII Standard - VERSION 2.0
WRAP.           NO      :   One line per depth step
~Well Information Section
#MNEM       .UNIT                                         VALUE :DESCRIPTION
#------------------------------------------------------------------------------
STRT        .FT                                            2981 :START DEPTH
STOP        .FT                                           10477 :STOP DEPTH
STEP        .FT                                             0.5 :STEP      
NULL        .                                           -999.25 :NULL      
COMP        .                          SEAGULL ENERGY E & P INC :COMPANY   
WELL        .                               OCS G13783 ST00BP00 :WELL      
FLD         .                                           WILDCAT :FIELD     
LOC         .                                                   :LOCATION  
CNTY        .                             GALVESTON LARGE BLOCK :LOCATION  
STAT        .                                             TEXAS :STATE     
CTRY        .                                     UNITED STATES :COUNTRY   
SRVC        .                                                   :SERVICE COMPANY
DATE        .                             9/13/2023 11:19:39 AM :LOG DATE  
API         .                                    42706403890000 :API NUMBER
UWI         .                                    42706403890000 :UNIQUE WELL ID
XCOORD      .                                  1047250.65699841 :SURFACE X 
YCOORD      .                                  10470150.2239286 :SURFACE Y 
LAT         .                                         28.838318 :LATITUDE  
LON         .                                         -94.85315 :LONGITUDE 
ELEV        .FT                                              94 :ELEVATION VALUE
ELEV_TYPE   .                                                KB :ELEVATION REFERENCE TYPE
~Curve Information Section
#MNEM       .UNIT                                      API CODE :CURVE DESCRIPTION
#------------------------------------------------------------------------------
DEPT        .FT                                                 :DEPTH     
CILD        .MMHO                                               :          
CNC         .%                                                  :          
DT24        .US/F                                               :          
GR          .GAPI                                               :          
GR_NORM     .GAPI                                               :GammaRay Normalized
PORZ        .%                                                  :          
RFOC        .OHMM                                               :          
RILD        .OHMM                                               :          
RILM        .OHMM                                               :          
RWAZ        .OHMM                                               :          
SP          .MV                                                 :          
SP_NORM     .MV                                                 :SP Normalized
TEN         .LBF                                                :          
VSH_GR      .V/V                                                :Volume of Shale from GR
VSH_SP      .V/V                                                :Volume of Shale from SP
ZCOR        .G/C3                                               :          
ZDEN        .G/C3                                               :          
~A        DEPTH           CILD            CNC           DT24             GR        GR_NORM           PORZ           RFOC           RILD           RILM           RWAZ             SP        SP_NORM            TEN         VSH_GR         VSH_SP           ZCOR           ZDEN
# ...
      4961.0000        1894.33        -999.25        118.292        73.6489       66.79806        -999.25          1.016          0.528          0.624        -999.25        -25.987        -23.768        -16.112      0.7191076      0.6604571        -999.25        -999.25
      4961.5000       1922.502        -999.25        116.927        74.4469       67.74498        -999.25          1.034           0.52          0.616        -999.25        -27.353      -25.13452        -24.919      0.7392549      0.6409354        -999.25        -999.25
      4962.0000       1950.234        -999.25        117.047        73.0399       66.04591        -999.25          1.045          0.513          0.608        -999.25        -28.709      -26.49104        -34.087      0.7031044      0.6215566        -999.25        -999.25
      4962.5000       1977.576        -999.25        117.303         70.823       63.37495        -999.25          1.052          0.506          0.599        -999.25        -29.773      -27.55556        -35.744      0.6462755      0.6063491        -999.25        -999.25
      4963.0000       2008.695        -999.25       117.7009        69.0339       61.21735        -999.25          1.042          0.498          0.592        -999.25        -30.714      -28.49708        -25.002      0.6003692      0.5928988        -999.25        -999.25
      4963.5000       2039.557        -999.25       118.3729         67.439        59.2928        -999.25           1.04           0.49          0.587        -999.25        -31.924       -29.7076        -13.862      0.5594214      0.5756057        -999.25        -999.25
      4964.0000       2058.906        -999.25        118.797        65.7319        57.2336        -999.25          1.055          0.486          0.582        -999.25       -32.7729      -30.55702        -19.331      0.5156085      0.5634711        -999.25        -999.25
      4964.5000       2061.754        -999.25       118.9089         66.282       57.88304        -999.25          1.037          0.485           0.58        -999.25        -32.012      -29.79664         -36.22      0.5294263      0.5743337        -999.25        -999.25
      4965.0000       2048.609        -999.25       119.2859        69.3979       61.61145        -999.25          0.983          0.488          0.583        -999.25        -29.822      -27.60716        -43.358      0.6087543       0.605612        -999.25        -999.25
      4965.5000       2022.275        -999.25       119.3539        71.8219       64.50957        -999.25          0.948          0.495           0.59        -999.25        -27.675      -25.46068        -34.099      0.6704163       0.636276        -999.25        -999.25
      4966.0000       1991.809        -999.25        119.215         71.402       63.99501        -999.25          0.943          0.502          0.598        -999.25        -26.417       -24.2032        -21.767      0.6594684        0.65424        -999.25        -999.25
      4966.5000       1965.625        -999.25       119.5859         70.453       62.84554        -999.25          0.941          0.509          0.608        -999.25        -25.899      -23.68572         -20.47      0.6350116      0.6616325        -999.25        -999.25
      4967.0000       1944.541        -999.25        119.224        70.2429       62.58274        -999.25          0.956          0.514          0.616        -999.25        -25.918      -23.70524        -32.235      0.6294201      0.6613537        -999.25        -999.25
      4967.5000       1932.443        -999.25       118.0049         69.397         61.557        -999.25          1.013          0.517          0.619        -999.25        -26.683      -24.47076        -43.095      0.6075956      0.6504177        -999.25        -999.25
      4968.0000       1934.617        -999.25       117.3219         67.068       58.75152        -999.25          1.093          0.517          0.615        -999.25        -28.063      -25.85128        -38.775      0.5479047       0.630696        -999.25        -999.25
      4968.5000       1946.758        -999.25       117.0549        65.9989       57.45792        -999.25          1.137          0.514          0.604        -999.25        -29.211       -26.9998        -28.418      0.5203813      0.6142886        -999.25        -999.25
      4969.0000       1963.607        -999.25        117.501         68.007       59.85697        -999.25          1.101          0.509          0.591        -999.25        -29.068      -26.85732         -27.69      0.5714249       0.616324        -999.25        -999.25
      4969.5000       1989.637        -999.25        119.199        70.5459       62.89297        -999.25          1.003          0.503          0.579        -999.25        -27.585      -25.37484        -23.834      0.6360206      0.6375023        -999.25        -999.25
      4970.0000       2032.537        -999.25       120.0339        71.3009        63.7883        -999.25           0.92          0.492          0.567        -999.25        -25.987      -23.77736         -0.915      0.6550702      0.6603234        -999.25        -999.25
      4970.5000       2097.105        -999.25        121.146         72.146       64.79174        -999.25          0.894          0.477          0.555        -999.25        -25.747      -23.53788         15.978        0.67642      0.6637446        -999.25        -999.25
      4971.0000       2178.668        -999.25       123.1689          73.34       66.21386        -999.25          0.899          0.459          0.541        -999.25        -27.261       -25.0524         -0.026      0.7066779      0.6421086        -999.25        -999.25
      4971.5000       2262.813        -999.25        123.189        72.8639       65.63186        -999.25          0.896          0.442          0.528        -999.25        -29.432      -27.22392        -27.209      0.6942949      0.6110868        -999.25        -999.25
      4972.0000       2336.855        -999.25        122.245         71.266        63.7037        -999.25          0.879          0.428          0.518        -999.25        -31.029      -28.82144        -30.573      0.6532703      0.5882651        -999.25        -999.25
      4972.5000       2390.012        -999.25       121.2649        70.5179       62.79531        -999.25          0.883          0.418          0.511        -999.25        -32.344      -30.13696        -15.366      0.6339427       0.569472        -999.25        -999.25
      4973.0000       2409.898        -999.25        120.231         70.037       62.20756        -999.25          0.916          0.415          0.505        -999.25        -34.063      -31.85648        -10.639      0.6214375      0.5449075        -999.25        -999.25
      4973.5000       2395.684        -999.25       119.7549        70.1499       62.33237        -999.25          0.946          0.417          0.506        -999.25        -35.088        -32.882        -22.841      0.6240929      0.5302571        -999.25        -999.25
      4974.0000       2357.637        -999.25        120.194        72.3109       64.91489        -999.25          0.947          0.424          0.513        -999.25        -33.717      -31.51152         -34.43      0.6790401      0.5498354        -999.25        -999.25
      4974.5000        2302.23        -999.25         120.58         74.699       67.76993        -999.25          0.938          0.434          0.525        -999.25        -30.324      -28.11904         -31.08      0.7397857      0.5982994        -999.25        -999.25
      4975.0000       2234.055        -999.25        119.459         76.261       69.63366        -999.25           0.93          0.448          0.538        -999.25        -26.681      -24.47656        -17.874      0.7794396      0.6503348        -999.25        -999.25
      4975.5000       2160.641        -999.25        118.976        77.3729       70.95726        -999.25          0.924          0.463          0.553        -999.25        -23.806      -21.60208        -12.399      0.8076013      0.6913989        -999.25        -999.25
