#------------------------------------------------------------------------------
# Created by    : vladimir.rabinovich
# Created on    : 09/19/2023 17:22:46
#------------------------------------------------------------------------------
~Version Information Section
VERS.           2.0     :   CWLS log ASCII Standard - VERSION 2.0
WRAP.           NO      :   One line per depth step
~Well Information Section
#MNEM       .UNIT                                         VALUE :DESCRIPTION
#------------------------------------------------------------------------------
STRT        .FT                                             862 :START DEPTH
STOP        .FT                                           11792 :STOP DEPTH
STEP        .FT                                             0.5 :STEP      
NULL        .                                           -999.25 :NULL      
COMP        .                     FREEPORT-MCMORAN OIL & GAS CO :COMPANY   
WELL        .                               OCS G08155 ST00BP00 :WELL      
FLD         .                            HIGH ISLAND BLOCK 0262 :FIELD     
LOC         .                                                   :LOCATION  
CNTY        .                           HIGH ISLAND LARGE BLOCK :LOCATION  
STAT        .                                             TEXAS :STATE     
CTRY        .                                     UNITED STATES :COUNTRY   
SRVC        .                                                   :SERVICE COMPANY
DATE        .                             9/13/2023 11:19:59 AM :LOG DATE  
API         .                                    42708403380000 :API NUMBER
UWI         .                                    42708403380000 :UNIQUE WELL ID
XCOORD      .                                  1194111.75057656 :SURFACE X 
YCOORD      .                                  10524686.1808471 :SURFACE Y 
LAT         .                                         28.993839 :LATITUDE  
LON         .                                         -94.39647 :LONGITUDE 
ELEV        .FT                                              98 :ELEVATION VALUE
ELEV_TYPE   .                                                KB :ELEVATION REFERENCE TYPE
~Curve Information Section
#MNEM       .UNIT                                      API CODE :CURVE DESCRIPTION
#------------------------------------------------------------------------------
DEPT        .FT                                                 :DEPTH     
DT          .US/F                                               :          
GR          .GAPI                                               :          
GR_NORM     .GAPI                                               :GammaRay Normalized
ILD         .OHMM                                               :          
ILM         .OHMM                                               :          
SFL         .OHMM                                               :          
SP          .MV                                                 :          
SP_NORM     .MV                                                 :SP Normalized
VSH_GR      .V/V                                                :Volume of Shale from GR
VSH_SP      .V/V                                                :Volume of Shale from SP
~A        DEPTH             DT             GR        GR_NORM            ILD            ILM            SFL             SP        SP_NORM         VSH_GR         VSH_SP
# ...
     10319.0000       102.8258        83.4327       88.78845          0.872         0.8648         0.8796       -51.6368     -0.9716949              1              1
     10319.5000       101.6863        80.5881       85.05373          0.887         0.8774          0.902       -51.5927       -0.93116              1              1
     10320.0000        100.573        77.3406       80.78988         0.9023         0.8916         0.9285       -51.5703      -0.912323              1              1
     10320.5000        99.7662         74.449       76.99344          0.915         0.9077         0.9659       -51.5626     -0.9081841      0.9360306              1
     10321.0000        99.3746        71.2444       72.78593         0.9274         0.9241         0.9993       -51.5549     -0.9040489      0.8465092              1
     10321.5000        99.3674        72.2891       74.15932         0.9399         0.9323         1.0289       -51.5473     -0.9000092      0.8757302              1
     10322.0000        99.8494        74.7894       77.44444         0.9382         0.9395         1.0312       -51.5395     -0.8957787      0.9456264              1
     10322.5000       100.4408        77.5205       81.03271         0.9356         0.9451         0.9997       -51.5314     -0.8912392              1              1
     10323.0000       101.2145        80.7448       85.26871         0.9323         0.9311         0.9485       -51.5232     -0.8866043              1              1
     10323.5000        101.036        82.6385       87.75714         0.9246         0.9174         0.9103        -51.515     -0.8819656              1              1
     10324.0000       100.7421        83.3452       88.68661          0.917         0.9038         0.8869       -51.5203      -0.890831              1              1
     10324.5000       100.5646        80.4473       84.88191         0.9091         0.8905         0.8808       -51.5701      -0.944191              1              1
     10325.0000       100.8729        76.1119       79.18922         0.9007         0.8771         0.8785       -51.6199     -0.9975548      0.9827495              1
     10325.5000       101.1886        72.7195       74.73505         0.8923         0.8639         0.8963       -51.6697      -1.050919      0.8879799              1
     10326.0000       101.7034        72.5178       74.47145         0.8817         0.8555         0.9101       -51.7195      -1.104282      0.8823713              1
     10326.5000       101.8094        71.9702       73.75357         0.8686         0.8487         0.9149       -51.7438      -1.132145      0.8670973              1
     10327.0000       102.2639        70.8766       72.31857         0.8557         0.8421         0.8944        -51.764      -1.155907      0.8365654              1
     10327.5000       103.3969        69.9952       71.16228         0.8397         0.8362         0.8697       -51.7841      -1.179569      0.8119633              1
     10328.0000       104.8297        71.1016       72.61669         0.8204         0.8304         0.8459       -51.8042      -1.203236      0.8429083              1
     10328.5000       106.4066        71.9702        73.7588         0.8017         0.8031         0.8222       -51.8142      -1.216801      0.8672084              1
     10329.0000       107.9783        72.1208        73.9579         0.7813         0.7733         0.7788       -51.7905      -1.196663      0.8714447              1
     10329.5000        110.713        71.2209        72.7773         0.7608         0.7433         0.7407       -51.7667      -1.176426      0.8463255              1
     10330.0000       111.9952        70.5479       71.89471         0.7407         0.7187         0.7061       -51.7429      -1.156189      0.8275471              1
     10330.5000       111.5735        71.0018       72.49216          0.727         0.7008         0.6924       -51.7192      -1.136051      0.8402587              1
     10331.0000       110.8375        72.6217       74.62099         0.7137         0.6836         0.6802       -51.6816      -1.102013      0.8855531              1
     10331.5000       110.5068        73.7994       76.16905         0.7009         0.6762         0.6786       -51.6223      -1.046276      0.9184905              1
     10332.0000       111.1688        74.6595           77.3         0.6941         0.6688         0.6786        -51.563     -0.9905396      0.9425531              1
     10332.5000        111.641        74.8068       77.49477         0.6874         0.6634         0.6788       -51.5036     -0.9347038      0.9466972              1
     10333.0000       111.8339        74.9484       77.68206         0.6807         0.6587         0.6828       -51.4443     -0.8789673      0.9506821              1
     10333.5000       111.6053        75.0717       77.84531          0.675         0.6542         0.6868       -51.4418     -0.8800278      0.9541554              1
     10334.0000       111.5746        75.1742       77.98123         0.6703         0.6551         0.6843       -51.4725     -0.9142952      0.9570475              1
     10334.5000       111.4871         74.719       77.38469         0.6656          0.656         0.6807       -51.5032     -0.9485588      0.9443551              1
     10335.0000       111.0699         75.257        78.0926         0.6616         0.6558         0.6872       -51.5339     -0.9828224       0.959417              1
     10335.5000       110.7883        75.8273       78.84291         0.6584         0.6515         0.7006        -51.563       -1.01355      0.9753811              1
     10336.0000       110.4603         75.208       78.03085         0.6552         0.6472         0.7071       -51.5874      -1.037949      0.9581031              1
     10336.5000       110.1001         73.778       76.15404         0.6536         0.6443         0.7096       -51.6118      -1.062351       0.918171              1
     10337.0000        109.791        72.8096       74.88348         0.6558         0.6449         0.7014       -51.6363      -1.086849      0.8911378              1
     10337.5000       109.8922        75.4741       78.38425         0.6581         0.6463         0.6942       -51.6185       -1.06905      0.9656224              1
     10338.0000       109.1427        77.6888       81.29428         0.6771          0.667         0.6993       -51.5623      -1.012852              1              1
     10338.5000       107.1925        76.4778       79.70511          0.711         0.7143         0.7147       -51.5058     -0.9563484      0.9937257              1
     10339.0000       104.5992        73.5999       75.92667         0.7635         0.7778         0.7473       -51.4494     -0.8999519      0.9133333              1
     10339.5000       101.9955        69.6558       70.74792         0.8286         0.8402         0.8346       -51.4234      -0.873951      0.8031472              1
     10340.0000        99.2555        67.1907       67.51163         0.8967         0.9012          0.967       -51.3989     -0.8494492      0.7342899              1
     10340.5000        96.1514        67.6954        68.1758         0.9603         0.9601         1.1822       -51.3745     -0.8250504      0.7484212              1
     10341.0000        95.1687        69.3075        70.2944         1.0099          1.181         1.3322       -51.4712     -0.9217491      0.7934978              1
     10341.5000        97.2175        72.1757        74.0627         1.0342         1.1636         1.3637       -51.5962      -1.046749      0.8736745              1
     10342.0000        100.856        74.6211       77.27573         1.0419         1.0812         1.2801       -51.7226      -1.173149      0.9420367              1
     10342.5000         102.26        76.1863       79.33272         1.0219         0.9895         1.1431       -51.8585      -1.309052      0.9858025              1
     10343.0000       103.0812        77.1351       80.58016         0.9744         0.9271         1.0089       -51.9948      -1.445351              1              1
