#------------------------------------------------------------------------------
# Created by    : vladimir.rabinovich
# Created on    : 09/19/2023 17:20:33
#------------------------------------------------------------------------------
~Version Information Section
VERS.           2.0     :   CWLS log ASCII Standard - VERSION 2.0
WRAP.           NO      :   One line per depth step
~Well Information Section
#MNEM       .UNIT                                         VALUE :DESCRIPTION
#------------------------------------------------------------------------------
STRT        .FT                                             242 :START DEPTH
STOP        .FT                                            8116 :STOP DEPTH
STEP        .FT                                             0.5 :STEP      
NULL        .                                           -999.25 :NULL      
COMP        .                                       HUNT OIL CO :COMPANY   
WELL        .                                     ST TR 00005-L :WELL      
FLD         .                                           WILDCAT :FIELD     
LOC         .                                                   :LOCATION  
CNTY        .                           HIGH ISLAND LARGE BLOCK :LOCATION  
STAT        .                                             TEXAS :STATE     
CTRY        .                                     UNITED STATES :COUNTRY   
SRVC        .                                                   :SERVICE COMPANY
DATE        .                             9/13/2023 11:19:33 AM :LOG DATE  
API         .                                    42708000010000 :API NUMBER
UWI         .                                    42708000010000 :UNIQUE WELL ID
XCOORD      .                                  1328371.56215902 :SURFACE X 
YCOORD      .                                  10754892.1390607 :SURFACE Y 
LAT         .                                        29.6307718 :LATITUDE  
LON         .                                       -93.9824852 :LONGITUDE 
ELEV        .FT                                              11 :ELEVATION VALUE
ELEV_TYPE   .                                                KB :ELEVATION REFERENCE TYPE
~Curve Information Section
#MNEM       .UNIT                                      API CODE :CURVE DESCRIPTION
#------------------------------------------------------------------------------
DEPT        .FT                                                 :DEPTH     
ASN         .OHMM                                               :          
LAT         .OHMM                                               :          
LN          .OHMM                                               :          
SN          .OHMM                                               :          
SP          .MV                                                 :          
SP_NORM     .MV                                                 :SP Normalized
VSH_SP      .V/V                                                :Volume of Shale from SP
~A        DEPTH            ASN            LAT             LN             SN             SP        SP_NORM         VSH_SP
# ...
      4429.5000         0.7261          0.789         0.7397         0.7365       -52.2168      -3.160198      0.9691401
      4430.0000         0.7322         0.7859         0.7365         0.7411       -51.6153      -2.558697      0.9777329
      4430.5000         0.7382         0.7828         0.7322         0.7458       -51.0143      -1.957699      0.9863186
      4431.0000         0.7441         0.7797         0.7252         0.7505       -50.6289      -1.572296      0.9918243
      4431.5000         0.7461         0.7766           0.71         0.7551       -50.2866      -1.229996      0.9967144
      4432.0000         0.7481         0.7735         0.6948         0.7512       -49.9445     -0.8878975              1
      4432.5000         0.7501         0.7773         0.6797         0.7384       -49.6024     -0.5457993              1
      4433.0000         0.7511         0.7873         0.6615         0.7256       -49.3522     -0.2955971              1
      4433.5000          0.745         0.7973         0.6431         0.7128       -49.3431      -0.286499              1
      4434.0000         0.7389         0.8073         0.6247            0.7        -49.334     -0.2773972              1
      4434.5000         0.7328         0.8173         0.6063          0.681        -49.325     -0.2683983              1
      4435.0000         0.7267         0.8272         0.5882         0.6621       -49.3159     -0.2592964              1
      4435.5000         0.7043         0.8372         0.5705         0.6431       -49.3068     -0.2501984              1
      4436.0000         0.6728         0.8553         0.5527         0.6241       -49.3176     -0.2609978              1
      4436.5000         0.6488         0.8734          0.535         0.6051       -49.3645     -0.3078957              1
      4437.0000         0.6256         0.8916         0.5173         0.5862       -49.4114     -0.3547974              1
      4437.5000         0.5981         0.9097         0.4997         0.5722       -49.4584     -0.4017982              1
      4438.0000         0.5689         0.9279         0.4823         0.5599       -49.5054     -0.4487991              1
      4438.5000         0.5552         0.9459         0.4649         0.5477       -49.5524     -0.4957962              1
      4439.0000         0.5414         0.9545         0.4475         0.5354       -49.7911     -0.7344971              1
      4439.5000         0.5332         0.9632         0.4378         0.5237       -50.2939      -1.237297        0.99661
      4440.0000         0.5253         0.9718          0.432         0.5216       -51.2465      -2.189896      0.9830015
      4440.5000         0.5177         0.9555         0.4262         0.5195       -52.1983      -3.141697      0.9694043
      4441.0000         0.5201         0.9258         0.4244         0.5174       -53.2106      -4.153999      0.9549429
      4441.5000         0.5226         0.8961         0.4261         0.5153       -54.2472      -5.190598      0.9401343
      4442.0000         0.5251         0.8663         0.4277         0.5132        -55.283      -6.226398      0.9253371
      4442.5000         0.5269         0.8163         0.4294         0.5101       -56.5641      -7.507496      0.9070358
      4443.0000         0.5268         0.7508         0.4308         0.5066       -58.2257      -9.169098      0.8832986
      4443.5000         0.5268         0.6853          0.432         0.5032       -60.4989       -11.4423      0.8508243
      4444.0000         0.5268         0.6215         0.4331         0.4997       -67.8091      -18.75249      0.7463929
      4444.5000         0.5268          0.558         0.4343         0.4963       -73.4274       -24.3708      0.6661315
      4445.0000         0.5206         0.4951         0.4354         0.4929       -89.9866         -40.93      0.4295714
      4445.5000         0.5128         0.4716         0.4366         0.4894      -106.5054       -57.4488      0.1935886
      4446.0000         0.5049          0.448          0.435         0.4859      -117.0565       -67.9999     0.04285856
      4446.5000         0.4971         0.4324         0.4313         0.4821      -121.3357       -72.2791              0
      4447.0000         0.4893         0.4366         0.4276         0.4784      -122.4866         -73.43              0
      4447.5000         0.4815         0.4408         0.4239         0.4747      -120.4738       -71.4172              0
      4448.0000          0.474         0.4449         0.4201          0.471      -118.4628       -69.4062     0.02276862
      4448.5000         0.4668         0.4491         0.4164         0.4672      -116.6112       -67.5546     0.04922006
      4449.0000         0.4596         0.4532         0.4145          0.474      -114.7983       -65.7417     0.07511858
      4449.5000         0.4524         0.4574         0.4133         0.4922      -112.9856        -63.929      0.1010143
      4450.0000         0.5954         0.4616         0.4122         0.5103      -111.1862       -62.1296        0.12672
      4450.5000         0.6328         0.4657         0.4111         0.5525      -109.3867       -60.3301      0.1524271
      4451.0000         0.6795          0.471           0.41         0.5964      -107.5874       -58.5308      0.1781314
      4451.5000         0.6821         0.4779         0.4089         0.6403      -105.7224      -56.66579      0.2047744
      4452.0000         0.6664         0.4848         0.4078         0.6779      -105.6216      -56.56499      0.2062144
      4452.5000         0.6507         0.4855         0.4046         0.6882       -106.933       -57.8764        0.18748
      4453.0000          0.635         0.4649         0.4011         0.6765      -108.2451       -59.1885      0.1687357
      4453.5000         0.6193         0.4442         0.3976         0.6597      -109.5295       -60.4729      0.1503871
      4454.0000         0.6101         0.4236         0.3941          0.643      -110.7812      -61.72459      0.1325058
      4454.5000         0.6013          0.403         0.3906         0.6263       -112.033      -62.97639      0.1146229
      4455.0000         0.5926         0.3967         0.3871         0.6226      -113.0486        -63.992      0.1001143
      4455.5000         0.6022         0.3956         0.3832          0.631      -114.0389       -64.9823     0.08596715
      4456.0000          0.622         0.3945          0.379         0.6393       -115.047      -65.99039     0.07156579
      4456.5000         0.6495         0.3968         0.3747         0.6549      -115.9762      -66.91959     0.05829152
      4457.0000         0.6771            0.4         0.3705         0.6706      -116.5759      -67.51929     0.04972436
      4457.5000         0.6973         0.4032         0.3662         0.6854      -117.1753       -68.1187     0.04116146
      4458.0000         0.6913         0.4065         0.3619         0.6713      -117.7655       -68.7089     0.03272999
      4458.5000         0.6789         0.4097         0.3577         0.6573      -118.1956        -69.139     0.02658571
      4459.0000         0.6664          0.413         0.3549         0.6432      -118.6252       -69.5686     0.02044863
      4459.5000          0.654         0.4162         0.3526         0.6363      -118.9937       -69.9371     0.01518435
      4460.0000         0.6415         0.4153         0.3503         0.6323      -119.2211       -70.1645     0.01193575
      4460.5000         0.6371         0.4136          0.348         0.6283      -119.4487       -70.3921    0.008684322
      4461.0000          0.638          0.412         0.3457         0.6243      -119.6761       -70.6195    0.005435726
      4461.5000         0.6399         0.4104         0.3434         0.6203      -119.7638       -70.7072     0.00418287
      4462.0000         0.6449         0.4088         0.3419         0.6206      -119.8068       -70.7502    0.003568595
      4462.5000         0.6511         0.4072         0.3424         0.6349      -119.8499       -70.7933    0.002952903
