#------------------------------------------------------------------------------
# Created by    : vladimir.rabinovich
# Created on    : 09/19/2023 17:22:34
#------------------------------------------------------------------------------
~Version Information Section
VERS.           2.0     :   CWLS log ASCII Standard - VERSION 2.0
WRAP.           NO      :   One line per depth step
~Well Information Section
#MNEM       .UNIT                                         VALUE :DESCRIPTION
#------------------------------------------------------------------------------
STRT        .FT                                            2432 :START DEPTH
STOP        .FT                                            8088 :STOP DEPTH
STEP        .FT                                             0.5 :STEP      
NULL        .                                           -999.25 :NULL      
COMP        .                                  XTO OFFSHORE INC :COMPANY   
WELL        .                               OCS G23162 ST00BP00 :WELL      
FLD         .                                 BRAZOS BLOCK 0398 :FIELD     
LOC         .                                                   :LOCATION  
CNTY        .                                BRAZOS LARGE BLOCK :LOCATION  
STAT        .                                             TEXAS :STATE     
CTRY        .                                     UNITED STATES :COUNTRY   
SRVC        .                                                   :SERVICE COMPANY
DATE        .                             9/13/2023 11:09:58 AM :LOG DATE  
API         .                                    42704403400000 :API NUMBER
UWI         .                                    42704403400000 :UNIQUE WELL ID
XCOORD      .                                  869002.191083907 :SURFACE X 
YCOORD      .                                  10369331.9113669 :SURFACE Y 
LAT         .                                        28.5523806 :LATITUDE  
LON         .                                       -95.4033279 :LONGITUDE 
ELEV        .FT                                             100 :ELEVATION VALUE
ELEV_TYPE   .                                                KB :ELEVATION REFERENCE TYPE
~Curve Information Section
#MNEM       .UNIT                                      API CODE :CURVE DESCRIPTION
#------------------------------------------------------------------------------
DEPT        .FT                                                 :DEPTH     
CO12        .MMHO                                               :          
DCAL        .IN                                                 :          
DPHI        .FRAC                                               :          
DRHO        .G/CC                                               :          
GR          .GAPI                                               :          
GR_NORM     .GAPI                                               :GammaRay Normalized
HO01        .OHMM                                               :          
HO02        .OHMM                                               :          
HO03        .OHMM                                               :          
HO06        .OHMM                                               :          
HO09        .OHMM                                               :          
HO12        .OHMM                                               :          
NPHI        .FRAC                                               :          
RWA         .OHMM                                               :          
SP          .MV                                                 :          
SP_NORM     .MV                                                 :SP Normalized
TENS        .LB/F                                               :          
VSH_GR      .V/V                                                :Volume of Shale from GR
VSH_SP      .V/V                                                :Volume of Shale from SP
~A        DEPTH           CO12           DCAL           DPHI           DRHO             GR        GR_NORM           HO01           HO02           HO03           HO06           HO09           HO12           NPHI            RWA             SP        SP_NORM           TENS         VSH_GR         VSH_SP
# ...
      7319.0000       855.9221        -2.8989         0.3259          0.131        96.3018       74.09528         0.9822         1.0758         1.1306         1.1435         1.1991           1.16         0.3841         0.1675        77.9104      -1.994812       5083.363      0.8743677              1
      7319.5000       854.8682        -2.8989         0.3231         0.1329        92.9569       70.30881         1.0085         1.1145         1.1722         1.1682         1.1992         1.1641          0.391         0.1653        78.1262      -1.785118       5094.213      0.7938044              1
      7320.0000       852.8049        -2.9527         0.3198         0.1339        92.3921       69.66867         1.0206         1.1124         1.1449         1.1563         1.2241         1.1855         0.3826         0.1624        78.6739      -1.243523        5108.68      0.7801845              1
      7320.5000       846.9457        -2.9604         0.3184         0.1328        93.7669       71.22365         1.1309         1.1173         1.1563         1.1899         1.2029         1.1683         0.3694         0.1605         79.059     -0.8645248       5121.564      0.8132691              1
      7321.0000       841.0109         -2.968         0.3209         0.1313        96.0873       73.84879         1.0557         1.1664         1.2101         1.1743         1.2273         1.1885         0.3754         0.1629        79.0424     -0.8872299       5129.928      0.8691233              1
      7321.5000        856.426        -2.9604         0.3281         0.1311        96.2283       74.00744         0.9336         1.1159         1.1869         1.2036         1.2492         1.2111         0.3779         0.1715        78.6241       -1.31163       5137.162      0.8724987              1
      7322.0000       867.6204        -2.9604         0.3352         0.1342         95.581       73.27393         1.0005         1.1223          1.161         1.0928         1.1468         1.1085          0.378         0.1843        77.9801      -1.961731       5144.847      0.8568922              1
      7322.5000       873.6221        -2.9757         0.3404         0.1374        95.4539       73.12917         0.9552         1.0624         1.1082         1.1317         1.1834         1.1428         0.3727         0.1848        77.7577      -2.190247       5152.759       0.853812      0.9940548
      7323.0000       865.8628        -2.9757         0.3382         0.1428        97.1943       75.09789         0.9719         1.0238         1.1009         1.1812         1.2278         1.1853         0.3834         0.1845        77.8805      -2.073547       5148.464      0.8956997      0.9977016
      7323.5000       877.6133        -2.9757         0.3331         0.1444        99.5565       77.77034         1.0384         1.1102          1.118         1.1005         1.1735         1.1378         0.3932         0.1695        78.2656       -1.69455        5129.25      0.9525604              1
      7324.0000       893.8553        -2.9757         0.3271         0.1447       100.1576       78.44969         1.1438         1.0676         1.0705         1.0848         1.1337         1.0986         0.4043          0.163        78.6971      -1.269157       5102.351      0.9670147              1
      7324.5000       893.5649        -2.9757         0.3228         0.1436        97.8498       75.83694         0.9002         1.0204         1.0914         1.0984         1.1532         1.1205         0.3967         0.1604        78.8598      -1.112556       5085.624      0.9114243              1
      7325.0000       873.5592        -2.9757         0.3205         0.1423        95.2808       72.92859         0.9676         1.0361         1.0958         1.1177         1.1754         1.1389          0.392         0.1603        78.5179      -1.460564       5088.788      0.8495445              1
      7325.5000       854.7504        -2.9757         0.3192         0.1431        93.8488         71.307         1.0189         1.1037         1.1549         1.1553         1.2125         1.1761         0.3806         0.1609        78.1461      -1.838463       5110.036      0.8150426              1
      7326.0000       842.9714        -2.9834         0.3208         0.1424        93.6702       71.10394         1.0844         1.1559         1.1935         1.1865         1.2382         1.1962         0.3713         0.1622        78.0697      -1.920967       5130.833      0.8107222              1
      7326.5000       839.3315        -2.9834         0.3241         0.1439         93.905       71.36874         1.0629         1.1572         1.1937         1.1798         1.2306         1.1867         0.3718         0.1704        78.2058       -1.79097       5135.805      0.8163562              1
      7327.0000       848.0353        -2.9911         0.3273         0.1465        95.3008       72.94749         1.0086          1.141         1.2056         1.1964         1.2356         1.1914         0.3771          0.173         78.332      -1.670883       5126.312      0.8499466              1
      7327.5000       876.7988        -2.9834         0.3294         0.1512        97.9619       75.95821          0.816         1.0809         1.1809         1.1868         1.2083         1.1599         0.3878         0.1679        78.3619      -1.647087       5117.948      0.9140044              1
      7328.0000       912.1033        -2.9834         0.3282         0.1571        99.6948       77.91846          0.775         0.9359         1.0232         1.0638         1.1184         1.0765         0.4012         0.1635        78.3021       -1.71299       5128.572      0.9557118              1
      7328.5000       961.5753        -2.9757         0.3272         0.1603        99.9026        78.1527         0.8078         0.9275           0.99         1.0109         1.0965         1.0579         0.4083         0.1553        78.3884      -1.632797       5157.054      0.9606958              1
      7329.0000        947.524        -2.9604          0.325         0.1622        98.5098       76.57549         0.9558         0.9571         0.9786         0.9794         1.0259         0.9896         0.3985         0.1566         78.478      -1.549301       5184.405      0.9271381              1
      7329.5000       921.0265        -2.9527         0.3259         0.1598        98.7894       76.89099         1.1987         1.0949         1.1011         1.0828         1.1621         1.1276         0.3845         0.1558         78.478      -1.555405       5193.673      0.9338509              1
      7330.0000       877.2224        -2.9527         0.3283         0.1577       100.5964        78.9351          1.045         1.0831         1.1506         1.2054         1.1896         1.1551          0.383         0.1643        78.2158      -1.823708       5186.214      0.9773425              1
      7330.5000       885.6742         -2.945         0.3315         0.1565       103.2695        81.9594          0.894         1.0288         1.1001         1.0948         1.1673         1.1375         0.3998           0.17        77.8208      -2.224808       5170.842              1      0.9929748
      7331.0000       906.3918         -2.945         0.3331         0.1581       104.6052       83.47013         0.8875         1.0243         1.0741         1.0601         1.1208         1.0963         0.3995         0.1699         77.595      -2.456711        5149.82              1      0.9857278
      7331.5000       913.1331        -2.9373         0.3316         0.1614       104.6357       83.50371         0.9411         1.0229         1.0671         1.0561         1.1046         1.0777         0.4003         0.1641        77.8473      -2.210526       5126.537              1      0.9934211
      7332.0000       924.7907        -2.9296         0.3291         0.1646       103.3429       82.03968         0.9134         1.0244         1.0818         1.0908         1.1409         1.1119         0.4089         0.1571         78.073      -1.990929       5102.803              1              1
