#------------------------------------------------------------------------------
# Created by    : vladimir.rabinovich
# Created on    : 09/19/2023 17:20:02
#------------------------------------------------------------------------------
~Version Information Section
VERS.           2.0     :   CWLS log ASCII Standard - VERSION 2.0
WRAP.           NO      :   One line per depth step
~Well Information Section
#MNEM       .UNIT                                         VALUE :DESCRIPTION
#------------------------------------------------------------------------------
STRT        .FT                                             994 :START DEPTH
STOP        .FT                                           14137 :STOP DEPTH
STEP        .FT                                             0.5 :STEP      
NULL        .                                           -999.25 :NULL      
COMP        .                                   MARATHON OIL CO :COMPANY   
WELL        .                                     ST TR 00841-L :WELL      
FLD         .                                           WILDCAT :FIELD     
LOC         .                                                   :LOCATION  
CNTY        .                        MUSTANG ISLAND LARGE BLOCK :LOCATION  
STAT        .                                             TEXAS :STATE     
CTRY        .                                     UNITED STATES :COUNTRY   
SRVC        .                                                   :SERVICE COMPANY
DATE        .                             9/13/2023 11:18:55 AM :LOG DATE  
API         .                                    42702301400000 :API NUMBER
UWI         .                                    42702301400000 :UNIQUE WELL ID
XCOORD      .                                  272565.632686387 :SURFACE X 
YCOORD      .                                  9953986.84876921 :SURFACE Y 
LAT         .                                         27.367086 :LATITUDE  
LON         .                                       -97.2136853 :LONGITUDE 
ELEV        .FT                                              88 :ELEVATION VALUE
ELEV_TYPE   .                                                KB :ELEVATION REFERENCE TYPE
~Curve Information Section
#MNEM       .UNIT                                      API CODE :CURVE DESCRIPTION
#------------------------------------------------------------------------------
DEPT        .FT                                                 :DEPTH     
ASFL        .OHMM                                               :          
CILD        .MMHO                                               :          
GR          .GAPI                                               :          
GR_NORM     .GAPI                                               :GammaRay Normalized
ILD         .OHMM                                               :          
SP          .MV                                                 :          
SP_NORM     .MV                                                 :SP Normalized
VSH_GR      .V/V                                                :Volume of Shale from GR
VSH_SP      .V/V                                                :Volume of Shale from SP
~A        DEPTH           ASFL           CILD             GR        GR_NORM            ILD             SP        SP_NORM         VSH_GR         VSH_SP
# ...
      1868.5000         0.8283       903.1406        16.3534       28.51598         0.9936       -57.3088      -7.680386              0      0.4861242
      1869.0000         0.8617       857.1445        16.4274       28.63487         1.0236       -57.8518      -8.230278              0      0.4438248
      1869.5000         0.8898       811.1357        16.5013        28.7536         1.0824       -58.3949      -8.780273              0      0.4015174
      1870.0000         0.9151        764.916        16.5753        28.8725         1.1412       -58.9036      -9.295864              0      0.3618566
      1870.5000         0.9404       718.6846        16.6836       29.04766            1.2       -58.4634      -8.862564              0      0.3951874
      1871.0000         1.0235       663.9248        17.8664       30.98555         1.2588       -58.0233      -8.429356              0      0.4285111
      1871.5000         1.0878       616.0322        19.0488       32.92278         1.3207       -57.5831      -7.996048              0      0.4618425
      1872.0000         1.1553       579.8027         20.221       34.84328         1.4377       -57.1312      -7.551041     0.03921866      0.4960738
      1872.5000         1.2053       557.9141        21.1845        36.4214         1.5546       -56.6745      -7.101238     0.07279579       0.530674
      1873.0000         1.2417       578.0801        21.7275        37.3097          1.633       -56.1189      -6.552532     0.09169582      0.5728821
      1873.5000         1.2693       606.8477        22.2704       38.19783         1.7099       -55.5107      -5.951225      0.1105921      0.6191365
      1874.0000         1.2271       635.6162        22.7616       39.00114         1.7002       -55.0157       -5.46312      0.1276838      0.6566831
      1874.5000         1.1978       664.3838        23.0547       39.47947         1.6906       -54.7719      -5.226215       0.137861      0.6749065
      1875.0000         1.1691       693.1514        23.3479       39.95796          1.681       -54.9849       -5.44611      0.1480417      0.6579915
      1875.5000         1.1403       722.5264        23.5768       40.33098         1.6714       -55.1979         -5.666      0.1559783      0.6410769
      1876.0000         1.1061       731.9961        23.4047       40.04614         1.3882       -55.4108      -5.885796      0.1499179      0.6241696
      1876.5000         1.0744       715.7285        22.2399       38.13278         1.3267       -55.6238      -6.105686      0.1092081      0.6072549
      1877.0000           1.05       699.4609        21.0205       36.12985         1.2652       -55.8369      -6.325684     0.06659252       0.590332
      1877.5000         1.0315       683.1865        20.4717       35.22704         1.2631       -56.0936      -6.589279     0.04738382      0.5700554
      1878.0000         1.0427       666.9189        20.7255       35.64091         1.2771       -56.3815      -6.884071     0.05618952      0.5473791
      1878.5000         1.0576       650.6445        21.1739       36.37401         1.3029       -56.1144      -6.623863     0.07178749      0.5673952
      1879.0000         1.0724       634.3389        21.6223        37.1071         1.3531       -55.5011       -6.01746     0.08738514      0.6140416
      1879.5000         1.0885       609.3828         23.031       39.41558         1.4034        -55.126      -5.649254      0.1365017      0.6423651
      1880.0000         1.1109       581.4453        25.0876       42.78694         1.4536       -54.7779      -5.308048      0.2082327      0.6686116
      1880.5000         1.1369       557.5918        28.8737       48.99555         1.5008       -54.5521      -5.089142      0.3403309      0.6854506
      1881.0000         1.1657       540.9736        32.8114       55.45287         1.5447       -54.3262      -4.870136      0.4777206      0.7022972
      1881.5000         1.1944       533.7725        36.7492       61.91033         1.5887        -53.625      -4.175831      0.6151134      0.7557053
      1882.0000         1.2229       541.2402        40.6882       68.36978         1.6326        -53.717      -4.274723      0.7525485      0.7480983
      1882.5000         1.2677       548.7109        42.5925       71.49129         1.6735       -54.0385      -4.603119      0.8189637       0.722837
      1883.0000         1.3114       556.1787        44.0807       73.93018         1.7107       -54.3599      -4.931412      0.8708548      0.6975837
      1883.5000          1.329       563.6494         45.847        76.8253          1.748       -54.1761      -4.754509      0.9324532      0.7111916
      1884.0000         1.3371       570.8389        46.8698       78.50072         1.7766       -53.7198      -4.305099      0.9681004      0.7457616
      1884.5000         1.3447       568.9766        46.6856       78.19601         1.7972       -53.2659      -3.858093      0.9616174      0.7801467
      1885.0000         1.3501       554.8711        46.4457       77.79996         1.8091       -52.8141      -3.413185      0.9531907      0.8143704
      1885.5000         1.3554       540.7666         45.996       77.05973         1.8106        -52.655      -3.260983      0.9374411      0.8260783
      1886.0000         1.3662       526.6611        45.3869       76.05799         1.8121       -52.4524      -3.065277      0.9161274      0.8411325
      1886.5000         1.3797       512.5566        44.7778       75.05629         1.8135       -52.1847       -2.80447      0.8948147      0.8611946
      1887.0000         1.3955       494.5469        44.5074       74.61018         1.8495       -51.9171      -2.543762       0.885323      0.8812491
      1887.5000         1.4174       478.9243        44.2887       74.24889         1.9079       -51.4806      -2.114159       0.877636      0.9142955
      1888.0000         1.4445       478.5913          44.07       73.88761         1.9637        -50.832      -1.472454      0.8699492      0.9636574
      1888.5000          1.474       478.2583        44.3298       74.31133         2.0025       -50.4058      -1.053146      0.8789644      0.9959118
      1889.0000         1.5015       477.9243        44.8734        75.2006         1.9984       -50.1573     -0.8115387      0.8978851              1
      1889.5000         1.5363       477.5913         45.658       76.48524         1.9944        -49.629     -0.2901382      0.9252178              1
      1890.0000         1.5806       477.2583        46.4733       77.82024         1.9904       -49.9547     -0.6227303       0.953622              1
      1890.5000         1.5697       476.9253        47.4857       79.47858         1.9864       -50.2805     -0.9554214      0.9889059              1
      1891.0000         1.5351       486.6084         48.313       80.83327         1.9443       -50.6088      -1.290615              1       0.977645
      1891.5000         1.5139       506.2168        48.8805       81.76176         1.8703        -50.938      -1.626709              1      0.9517916
      1892.0000         1.4927       530.5469        49.4479       82.69008         1.7964       -51.3209      -2.016506              1      0.9218072
      1892.5000         1.4715       562.4385        49.8851        83.4048         1.7362       -51.7202      -2.422699              1      0.8905616
      1893.0000         1.4505       579.5088        50.3099       84.09918          1.702       -52.1194      -2.828793              1      0.8593236
      1893.5000          1.433        589.252        50.4611       84.34473         1.6679       -52.4328      -3.149086              1      0.8346857
      1894.0000         1.4155       595.1338         49.376        82.5621         1.6337       -52.5508      -3.273983              1      0.8250782
      1894.5000          1.398       601.0146        48.1255       80.50817         1.6096       -52.2451      -2.975174              1      0.8480635
