#------------------------------------------------------------------------------
# Created by    : vladimir.rabinovich
# Created on    : 09/19/2023 17:22:52
#------------------------------------------------------------------------------
~Version Information Section
VERS.           2.0     :   CWLS log ASCII Standard - VERSION 2.0
WRAP.           NO      :   One line per depth step
~Well Information Section
#MNEM       .UNIT                                         VALUE :DESCRIPTION
#------------------------------------------------------------------------------
STRT        .FT                                             873 :START DEPTH
STOP        .FT                                           11612 :STOP DEPTH
STEP        .FT                                             0.5 :STEP      
NULL        .                                           -999.25 :NULL      
COMP        .                                   MARATHON OIL CO :COMPANY   
WELL        .                               OCS G04137 ST00BP04 :WELL      
FLD         .                       MATAGORDA ISLAND BLOCK 0527 :FIELD     
LOC         .                                                   :LOCATION  
CNTY        .                      MATAGORDA ISLAND LARGE BLOCK :LOCATION  
STAT        .                                             TEXAS :STATE     
CTRY        .                                     UNITED STATES :COUNTRY   
SRVC        .                                                   :SERVICE COMPANY
DATE        .                             9/13/2023 11:19:05 AM :LOG DATE  
API         .                                    42703400590000 :API NUMBER
UWI         .                                    42703400590000 :UNIQUE WELL ID
XCOORD      .                                  609906.580547661 :SURFACE X 
YCOORD      .                                  10277311.7025511 :SURFACE Y 
LAT         .                                         28.282909 :LATITUDE  
LON         .                                        -96.202007 :LONGITUDE 
ELEV        .FT                                              95 :ELEVATION VALUE
ELEV_TYPE   .                                                KB :ELEVATION REFERENCE TYPE
~Curve Information Section
#MNEM       .UNIT                                      API CODE :CURVE DESCRIPTION
#------------------------------------------------------------------------------
DEPT        .FT                                                 :DEPTH     
GR          .GAPI                                               :          
GR_NORM     .GAPI                                               :GammaRay Normalized
ILD         .OHMM                                               :          
SP          .MV                                                 :          
SP_NORM     .MV                                                 :SP Normalized
VSH_GR      .V/V                                                :Volume of Shale from GR
VSH_SP      .V/V                                                :Volume of Shale from SP
~A        DEPTH             GR        GR_NORM            ILD             SP        SP_NORM         VSH_GR         VSH_SP
# ...
      5228.0000         32.416       35.50566         0.4773      -128.0679      -57.87801     0.05331194     0.06757367
      5228.5000        33.8711       38.75868         0.4405      -128.3123        -58.124      0.1225252     0.06354097
      5229.0000        36.1068       43.75658         0.4022      -126.1705      -55.98379      0.2288635     0.09862643
      5229.5000        38.2362       48.51689         0.3707      -124.8884      -54.70327      0.3301466      0.1196185
      5230.0000        39.9951       52.44897          0.345      -124.3625      -54.17897       0.413808      0.1282136
      5230.5000        40.5313       53.64797         0.3226      -125.1553      -54.97335      0.4393186       0.115191
      5231.0000        39.4708       51.27786         0.3016      -125.8364      -55.65605      0.3888907      0.1039992
      5231.5000        38.9882       50.19953          0.288       -126.177      -55.99824      0.3659475     0.09838955
      5232.0000        38.5055       49.12098         0.2772       -126.432      -56.25482      0.3429995     0.09418325
      5232.5000        38.0228       48.04239         0.2684      -126.6792      -56.50362      0.3200509     0.09010465
      5233.0000        38.2609       48.57507         0.2621      -127.0367       -56.8627      0.3313845     0.08421801
      5233.5000        38.8016       49.78412         0.2562      -127.6404        -57.468       0.357109     0.07429504
      5234.0000        39.0681       50.38025         0.2509       -128.374      -58.20318      0.3697926     0.06224298
      5234.5000        38.7418       49.65129         0.2467      -128.9988      -58.82957      0.3542828     0.05197431
      5235.0000        38.4156       48.92258         0.2441      -128.9702      -58.80257      0.3387783     0.05241694
      5235.5000        38.2881         48.638         0.2415      -128.4939      -58.32785      0.3327233     0.06019918
      5236.0000        38.2414       48.53401         0.2407      -127.6973      -57.53284      0.3305109     0.07323205
      5236.5000        37.9738       47.93627           0.24      -127.0247      -56.86183      0.3177929     0.08423227
      5237.0000         37.673       47.26432         0.2399       -126.772      -56.61073      0.3034963     0.08834876
      5237.5000        37.5112       46.90306         0.2408      -126.6477      -56.48801      0.2958099     0.09036043
      5238.0000         38.038       48.08106         0.2429      -126.4343      -56.27621      0.3208736     0.09383267
      5238.5000        37.4716        46.8154         0.2458      -125.7858      -55.62929      0.2939447      0.1044379
      5239.0000        36.8293       45.38008         0.2487      -125.1392      -54.98428      0.2634059      0.1150117
      5239.5000        36.4072       44.43698         0.2559      -125.0311      -54.87777        0.24334      0.1167579
      5240.0000        35.9851        43.4939         0.2655      -125.6567      -55.50497      0.2232746       0.106476
      5240.5000        36.6113       44.89407          0.277      -125.9551      -55.80495      0.2530653      0.1015581
      5241.0000        37.4506       46.77058         0.2914      -126.1588      -56.01024      0.2929911     0.09819281
      5241.5000        38.3869       48.86393         0.3094      -126.3459      -56.19894      0.3375305      0.0950994
      5242.0000        39.6691       51.73047         0.3326      -126.6776      -56.53222      0.3985207     0.08963575
      5242.5000        40.9944       54.69338          0.367      -127.5083      -57.36451      0.4615612     0.07599165
      5243.0000        42.7422       58.60066          0.409      -127.8998      -57.75761      0.5446948     0.06954744
      5243.5000        43.8082       60.98393         0.4656      -127.3137      -57.17309      0.5954028      0.0791297
      5244.0000        44.5092       62.55132         0.5541      -126.0446      -55.90559      0.6287515     0.09990842
      5244.5000        45.1181        63.9128         0.6759      -124.1473      -54.00987      0.6577191      0.1309857
      5245.0000        46.0204       65.93015          0.755      -122.1785      -52.04266      0.7006414      0.1632351
      5245.5000        46.8992       67.89495         0.8373      -120.7858      -50.65155      0.7424458      0.1860402
      5246.0000        47.5273       69.29939         0.9369      -119.9316      -49.79894      0.7723275      0.2000173
      5246.5000         47.347       68.89677         1.0322      -119.0299      -48.89883       0.763761      0.2147732
      5247.0000        47.4963       69.23095         1.1215      -117.9529      -47.82343      0.7708713      0.2324029
      5247.5000        48.0881        70.5542         1.2219      -116.7782      -46.65031      0.7990255      0.2516343
      5248.0000        48.5767        71.6468         1.3305      -115.5355       -45.4092      0.8222724      0.2719803
      5248.5000        47.9183       70.17554         1.4031      -113.6976      -43.57289      0.7909689      0.3020838
      5249.0000        47.1778       68.52068         1.4633      -111.2618      -41.13868      0.7557592      0.3419889
      5249.5000        46.9117       67.92632         1.5023      -109.3362      -39.21467      0.7431131        0.37353
      5250.0000        47.1463       68.45113         1.5297       -108.319      -38.19906      0.7542794      0.3901794
      5250.5000        47.8436       70.01024         1.5527      -107.6825      -37.56416      0.7874519      0.4005876
      5251.0000        48.0742       70.52613         1.5372      -107.4803      -37.36354      0.7984283      0.4038764
      5251.5000        47.6651       69.61209         1.5142         -107.5      -37.38483      0.7789807      0.4035274
      5252.0000        47.2673       68.72333         1.4875      -107.8767      -37.76312      0.7600708      0.3973259
      5252.5000        46.8792       67.85619         1.4473      -108.2952       -38.1832      0.7416211      0.3904393
      5253.0000        44.4641       62.45813         1.4081      -107.8267       -37.7163      0.6267686      0.3980934
      5253.5000        42.0153       56.98472           1.37      -106.8132      -36.70439      0.5103132      0.4146821
      5254.0000         41.507       55.84896         1.3203      -106.7041      -36.59688      0.4861481      0.4164446
      5254.5000        41.4313       55.68015         1.2699       -107.132      -37.02637      0.4825564      0.4094037
      5255.0000        41.5483       55.94212         1.2209      -108.4912      -38.38716      0.4881301      0.3870957
      5255.5000        41.3329       55.46106         1.1717      -110.4144      -40.31194      0.4778948      0.3555419
      5256.0000        40.7733       54.21061         1.1244      -112.0869      -41.98604      0.4512897      0.3280977
      5256.5000         39.679       51.76492         1.0746       -113.705      -43.60573      0.3992537      0.3015454
      5257.0000        38.4722       49.06775         1.0224      -115.4515      -45.35382      0.3418671      0.2728882
      5257.5000        37.3234       46.50027         0.9601      -116.9844      -46.88831      0.2872399      0.2477327
      5258.0000        35.9042       43.32835         0.8892      -118.0409       -47.9464       0.219752       0.230387
      5258.5000        34.3639       39.88571         0.8243      -118.0792      -47.98629      0.1465045      0.2297329
      5259.0000        33.0645       36.98158         0.7652      -117.2389      -47.14758     0.08471444      0.2434824
      5259.5000        32.2802       35.22885         0.7107      -116.0975      -46.00777     0.04742237      0.2621676
      5260.0000         31.678       33.88317         0.6678      -114.8933      -44.80516     0.01879095      0.2818826
      5260.5000        32.6482        36.0523         0.6307      -113.6569      -43.57034     0.06494246      0.3021255
      5261.0000        33.3879       37.70618         0.5972       -112.418      -42.33304      0.1001314      0.3224092
