#------------------------------------------------------------------------------
# Created by    : vladimir.rabinovich
# Created on    : 09/19/2023 17:19:48
#------------------------------------------------------------------------------
~Version Information Section
VERS.           2.0     :   CWLS log ASCII Standard - VERSION 2.0
WRAP.           NO      :   One line per depth step
~Well Information Section
#MNEM       .UNIT                                         VALUE :DESCRIPTION
#------------------------------------------------------------------------------
STRT        .FT                                             960 :START DEPTH
STOP        .FT                                            9172 :STOP DEPTH
STEP        .FT                                             0.5 :STEP      
NULL        .                                           -999.25 :NULL      
COMP        .                                ODECO OIL & GAS CO :COMPANY   
WELL        .                               OCS G06101 ST00BP00 :WELL      
FLD         .                                           WILDCAT :FIELD     
LOC         .                                                   :LOCATION  
CNTY        .                             GALVESTON LARGE BLOCK :LOCATION  
STAT        .                                             TEXAS :STATE     
CTRY        .                                     UNITED STATES :COUNTRY   
SRVC        .                                                   :SERVICE COMPANY
DATE        .                             9/13/2023 11:19:27 AM :LOG DATE  
API         .                                    42706401070000 :API NUMBER
UWI         .                                    42706401070000 :UNIQUE WELL ID
XCOORD      .                                  1041316.87817256 :SURFACE X 
YCOORD      .                                  10447909.9182991 :SURFACE Y 
LAT         .                                         28.776905 :LATITUDE  
LON         .                                        -94.870587 :LONGITUDE 
ELEV        .FT                                              92 :ELEVATION VALUE
ELEV_TYPE   .                                                KB :ELEVATION REFERENCE TYPE
~Curve Information Section
#MNEM       .UNIT                                      API CODE :CURVE DESCRIPTION
#------------------------------------------------------------------------------
DEPT        .FT                                                 :DEPTH     
ASFL        .OHMM                                               :          
GR          .GAPI                                               :          
GR_NORM     .GAPI                                               :GammaRay Normalized
ILD         .OHMM                                               :          
SP          .MV                                                 :          
SP_NORM     .MV                                                 :SP Normalized
VSH_GR      .V/V                                                :Volume of Shale from GR
VSH_SP      .V/V                                                :Volume of Shale from SP
~A        DEPTH           ASFL             GR        GR_NORM            ILD             SP        SP_NORM         VSH_GR         VSH_SP
# ...
      2051.5000         0.5637        56.1565       60.25727         0.5242       -84.7223       -21.0754       0.579942      0.6487434
      2052.0000         0.5559        54.1588       57.31941         0.5157       -84.6768       -21.0136      0.5174342      0.6497734
      2052.5000          0.548        55.1695       58.80305         0.5073       -84.6313      -20.95179      0.5490011      0.6508036
      2053.0000         0.5466        56.4462       60.67764         0.4988       -84.5858      -20.88997       0.588886      0.6518338
      2053.5000         0.5468        57.7229       62.55223         0.4904       -84.5404       -20.8283      0.6287709      0.6528617
      2054.0000          0.547        58.9996       64.42681         0.4911       -84.4949      -20.76649      0.6686556      0.6538919
      2054.5000         0.5503        60.2763       66.30141         0.4975       -84.4359      -20.68577      0.7085407      0.6552371
      2055.0000         0.5539         61.553       68.17602         0.5039       -83.9946      -20.06984      0.7484259      0.6655026
      2055.5000         0.5576        62.5303       69.61057         0.5103       -83.5531      -19.45364      0.7789482      0.6757727
      2056.0000         0.5613        63.2238       70.62802         0.5168       -83.1118      -18.83771      0.8005962      0.6860382
      2056.5000          0.565        63.9174       71.64561         0.5232       -82.6703      -18.22149      0.8222471      0.6963085
      2057.0000         0.5687        63.8497       71.54431         0.5296        -82.229      -17.60555      0.8200917      0.7065741
      2057.5000         0.5735        63.6814       71.29514         0.5367       -81.7875      -16.98935      0.8147901      0.7168443
      2058.0000          0.582        64.4032       72.35418         0.5458       -81.3429       -16.3688       0.837323      0.7271866
      2058.5000         0.5904        65.1483       73.44747         0.5549        -80.897      -15.74643      0.8605845      0.7375594
      2059.0000         0.5988        65.8934       74.54076          0.564       -80.4509      -15.12377      0.8838459      0.7479371
      2059.5000         0.6072        66.6382        75.6336         0.5732       -80.0049      -14.50126      0.9070978      0.7583124
      2060.0000         0.6156        67.4413       76.81213         0.5823       -79.7432      -14.13677      0.9321729      0.7643871
      2060.5000          0.624        68.9656       79.05062         0.5914       -79.5818       -13.9127      0.9798005      0.7681216
      2061.0000         0.6325        70.4894       81.28838         0.6005       -79.4205      -13.68877              1      0.7718538
      2061.5000         0.6395        72.0137       83.52689         0.6097       -79.2593      -13.46498              1      0.7755836
      2062.0000         0.6454        73.5375       85.76463         0.6188       -79.2827      -13.49962              1      0.7750064
      2062.5000         0.6514        74.6858       87.45051         0.6278       -79.3323      -13.57095              1      0.7738175
      2063.0000         0.6572        75.8176       89.11214         0.6321       -79.3818      -13.64214              1       0.772631
      2063.5000           0.66        76.6091       90.27362         0.6365       -79.4314      -13.71347              1      0.7714422
      2064.0000         0.6628        75.7767       89.04843         0.6409       -79.4808      -13.78452              1       0.770258
      2064.5000         0.6657        74.9032       87.76281         0.6452       -79.5304      -13.85586              1       0.769069
      2065.0000         0.6685        73.9635       86.37991         0.6496       -79.5671      -13.90911              1      0.7681814
      2065.5000         0.6713        73.0236       84.99671          0.654       -79.6006      -13.95791              1      0.7673683
      2066.0000         0.6728        72.0836       83.61337         0.6584       -79.6342      -14.00684              1      0.7665527
      2066.5000         0.6721        71.1436       82.23001         0.6627       -79.6677      -14.05563              1      0.7657396
      2067.0000         0.6714        70.1965       80.83624         0.6671       -79.7013      -14.10456              1       0.764924
      2067.5000         0.6707        69.2395        79.4279         0.6715       -79.7349      -14.15349      0.9878277      0.7641085
      2068.0000           0.67        68.2825       78.01958         0.6721       -79.7683      -14.20213      0.9578633      0.7632979
      2068.5000         0.6694        67.3251       76.61066           0.67       -79.8019      -14.25106      0.9278865      0.7624823
      2069.0000         0.6687        66.6013       75.54506         0.6678       -79.7623       -14.1975       0.905214      0.7633749
      2069.5000         0.6681        66.9099        75.9968         0.6657        -79.696      -14.10658      0.9148256      0.7648904
      2070.0000         0.6677        67.7804       77.27441         0.6636       -79.6298      -14.01579      0.9420088      0.7664036
      2070.5000         0.6673        68.7811       78.74335         0.6614       -79.4747      -13.80053      0.9732627      0.7699912
      2071.0000         0.6669        69.7821       80.21275         0.6593       -79.2529       -13.4919              1       0.775135
      2071.5000         0.6664        70.7827       81.68154         0.6572       -79.0986      -13.27777              1      0.7787038
      2072.0000          0.666        71.7834        83.1505          0.655       -78.9445      -13.06392              1      0.7822679
      2072.5000         0.6656        72.7844       84.61989         0.6529       -78.7902      -12.84979              1      0.7858368
      2073.0000         0.6651        73.7852       86.08899         0.6507       -78.6359      -12.63566              1      0.7894056
      2073.5000         0.6645        74.6417       87.34599         0.6486       -78.4816      -12.42152              1      0.7929747
      2074.0000         0.6639         75.177       88.13094         0.6477       -78.3273      -12.20739              1      0.7965435
      2074.5000         0.6633        75.7123       88.91587         0.6499        -78.173      -11.99326              1      0.8001124
      2075.0000         0.6675        76.2476        89.7008         0.6521       -78.0188      -11.77927              1      0.8036788
      2075.5000         0.6722         76.783       90.48589         0.6542       -77.8644      -11.56501              1      0.8072499
      2076.0000         0.6768        77.3182       91.27068         0.6564       -77.7164      -11.35968              1      0.8106719
      2076.5000         0.6815         76.728       90.40144         0.6586       -77.5697       -11.1562              1      0.8140634
      2077.0000         0.6861        75.2766       88.26648         0.6607       -77.6064      -11.20946              1      0.8131756
      2077.5000         0.6908        73.6906       85.93369         0.6629       -77.7582      -11.42388              1      0.8096021
      2078.0000         0.6954        72.1052       83.60178         0.6651         -78.02      -11.79228              1       0.803462
      2078.5000         0.7001         70.698       81.53178         0.6672        -78.282      -12.16097              1      0.7973171
      2079.0000         0.7048        69.3248       79.51175         0.6701       -78.5171      -12.49199      0.9896117      0.7918001
      2079.5000         0.7094        67.9518       77.49202         0.6815       -78.7236      -12.78299      0.9466387      0.7869502
      2080.0000         0.7141        66.5543       75.43627          0.693       -78.9301      -13.07398      0.9028994      0.7821004
      2080.5000         0.7187        65.0629       73.24252         0.7045       -79.0782      -13.28321      0.8562239      0.7786132
