#------------------------------------------------------------------------------
# Created by    : vladimir.rabinovich
# Created on    : 09/19/2023 17:22:56
#------------------------------------------------------------------------------
~Version Information Section
VERS.           2.0     :   CWLS log ASCII Standard - VERSION 2.0
WRAP.           NO      :   One line per depth step
~Well Information Section
#MNEM       .UNIT                                         VALUE :DESCRIPTION
#------------------------------------------------------------------------------
STRT        .FT                                             671 :START DEPTH
STOP        .FT                                           10000 :STOP DEPTH
STEP        .FT                                             0.5 :STEP      
NULL        .                                           -999.25 :NULL      
COMP        .                                    MOBIL OIL CORP :COMPANY   
WELL        .                                     ST TR 00565-L :WELL      
FLD         .                                           WILDCAT :FIELD     
LOC         .                                                   :LOCATION  
CNTY        .                      MATAGORDA ISLAND LARGE BLOCK :LOCATION  
STAT        .                                             TEXAS :STATE     
CTRY        .                                     UNITED STATES :COUNTRY   
SRVC        .                                                   :SERVICE COMPANY
DATE        .                             9/13/2023 11:12:05 AM :LOG DATE  
API         .                                    42703000150000 :API NUMBER
UWI         .                                    42703000150000 :UNIQUE WELL ID
XCOORD      .                                  584511.465629887 :SURFACE X 
YCOORD      .                                  10263641.5286434 :SURFACE Y 
LAT         .                                         28.243485 :LATITUDE  
LON         .                                       -96.2796592 :LONGITUDE 
ELEV        .FT                                              11 :ELEVATION VALUE
ELEV_TYPE   .                                                KB :ELEVATION REFERENCE TYPE
~Curve Information Section
#MNEM       .UNIT                                      API CODE :CURVE DESCRIPTION
#------------------------------------------------------------------------------
DEPT        .FT                                                 :DEPTH     
SP          .MV                                                 :          
SP_NORM     .MV                                                 :SP Normalized
VSH_SP      .V/V                                                :Volume of Shale from SP
~A        DEPTH             SP        SP_NORM         VSH_SP
# ...
      1925.0000        17.6572        -9.4939      0.5670733
      1925.5000        18.1261        -9.9628      0.5358133
      1926.0000        18.6115       -10.4482      0.5034533
      1926.5000        18.7934       -10.6301      0.4913267
      1927.0000        18.7866       -10.6233        0.49178
      1927.5000        18.7166       -10.5533      0.4964467
      1928.0000        18.4962       -10.3329        0.51114
      1928.5000        18.2758       -10.1125      0.5258333
      1929.0000        18.0121        -9.8488      0.5434133
      1929.5000        17.4222        -9.2589        0.58274
      1930.0000        16.8476        -8.6843      0.6210467
      1930.5000         16.585        -8.4217      0.6385534
      1931.0000        16.3224        -8.1591        0.65606
      1931.5000         16.263        -8.0997        0.66002
      1932.0000        16.2042        -8.0409        0.66394
      1932.5000         16.175        -8.0117      0.6658867
      1933.0000        16.2015        -8.0382        0.66412
      1933.5000         16.228        -8.0647      0.6623533
      1934.0000        16.3287        -8.1654        0.65564
      1934.5000        16.4371        -8.2738      0.6484134
      1935.0000        16.5035        -8.3402      0.6439866
      1935.5000         16.456        -8.2927      0.6471533
      1936.0000        16.4223         -8.259         0.6494
      1936.5000         16.434        -8.2707      0.6486199
      1937.0000        16.4912        -8.3279      0.6448067
      1937.5000        16.7331        -8.5698        0.62868
      1938.0000         16.975        -8.8117      0.6125534
      1938.5000        17.1571        -8.9938      0.6004133
      1939.0000        17.3218        -9.1585      0.5894334
      1939.5000        17.4864        -9.3231        0.57846
      1940.0000        17.2096        -9.0463      0.5969133
      1940.5000        16.9029        -8.7396        0.61736
      1941.0000        16.5872        -8.4239      0.6384067
      1941.5000        16.2471        -8.0838        0.66108
      1942.0000        15.9568        -7.7935      0.6804333
      1942.5000        15.8504        -7.6871      0.6875266
      1943.0000        15.7816        -7.6183      0.6921133
      1943.5000        15.8934        -7.7301        0.68466
      1944.0000        16.0381        -7.8748      0.6750133
      1944.5000        16.2445        -8.0812      0.6612533
      1945.0000         16.451        -8.2877      0.6474867
      1945.5000        16.6467        -8.4834        0.63444
      1946.0000        16.7551        -8.5918      0.6272134
      1946.5000        16.8635        -8.7002      0.6199867
      1947.0000        16.8288        -8.6655         0.6223
      1947.5000        16.6344        -8.4711        0.63526
      1948.0000        16.4399        -8.2766      0.6482267
      1948.5000        16.2948        -8.1315         0.6579
      1949.0000        16.2228        -8.0595         0.6627
      1949.5000        16.3225        -8.1592      0.6560534
      1950.0000        16.4729        -8.3096      0.6460267
      1950.5000        16.6233          -8.46          0.636
      1951.0000        16.5489        -8.3856        0.64096
      1951.5000        16.4589        -8.2956        0.64696
      1952.0000        16.3688        -8.2055      0.6529667
      1952.5000        16.1714        -8.0081      0.6661267
      1953.0000        15.9588        -7.7955         0.6803
      1953.5000         15.746        -7.5827      0.6944867
      1954.0000        15.5102        -7.3469      0.7102067
      1954.5000        15.2589        -7.0956        0.72696
      1955.0000        15.0625        -6.8992      0.7400534
      1955.5000        15.2029        -7.0396      0.7306933
      1956.0000        15.3454        -7.1821      0.7211934
      1956.5000        15.5029        -7.3396      0.7106933
      1957.0000        15.6604        -7.4971      0.7001933
      1957.5000         15.818        -7.6547      0.6896867
      1958.0000        15.9755        -7.8122      0.6791866
      1958.5000        16.2065        -8.0432      0.6637867
      1959.0000        16.4496        -8.2863        0.64758
      1959.5000        16.7006        -8.5373      0.6308467
      1960.0000        17.2141        -9.0508      0.5966133
      1960.5000        17.6752        -9.5119      0.5658733
      1961.0000        17.8445        -9.6812      0.5545866
      1961.5000        17.6083         -9.445      0.5703334
      1962.0000        17.2012        -9.0379      0.5974733
      1962.5000        16.7461        -8.5828      0.6278133
      1963.0000        16.2864        -8.1231        0.65846
      1963.5000        15.7868        -7.6235      0.6917667
      1964.0000        15.2873         -7.124      0.7250667
      1964.5000        14.8341        -6.6708        0.75528
      1965.0000        14.4457        -6.2824      0.7811733
      1965.5000        14.0573         -5.894      0.8070667
      1966.0000        13.8659        -5.7026      0.8198267
      1966.5000        13.7196        -5.5563        0.82958
      1967.0000        13.6052        -5.4419      0.8372067
      1967.5000        13.4449        -5.2816      0.8478934
      1968.0000        13.1605        -4.9972      0.8668534
      1968.5000        12.8763         -4.713         0.8858
      1969.0000         12.621        -4.4577        0.90282
      1969.5000        12.4758        -4.3125         0.9125
      1970.0000        12.8141        -4.6508      0.8899466
      1970.5000        13.3499        -5.1866      0.8542266
      1971.0000         13.886        -5.7227      0.8184866
      1971.5000          14.18        -6.0167      0.7988867
      1972.0000        14.3956        -6.2323      0.7845134
      1972.5000        14.6078        -6.4445      0.7703667
      1973.0000        14.7963         -6.633         0.7578
      1973.5000        14.9848        -6.8215      0.7452334
      1974.0000        15.1734        -7.0101        0.73266
      1974.5000        15.7307        -7.5674      0.6955067
      1975.0000        16.2795        -8.1162        0.65892
      1975.5000         16.601        -8.4377      0.6374866
      1976.0000         16.765        -8.6017      0.6265534
      1976.5000        16.9255        -8.7622      0.6158533
      1977.0000        17.0759        -8.9126      0.6058267
      1977.5000        17.2536        -9.0903        0.59398
      1978.0000         17.523        -9.3597        0.57602
      1978.5000        17.7925        -9.6292      0.5580533
      1979.0000        17.9976        -9.8343        0.54438
      1979.5000        18.1605        -9.9972        0.53352
      1980.0000        17.8033          -9.64      0.5573333
      1980.5000         17.437        -9.2737      0.5817534
      1981.0000        17.2156        -9.0523      0.5965133
      1981.5000         17.402        -9.2387      0.5840867
      1982.0000        17.7928        -9.6295      0.5580333
      1982.5000        18.0862        -9.9229      0.5384733
      1983.0000        18.1318        -9.9685      0.5354334
      1983.5000        17.9881        -9.8248      0.5450134
      1984.0000        17.6156        -9.4523      0.5698467
      1984.5000        17.2432        -9.0799      0.5946733
      1985.0000        16.9154        -8.7521      0.6165267
      1985.5000        16.5884        -8.4251      0.6383266
      1986.0000        16.7462        -8.5829      0.6278067
      1986.5000        16.9526        -8.7893      0.6140467
      1987.0000        17.1064        -8.9431      0.6037933
      1987.5000        17.2601        -9.0968      0.5935467
      1988.0000        17.2994        -9.1361      0.5909267
      1988.5000        17.2848        -9.1215         0.5919
      1989.0000        17.2701        -9.1068        0.59288
      1989.5000        17.2553         -9.092      0.5938666
      1990.0000        17.2242        -9.0609        0.59594
      1990.5000        17.1932        -9.0299      0.5980067
