#------------------------------------------------------------------------------
# Created by    : vladimir.rabinovich
# Created on    : 09/19/2023 17:22:28
#------------------------------------------------------------------------------
~Version Information Section
VERS.           2.0     :   CWLS log ASCII Standard - VERSION 2.0
WRAP.           NO      :   One line per depth step
~Well Information Section
#MNEM       .UNIT                                         VALUE :DESCRIPTION
#------------------------------------------------------------------------------
STRT        .FT                                            2981 :START DEPTH
STOP        .FT                                           10477 :STOP DEPTH
STEP        .FT                                             0.5 :STEP      
NULL        .                                           -999.25 :NULL      
COMP        .                          SEAGULL ENERGY E & P INC :COMPANY   
WELL        .                               OCS G13783 ST00BP00 :WELL      
FLD         .                                           WILDCAT :FIELD     
LOC         .                                                   :LOCATION  
CNTY        .                             GALVESTON LARGE BLOCK :LOCATION  
STAT        .                                             TEXAS :STATE     
CTRY        .                                     UNITED STATES :COUNTRY   
SRVC        .                                                   :SERVICE COMPANY
DATE        .                             9/13/2023 11:19:39 AM :LOG DATE  
API         .                                    42706403890000 :API NUMBER
UWI         .                                    42706403890000 :UNIQUE WELL ID
XCOORD      .                                  1047250.65699841 :SURFACE X 
YCOORD      .                                  10470150.2239286 :SURFACE Y 
LAT         .                                         28.838318 :LATITUDE  
LON         .                                         -94.85315 :LONGITUDE 
ELEV        .FT                                              94 :ELEVATION VALUE
ELEV_TYPE   .                                                KB :ELEVATION REFERENCE TYPE
~Curve Information Section
#MNEM       .UNIT                                      API CODE :CURVE DESCRIPTION
#------------------------------------------------------------------------------
DEPT        .FT                                                 :DEPTH     
CILD        .MMHO                                               :          
CNC         .%                                                  :          
DT24        .US/F                                               :          
GR          .GAPI                                               :          
GR_NORM     .GAPI                                               :GammaRay Normalized
PORZ        .%                                                  :          
RFOC        .OHMM                                               :          
RILD        .OHMM                                               :          
RILM        .OHMM                                               :          
RWAZ        .OHMM                                               :          
SP          .MV                                                 :          
SP_NORM     .MV                                                 :SP Normalized
TEN         .LBF                                                :          
VSH_GR      .V/V                                                :Volume of Shale from GR
VSH_SP      .V/V                                                :Volume of Shale from SP
ZCOR        .G/C3                                               :          
ZDEN        .G/C3                                               :          
~A        DEPTH           CILD            CNC           DT24             GR        GR_NORM           PORZ           RFOC           RILD           RILM           RWAZ             SP        SP_NORM            TEN         VSH_GR         VSH_SP           ZCOR           ZDEN
# ...
      3476.0000       1461.836        -999.25       152.9558         85.948        85.6376        -999.25          0.969          0.684          0.683        -999.25         -5.116      -1.523186        -31.714              1      0.9782402        -999.25        -999.25
      3476.5000       1459.836        -999.25       153.3489         85.647       85.27641        -999.25          0.966          0.685          0.685        -999.25         -4.581     -0.9881854         -23.35              1      0.9858831        -999.25        -999.25
      3477.0000       1449.201        -999.25       155.3838        83.6699       82.90388        -999.25          0.965           0.69           0.69        -999.25         -3.958     -0.3651855        -15.225              1       0.994783        -999.25        -999.25
      3477.5000        1428.91        -999.25       156.2158        81.8739       80.74868        -999.25          0.962            0.7          0.699        -999.25         -3.506      0.0868144        -19.782              1              1        -999.25        -999.25
      3478.0000       1398.432        -999.25        155.449         82.475          81.47        -999.25          0.963          0.715          0.712        -999.25         -3.257      0.3358145        -27.993              1              1        -999.25        -999.25
      3478.5000        1357.92        -999.25        154.417         84.788        84.2456        -999.25           0.97          0.736          0.731        -999.25         -3.075      0.5178144        -22.137              1              1        -999.25        -999.25
      3479.0000       1312.719        -999.25        153.365         85.887        85.5644        -999.25          0.979          0.762          0.756        -999.25         -2.947      0.6458144           -8.9              1              1        -999.25        -999.25
      3479.5000         1272.5        -999.25       152.6738        84.7069       84.14828        -999.25          0.991          0.786          0.784        -999.25         -2.949      0.6438146         -4.819              1              1        -999.25        -999.25
      3480.0000       1243.105        -999.25       151.8948        82.0049       80.90588        -999.25           1.02          0.804          0.805        -999.25         -3.156      0.4368145          -6.61              1              1        -999.25        -999.25
      3480.5000       1223.578        -999.25        150.939         78.198        76.3376        -999.25          1.068          0.817          0.811        -999.25         -3.512     0.08081436         -7.185      0.9220766              1        -999.25        -999.25
      3481.0000       1210.119        -999.25       149.9619        75.5549       73.16588        -999.25          1.097          0.826          0.805        -999.25         -3.806     -0.2131855        -10.791      0.8545932      0.9969545        -999.25        -999.25
      3481.5000       1199.941        -999.25        149.064         75.439        73.0268        -999.25          1.079          0.833          0.795        -999.25         -3.891     -0.2981856        -14.709      0.8516341      0.9957402        -999.25        -999.25
      3482.0000       1195.438        -999.25       148.9229         75.792        73.4504        -999.25          1.039          0.836          0.785        -999.25         -3.741     -0.1481855        -12.938      0.8606468      0.9978831        -999.25        -999.25
      3482.5000        1202.48        -999.25       149.5979        76.9939       74.89268        -999.25          1.012          0.832          0.775        -999.25         -3.486      0.1068144        -12.303      0.8913336              1        -999.25        -999.25
      3483.0000       1222.043        -999.25       150.5439        78.7589       77.01069        -999.25          1.001          0.818          0.765        -999.25         -3.486      0.1068144        -15.914      0.9363976              1        -999.25        -999.25
      3483.5000       1248.928        -999.25       151.1279        78.9109       77.19308        -999.25          0.996          0.801          0.758        -999.25         -3.797     -0.2041855        -15.389      0.9402782      0.9970831        -999.25        -999.25
      3484.0000       1277.115        -999.25        150.876        77.7209       75.76508        -999.25          0.994          0.783          0.752        -999.25         -3.995     -0.4021854         -7.227      0.9098952      0.9942545        -999.25        -999.25
      3484.5000       1301.422        -999.25       150.8098        78.3379       76.50548        -999.25          0.999          0.768          0.744        -999.25         -3.903     -0.3101857           0.72      0.9256485      0.9955688        -999.25        -999.25
      3485.0000       1318.383        -999.25       151.6338         80.231       78.77721        -999.25          1.004          0.758          0.736        -999.25         -3.877     -0.2841856          -0.67      0.9739831      0.9959402        -999.25        -999.25
      3485.5000       1327.924        -999.25        152.781        80.4979       79.09748        -999.25          1.002          0.753          0.729        -999.25         -3.964     -0.3711855        -10.732      0.9807975      0.9946973        -999.25        -999.25
      3486.0000       1331.582        -999.25       154.1938         79.752        78.2024        -999.25              1          0.751          0.723        -999.25          -3.88     -0.2871857        -18.834      0.9617532      0.9958974        -999.25        -999.25
      3486.5000       1331.387        -999.25       154.9749        80.3419       78.91029        -999.25          0.999          0.751          0.719        -999.25         -3.634    -0.04118562        -19.675      0.9768146      0.9994116        -999.25        -999.25
      3487.0000       1332.721        -999.25        154.554        81.8679       80.74148        -999.25          0.988           0.75          0.717        -999.25         -3.512     0.08081436        -23.613              1              1        -999.25        -999.25
      3487.5000       1341.467        -999.25       153.8779        83.8589       83.13068        -999.25          0.974          0.746          0.717        -999.25         -3.427      0.1658144        -36.426              1              1        -999.25        -999.25
      3488.0000       1357.631        -999.25       153.4758        86.5699       86.38388        -999.25          0.984          0.737          0.715        -999.25             -3      0.5928144        -44.076              1              1        -999.25        -999.25
      3488.5000       1376.346        -999.25        153.271        87.7079       87.74948        -999.25          1.009          0.727          0.708        -999.25         -2.546       1.046814        -34.686              1              1        -999.25        -999.25
      3489.0000       1392.055        -999.25       152.9729        85.6449       85.27388        -999.25          1.015          0.718            0.7        -999.25         -2.636      0.9568145        -19.813              1              1        -999.25        -999.25
      3489.5000       1400.506        -999.25        152.917        83.3939       82.57268        -999.25          0.996          0.714          0.694        -999.25         -3.104      0.4888144        -13.146              1              1        -999.25        -999.25
      3490.0000       1403.951        -999.25       153.4319        83.4249       82.60988        -999.25          0.979          0.712          0.691        -999.25         -3.378      0.2148144        -11.028              1              1        -999.25        -999.25
      3490.5000       1411.398        -999.25       154.4548         83.908        83.1896        -999.25          0.973          0.709          0.688        -999.25         -3.348      0.2448144        -12.208              1              1        -999.25        -999.25
