#------------------------------------------------------------------------------
# Created by    : vladimir.rabinovich
# Created on    : 09/19/2023 17:19:44
#------------------------------------------------------------------------------
~Version Information Section
VERS.           2.0     :   CWLS log ASCII Standard - VERSION 2.0
WRAP.           NO      :   One line per depth step
~Well Information Section
#MNEM       .UNIT                                         VALUE :DESCRIPTION
#------------------------------------------------------------------------------
STRT        .FT                                             490 :START DEPTH
STOP        .FT                                           13420 :STOP DEPTH
STEP        .FT                                             0.5 :STEP      
NULL        .                                           -999.25 :NULL      
COMP        .                                 MESA PETROLEUM CO :COMPANY   
WELL        .                                     ST TR 00012-L :WELL      
FLD         .                                           WILDCAT :FIELD     
LOC         .                                                   :LOCATION  
CNTY        .                           HIGH ISLAND LARGE BLOCK :LOCATION  
STAT        .                                             TEXAS :STATE     
CTRY        .                                     UNITED STATES :COUNTRY   
SRVC        .                                                   :SERVICE COMPANY
DATE        .                             9/13/2023 11:19:15 AM :LOG DATE  
API         .                                    42708302120000 :API NUMBER
UWI         .                                    42708302120000 :UNIQUE WELL ID
XCOORD      .                                  1361115.25412243 :SURFACE X 
YCOORD      .                                  10723579.9964947 :SURFACE Y 
LAT         .                                        29.5453665 :LATITUDE  
LON         .                                       -93.8786547 :LONGITUDE 
ELEV        .FT                                              80 :ELEVATION VALUE
ELEV_TYPE   .                                                KB :ELEVATION REFERENCE TYPE
~Curve Information Section
#MNEM       .UNIT                                      API CODE :CURVE DESCRIPTION
#------------------------------------------------------------------------------
DEPT        .FT                                                 :DEPTH     
ASFL        .OHMM                                               :          
CILD        .MMHO                                               :          
GR          .GAPI                                               :          
GR_NORM     .GAPI                                               :GammaRay Normalized
ILD         .OHMM                                               :          
SP          .MV                                                 :          
SP_NORM     .MV                                                 :SP Normalized
VSH_GR      .V/V                                                :Volume of Shale from GR
~A        DEPTH           ASFL           CILD             GR        GR_NORM            ILD             SP        SP_NORM         VSH_GR
# ...
      6508.0000         1.2017       1157.623        45.2863       66.30891         0.9267      -138.6553      -24.34711      0.7087001
      6508.5000          1.151       1165.504        45.8613       67.27157         0.8868      -129.1226      -14.81556      0.7291823
      6509.0000         1.1035        1153.26        46.4308       68.22507         0.8433      -124.3683       -10.0624      0.7494697
      6509.5000         1.0643       1131.484        46.9789       69.14288         0.7965      -121.9508      -7.646049      0.7689974
      6510.0000         0.9028       1079.693        47.5265       70.05986         0.7499      -119.8817      -5.578102      0.7885076
      6510.5000          0.812       1256.795        48.0746       70.97765         0.7032      -118.3284      -4.025955       0.808035
      6511.0000         0.7498       1384.178        49.1996       72.85767         0.6565      -117.1123      -2.811005      0.8480356
      6511.5000         0.6541       1564.488        50.5391       75.09547         0.6179      -115.9622      -1.662048      0.8956482
      6512.0000           0.59       1642.203        51.3048       76.37621         0.5815      -114.4271     -0.1281052       0.922898
      6512.5000         0.5612       1712.213        52.0192       77.57138         0.5451      -112.8457       1.452141      0.9483272
      6513.0000         0.5392       1786.668        52.6694       78.65948         0.5087      -111.9816       2.315094      0.9714784
      6513.5000          0.529       2173.953        53.3189       79.74642         0.4748      -111.3607       2.934837      0.9946047
      6514.0000         0.5188       2461.996        53.6312       80.27093         0.4675      -110.9944       3.299995              1
      6514.5000         0.5096       2563.211        53.9276       80.76893         0.4602      -110.6278       3.665443              1
      6515.0000          0.502       2876.633        54.2239       81.26674         0.4529      -110.1428       4.149292              1
      6515.5000         0.5039       2939.113        54.5206       81.76523         0.4456      -109.6094       4.681541              1
      6516.0000         0.5264       2964.023        54.9884       82.54912         0.4608       -109.772       4.517784              1
      6516.5000         0.5489       2847.402        55.0612       82.67417         0.4933      -110.9354       3.353241              1
      6517.0000         0.5713       2698.492        53.7803       80.54136         0.5259      -112.4167       1.870789              1
      6517.5000         0.6148       2549.582        52.4982       78.40656         0.5584      -113.8979      0.3884354      0.9660971
      6518.0000         0.6756       2415.484        51.1465       76.15571         0.6019      -115.3793      -1.094116      0.9182066
      6518.5000         0.7309       2057.629        49.7838       73.88646         0.6519      -116.8984      -2.614365      0.8699247
      6519.0000         0.7784       1918.002        48.4199       71.61523         0.7018      -118.4359      -4.153008      0.8216006
      6519.5000         0.8238       1472.457        46.2713       68.03519         0.7518      -119.6262       -5.34446      0.7454297
      6520.0000         0.8678       1307.156        43.4212       63.28512         0.8016      -120.4781      -6.197517      0.6443642
      6520.5000         0.9105       1175.625        41.2567       59.67855         0.8512        -121.33      -7.050568      0.5676288
      6521.0000         0.8744       1068.484        43.8074       63.93652         0.9008        -122.21      -7.931717      0.6582238
      6521.5000         0.7836       1151.826        47.1879       69.57851         0.8919      -123.1278      -8.850662      0.7782663
      6522.0000         0.7476       1225.098        48.8623       72.37488         0.8707      -124.1116      -9.835617      0.8377634
      6522.5000         0.7138       1296.293        50.5342       75.16707         0.8412      -125.5514      -11.27657      0.8971717
      6523.0000         0.6855         1374.5        52.3113       78.13474         0.8099      -122.4641      -8.190422      0.9603137
      6523.5000         0.7089       1461.793        54.0101       80.97179         0.7785      -118.4408      -4.168274              1
      6524.0000         0.7293       1520.547        55.3447       83.20142         0.7472      -114.6129     -0.3415146              1
      6524.5000         0.7348       1570.117        56.5883       85.27927         0.7159      -112.7026       1.567635              1
      6525.0000         0.7402       1626.502        57.1602       86.23676         0.6846      -111.8875       2.381584              1
      6525.5000         0.7456        1696.02        57.7316       87.19343         0.6532      -112.1051       2.162827              1
      6526.0000          0.751       1669.061        57.5532       86.89951         0.6446      -112.8909       1.375877              1
      6526.5000          0.758       1629.217        56.3958       84.97269         0.6566      -113.7219      0.5437317              1
      6527.0000         0.7666         1599.1        55.2078       82.99483         0.6686      -114.7645     -0.5000229              1
      6527.5000         0.7752       1575.623        53.7791       80.61552         0.6806      -115.8082      -1.544868              1
      6528.0000         0.7838       1593.719        52.3516        78.2382         0.6926      -116.8507      -2.588524       0.962515
      6528.5000         0.7958       1653.559        50.9229       75.85892         0.7046      -120.6798      -6.418777      0.9118919
      6529.0000           0.81       1699.623        50.1829       74.62828         0.7166      -128.2424      -13.98252      0.8857081
      6529.5000         0.8007       1743.516        49.4917       73.47903         0.7109      -132.8843      -18.62556      0.8612561
      6530.0000         0.7859       1800.543        48.8079       72.34216         0.7051       -134.863      -20.60543      0.8370671
      6530.5000         0.7711       1853.125        48.1241       71.20528         0.6992      -136.3308      -22.07437      0.8128783
      6531.0000         0.7563       1896.377        47.4397       70.06738         0.6933      -138.2031      -23.94782      0.7886677
      6531.5000         0.7396       1941.355        45.4353       66.72785         0.6731      -141.0605      -26.80637      0.7176139
      6532.0000         0.7213        2000.85        50.7737       75.63545         0.6459      -138.7727      -24.51973      0.9071373
      6532.5000         0.7029       2081.129        52.9346       79.24324         0.6186      -130.3447      -16.09287      0.9838988
      6533.0000         0.6845        2173.41        53.8402       80.75734         0.5913      -125.4414      -11.19073              1
      6533.5000         0.6678       2201.207        54.7446        82.2694         0.5641      -122.1073       -7.85778              1
      6534.0000         0.6707       2154.352         55.363       83.30447         0.5425      -119.0983       -4.84993              1
      6534.5000         0.7075       2078.363        54.5967       82.02999         0.5286      -117.8468      -3.599579              1
      6535.0000         0.7319       2131.293        53.8304        80.7555         0.5146      -126.0133      -11.76723              1
      6535.5000         0.7563       2363.445        53.0641       79.48101         0.5007      -131.8308      -17.58588      0.9889576
      6536.0000         0.7807        2443.43        52.2978        78.2065         0.4874      -138.3523      -24.10853      0.9618405
      6536.5000         0.8292       2519.168        50.3387       74.94254         0.4837      -143.7495      -29.50688      0.8923944
      6537.0000         0.8919        2620.68        47.5742       70.33524           0.48      -149.0488      -34.80733      0.7943667
