#------------------------------------------------------------------------------
# Created by    : vladimir.rabinovich
# Created on    : 09/19/2023 17:20:45
#------------------------------------------------------------------------------
~Version Information Section
VERS.           2.0     :   CWLS log ASCII Standard - VERSION 2.0
WRAP.           NO      :   One line per depth step
~Well Information Section
#MNEM       .UNIT                                         VALUE :DESCRIPTION
#------------------------------------------------------------------------------
STRT        .FT                                            2010 :START DEPTH
STOP        .FT                                            7000 :STOP DEPTH
STEP        .FT                                             0.5 :STEP      
NULL        .                                           -999.25 :NULL      
COMP        .                                    TEXAS GULF INC :COMPANY   
WELL        .                                ST OF TEX TR 693-L :WELL      
FLD         .                                           WILDCAT :FIELD     
LOC         .                                                   :LOCATION  
CNTY        .                      MATAGORDA ISLAND LARGE BLOCK :LOCATION  
STAT        .                                             TEXAS :STATE     
CTRY        .                                     UNITED STATES :COUNTRY   
SRVC        .                                                   :SERVICE COMPANY
DATE        .                             9/13/2023 11:12:01 AM :LOG DATE  
API         .                                    42703300330000 :API NUMBER
UWI         .                                    42703300330000 :UNIQUE WELL ID
XCOORD      .                                  377893.250269135 :SURFACE X 
YCOORD      .                                  10151490.3803449 :SURFACE Y 
LAT         .                                        27.9187241 :LATITUDE  
LON         .                                       -96.9091122 :LONGITUDE 
ELEV        .FT                                              70 :ELEVATION VALUE
ELEV_TYPE   .                                                KB :ELEVATION REFERENCE TYPE
~Curve Information Section
#MNEM       .UNIT                                      API CODE :CURVE DESCRIPTION
#------------------------------------------------------------------------------
DEPT        .FT                                                 :DEPTH     
ASN         .OHMM                                               :          
CILD        .MMHO                                               :          
ILD         .OHMM                                               :          
SP          .MV                                                 :          
SP_NORM     .MV                                                 :SP Normalized
VSH_SP      .V/V                                                :Volume of Shale from SP
~A        DEPTH            ASN           CILD            ILD             SP        SP_NORM         VSH_SP
# ...
      6304.0000         0.8757       2811.422         0.4516       -77.4095       -35.9001       0.553946
      6304.5000         0.8591       2837.016         0.4262       -79.0586       -37.5492      0.5322474
      6305.0000         0.8425       2856.895         0.4062       -81.2148       -39.7054      0.5038763
      6305.5000         0.8259        2876.75         0.3865       -79.6539       -38.1445      0.5244145
      6306.0000         0.8092       2905.211         0.3668       -73.9298       -32.4204      0.5997316
      6306.5000         0.7994       2936.117         0.3472       -72.2794         -30.77      0.6214474
      6307.0000          0.823       3031.777         0.3275       -70.6975       -29.1881      0.6422618
      6307.5000         0.8466       3148.613         0.3078       -69.4149       -27.9055      0.6591381
      6308.0000         0.8702       3264.852         0.2882       -70.6117       -29.1023      0.6433908
      6308.5000         0.8939       3448.641         0.2734       -74.0417       -32.5323      0.5982592
      6309.0000         0.9175       3981.738         0.2685       -78.2273       -36.7179      0.5431855
      6309.5000         0.9411       4013.059         0.2636      -104.9811       -63.4717      0.1911619
      6310.0000         0.9647       4013.242         0.2587      -106.2362       -64.7268      0.1746474
      6310.5000         0.9946       4013.426         0.2538      -107.4901       -65.9807      0.1581487
      6311.0000         1.0759       4004.203         0.2489      -108.7454        -67.236      0.1416316
      6311.5000         1.1562       3994.199          0.244      -109.8973       -68.3879       0.126475
      6312.0000         1.1952        3896.73         0.2391      -110.9301       -69.4207      0.1128855
      6312.5000         1.1555       3788.074         0.2342      -111.9615       -70.4521     0.09931444
      6313.0000         1.1059        3692.59         0.2314      -112.9943       -71.4849     0.08572498
      6313.5000         1.0562       3615.164         0.2302      -113.8983       -72.3889     0.07383025
      6314.0000         1.0135       3537.738         0.2289      -114.6638       -73.1544     0.06375784
      6314.5000          0.982       3421.418         0.2276      -115.4294         -73.92     0.05368423
      6315.0000         0.9504       3545.422         0.2264      -115.9014        -74.392     0.04747371
      6315.5000         0.9525       3813.219         0.2251      -115.8284        -74.319     0.04843421
      6316.0000         0.9633       3926.066         0.2239      -115.3306       -73.8212     0.05498424
      6316.5000         0.9741       4004.887         0.2226      -114.9143       -73.4049     0.06046185
      6317.0000         0.9847       4006.293         0.2214      -115.6115       -74.1021      0.0512882
      6317.5000         0.9928       4006.543         0.2206      -116.3428       -74.8334     0.04166583
      6318.0000         0.9973        4009.98         0.2202      -115.3207       -73.8113     0.05511444
      6318.5000         0.9816       4096.086         0.2198      -113.9661       -72.4567     0.07293811
      6319.0000         0.9659       3992.875         0.2195      -115.4636       -73.9542      0.0532342
      6319.5000         0.9501        4006.07         0.2191      -116.8853       -75.3759     0.03452763
      6320.0000         0.9344       3995.496         0.2187       -118.307       -76.7976     0.01582105
      6320.5000         0.9513       3984.918         0.2183      -118.6245       -77.1151     0.01164346
      6321.0000         0.9739       3985.891          0.218      -117.8018       -76.2924     0.02246847
      6321.5000         0.9965       3995.332         0.2176      -116.9785       -75.4691     0.03330131
      6322.0000         1.0191       4004.773         0.2172      -116.1558       -74.6464     0.04412631
      6322.5000         1.0417       3970.164         0.2168      -115.3331       -73.8237     0.05495132
      6323.0000         1.0643       3886.254         0.2165      -114.8242       -73.3148     0.06164742
      6323.5000         1.1004       3797.555         0.2161       -114.616       -73.1066     0.06438687
      6324.0000         1.1471       3706.957         0.2157      -115.5717       -74.0623     0.05181182
      6324.5000         1.1616       3616.363         0.2153      -116.5286       -75.0192     0.03922101
      6325.0000         1.1259       3513.293          0.215      -117.4843       -75.9749     0.02664606
      6325.5000         1.1308        3346.02         0.2146      -118.4164        -76.907     0.01438161
      6326.0000          1.134       3460.813         0.2142      -118.8202       -77.3108    0.009068439
      6326.5000         1.0956       3709.852         0.2152      -117.9602       -76.4508     0.02038424
      6327.0000          1.055       3868.293         0.2164       -117.099       -75.5896      0.0317158
      6327.5000         1.0144       3981.441         0.2176      -117.2823       -75.7729      0.0293039
      6328.0000         0.9897       4042.188         0.2188      -117.8105       -76.3011     0.02235392
      6328.5000         0.9725       4097.375           0.22       -118.338       -76.8286     0.01541318
      6329.0000         0.9553       4093.094         0.2211      -118.8656       -77.3562    0.008471037
      6329.5000         0.9366       4058.219         0.2223      -119.3938       -77.8844     0.00152106
      6330.0000         0.9382       4028.887         0.2222      -119.0072       -77.4978    0.006607859
      6330.5000         0.9542       4078.824         0.2187      -118.3119       -76.8025     0.01575661
      6331.0000         0.9712       4128.813         0.2151       -117.616       -76.1066     0.02491319
      6331.5000          0.957       4195.859         0.2116      -116.8859       -75.3765      0.0345197
      6332.0000         0.9176       4268.492         0.2081      -116.7933       -75.2839     0.03573819
      6332.5000         0.8801       4341.031         0.2045      -117.4519       -75.9425     0.02707241
      6333.0000         0.8467       4401.648          0.201      -116.7697       -75.2603     0.03604869
      6333.5000         0.8133       4458.016         0.1975      -117.3855       -75.8761     0.02794607
      6334.0000         0.7857       4514.344         0.1939      -118.1566       -76.6472     0.01779998
      6334.5000         0.7935       4570.414         0.1923      -119.1545       -77.6451    0.004669691
      6335.0000         0.8095       4626.344         0.1925      -120.3177       -78.8083              0
      6335.5000         0.8254       4672.539         0.1928       -121.481       -79.9716              0
      6336.0000         0.8414       4709.656          0.193      -122.6442       -81.1348              0
      6336.5000         0.8401       4684.109         0.1933      -123.8074        -82.298              0
      6337.0000         0.8266       4620.203         0.1936      -124.6984        -83.189              0
      6337.5000         0.9265       4447.789         0.2004      -125.5845       -84.0751              0
      6338.0000         0.9574       4100.375         0.2251      -124.9507       -83.4413              0
      6338.5000         1.0101        4009.43         0.2498      -124.0782       -82.5688              0
      6339.0000         1.0647        3990.23         0.2745      -123.2058       -81.6964              0
      6339.5000         1.1286       3989.945         0.2992      -122.3335       -80.8241              0
      6340.0000         1.0462        3989.66         0.3198      -121.4611       -79.9517              0
      6340.5000         0.9688       3989.375         0.3209      -120.5898       -79.0804              0
      6341.0000         0.8921       3823.793         0.3125      -117.8484        -76.339      0.0218553
      6341.5000         0.8271           3895         0.3041      -116.3285       -74.8191     0.04185395
