#------------------------------------------------------------------------------
# Created by    : vladimir.rabinovich
# Created on    : 09/19/2023 17:20:48
#------------------------------------------------------------------------------
~Version Information Section
VERS.           2.0     :   CWLS log ASCII Standard - VERSION 2.0
WRAP.           NO      :   One line per depth step
~Well Information Section
#MNEM       .UNIT                                         VALUE :DESCRIPTION
#------------------------------------------------------------------------------
STRT        .FT                                             495 :START DEPTH
STOP        .FT                                            6623 :STOP DEPTH
STEP        .FT                                             0.5 :STEP      
NULL        .                                           -999.25 :NULL      
COMP        .                                      SHELL OIL CO :COMPANY   
WELL        .                                     ST TR 00691-L :WELL      
FLD         .                                           WILDCAT :FIELD     
LOC         .                                                   :LOCATION  
CNTY        .                      MATAGORDA ISLAND LARGE BLOCK :LOCATION  
STAT        .                                             TEXAS :STATE     
CTRY        .                                     UNITED STATES :COUNTRY   
SRVC        .                                                   :SERVICE COMPANY
DATE        .                             9/13/2023 11:12:05 AM :LOG DATE  
API         .                                    42703000200000 :API NUMBER
UWI         .                                    42703000200000 :UNIQUE WELL ID
XCOORD      .                                  411465.852171861 :SURFACE X 
YCOORD      .                                  10158718.0598508 :SURFACE Y 
LAT         .                                        27.9414781 :LATITUDE  
LON         .                                       -96.8060481 :LONGITUDE 
ELEV        .FT                                              11 :ELEVATION VALUE
ELEV_TYPE   .                                                KB :ELEVATION REFERENCE TYPE
~Curve Information Section
#MNEM       .UNIT                                      API CODE :CURVE DESCRIPTION
#------------------------------------------------------------------------------
DEPT        .FT                                                 :DEPTH     
ASN         .OHMM                                               :          
CILD        .OHMM                                               :          
ILD         .OHMM                                               :          
SP          .MV                                                 :          
SP_NORM     .MV                                                 :SP Normalized
VSH_SP      .V/V                                                :Volume of Shale from SP
~A        DEPTH            ASN           CILD            ILD             SP        SP_NORM         VSH_SP
# ...
      3345.0000         1.4443       865.5859         1.1071       -44.1131         0.9843              1
      3345.5000         1.4187       860.3984         1.1097       -43.6345          1.462              1
      3346.0000          1.391       857.4258         1.1022       -43.7839         1.3116              1
      3346.5000         1.3699       880.3008         1.0817       -43.9333         1.1612              1
      3347.0000          1.358       956.3799          1.044       -44.4929         0.6007              1
      3347.5000         1.3474       1033.393         1.0062       -54.8962        -9.8036      0.7635273
      3348.0000           1.34       1095.299         0.9652       -56.2461       -11.1544       0.722594
      3348.5000         1.3301       1157.203         0.9228       -56.2283       -11.1376       0.723103
      3349.0000         1.3049       1219.109         0.8804       -54.0797          -8.99      0.7881818
      3349.5000         1.2821       1281.014          0.838        -55.014        -9.9252      0.7598424
      3350.0000         1.2651        1342.92         0.7958       -55.3878          -10.3      0.7484848
      3350.5000         1.2481       1404.824         0.7614        -55.821       -10.7341      0.7353303
      3351.0000         1.2301        1466.73          0.727       -56.3713       -11.2854      0.7186242
      3351.5000         1.1895       1528.586         0.6926       -57.1603       -12.0754      0.6946849
      3352.0000         1.0598        1590.49         0.6581       -58.6257       -13.5417      0.6502515
      3352.5000         1.0305        1632.67         0.6312       -60.7443       -15.6613      0.5860212
      3353.0000         1.0042       1664.975          0.611       -63.0677       -17.9856      0.5155879
      3353.5000         0.9598        1717.15         0.5907       -67.6403       -22.5592      0.3769939
      3354.0000         0.7575       1764.488         0.5705       -63.8915       -18.8113      0.4905667
      3354.5000         0.7055       1799.322          0.561       -60.9069       -15.8277      0.5809788
      3355.0000         0.6971       1925.375         0.5517        -54.488        -9.4098      0.7754606
      3355.5000         0.7225       1932.938         0.5425       -52.7225        -7.6452      0.8289334
      3356.0000          0.756       1938.191         0.5332       -49.8036        -4.7273      0.9173545
      3356.5000         0.7918       1943.854         0.5273       -49.4761        -4.4007      0.9272515
      3357.0000         0.7876       1950.113         0.5213       -48.9857        -3.9113      0.9420818
      3357.5000         0.7813       1956.248         0.5157       -48.4952        -3.4218      0.9635436
      3358.0000         0.7748       1962.023         0.5118        -47.868        -2.7955      0.9796026
      3358.5000         0.7684       1957.629         0.5081       -47.1957        -2.1242      0.9968154
      3359.0000         0.7844       1865.281         0.5208       -46.4994        -1.4288              1
      3359.5000         0.8271       1728.205         0.5334       -45.7631        -0.6935              1
      3360.0000         0.8792       1591.129         0.5506       -45.7567        -0.6881              1
      3360.5000         0.9147       1504.291          0.571       -46.7472        -1.6795              1
      3361.0000         0.9372       1454.619         0.5913       -48.5701        -3.5034      0.9614513
      3361.5000         0.9601       1404.922         0.6153        -50.489        -5.4232      0.9122257
      3362.0000         0.9848       1355.227         0.6423       -52.7744        -7.7096         0.8536
      3362.5000         1.0102       1305.531         0.6647       -52.9064        -7.8426      0.8501897
      3363.0000          1.037       1255.859         0.6494       -51.9813        -6.9184      0.8738872
      3363.5000         1.0663       1206.162         0.6612       -50.1565        -5.0946      0.9206513
      3364.0000         1.0918       1163.014         0.6975       -49.3212        -4.2602      0.9420462
      3364.5000         1.1226       1143.705         0.7392       -48.8387        -3.7787      0.9543923
      3365.0000         1.1525       1096.305         0.7956        -48.568         -3.509      0.9613077
      3365.5000         1.1781       1062.404         0.8495       -48.4733        -3.4152      0.9637128
      3366.0000         1.1961       1022.449         0.9018       -48.4311         -3.374      0.9647692
      3366.5000         1.2154       1013.036         0.9605       -48.3889        -3.3327      0.9658282
      3367.0000         1.1721       1010.171         1.0144       -48.2328        -3.1776      0.9698051
      3367.5000         1.1076       1023.758         0.9801       -47.8704        -2.8162      0.9790718
      3368.0000         0.9384       1053.145         0.9281       -47.5081        -2.4548      0.9883385
      3368.5000         0.8916       1143.938         0.8762       -47.1456        -2.0933      0.9976077
      3369.0000         0.8798       1383.992         0.8171       -46.8657        -1.8143              1
      3369.5000         0.8628        1409.07         0.7542       -46.8633        -1.8129              1
      3370.0000         0.8465       1414.869          0.721       -47.5582        -2.5088      0.9869539
      3370.5000          0.857        1421.75         0.6878       -48.4614        -3.4129      0.9637718
      3371.0000         0.8977       1432.682         0.6781       -49.3932        -4.3457      0.9398538
      3371.5000         0.8944       1446.107         0.6715       -50.0905        -5.0439      0.9219513
      3372.0000         0.8795       1462.787         0.6672       -50.5703        -5.5247      0.9096231
      3372.5000         0.8645       1485.682         0.6629       -51.0499        -6.0052      0.8973026
      3373.0000         0.8495         1511.6         0.6573       -51.4252        -6.3815      0.8876538
      3373.5000         0.8295       1539.701         0.6414       -51.6874        -6.6447      0.8809052
      3374.0000         0.8092       1560.631         0.6255       -51.9498         -6.908      0.8741539
      3374.5000          0.793       1579.658         0.6087       -52.1439        -7.1031      0.8691513
      3375.0000         0.7787       1597.813         0.5903       -52.3162        -7.2763      0.8647103
      3375.5000         0.7718        1616.15          0.577       -52.5438        -7.5049      0.8588487
      3376.0000         0.7932       1625.914         0.5896       -52.9832        -7.9453      0.8475564
      3376.5000         0.8129       1528.609         0.6235         -53.42         -8.383      0.8363333
      3377.0000         0.8389       1489.146         0.6583       -53.8564        -8.8204      0.8251179
      3377.5000         0.8772       1461.791         0.6981       -53.2019        -8.1668      0.8418769
      3378.0000         0.9338       1409.049         0.7428       -52.5178        -7.4837      0.8593923
      3378.5000          0.977       1344.146         0.7887       -51.8743        -6.8412      0.8758667
      3379.0000         0.9992       1279.295         0.8384       -51.3026        -6.2704      0.8905026
      3379.5000         1.0297       1214.393         0.8881       -50.9008        -5.8696      0.9007795
      3380.0000         1.0711        1149.49         0.9375        -50.499        -5.4687       0.911059
      3380.5000         1.0854       1084.588         0.9868       -50.0856        -5.0563      0.9216333
      3381.0000         1.0936       849.7598         1.0297       -49.6689        -4.6406      0.9322923
      3381.5000         1.1017       851.8213         1.0546       -49.2787        -4.2513      0.9422744
      3382.0000         1.1072        854.293         1.0795       -48.9584         -3.932      0.9504616
      3382.5000         1.1101       856.7666         1.0887       -48.6384        -3.6129      0.9586436
