#------------------------------------------------------------------------------
# Created by    : vladimir.rabinovich
# Created on    : 09/19/2023 17:20:36
#------------------------------------------------------------------------------
~Version Information Section
VERS.           2.0     :   CWLS log ASCII Standard - VERSION 2.0
WRAP.           NO      :   One line per depth step
~Well Information Section
#MNEM       .UNIT                                         VALUE :DESCRIPTION
#------------------------------------------------------------------------------
STRT        .FT                                             504 :START DEPTH
STOP        .FT                                            9762 :STOP DEPTH
STEP        .FT                                             0.5 :STEP      
NULL        .                                           -999.25 :NULL      
COMP        .                                      SHELL OIL CO :COMPANY   
WELL        .                                OCS 00703 ST00BP00 :WELL      
FLD         .                                           WILDCAT :FIELD     
LOC         .                                                   :LOCATION  
CNTY        .                             GALVESTON LARGE BLOCK :LOCATION  
STAT        .                                             TEXAS :STATE     
CTRY        .                                     UNITED STATES :COUNTRY   
SRVC        .                                                   :SERVICE COMPANY
DATE        .                             9/13/2023 11:19:25 AM :LOG DATE  
API         .                                    42706000420000 :API NUMBER
UWI         .                                    42706000420000 :UNIQUE WELL ID
XCOORD      .                                  1132503.99790541 :SURFACE X 
YCOORD      .                                  10523078.0194322 :SURFACE Y 
LAT         .                                         28.987276 :LATITUDE  
LON         .                                        -94.589113 :LONGITUDE 
ELEV        .FT                                              83 :ELEVATION VALUE
ELEV_TYPE   .                                                KB :ELEVATION REFERENCE TYPE
~Curve Information Section
#MNEM       .UNIT                                      API CODE :CURVE DESCRIPTION
#------------------------------------------------------------------------------
DEPT        .FT                                                 :DEPTH     
ASN         .OHMM                                               :          
CILD        .MMHO                                               :          
DT          .US/F                                               :          
ILD         .OHMM                                               :          
LAT         .OHMM                                               :          
LN          .OHMM                                               :          
SP          .MV                                                 :          
SP_NORM     .MV                                                 :SP Normalized
VSH_SP      .V/V                                                :Volume of Shale from SP
~A        DEPTH            ASN           CILD             DT            ILD            LAT             LN             SP        SP_NORM         VSH_SP
# ...
      5433.0000         0.8995       1645.842       118.4596         0.5236        -999.25         0.5236       -57.9226      -20.55996       0.649812
      5433.5000         0.8609       1644.908       117.4282         0.5149        -999.25         0.5149       -56.9521      -19.58946      0.6681234
      5434.0000         0.8627       1644.742       115.2874         0.5062        -999.25         0.5062       -56.0536      -18.69096      0.6850762
      5434.5000         0.8827       1645.018       113.1467         0.4975        -999.25         0.4975       -55.5191      -18.15646       0.695161
      5435.0000         0.9028       1648.377       112.3869         0.4887        -999.25         0.4887       -55.0001      -17.63746      0.7049536
      5435.5000          0.923       1655.863       112.2867           0.48        -999.25           0.48       -54.5722      -17.20956      0.7130271
      5436.0000          0.943       1668.746       112.5126         0.4713        -999.25         0.4713        -54.144      -16.78136      0.7211064
      5436.5000         0.9351       1698.766        113.193         0.4611        -999.25         0.4611       -53.6365      -16.27386      0.7306818
      5437.0000         0.9206       1747.625       113.3595         0.4482        -999.25         0.4482        -53.032      -15.66936      0.7420875
      5437.5000         0.8995       1812.688       113.5767         0.4353        -999.25         0.4353       -52.4468      -15.08416       0.753129
      5438.0000         0.8783        1877.75       114.3012         0.4224        -999.25         0.4224       -51.9681      -14.60546       0.762161
      5438.5000         0.8566       1942.875       115.1717         0.4096        -999.25         0.4096       -51.6476      -14.28496      0.7682083
      5439.0000         0.8303       2007.938       116.0421         0.4054        -999.25         0.4054       -52.2108      -14.84816      0.7575818
      5439.5000          0.807           2073       116.9125          0.404        -999.25          0.404        -54.693      -17.33036      0.7107478
      5440.0000         0.8018       2091.512       117.7829         0.4027        -999.25         0.4027        -60.388      -23.02536       0.603295
      5440.5000         0.8232       2100.656       118.2044         0.4153        -999.25         0.4153       -62.7983      -25.43567      0.5578176
      5441.0000         0.8423       2097.992       118.6219         0.4325        -999.25         0.4325       -66.0385      -28.67586      0.4966819
      5441.5000          0.856       2088.395       117.2445         0.4498        -999.25         0.4498       -67.9899      -30.62726       0.459863
      5442.0000         0.8609       2005.875       112.9534         0.4669        -999.25         0.4669       -68.5057      -31.14306      0.4501309
      5442.5000          0.856         1893.5       108.6623         0.4838        -999.25         0.4838       -67.2943      -29.93166      0.4729876
      5443.0000         0.8504       1781.125       104.3713         0.5007        -999.25         0.5007       -63.0386      -25.67596      0.5532837
      5443.5000         0.8448       1683.484        100.252          0.515        -999.25          0.515       -59.7662      -22.40356      0.6150271
      5444.0000         0.8639       1637.539       104.1609         0.5233        -999.25         0.5233       -57.8799      -20.51727      0.6506177
      5444.5000         0.8952       1645.025       107.9193         0.5246        -999.25         0.5246       -56.7936      -19.43096      0.6711139
      5445.0000         0.9221       1652.506        111.619         0.5252        -999.25         0.5252       -55.9254      -18.56276      0.6874951
      5445.5000         0.9427       1659.992       111.1186         0.5258        -999.25         0.5258       -55.3544      -17.99176      0.6982686
      5446.0000         0.9484       1667.521       110.2711         0.5263        -999.25         0.5263       -55.1915      -17.82887      0.7013422
      5446.5000         0.9174       1675.838       109.7507         0.5269        -999.25         0.5269       -54.9704      -17.60777      0.7055138
      5447.0000         0.8918       1684.146       110.1701         0.5275        -999.25         0.5275       -54.6001      -17.23746      0.7125007
      5447.5000         0.8695       1690.832       111.0613         0.5294        -999.25         0.5294         -54.23      -16.86736      0.7194837
      5448.0000         0.8471        1694.07       111.9525         0.5328        -999.25         0.5328       -53.6086      -16.24596      0.7312082
      5448.5000         0.8234       1697.311       112.8438         0.5362        -999.25         0.5362       -52.8549      -15.49226       0.745429
      5449.0000          0.804       1696.818        113.735         0.5395        -999.25         0.5395       -52.0622      -14.69956      0.7603856
      5449.5000         0.8262       1692.002       114.6263         0.5429        -999.25         0.5429       -51.3763      -14.01366      0.7733271
      5450.0000         0.8574       1686.057       115.5175         0.5462        -999.25         0.5462       -50.9915      -13.62886      0.7805875
      5450.5000         0.8789       1671.912       116.4087         0.5496        -999.25         0.5496       -50.6663      -13.30367      0.7867233
      5451.0000         0.8951       1655.789          117.3         0.5529        -999.25         0.5529       -50.4195      -13.05686        0.79138
      5451.5000         0.9146       1634.264       118.1912         0.5563        -999.25         0.5563        -50.182      -12.81936      0.7958611
      5452.0000         0.9362       1616.844       119.0824         0.5597        -999.25         0.5597       -49.9875      -12.62486      0.7995309
      5452.5000         0.9679       1599.805       118.8335         0.5631        -999.25         0.5631       -50.1545      -12.79186      0.7963799
      5453.0000         0.9969       1583.436       116.2909         0.5681        -999.25         0.5681       -50.4409      -13.07826      0.7909762
      5453.5000         1.0168        1568.34       113.7483         0.5731        -999.25         0.5731       -50.7276      -13.36496      0.7855667
      5454.0000         1.0327       1553.738       111.2057         0.5781        -999.25         0.5781       -51.2708      -13.90816      0.7753177
      5454.5000         1.0437        1541.41        108.663         0.5832        -999.25         0.5832       -52.2753      -14.91266      0.7563649
      5455.0000          1.039       1529.455       106.1204         0.5882        -999.25         0.5882       -53.4594      -16.09676      0.7340233
      5455.5000         1.0317       1524.729       107.3057         0.5932        -999.25         0.5932        -54.387      -17.02436      0.7165214
      5456.0000         1.0165       1521.836       109.9638         0.5978        -999.25         0.5978       -55.0856      -17.72297      0.7033403
      5456.5000         1.0013       1523.482        112.622         0.5932        -999.25         0.5932       -55.7142      -18.35156        0.69148
      5457.0000         0.9861       1526.096       115.2801         0.5887        -999.25         0.5887       -54.9816      -17.61897      0.7053025
      5457.5000         0.9702       1527.857       117.9382         0.5841        -999.25         0.5841       -53.8916      -16.52896      0.7258686
      5458.0000         0.9525       1525.777       120.5964         0.5796        -999.25         0.5796       -52.4202      -15.05756      0.7536309
      5458.5000         0.9348       1523.697       123.2545         0.5751        -999.25         0.5751       -50.7171      -13.35446      0.7857649
      5459.0000         0.9153       1513.035       125.9126         0.5706        -999.25         0.5706       -48.7849      -11.42226      0.8222215
