#------------------------------------------------------------------------------
# Created by    : vladimir.rabinovich
# Created on    : 09/19/2023 17:20:36
#------------------------------------------------------------------------------
~Version Information Section
VERS.           2.0     :   CWLS log ASCII Standard - VERSION 2.0
WRAP.           NO      :   One line per depth step
~Well Information Section
#MNEM       .UNIT                                         VALUE :DESCRIPTION
#------------------------------------------------------------------------------
STRT        .FT                                             498 :START DEPTH
STOP        .FT                                            9565 :STOP DEPTH
STEP        .FT                                             0.5 :STEP      
NULL        .                                           -999.25 :NULL      
COMP        .                       BLUE DOLPHIN EXPLORATION CO :COMPANY   
WELL        .                                OCS 00714 ST00BP00 :WELL      
FLD         .                              GALVESTON BLOCK 0288 :FIELD     
LOC         .                                                   :LOCATION  
CNTY        .                             GALVESTON LARGE BLOCK :LOCATION  
STAT        .                                             TEXAS :STATE     
CTRY        .                                     UNITED STATES :COUNTRY   
SRVC        .                                                   :SERVICE COMPANY
DATE        .                             9/13/2023 11:19:25 AM :LOG DATE  
API         .                                    42706000390000 :API NUMBER
UWI         .                                    42706000390000 :UNIQUE WELL ID
XCOORD      .                                  1097340.72850425 :SURFACE X 
YCOORD      .                                  10481267.2561277 :SURFACE Y 
LAT         .                                        28.8709496 :LATITUDE  
LON         .                                       -94.6972159 :LONGITUDE 
ELEV        .FT                                              85 :ELEVATION VALUE
ELEV_TYPE   .                                                KB :ELEVATION REFERENCE TYPE
~Curve Information Section
#MNEM       .UNIT                                      API CODE :CURVE DESCRIPTION
#------------------------------------------------------------------------------
DEPT        .FT                                                 :DEPTH     
ASN         .OHMM                                               :          
CALI        .IN                                                 :          
DT          .US/F                                               :          
ILD         .OHMM                                               :          
SP          .MV                                                 :          
SP_1        .MV                                                 :          
SP_NORM     .MV                                                 :SP Normalized
VSH_SP      .V/V                                                :Volume of Shale from SP
~A        DEPTH            ASN           CALI             DT            ILD             SP           SP_1        SP_NORM         VSH_SP
# ...
      7106.0000         0.9029        10.3046       107.7867         0.8812       -52.3196        -999.25      -1.390789      0.9920247
      7106.5000         0.9107        10.1972       119.5675          0.881       -52.8328        -999.25      -1.911232      0.9814034
      7107.0000         0.9185         10.154       127.2496          0.881       -52.7745        -999.25      -1.860172      0.9824455
      7107.5000         0.9241        10.1863        124.853          0.881       -52.4688        -999.25      -1.561714      0.9885364
      7108.0000         0.9233        10.4495       117.6565         0.8834        -52.318        -999.25      -1.418156      0.9914662
      7108.5000         0.9214        10.4692       111.7886         0.8858       -52.7986        -999.25      -1.905994      0.9815103
      7109.0000         0.9183        10.3016        101.078         0.8882       -53.1091        -999.25      -2.223736      0.9750258
      7109.5000           0.92        10.3595        95.3944         0.8916       -53.1602        -999.25      -2.282074      0.9738352
      7110.0000         0.9242        10.3918       114.0997          0.895       -53.0263        -999.25      -2.155418        0.97642
      7110.5000         0.9219        10.3985       116.7257         0.8983       -52.6572        -999.25       -1.79356      0.9838049
      7111.0000         0.9161        10.6144       107.8407         0.9035       -52.1587        -999.25      -1.302299      0.9938306
      7111.5000         0.9103        10.7432        86.3116          0.909       -51.8313        -999.25     -0.9821396              1
      7112.0000         0.9152        10.5686        91.6174          0.915       -52.0801        -999.25      -1.238182      0.9951391
      7112.5000         0.9222        10.4979       112.6609         0.9225       -52.0597        -999.25      -1.225025      0.9954076
      7113.0000         0.9291        10.5072       113.5298         0.9299       -52.1895        -999.25      -1.362064      0.9926109
      7113.5000          0.936        10.5453       114.0391         0.9326       -52.6064        -999.25      -1.786205       0.983955
      7114.0000         0.9355        10.6018       110.9916         0.9343        -52.648        -999.25      -1.835045      0.9829583
      7114.5000         0.9335        10.6796       109.4211         0.9319       -52.7593        -999.25      -1.953587       0.980539
      7115.0000         0.9301        10.7615       105.4126         0.9295       -52.2587        -999.25      -1.460232      0.9906075
      7115.5000         0.9267        10.8654       102.9193         0.9269       -52.4276        -999.25      -1.636372      0.9870128
      7116.0000         0.9233        10.9695       108.4072          0.922       -52.5835        -999.25      -1.799511      0.9836835
      7116.5000         0.9199        11.0714       102.5393          0.917       -52.6418        -999.25      -1.865051      0.9823459
      7117.0000         0.9199        11.2034       105.8263          0.912       -52.4938        -999.25      -1.724293      0.9852185
      7117.5000         0.9218        11.3249       109.2053         0.9032       -52.6096        -999.25      -1.847336      0.9827074
      7118.0000         0.9237        11.3718       104.9225         0.8907       -52.7373        -999.25      -1.982277      0.9799535
      7118.5000         0.9278        11.2194       104.8483         0.8741       -52.6323        -999.25      -1.884518      0.9819486
      7119.0000         0.9319        11.0805       105.7858         0.8536       -52.4801        -999.25      -1.739555       0.984907
      7119.5000         0.9331        11.0875       107.2786         0.8331       -52.4306        -999.25      -1.697296      0.9857695
      7120.0000         0.8852        11.0629       110.6689         0.8087       -52.7201        -999.25      -1.994041      0.9797134
      7120.5000         0.8296         11.083       112.2506         0.7828       -53.3987        -999.25      -2.679882      0.9657167
      7121.0000         0.7817        11.0464       110.9449         0.7686       -53.6158        -999.25      -2.904221      0.9611384
      7121.5000         0.7655         10.939       110.0912         0.7593       -53.4254        -999.25      -2.721062      0.9648763
      7122.0000         0.7501        10.8898       107.6901         0.7579       -52.9298        -999.25        -2.2327      0.9748428
      7122.5000          0.736        10.8895       107.1302         0.7565        -52.222        -999.25      -1.532146      0.9891399
      7123.0000         0.7238         10.925       111.7549         0.7533       -51.5221        -999.25     -0.8394852              1
      7123.5000         0.7303        10.9348       109.6033         0.7496       -51.0196        -999.25     -0.3442268              1
      7124.0000         0.7558        10.8714       107.8767         0.7458        -50.819        -999.25     -0.1508675              1
      7124.5000         0.7829        10.7869       106.3434          0.742       -50.8203        -999.25     -0.1594086              1
      7125.0000         0.8073        10.7024        110.498         0.7437       -51.1318        -999.25     -0.4781532              1
      7125.5000         0.8279        10.5183        111.285         0.7456        -52.259        -999.25      -1.612591      0.9874982
      7126.0000         0.8501        10.4494       106.6716         0.7475       -55.1508        -999.25      -4.511631      0.9283341
      7126.5000         0.8829        10.6294       105.9994         0.7516       -63.5498        -999.25      -12.91787      0.7567781
      7127.0000          0.909         10.767       108.6163         0.7656       -71.1593        -999.25      -20.53461      0.6013344
      7127.5000         0.9207        10.5989        109.963         0.7797       -75.1814        -999.25      -24.56395       0.519103
      7128.0000          0.932        10.2489       108.1509         0.7963       -73.5013        -999.25      -22.89109       0.553243
      7128.5000         0.9379        10.3588        107.517          0.817       -68.4987        -999.25      -17.89574       0.655189
      7129.0000         0.9271        10.0161       109.8057         0.8376       -62.9756        -999.25      -12.37988      0.7677576
      7129.5000         0.9164         9.8887        112.472         0.8521       -58.7267        -999.25      -8.138218      0.8543221
      7130.0000         0.9062         9.9166       116.4672         0.8652       -55.4603        -999.25      -4.879063      0.9208354
      7130.5000         0.8961         9.9407       118.0994         0.8703       -52.2568        -999.25      -1.682804      0.9860652
      7131.0000         0.8994         9.9166       116.6493         0.8703       -51.2148        -999.25     -0.6480446              1
      7131.5000         0.9077         9.8848        114.066          0.869       -51.8608        -999.25      -1.301285      0.9938513
      7132.0000         0.9119         9.9048       117.1506         0.8669       -52.2849        -999.25      -1.732624      0.9850485
      7132.5000         0.9107         9.9853       115.3273         0.8648       -52.2231        -999.25      -1.678066      0.9861619
      7133.0000         0.9053        10.1428        110.705         0.8629       -51.8987        -999.25      -1.360909      0.9926345
      7133.5000         0.8999        10.3793       105.9971         0.8617       -51.5681        -999.25      -1.037548      0.9992337
      7134.0000         0.8945        10.5583       105.6088         0.8605       -51.1895        -999.25     -0.6661873              1
      7134.5000         0.8903        10.5047       105.5542         0.8608        -50.728        -999.25     -0.2119293              1
      7135.0000         0.8865        10.2845        98.3441         0.8659       -49.8475        -999.25      0.6613274              1
