#------------------------------------------------------------------------------
# Created by    : vladimir.rabinovich
# Created on    : 09/19/2023 17:21:24
#------------------------------------------------------------------------------
~Version Information Section
VERS.           2.0     :   CWLS log ASCII Standard - VERSION 2.0
WRAP.           NO      :   One line per depth step
~Well Information Section
#MNEM       .UNIT                                         VALUE :DESCRIPTION
#------------------------------------------------------------------------------
STRT        .FT                                            4234 :START DEPTH
STOP        .FT                                            7516 :STOP DEPTH
STEP        .FT                                             0.5 :STEP      
NULL        .                                           -999.25 :NULL      
COMP        .                          SEAGULL ENERGY E & P INC :COMPANY   
WELL        .                               OCS G11311 ST00BP00 :WELL      
FLD         .                                           WILDCAT :FIELD     
LOC         .                                                   :LOCATION  
CNTY        .                             GALVESTON LARGE BLOCK :LOCATION  
STAT        .                                             TEXAS :STATE     
CTRY        .                                     UNITED STATES :COUNTRY   
SRVC        .                                                   :SERVICE COMPANY
DATE        .                             9/13/2023 11:19:54 AM :LOG DATE  
API         .                                    42706403550000 :API NUMBER
UWI         .                                    42706403550000 :UNIQUE WELL ID
XCOORD      .                                  972569.007613557 :SURFACE X 
YCOORD      .                                  10477919.1442114 :SURFACE Y 
LAT         .                                         28.856272 :LATITUDE  
LON         .                                        -95.086774 :LONGITUDE 
ELEV        .FT                                              94 :ELEVATION VALUE
ELEV_TYPE   .                                                KB :ELEVATION REFERENCE TYPE
~Curve Information Section
#MNEM       .UNIT                                      API CODE :CURVE DESCRIPTION
#------------------------------------------------------------------------------
DEPT        .FT                                                 :DEPTH     
CALI        .IN                                                 :          
DPHI        .%                                                  :          
DRHO        .G/C3                                               :          
DTLN        .US/F                                               :          
GR          .GAPI                                               :          
GR_NORM     .GAPI                                               :GammaRay Normalized
IDPH        .OHMM                                               :          
IMPH        .OHMM                                               :          
NPHI        .%                                                  :          
SFLU        .OHMM                                               :          
SP          .MV                                                 :          
SP_NORM     .MV                                                 :SP Normalized
VSH_GR      .V/V                                                :Volume of Shale from GR
VSH_SP      .V/V                                                :Volume of Shale from SP
~A        DEPTH           CALI           DPHI           DRHO           DTLN             GR        GR_NORM           IDPH           IMPH           NPHI           SFLU             SP        SP_NORM         VSH_GR         VSH_SP
# ...
      6664.0000        10.6388        18.2456        -0.0126       109.5404        83.5714       83.46774         1.0498         1.0322        40.0951         1.0216       -45.1422      -1.331924              1      0.9809725
      6664.5000        10.5531        18.6556        -0.0163        110.673        82.2015       82.09876         1.0414         1.0226        39.1362         1.0237       -44.7892     -0.9863205              1      0.9859097
      6665.0000         10.496        18.5877        -0.0182       110.3776        80.2094        80.1088         1.0345          1.031         40.673         1.0403       -44.4299     -0.6344185              1      0.9909369
      6665.5000        10.5194        18.1408        -0.0183       109.0284        78.0967        77.9985         1.0247         1.0447        40.2149         1.0726         -44.36     -0.5719147      0.9574148      0.9918298
      6666.0000        10.5625        17.4073        -0.0156       107.2664        76.9764       76.87861         1.0187         1.0545         36.586         1.1187       -44.7949       -1.01421      0.9335874      0.9855113
      6666.5000        10.5669        17.1211        -0.0151       107.1538         76.225       76.12691         1.0172         1.0524        33.8135         1.1343       -45.8849      -2.111607      0.9175938      0.9698342
      6667.0000        10.5362        17.3848        -0.0186       108.4678        78.0516        77.9481         1.0195         1.0441        34.7716         1.0967        -46.636      -2.870106      0.9563426      0.9589985
      6667.5000        10.5435        17.9297        -0.0216       110.1248        81.0649       80.95367          1.023         1.0388        37.7927           1.06       -46.6562      -2.897701              1      0.9586043
      6668.0000        10.5659        18.5233        -0.0176       111.4308        84.4521       84.33239         1.0312         1.0344         40.131         1.0381       -46.7419      -2.990799              1      0.9572743
      6668.5000        10.6036        18.7875        -0.0158       111.9354        86.3304       86.20519         1.0332         1.0312        41.6191         1.0261       -46.9443      -3.200596              1      0.9542772
      6669.0000        10.6344        18.6489        -0.0144        111.656        85.5737        85.4482         1.0289          1.034        42.4829         1.0268       -46.2435      -2.507191              1       0.964183
      6669.5000        10.6207        18.5315        -0.0108       111.0215        82.9066       82.78458           1.03         1.0476        43.6491         1.0391       -45.1008      -1.371887              1      0.9804016
      6670.0000        10.6138          18.42        -0.0084       110.1361        80.6986       80.57915         1.0362         1.0656        43.2816         1.0625        -44.241     -0.5194855              1      0.9925788
      6670.5000        10.6303         18.155         -0.009       108.5054        80.7588       80.63744          1.044         1.0842         41.444         1.0961       -44.3381     -0.6239815              1       0.991086
      6671.0000        10.6526        17.4177        -0.0105       106.7533        82.6858       82.55884          1.048         1.0901        39.7343         1.1357       -44.7766      -1.069874              1      0.9847161
      6671.5000        10.6749         16.545        -0.0119       106.0931        84.1234       83.99181         1.0487         1.0854        39.2192          1.167       -45.3196       -1.62027              1      0.9768533
      6672.0000        10.6943        15.9697        -0.0117       105.8153        85.1409       85.00551         1.0472         1.0789        40.1326         1.1757       -45.9686      -2.276669              1      0.9674762
      6672.5000        10.7039        15.8662        -0.0091       106.0425        85.6647       85.52649         1.0414         1.0712        40.5839         1.1854       -46.4981      -2.813564              1      0.9598062
      6673.0000        10.6954        16.0408        -0.0068       106.7507        85.8152        85.6749         1.0297         1.0589          39.39         1.2015       -46.8097      -3.132561              1      0.9552491
      6673.5000        10.6742        16.4813        -0.0057       108.4528        86.5145       86.37103         1.0147         1.0424        39.6864         1.1756        -46.736      -3.066257              1      0.9561963
      6674.0000        10.5905        17.2478        -0.0043       110.4928        87.5558       87.40849         0.9996         1.0207        42.4425         1.0968       -46.3965      -2.734154              1      0.9609407
      6674.5000        10.5292        18.2875         -0.004       112.0784        88.6654        88.5141          0.988         0.9961        44.7517         0.9783       -45.8764      -2.221451              1       0.968265
      6675.0000        10.5769          19.01        -0.0039       112.0571        88.3726       88.22009         0.9762         0.9757        43.6207         0.9146       -45.4444      -1.796848              1      0.9743307
      6675.5000        10.7476        18.8497        -0.0046       111.2324        87.5684       87.41568          0.962         0.9633         42.423          0.903       -45.2067      -1.566544              1      0.9776208
      6676.0000        10.8631        18.5229        -0.0047       109.9634        87.5959       87.44135           0.96         0.9665         41.429         0.9248       -45.0894      -1.456642              1      0.9791908
      6676.5000        10.8984        17.8908        -0.0043       108.0598        88.5902        88.4319         0.9696         0.9996        40.6535         0.9769       -45.2919      -1.666538              1      0.9761923
      6677.0000        10.8395         17.042        -0.0045       106.2577        88.6084       88.44827         0.9887         1.0419        39.2568           1.06       -45.5623      -1.944336              1      0.9722238
      6677.5000        10.7632        15.8997        -0.0043       105.0012        87.0314       86.87259         1.0085         1.0812        36.9333         1.1585       -45.3121       -1.70153              1      0.9756925
      6678.0000        10.6627        15.4656         -0.006       104.8647         81.356       81.20663         1.0309         1.1122         36.074         1.2411       -45.1031      -1.499928              1      0.9785725
      6678.5000        10.6064        16.0794         -0.009       106.1526        78.3201       78.17492         1.0543         1.1328        38.3046         1.2481        -44.641      -1.045223      0.9611685      0.9850683
      6679.0000        10.5589        17.8639         -0.013       107.3514        76.7256       76.58179         1.0789         1.1437        42.1371         1.1675       -44.4485     -0.8601227      0.9272721      0.9877126
      6679.5000        10.5626        17.8713        -0.0151       105.8372        76.0745       75.93018         1.0875         1.1499        40.8376         1.0557       -45.0698      -1.488819      0.9134082      0.9787312
      6680.0000        10.6123        15.0584        -0.0128       101.0664        74.9279       74.78406         1.0738         1.1755        36.6219          1.091       -46.0026      -2.429016      0.8890225      0.9652998
      6680.5000        10.6298        11.9864        -0.0074        95.2745        74.0825       73.93853         1.0566         1.1871        30.7655         1.3631       -46.7485      -3.182312      0.8710325      0.9545384
      6681.0000        10.5862        10.6207        -0.0044        94.4006        74.9265       74.77908         1.0432         1.1665        29.2939         1.6068       -46.8344      -3.275608      0.8889167      0.9532056
      6681.5000         10.557        11.5373        -0.0047        95.5748        75.7897       75.63879         1.0433         1.1402        30.7086         1.5321       -47.2869      -3.735504      0.9072082      0.9466357
