#------------------------------------------------------------------------------
# Created by    : vladimir.rabinovich
# Created on    : 09/19/2023 17:21:24
#------------------------------------------------------------------------------
~Version Information Section
VERS.           2.0     :   CWLS log ASCII Standard - VERSION 2.0
WRAP.           NO      :   One line per depth step
~Well Information Section
#MNEM       .UNIT                                         VALUE :DESCRIPTION
#------------------------------------------------------------------------------
STRT        .FT                                             682 :START DEPTH
STOP        .FT                                            8542 :STOP DEPTH
STEP        .FT                                             0.5 :STEP      
NULL        .                                           -999.25 :NULL      
COMP        .                       CORPUS CHRISTI OIL & GAS CO :COMPANY   
WELL        .                               OCS G08551 ST00BP00 :WELL      
FLD         .                                           WILDCAT :FIELD     
LOC         .                                                   :LOCATION  
CNTY        .                             GALVESTON LARGE BLOCK :LOCATION  
STAT        .                                             TEXAS :STATE     
CTRY        .                                     UNITED STATES :COUNTRY   
SRVC        .                                                   :SERVICE COMPANY
DATE        .                             9/13/2023 11:19:36 AM :LOG DATE  
API         .                                    42706401950000 :API NUMBER
UWI         .                                    42706401950000 :UNIQUE WELL ID
XCOORD      .                                   976199.22633255 :SURFACE X 
YCOORD      .                                  10415950.2633902 :SURFACE Y 
LAT         .                                         28.686063 :LATITUDE  
LON         .                                        -95.072067 :LONGITUDE 
ELEV        .FT                                              81 :ELEVATION VALUE
ELEV_TYPE   .                                                KB :ELEVATION REFERENCE TYPE
~Curve Information Section
#MNEM       .UNIT                                      API CODE :CURVE DESCRIPTION
#------------------------------------------------------------------------------
DEPT        .FT                                                 :DEPTH     
CALI        .IN                                                 :          
DPHI        .%                                                  :          
DRHO        .G/C3                                               :          
DT          .US/F                                               :          
GR          .GAPI                                               :          
GR_1        .GAPI                                               :          
GR_NORM     .GAPI                                               :GammaRay Normalized
ILD         .OHMM                                               :          
ILM         .OHMM                                               :          
NPHI        .%                                                  :          
SFL         .OHMM                                               :          
SP_NORM     .MV                                                 :SP Normalized
SPS         .MV                                                 :          
VSH_GR      .V/V                                                :Volume of Shale from GR
VSH_SP      .V/V                                                :Volume of Shale from SP
~A        DEPTH           CALI           DPHI           DRHO             DT             GR           GR_1        GR_NORM            ILD            ILM           NPHI            SFL        SP_NORM            SPS         VSH_GR         VSH_SP
# ...
      1702.0000        -999.25        -999.25        -999.25       155.2148        55.2673        -999.25       57.65711          1.204          1.109        -999.25         0.9283      -5.746941       -88.9331      0.5246193              1
      1702.5000        -999.25        -999.25        -999.25       152.9526        59.2863        -999.25       63.33709         1.1948         1.1311        -999.25          0.976      -5.678169       -88.8606      0.6454701              1
      1703.0000        -999.25        -999.25        -999.25       152.3445        60.9042        -999.25       65.62033         1.1916         1.1387        -999.25         1.0258      -5.861198       -89.0399      0.6940496              1
      1703.5000        -999.25        -999.25        -999.25       153.2144        61.2754        -999.25       66.13991         1.1911         1.1417        -999.25         1.0801      -6.097221       -89.2722      0.7051044              1
      1704.0000        -999.25        -999.25        -999.25       153.9041        60.8983        -999.25       65.60088         1.2059          1.138        -999.25         1.0705      -6.276245       -89.4475      0.6936356              1
      1704.5000        -999.25        -999.25        -999.25       154.2129          61.14        -999.25       65.93725         1.2265         1.1361        -999.25         1.0467      -6.346466        -89.514      0.7007925              1
      1705.0000        -999.25        -999.25        -999.25       153.5649        63.0381        -999.25       68.61687         1.2544         1.1589        -999.25         1.0224        -6.3806       -89.5444      0.7578058              1
      1705.5000        -999.25        -999.25        -999.25        152.801        64.8345        -999.25       71.15263         1.2817         1.1753        -999.25         1.0149       -6.52002       -89.6801       0.811758              1
      1706.0000        -999.25        -999.25        -999.25       152.1616        66.3738        -999.25       73.32467         1.3057          1.182        -999.25         1.0364      -6.833641         -89.99      0.8579717              1
      1706.5000        -999.25        -999.25        -999.25       152.3525        67.5449        -999.25       74.97583         1.3226         1.1848        -999.25          1.075      -7.161865       -90.3145      0.8931028              1
      1707.0000        -999.25        -999.25        -999.25       154.3569        68.6489        -999.25       76.53207         1.3267         1.1849        -999.25          1.108      -7.382095        -90.531      0.9262142              1
      1707.5000        -999.25        -999.25        -999.25       158.0376        68.9321        -999.25       76.92714         1.3269         1.1878        -999.25         1.1251       -7.13932       -90.2845        0.93462              1
      1708.0000        -999.25        -999.25        -999.25       160.5181        67.6937        -999.25       75.16968         1.3191         1.1942        -999.25         1.1508      -7.148842       -90.2903      0.8972272              1
      1708.5000        -999.25        -999.25        -999.25       161.6846        66.1368        -999.25       72.96162         1.3114         1.1995        -999.25         1.1752      -7.571167       -90.7089      0.8502473              1
      1709.0000        -999.25        -999.25        -999.25       162.1831        64.8201        -999.25       71.09336         1.3029         1.1864        -999.25          1.187      -7.766792       -90.9008       0.810497              1
      1709.5000        -999.25        -999.25        -999.25       162.4846        65.0554        -999.25       71.42069         1.2945         1.1709        -999.25         1.1552      -7.735519       -90.8658      0.8174616              1
      1710.0000        -999.25        -999.25        -999.25       163.3713        66.7423        -999.25       73.80154         1.2807         1.1564        -999.25         1.1189      -7.395546       -90.5221      0.8681178              1
      1710.5000        -999.25        -999.25        -999.25       164.5537        69.4049        -999.25       77.56267         1.2665         1.1575        -999.25         1.0959      -7.330269       -90.4531      0.9481419              1
      1711.0000        -999.25        -999.25        -999.25       165.8547        71.7979        -999.25       80.94241         1.2518         1.1582        -999.25          1.089      -7.334091       -90.4532              1              1
      1711.5000        -999.25        -999.25        -999.25       166.9966        72.8594        -999.25       82.43853         1.2372         1.1447        -999.25         1.1044      -7.046219       -90.1616              1              1
      1712.0000        -999.25        -999.25        -999.25       168.0005        73.7198        -999.25       83.65016         1.2211         1.1369        -999.25         1.1174      -6.748741       -89.8604              1              1
      1712.5000        -999.25        -999.25        -999.25       167.7026         74.614        -999.25        84.9096         1.2045         1.1275        -999.25         1.1177      -6.637863       -89.7458              1              1
      1713.0000        -999.25        -999.25        -999.25       166.3137        74.7676        -999.25       85.12134         1.1897         1.1055        -999.25         1.1022      -6.852791        -89.957              1              1
      1713.5000        -999.25        -999.25        -999.25        164.801        73.7866        -999.25         83.728         1.1817         1.0892        -999.25         1.0866       -6.76712       -89.8676              1              1
      1714.0000        -999.25        -999.25        -999.25       163.5359        72.0868        -999.25       81.31779         1.1737         1.0757        -999.25         1.0723      -6.662842       -89.7596              1              1
      1714.5000        -999.25        -999.25        -999.25       162.7407        71.7916        -999.25       80.89462         1.1674         1.0725        -999.25         1.0606      -6.642967        -89.736              1              1
      1715.0000        -999.25        -999.25        -999.25       162.9956        73.3511        -999.25       83.09524         1.1613         1.0744        -999.25         1.0541      -6.691788       -89.7811              1              1
      1715.5000        -999.25        -999.25        -999.25       163.0964        75.4464        -999.25       86.05385         1.1556         1.0837        -999.25         1.0596      -6.764618       -89.8502              1              1
      1716.0000        -999.25        -999.25        -999.25       162.4661        77.6514        -999.25       89.16762         1.1501         1.1059        -999.25         1.0846      -6.833443       -89.9153              1              1
      1716.5000        -999.25        -999.25        -999.25       161.6255        79.3136        -999.25       91.51353          1.145         1.1071        -999.25          1.094      -6.945068       -90.0232              1              1
      1717.0000        -999.25        -999.25        -999.25       160.8152        78.0023        -999.25       89.65292           1.14         1.1106        -999.25         1.0834      -7.148293       -90.2227              1              1
      1717.5000        -999.25        -999.25        -999.25       160.5745        75.2445        -999.25       85.74599         1.1352         1.1131        -999.25         1.0702      -7.192024       -90.2627              1              1
      1718.0000        -999.25        -999.25        -999.25        161.791        73.2689        -999.25       82.94563         1.1304         1.1082        -999.25         1.0603      -7.163147       -90.2301              1              1
      1718.5000        -999.25        -999.25        -999.25        163.282        73.5942        -999.25       83.40026         1.1289          1.101        -999.25         1.0615      -7.119965       -90.1832              1              1
