#------------------------------------------------------------------------------
# Created by    : vladimir.rabinovich
# Created on    : 09/19/2023 17:22:56
#------------------------------------------------------------------------------
~Version Information Section
VERS.           2.0     :   CWLS log ASCII Standard - VERSION 2.0
WRAP.           NO      :   One line per depth step
~Well Information Section
#MNEM       .UNIT                                         VALUE :DESCRIPTION
#------------------------------------------------------------------------------
STRT        .FT                                             890 :START DEPTH
STOP        .FT                                            9495 :STOP DEPTH
STEP        .FT                                             0.5 :STEP      
NULL        .                                           -999.25 :NULL      
COMP        .                                   MARATHON OIL CO :COMPANY   
WELL        .                               OCS G04138 ST00BP00 :WELL      
FLD         .                                           WILDCAT :FIELD     
LOC         .                                                   :LOCATION  
CNTY        .                      MATAGORDA ISLAND LARGE BLOCK :LOCATION  
STAT        .                                             TEXAS :STATE     
CTRY        .                                     UNITED STATES :COUNTRY   
SRVC        .                                                   :SERVICE COMPANY
DATE        .                             9/13/2023 11:12:11 AM :LOG DATE  
API         .                                    42703402070000 :API NUMBER
UWI         .                                    42703402070000 :UNIQUE WELL ID
XCOORD      .                                  590883.400226114 :SURFACE X 
YCOORD      .                                  10259990.6406746 :SURFACE Y 
LAT         .                                         28.233929 :LATITUDE  
LON         .                                        -96.259589 :LONGITUDE 
ELEV        .FT                                              90 :ELEVATION VALUE
ELEV_TYPE   .                                                KB :ELEVATION REFERENCE TYPE
~Curve Information Section
#MNEM       .UNIT                                      API CODE :CURVE DESCRIPTION
#------------------------------------------------------------------------------
DEPT        .FT                                                 :DEPTH     
SP          .MV                                                 :          
SP_NORM     .MV                                                 :SP Normalized
VSH_SP      .V/V                                                :Volume of Shale from SP
~A        DEPTH             SP        SP_NORM         VSH_SP
# ...
      3134.0000        22.2425      0.8409901              1
      3134.5000        22.6272      0.4571705              1
      3135.0000        23.0015     0.08375168              1
      3135.5000        23.3513     -0.2651691              1
      3136.0000        23.7012     -0.6141891              1
      3136.5000        24.0511     -0.9632092              1
      3137.0000        24.2971      -1.208328              1
      3137.5000        24.0408      -0.951149              1
      3138.0000        23.0195     0.07103157              1
      3138.5000          22.54      0.5514126              1
      3139.0000        22.2102      0.8820934              1
      3139.5000        21.8804       1.212774              1
      3140.0000        21.6111       1.482954              1
      3140.5000        21.4976       1.597334              1
      3141.0000         21.384       1.711813              1
      3141.5000        21.2704       1.826296              1
      3142.0000        21.2422       1.855373              1
      3142.5000        21.4344       1.664055              1
      3143.0000        21.6267       1.472635              1
      3143.5000         21.832       1.268215              1
      3144.0000        22.0894       1.011696              1
      3144.5000        22.3469      0.7550755              1
      3145.0000        22.6045      0.4983559              1
      3145.5000        22.7592      0.3445377              1
      3146.0000        22.7505      0.3541164              1
      3146.5000        22.7419      0.3635979              1
      3147.0000        22.7251      0.3812771              1
      3147.5000        22.4535      0.6537571              1
      3148.0000        22.3945      0.7136383              1
      3148.5000        23.3138     -0.2047825              1
      3149.0000        24.7836        -1.6737              1
      3149.5000        30.6122      -7.501421      0.8749677
      3150.0000        31.4539      -8.342239      0.8558582
      3150.5000        32.0974      -8.984861      0.8412532
      3151.0000        32.5203      -9.406881      0.8316618
      3151.5000        32.8303         -9.716      0.8246364
      3152.0000        33.0029      -9.887718      0.8207337
      3152.5000        33.1755      -10.05944      0.8168309
      3153.0000         33.348      -10.23106      0.8129305
      3153.5000        33.4597      -10.34188      0.8104118
      3154.0000        33.5336       -10.4149      0.8087523
      3154.5000        33.6076      -10.48802      0.8070905
      3155.0000        32.2119      -9.091436       0.838831
      3155.5000        29.3257      -6.204359      0.9044464
      3156.0000        27.4476      -4.325377      0.9471505
      3156.5000        26.2097      -3.086597      0.9753046
      3157.0000        25.5603      -2.436317      0.9900837
      3157.5000         24.911      -1.786135              1
      3158.0000        24.3726      -1.246857              1
      3158.5000        24.0185     -0.8918743              1
      3159.0000        23.6643     -0.5367966              1
      3159.5000        23.3101      -0.181715              1
      3160.0000         22.998      0.1312656              1
      3160.5000        22.8176      0.3125458              1
      3161.0000        22.6373      0.4937248              1
      3161.5000        22.4569      0.6750069              1
      3162.0000        22.2768      0.8559856              1
      3162.5000        22.1699      0.9637661              1
      3163.0000         22.063       1.071547              1
      3163.5000        21.9561       1.179327              1
      3164.0000        21.8492       1.287107              1
      3164.5000        21.7092       1.427988              1
      3165.0000        21.5198       1.618267              1
      3165.5000        21.3306       1.808348              1
      3166.0000        21.1413       1.998529              1
      3166.5000        20.9521       2.188608              1
      3167.0000        20.7322       2.409389              1
      3167.5000        20.3381       2.804369              1
      3168.0000        19.9438       3.199551              1
      3168.5000        19.5495        3.59473              1
      3169.0000        19.4704       3.674711              1
      3169.5000        19.4593       3.686691              1
      3170.0000        19.4537       3.693172              1
      3170.5000        19.5391        3.60865              1
      3171.0000        19.6244       3.524233              1
      3171.5000        19.7098       3.439711              1
      3172.0000        19.7951       3.355293              1
      3172.5000        19.8805       3.270771              1
      3173.0000         19.911       3.241154              1
      3173.5000        19.8606       3.292433              1
      3174.0000        19.8101       3.343813              1
      3174.5000        19.7596       3.395193              1
      3175.0000        19.7038       3.451874              1
      3175.5000        19.5076       3.648954              1
      3176.0000        19.3114       3.846035              1
      3176.5000        19.1152       4.043116              1
      3177.0000        18.9191       4.240095              1
      3177.5000        18.7228       4.437277              1
      3178.0000        18.5199       4.641056              1
      3178.5000        18.3119       4.849937              1
      3179.0000        18.1039       5.058815              1
      3179.5000        17.8959       5.267696              1
      3180.0000        17.9861       5.178377              1
      3180.5000        18.3509       4.814457              1
      3181.0000        18.7802       4.386038              1
      3181.5000        19.2098       3.957317              1
      3182.0000        19.6392       3.528797              1
      3182.5000        20.0254       3.143478              1
      3183.0000        20.3005       2.869257              1
      3183.5000        20.3499        2.82074              1
      3184.0000        20.2274       2.944118              1
      3184.5000        20.1048         3.0676              1
      3185.0000        19.9432       3.230082              1
      3185.5000        19.5788        3.59536              1
      3186.0000        19.2145       3.960541              1
      3186.5000        18.8503       4.325621              1
      3187.0000         18.486       4.690802              1
      3187.5000        18.1251       5.052582              1
      3188.0000        17.7693       5.409262              1
      3188.5000        17.4135       5.765942              1
      3189.0000        17.0577       6.122623              1
      3189.5000        16.7019       6.479301              1
      3190.0000        17.0817       6.100384              1
      3190.5000        18.1266       5.056362              1
      3191.0000        19.2129       3.970943              1
      3191.5000        20.2991       2.885622              1
      3192.0000         22.068       1.117603              1
      3192.5000        25.9299      -2.743416      0.9831042
      3193.0000        27.7091      -4.521736      0.9426878
      3193.5000        29.2141      -6.025854      0.9085033
      3194.0000        30.1419      -6.952774      0.8874369
      3194.5000        30.7394      -7.549395      0.8738774
      3195.0000        31.1978      -8.006914      0.8634792
      3195.5000        31.6344      -8.442633      0.8535765
      3196.0000        32.3502      -9.157555      0.8373283
      3196.5000        33.1979      -10.00437      0.8180825
      3197.0000        33.9191       -10.7247      0.8017115
      3197.5000        34.4614      -11.26611      0.7894065
      3198.0000        34.3433      -11.14713      0.7921106
      3198.5000        33.6176      -10.42055      0.8086239
      3199.0000        32.8921      -9.694174      0.8251324
      3199.5000        32.2057      -9.006891      0.8407525
