#------------------------------------------------------------------------------
# Created by    : vladimir.rabinovich
# Created on    : 09/19/2023 17:20:37
#------------------------------------------------------------------------------
~Version Information Section
VERS.           2.0     :   CWLS log ASCII Standard - VERSION 2.0
WRAP.           NO      :   One line per depth step
~Well Information Section
#MNEM       .UNIT                                         VALUE :DESCRIPTION
#------------------------------------------------------------------------------
STRT        .FT                                             254 :START DEPTH
STOP        .FT                                            9030 :STOP DEPTH
STEP        .FT                                             0.5 :STEP      
NULL        .                                           -999.25 :NULL      
COMP        .                                    MOBIL OIL CORP :COMPANY   
WELL        .                                OCS 00724 ST00BP00 :WELL      
FLD         .                                           WILDCAT :FIELD     
LOC         .                                                   :LOCATION  
CNTY        .                             GALVESTON LARGE BLOCK :LOCATION  
STAT        .                                             TEXAS :STATE     
CTRY        .                                     UNITED STATES :COUNTRY   
SRVC        .                                                   :SERVICE COMPANY
DATE        .                             9/13/2023 11:19:25 AM :LOG DATE  
API         .                                    42706000340000 :API NUMBER
UWI         .                                    42706000340000 :UNIQUE WELL ID
XCOORD      .                                  1011870.95166473 :SURFACE X 
YCOORD      .                                   10400634.765487 :SURFACE Y 
LAT         .                                         28.645607 :LATITUDE  
LON         .                                        -94.960058 :LONGITUDE 
ELEV        .FT                                              34 :ELEVATION VALUE
ELEV_TYPE   .                                                KB :ELEVATION REFERENCE TYPE
~Curve Information Section
#MNEM       .UNIT                                      API CODE :CURVE DESCRIPTION
#------------------------------------------------------------------------------
DEPT        .FT                                                 :DEPTH     
ASN         .OHMM                                               :          
CALI        .IN                                                 :          
CILD        .MMHO                                               :          
DT          .US/F                                               :          
ILD         .OHMM                                               :          
SP          .MV                                                 :          
SP_NORM     .MV                                                 :SP Normalized
VSH_SP      .V/V                                                :Volume of Shale from SP
~A        DEPTH            ASN           CALI           CILD             DT            ILD             SP        SP_NORM         VSH_SP
# ...
      1434.0000          0.916        -999.25       1259.135        -999.25         0.7979       -62.5288      -1.513981              1
      1434.5000         0.9031        -999.25       1272.453        -999.25         0.7884       -62.3094      -1.297894              1
      1435.0000         0.8865        -999.25        1285.77        -999.25         0.7789         -62.09       -1.08181              1
      1435.5000         0.8759        -999.25       1299.086        -999.25         0.7694       -61.8707     -0.8658257              1
      1436.0000         0.8785        -999.25       1309.889        -999.25         0.7599       -61.6661     -0.6645393              1
      1436.5000         0.7959        -999.25       1316.396        -999.25          0.751       -61.4908     -0.4925537              1
      1437.0000         0.8119        -999.25       1320.049        -999.25         0.7456       -61.3154     -0.3204689              1
      1437.5000         0.8368        -999.25       1318.666        -999.25         0.7403         -61.14     -0.1483841              1
      1438.0000         0.8209        -999.25       1318.584        -999.25         0.7349       -60.9647     0.02360153              1
      1438.5000          0.805        -999.25       1318.881        -999.25          0.737       -60.7893      0.1956863              1
      1439.0000         0.7782        -999.25       1322.271        -999.25         0.7517       -60.6841      0.2975693              1
      1439.5000         0.7636        -999.25       1330.514        -999.25         0.7664       -60.7169      0.2614555              1
      1440.0000         0.7564        -999.25       1338.756        -999.25         0.7811       -60.7497      0.2238197              1
      1440.5000         0.7676        -999.25       1339.762        -999.25         0.7958       -60.7825       0.178833              1
      1441.0000         0.7794        -999.25       1335.332        -999.25         0.8104       -60.8842     0.06494522              1
      1441.5000         0.7989        -999.25       1326.418        -999.25         0.8094       -61.0314    -0.09444046              1
      1442.0000         0.8092        -999.25       1314.484        -999.25         0.8068       -61.1786       -0.25383              1
      1442.5000         0.8361        -999.25       1302.549        -999.25         0.8042       -61.3017     -0.3891144              1
      1443.0000          0.818        -999.25       1286.951        -999.25         0.7951       -61.2024      -0.302002              1
      1443.5000            0.8        -999.25       1270.219        -999.25         0.7734       -61.0807     -0.1924896              1
      1444.0000         0.7645        -999.25        1271.52        -999.25         0.7517       -62.2761      -1.400078              1
      1444.5000         0.7267        -999.25       1298.254        -999.25         0.7299       -64.1235      -3.259663      0.8854852
      1445.0000         0.7065        -999.25       1325.576        -999.25         0.7082       -64.5031      -3.651447      0.8498684
      1445.5000         0.6937        -999.25       1359.045        -999.25         0.6865       -64.8348      -3.995338      0.8186056
      1446.0000          0.684        -999.25       1403.836        -999.25         0.6659       -65.1421      -4.314823      0.7895615
      1446.5000         0.6767        -999.25       1469.299        -999.25         0.6457       -65.4493      -4.634216      0.7605258
      1447.0000          0.666        -999.25       1511.791        -999.25         0.6256       -65.9723      -5.169395      0.7118731
      1447.5000         0.6468        -999.25       1556.008        -999.25         0.6056        -66.649      -5.858288      0.6492466
      1448.0000         0.6453        -999.25       1620.643        -999.25         0.5865       -65.8281      -5.049576      0.7227659
      1448.5000         0.6535        -999.25        1657.41        -999.25         0.5674       -63.6757      -2.909363      0.9173307
      1449.0000         0.6588        -999.25       1691.977        -999.25         0.5596       -63.4886      -2.734451      0.9332317
      1449.5000         0.6642        -999.25       1725.703        -999.25         0.5845       -63.3015      -2.559532      0.9491335
      1450.0000         0.6708        -999.25        1691.34        -999.25         0.6094       -63.0951      -2.365322      0.9667889
      1450.5000         0.6729        -999.25       1616.213        -999.25         0.6343       -62.6436       -1.92601              1
      1451.0000         0.6672        -999.25       1566.682        -999.25         0.6824       -62.1921      -1.486698              1
      1451.5000         0.6618        -999.25       1499.891        -999.25         0.7309       -61.7407      -1.047482              1
      1452.0000         0.6766        -999.25       1428.227        -999.25         0.7794       -61.2892     -0.6081696              1
      1452.5000         0.6921        -999.25        1321.09        -999.25         0.8278       -60.8377     -0.1688576              1
      1453.0000         0.7343        -999.25        1227.75        -999.25         0.8665       -60.3475      0.3091545              1
      1453.5000         0.8019        -999.25       1172.643        -999.25         0.9052       -59.8556       0.788868              1
      1454.0000         0.8206        -999.25       1110.336        -999.25         0.9439       -59.3635       1.268784              1
      1454.5000         0.8466        -999.25       1010.273        -999.25         0.9758        -58.872       1.748093              1
      1455.0000         0.8693        -999.25       976.5488        -999.25         1.0083       -58.3906       2.217308              1
      1455.5000          0.887        -999.25       945.5146        -999.25         1.0451       -58.0952       2.500519              1
      1456.0000         0.8684        -999.25       916.5645        -999.25         1.0165       -58.5354        2.04813              1
      1456.5000         0.8484        -999.25       892.1338        -999.25         0.8401       -58.9755       1.595848              1
      1457.0000         0.8272        -999.25       899.7021        -999.25         0.7817       -59.3998       1.159359              1
      1457.5000         0.7903        -999.25       932.8535        -999.25         0.7233       -59.6437      0.9032707              1
      1458.0000          0.753        -999.25       1010.547        -999.25         0.6719       -59.5038       1.030983              1
      1458.5000          0.716        -999.25       1139.541        -999.25         0.6256       -59.3639       1.158699              1
      1459.0000         0.6938        -999.25       1199.281        -999.25         0.5793       -59.4506       1.059811              1
      1459.5000         0.6858        -999.25       1269.264        -999.25           0.53       -60.3903      0.1079216              1
      1460.0000         0.6835        -999.25       1400.758        -999.25         0.4797       -61.3303      -0.844265              1
      1460.5000         0.6803        -999.25       1626.639        -999.25         0.4582       -62.1727      -1.698853              1
      1461.0000         0.6769        -999.25       1988.463        -999.25          0.442       -62.9962      -2.534538      0.9514056
      1461.5000         0.6519        -999.25       1997.096        -999.25         0.4276       -63.7274      -3.277927      0.8838248
      1462.0000         0.5945        -999.25        1997.58        -999.25         0.4173       -64.1848      -3.747513      0.8411352
      1462.5000         0.5587        -999.25       1998.066        -999.25          0.407       -64.6421      -4.216999      0.7984546
      1463.0000         0.5741        -999.25       1998.551        -999.25         0.3967       -64.6685      -4.255589      0.7949465
