#------------------------------------------------------------------------------
# Created by    : vladimir.rabinovich
# Created on    : 09/19/2023 17:22:54
#------------------------------------------------------------------------------
~Version Information Section
VERS.           2.0     :   CWLS log ASCII Standard - VERSION 2.0
WRAP.           NO      :   One line per depth step
~Well Information Section
#MNEM       .UNIT                                         VALUE :DESCRIPTION
#------------------------------------------------------------------------------
STRT        .FT                                            1705 :START DEPTH
STOP        .FT                                           10298 :STOP DEPTH
STEP        .FT                                             0.5 :STEP      
NULL        .                                           -999.25 :NULL      
COMP        .                            STANOLIND OIL & GAS CO :COMPANY   
WELL        .                                       ST TR 00219 :WELL      
FLD         .                                           WILDCAT :FIELD     
LOC         .                                                   :LOCATION  
CNTY        .                             GALVESTON LARGE BLOCK :LOCATION  
STAT        .                                             TEXAS :STATE     
CTRY        .                                     UNITED STATES :COUNTRY   
SRVC        .                                                   :SERVICE COMPANY
DATE        .                             9/13/2023 11:19:42 AM :LOG DATE  
API         .                                    42706000170000 :API NUMBER
UWI         .                                    42706000170000 :UNIQUE WELL ID
XCOORD      .                                  1024804.26554262 :SURFACE X 
YCOORD      .                                  10549089.4715911 :SURFACE Y 
LAT         .                                        29.0543948 :LATITUDE  
LON         .                                       -94.9272588 :LONGITUDE 
ELEV        .FT                                              60 :ELEVATION VALUE
ELEV_TYPE   .                                                GL :ELEVATION REFERENCE TYPE
~Curve Information Section
#MNEM       .UNIT                                      API CODE :CURVE DESCRIPTION
#------------------------------------------------------------------------------
DEPT        .FT                                                 :DEPTH     
LAT         .OHMM                                               :          
LN          .OHMM                                               :          
SN          .OHMM                                               :          
SP          .MV                                                 :          
SP_NORM     .MV                                                 :SP Normalized
VSH_SP      .V/V                                                :Volume of Shale from SP
~A        DEPTH            LAT             LN             SN             SP        SP_NORM         VSH_SP
# ...
      5695.0000         0.9546         0.6042         0.6475        -60.061      -1.499901              1
      5695.5000          0.944         0.5994         0.6427       -60.0884      -1.511196              1
      5696.0000          0.928         0.5966          0.638       -60.5782      -1.984894              1
      5696.5000          0.912         0.5939         0.6332        -61.068      -2.458588       0.993718
      5697.0000          0.896         0.5912         0.6303       -61.5446      -2.919083      0.9874098
      5697.5000         0.8739         0.5885         0.6407       -62.0025      -3.360874      0.9813579
      5698.0000         0.8517         0.5859         0.6512       -62.4603       -3.80257      0.9753072
      5698.5000         0.8295         0.5947         0.6616       -62.9182      -4.244366      0.9692553
      5699.0000         0.8073         0.6048          0.672        -63.376      -4.686058      0.9632047
      5699.5000         0.7851          0.615         0.6828       -63.8339      -5.127853      0.9571527
      5700.0000         0.7858         0.6251         0.6974       -63.4171       -4.69495      0.9630828
      5700.5000         0.7951         0.6356          0.712       -62.6958      -3.957546      0.9731843
      5701.0000         0.8045         0.6466         0.7266       -61.9745      -3.220139      0.9832858
      5701.5000         0.8138         0.6575         0.7412       -61.4722      -2.701733      0.9903872
      5702.0000         0.8231         0.6685         0.7559       -61.5403      -2.753727       0.989675
      5702.5000         0.8324         0.6794         0.7699       -61.9677      -3.165024      0.9840408
      5703.0000         0.8414         0.6791         0.7834       -63.3008      -4.482018      0.9659998
      5703.5000         0.8504         0.6736         0.7968       -64.6338      -5.798912      0.9479601
      5704.0000         0.8594          0.668         0.8103       -64.8308      -5.979813       0.945482
      5704.5000         0.8684         0.6624         0.8237       -64.4583      -5.591202      0.9508054
      5705.0000         0.8764         0.6565         0.8286       -64.1005        -5.2173      0.9559274
      5705.5000         0.8781         0.6506          0.825       -63.7803      -4.880993      0.9605343
      5706.0000         0.8798         0.6447         0.8213       -65.1606      -6.245186      0.9418468
      5706.5000         0.8815         0.6415         0.8177       -66.7468      -7.815285      0.9203386
      5707.0000         0.8832         0.6448         0.8016       -68.0514      -9.103775       0.902688
      5707.5000         0.8888         0.6481         0.7805       -68.6147      -9.650974      0.8951921
      5708.0000         0.9017         0.6513         0.7603       -67.2292      -8.249371      0.9143922
      5708.5000         0.9146         0.6546         0.7421       -65.8425      -6.846561      0.9336088
      5709.0000         0.9275         0.6579          0.724        -64.457      -5.444958      0.9528088
      5709.5000         0.9405         0.6612         0.7252       -63.0715       -4.04335      0.9720089
      5710.0000         0.9521         0.6645         0.7284       -62.9708      -3.926544       0.973609
      5710.5000         0.9575         0.6677         0.7316       -62.9656      -3.905239      0.9739009
      5711.0000         0.9629          0.671         0.7347        -63.278      -4.201534       0.969842
      5711.5000         0.9684         0.6743         0.7379       -63.7021      -4.609531       0.964253
      5712.0000         0.9738         0.6776         0.7422        -64.127      -5.018326      0.9586531
      5712.5000         0.9792         0.6809         0.7467        -64.684      -5.559219      0.9512436
      5713.0000          0.973         0.6842         0.7511       -65.4982      -6.357315      0.9403108
      5713.5000         0.9588         0.6874         0.7556       -65.3574      -6.200409      0.9424602
      5714.0000         0.9447         0.6879         0.7601       -64.8767      -5.703606      0.9492657
      5714.5000         0.9305         0.6881         0.7534       -64.3955      -5.206299      0.9560781
      5715.0000         0.9254         0.6883         0.7426       -64.9645      -5.759193      0.9485042
      5715.5000         0.9202         0.6886         0.7318       -67.3774      -8.155994      0.9156713
      5716.0000         0.9151         0.6888          0.721       -69.7197      -10.48219      0.8838056
      5716.5000           0.91          0.689         0.7138         -71.59      -12.33638      0.8584058
      5717.0000         0.9201         0.6898         0.7079       -73.0769      -13.80717      0.8382579
      5717.5000         0.9339         0.6942          0.702        -71.314      -12.02817      0.8626278
      5718.0000         0.9476         0.6986         0.6961       -69.5532      -10.25126       0.886969
      5718.5000          0.961          0.703         0.6902       -68.2281      -8.910061      0.9053416
      5719.0000         0.9612         0.7075         0.6947       -67.4307      -8.096554      0.9164855
      5719.5000         0.9605         0.7119         0.6998       -67.4988      -8.148552      0.9157733
      5720.0000         0.9339         0.7163         0.7049       -67.1003      -7.733948      0.9214528
      5720.5000         0.9074         0.7203         0.7101       -65.9236      -6.541138      0.9377927
      5721.0000         0.8964         0.7223         0.7152       -64.7501      -5.351532      0.9540886
      5721.5000         0.8887         0.7242         0.7203       -63.9507      -4.536026      0.9652599
      5722.0000         0.8825         0.7262         0.7159        -63.152      -3.721222      0.9764216
      5722.5000         0.9197         0.7281          0.711       -62.6653      -3.218414      0.9833094
      5723.0000         0.9569         0.7301         0.7062       -62.5869      -3.123909       0.984604
      5723.5000         0.9719          0.732         0.7014       -62.6584       -3.17931      0.9838451
      5724.0000         0.9832         0.7339         0.6965       -62.9191      -3.423904      0.9804944
      5724.5000          0.963         0.7359         0.6912        -63.063      -3.551697      0.9787439
      5725.0000         0.9377         0.7378         0.6832       -62.8481       -3.32069      0.9819084
      5725.5000         0.9214         0.7398         0.6753       -62.6334      -3.089886        0.98507
      5726.0000         0.9308         0.7417         0.6674       -63.1297       -3.57008      0.9784921
      5726.5000         0.9402         0.7436         0.6609       -64.4536      -4.877872      0.9605771
      5727.0000         0.9569         0.7466         0.6557       -65.7958      -6.203968      0.9424114
      5727.5000         0.9748         0.7513         0.6504       -67.4539       -7.84597      0.9199182
      5728.0000         0.9927          0.756         0.6451       -69.0344      -9.410362      0.8984882
      5728.5000         1.0106         0.7606         0.6439       -67.9613      -8.321159      0.9134088
      5729.0000         1.0285         0.7653         0.6458       -66.9709      -7.314651      0.9271966
      5729.5000         1.0289           0.77         0.6477       -66.2286      -6.556244      0.9375857
      5730.0000         1.0274         0.7747         0.6496       -65.9543      -6.265839      0.9415638
      5730.5000         1.0259         0.7868         0.6519       -66.9407       -7.23613      0.9282722
      5731.0000         1.0243         0.8008         0.6557       -67.9545      -8.233829      0.9146051
      5731.5000         1.0174         0.8148         0.6596       -69.3982      -9.661427       0.895049
      5732.0000         1.0053         0.8162         0.6635       -69.2579      -9.505016      0.8971916
      5732.5000         0.9932         0.8095         0.6693       -68.5791      -8.810116      0.9067107
