#------------------------------------------------------------------------------
# Created by    : vladimir.rabinovich
# Created on    : 09/19/2023 17:21:40
#------------------------------------------------------------------------------
~Version Information Section
VERS.           2.0     :   CWLS log ASCII Standard - VERSION 2.0
WRAP.           NO      :   One line per depth step
~Well Information Section
#MNEM       .UNIT                                         VALUE :DESCRIPTION
#------------------------------------------------------------------------------
STRT        .FT                                             957 :START DEPTH
STOP        .FT                                           10053 :STOP DEPTH
STEP        .FT                                             0.5 :STEP      
NULL        .                                           -999.25 :NULL      
COMP        .                                    EXXON CO U S A :COMPANY   
WELL        .                               OCS G03237 ST00BP00 :WELL      
FLD         .                                           WILDCAT :FIELD     
LOC         .                                                   :LOCATION  
CNTY        .                           HIGH ISLAND LARGE BLOCK :LOCATION  
STAT        .                                             TEXAS :STATE     
CTRY        .                                     UNITED STATES :COUNTRY   
SRVC        .                                                   :SERVICE COMPANY
DATE        .                             9/13/2023 11:20:04 AM :LOG DATE  
API         .                                    42708400420000 :API NUMBER
UWI         .                                    42708400420000 :UNIQUE WELL ID
XCOORD      .                                  1163347.66403634 :SURFACE X 
YCOORD      .                                  10583934.5995257 :SURFACE Y 
LAT         .                                         29.155753 :LATITUDE  
LON         .                                        -94.495054 :LONGITUDE 
ELEV        .FT                                              94 :ELEVATION VALUE
ELEV_TYPE   .                                                KB :ELEVATION REFERENCE TYPE
~Curve Information Section
#MNEM       .UNIT                                      API CODE :CURVE DESCRIPTION
#------------------------------------------------------------------------------
DEPT        .FT                                                 :DEPTH     
CALI        .IN                                                 :          
DRHO        .G/C3                                               :          
DT          .US/F                                               :          
GR          .GAPI                                               :          
GR_1        .GAPI                                               :          
GR_NORM     .GAPI                                               :GammaRay Normalized
ILD         .OHMM                                               :          
NPHI        .%                                                  :          
RHOB        .G/C3                                               :          
SFL         .OHMM                                               :          
SP          .MV                                                 :          
SP_NORM     .MV                                                 :SP Normalized
VSH_GR      .V/V                                                :Volume of Shale from GR
VSH_SP      .V/V                                                :Volume of Shale from SP
~A        DEPTH           CALI           DRHO             DT             GR           GR_1        GR_NORM            ILD           NPHI           RHOB            SFL             SP        SP_NORM         VSH_GR         VSH_SP
# ...
      5259.0000        13.9207         0.0063       119.0791        52.1655        -999.25       56.19659         0.3473        40.9924         2.1895         0.4767       -88.6527      -41.54023      0.4935444       0.385754
      5259.5000        13.8172         0.0078       118.3711        51.3917        -999.25       55.13874         0.3243        40.7229         2.1931         0.4734        -85.201         -38.09       0.471037      0.4380303
      5260.0000        13.7998         0.0095       117.8066        50.6391        -999.25       54.10976         0.3025        40.2812         2.1833         0.6666       -88.5833      -41.47377      0.4491438       0.386761
      5260.5000         13.798         0.0121       116.7393        51.0502        -999.25       54.66642         0.2836        38.4341          2.178         0.8393       -88.9716      -41.86355      0.4609877      0.3808553
      5261.0000        13.7882         0.0174        114.861        53.1639        -999.25       57.54299         0.2759        36.1989         2.2004         0.8236       -87.1964      -40.08982      0.5221913      0.4077299
      5261.5000        13.7668         0.0184       113.1766        55.3258        -999.25       60.48526          0.281        35.3958         2.2292         0.6047       -82.3562      -35.25109      0.5847927       0.481044
      5262.0000         13.739         0.0115       112.1597        52.9114        -999.25       57.19195         0.2945        35.5847         2.2739           0.49       -77.1959      -30.09227      0.5147223      0.5592081
      5262.5000        13.6832         0.0229       110.3131        49.6221        -999.25       52.70653         0.3207        35.0991         2.2878         0.4804       -74.4929      -27.39074      0.4192879      0.6001404
      5263.0000        13.6781         0.0274       104.2625        46.5209        -999.25       48.47741         0.3561        32.0615         2.3045         0.5245       -75.5647      -28.46401      0.3293067      0.5838786
      5263.5000        13.6688          0.016        96.5352        43.4667        -999.25       44.31234         0.3981        29.3221         2.3959         0.6507       -72.1101      -25.01088      0.2406881      0.6361988
      5264.0000        13.7202         0.0041        87.8374        43.2155        -999.25       43.96655         0.4384        25.0627         2.4289         1.1069       -68.4086      -21.31086      0.2333309      0.6922598
      5264.5000        13.7742        -0.0048        92.5048        44.3775        -999.25       45.54637         0.4741        23.6633         2.3774         1.9755       -68.7162      -21.61993       0.266944      0.6875768
      5265.0000        13.8261         0.0081        91.5643        45.3248        -999.25       46.83364         0.4981        26.2049         2.3053         1.9987       -70.2047       -23.1099      0.2943329      0.6650016
      5265.5000        13.7854         0.0145        85.9865        46.8327        -999.25       48.88477         0.5058        30.9699         2.2621          0.947       -72.7155      -25.62217      0.3379739      0.6269368
      5266.0000        13.6613         0.0137        95.6444        49.4958        -999.25       52.50996         0.4944        36.4844         2.2222         0.7709       -74.7212      -27.62934      0.4151055      0.5965251
      5266.5000        13.6465         0.0129       111.9352        52.5352        -999.25       56.64787         0.4631        37.6634          2.206          0.735        -75.307      -28.21662      0.5031462       0.587627
      5267.0000        13.6202          0.015       116.6796        55.1959        -999.25       60.26978         0.4337        38.1107         2.2107         0.7195       -75.0819      -27.99299       0.580208      0.5910153
      5267.5000        13.5375         0.0171       119.1389        57.1808        -999.25       62.97086         0.4092        38.8445         2.2256         0.6639       -73.1471      -26.05967      0.6376778      0.6203081
      5268.0000         13.582         0.0211       121.0881        57.0256        -999.25       62.75589         0.3854        40.2426         2.2497         0.5846       -68.8998      -21.81384      0.6331041      0.6846388
      5268.5000        13.6383         0.0297       122.4266        55.2553        -999.25       60.34023          0.367        41.6093         2.2605         0.5159       -65.1288      -18.04431       0.581707      0.7417529
      5269.0000         13.705         0.0327       123.3241        51.7209        -999.25       55.52084         0.3632        42.2689         2.2511         0.4592       -60.2972      -13.21418      0.4791668      0.8149366
      5269.5000        13.7726         0.0241        123.928        47.8301        -999.25       50.21582         0.3661        41.6003         2.2282         0.4161       -61.8738      -14.79225      0.3662941      0.7910265
      5270.0000        13.7628         0.0142        123.655        45.3669        -999.25       46.85604         0.3708        39.2744         2.2095         0.4821       -67.5055      -20.42543      0.2948093      0.7056754
      5270.5000        13.7169         0.0092       122.6481        46.5469        -999.25       48.46038         0.3761          35.25         2.1987         0.7387       -75.0226        -27.944      0.3289442      0.5917577
      5271.0000        13.7005         0.0054       121.4432        48.7039        -999.25       51.39595         0.3813        33.7665         2.2014         0.8596       -79.1112      -32.03407      0.3914032      0.5297868
      5271.5000        13.7013         0.0062       120.5072        51.2284        -999.25       54.83228         0.3843        33.4134         2.2191         0.9297       -81.6838      -34.60814      0.4645166      0.4907857
      5272.0000        13.6815         0.0069       119.3988        52.5463        -999.25       56.62452         0.3874        33.8461         2.2325         0.8928       -83.8149      -36.74072      0.5026492       0.458474
      5272.5000        13.6458         0.0096       118.1338        53.1398        -999.25       57.42971         0.3918        34.4362         2.2403         0.7667       -80.7957      -33.72299      0.5197812      0.5041971
      5273.0000        13.6181         0.0122       117.2531        52.8297        -999.25       57.00367          0.399        34.8087         2.2359         0.6432        -77.387      -30.31576      0.5107164      0.5558218
      5273.5000        13.6238         0.0102       117.2686        51.6664        -999.25        55.4151         0.4074        34.5663         2.2253         0.5447       -75.6497      -28.57993      0.4769169      0.5821223
      5274.0000        13.5772         0.0092       118.4336        50.5849        -999.25       53.93797         0.4115        34.2506         2.2127         0.5179       -76.1576      -29.08931      0.4454887      0.5744045
      5274.5000        13.5617         0.0093       117.6075        49.5899        -999.25       52.57871         0.4108        33.5613         2.2089         0.6291       -80.3665      -33.29968      0.4165683      0.5106109
      5275.0000        13.5765         0.0103       113.5623        48.6828        -999.25       51.33922         0.4068        32.5135         2.2123         0.7749       -83.8101      -36.74475      0.3901961      0.4584129
      5275.5000        13.5983         0.0095       107.8202        48.2781        -999.25       50.78429         0.4003        31.4748          2.219         0.9032       -87.7894      -40.72552      0.3783891      0.3980982
      5276.0000        13.6391         0.0102       104.1754        48.8035        -999.25       51.49669         0.3913        31.9767         2.2208         0.9722       -91.5901       -44.5277      0.3935466      0.3404894
      5276.5000         13.602         0.0126       103.6505        49.7335        -999.25       52.76039         0.3793        33.1679         2.2125         0.9364       -93.1522      -46.09127      0.4204338       0.316799
