#------------------------------------------------------------------------------
# Created by    : vladimir.rabinovich
# Created on    : 09/19/2023 17:20:04
#------------------------------------------------------------------------------
~Version Information Section
VERS.           2.0     :   CWLS log ASCII Standard - VERSION 2.0
WRAP.           NO      :   One line per depth step
~Well Information Section
#MNEM       .UNIT                                         VALUE :DESCRIPTION
#------------------------------------------------------------------------------
STRT        .FT                                             900 :START DEPTH
STOP        .FT                                            8286 :STOP DEPTH
STEP        .FT                                             0.5 :STEP      
NULL        .                                           -999.25 :NULL      
COMP        .                                       ALLIED CORP :COMPANY   
WELL        .                               OCS G04069 ST00BP00 :WELL      
FLD         .                                           WILDCAT :FIELD     
LOC         .                                                   :LOCATION  
CNTY        .                             GALVESTON LARGE BLOCK :LOCATION  
STAT        .                                             TEXAS :STATE     
CTRY        .                                     UNITED STATES :COUNTRY   
SRVC        .                                                   :SERVICE COMPANY
DATE        .                             9/13/2023 11:18:53 AM :LOG DATE  
API         .                                    42706400840000 :API NUMBER
UWI         .                                    42706400840000 :UNIQUE WELL ID
XCOORD      .                                  987200.391396966 :SURFACE X 
YCOORD      .                                   10401886.486665 :SURFACE Y 
LAT         .                                         28.647914 :LATITUDE  
LON         .                                        -95.037018 :LONGITUDE 
ELEV        .FT                                              83 :ELEVATION VALUE
ELEV_TYPE   .                                                KB :ELEVATION REFERENCE TYPE
~Curve Information Section
#MNEM       .UNIT                                      API CODE :CURVE DESCRIPTION
#------------------------------------------------------------------------------
DEPT        .FT                                                 :DEPTH     
ASFL        .OHMM                                               :          
CILD        .MMHO                                               :          
DPHI        .%                                                  :          
DT          .US/F                                               :          
GR          .GAPI                                               :          
GR_NORM     .GAPI                                               :GammaRay Normalized
ILD         .OHMM                                               :          
SP          .MV                                                 :          
SP_NORM     .MV                                                 :SP Normalized
VSH_GR      .V/V                                                :Volume of Shale from GR
VSH_SP      .V/V                                                :Volume of Shale from SP
~A        DEPTH           ASFL           CILD           DPHI             DT             GR        GR_NORM            ILD             SP        SP_NORM         VSH_GR         VSH_SP
# ...
      2857.5000         0.9039       1139.414        -999.25        147.271        69.6189       75.38918         0.8492       -55.9896      -3.159374      0.9018974      0.9513943
      2858.0000          0.901       1146.217        -999.25       147.4138        68.9924       74.76836         0.8466       -56.1383      -3.313526      0.8886884      0.9490227
      2858.5000         0.8914       1153.018        -999.25       147.9329        68.3661       74.14772         0.8441        -56.406      -3.586678      0.8754834      0.9448203
      2859.0000         0.8808        1159.82        -999.25       148.7246        67.7396        73.5269         0.8415       -56.6737      -3.859829      0.8622745       0.940618
      2859.5000         0.8729       1166.619        -999.25       149.5083         67.594       73.38261         0.8384       -56.9415      -4.133087      0.8592044      0.9364141
      2860.0000         0.8724       1173.422        -999.25       150.0671        68.7889        74.5667         0.8346       -57.2664      -4.463436      0.8843978      0.9313318
      2860.5000         0.8763       1181.211        -999.25       150.2566        70.6528       76.41373         0.8309       -57.5416      -4.744091      0.9236963       0.927014
      2861.0000         0.8803       1189.322        -999.25       150.3164        72.5155       78.25957         0.8271       -57.3507      -4.558643      0.9629695       0.929867
      2861.5000         0.8805       1197.438        -999.25       150.1912        74.3781        80.1053         0.8234         -57.16      -4.373398              1       0.932717
      2862.0000         0.8732       1205.553        -999.25       149.9114        76.3064       82.01614         0.8196       -56.9319      -4.150749              1      0.9361423
      2862.5000         0.8659       1213.666        -999.25       149.1997        78.2583       83.95036         0.8158       -56.5242      -3.748505              1      0.9423307
      2863.0000         0.8586       1213.174        -999.25       147.7129        77.5148       83.21359         0.8121       -56.6995      -3.929256              1      0.9395499
      2863.5000         0.8513       1206.094        -999.25        147.998        76.2947       82.00454         0.8146       -56.8749      -4.110107              1      0.9367676
      2864.0000         0.8536       1199.014        -999.25       148.6406        72.6604       78.40314          0.819       -57.0502      -4.290863      0.9660242      0.9339867
      2864.5000          0.861       1185.594        -999.25        149.355        68.5162       74.29646         0.8235       -57.2251      -4.471214      0.8786482      0.9312121
      2865.0000          0.872       1168.439        -999.25       149.5378        67.0787       72.87198          0.828       -57.3998      -4.651367        0.84834      0.9284405
      2865.5000         0.8831       1151.287        -999.25       149.0635        69.1632       74.93761         0.8325       -57.5745       -4.83152      0.8922895      0.9256689
      2866.0000         0.8941       1134.133        -999.25       148.2083        71.2465       77.00204          0.837       -57.7491      -5.011574      0.9362137      0.9228989
      2866.5000         0.9051        1116.98        -999.25       146.9951        73.3309       79.06757         0.8424       -57.7851      -5.053024      0.9801611      0.9222612
      2867.0000         0.9162       1099.832        -999.25        145.894        74.9135       80.63584          0.848       -57.2688      -4.542179              1      0.9301203
      2867.5000         0.9251        1082.68        -999.25       145.1667        76.3907       82.09968         0.8537       -56.7527      -4.031532              1      0.9379764
      2868.0000         0.9331       1065.527        -999.25        144.564        77.8673        83.5629         0.8593       -56.3784      -3.662682              1      0.9436511
      2868.5000         0.9411        1053.82        -999.25       144.0525         78.829        84.5159         0.8649       -56.4035      -3.693237              1       0.943181
      2869.0000         0.9367       1054.336        -999.25       143.7839        77.6133        83.3112         0.8706       -56.7224       -4.01759              1      0.9381909
      2869.5000         0.9312       1054.852        -999.25       143.4585        76.3975       82.10641         0.8728       -57.0616      -4.362244              1      0.9328886
      2870.0000         0.9246       1066.389        -999.25       142.8687        75.1818       80.90172         0.8736       -57.5588      -4.864895              1      0.9251555
      2870.5000         0.9176       1081.805        -999.25       142.1816         72.606       78.34924         0.8744        -58.056       -5.36755      0.9648775      0.9174223
      2871.0000         0.9106       1097.221        -999.25       142.4976        68.7716       74.54956         0.8753       -58.5529        -5.8699      0.8840332      0.9096938
      2871.5000         0.9037       1112.639        -999.25       143.2019         65.397       71.20551         0.8688       -59.0439      -6.366356      0.8128831       0.902056
      2872.0000         0.8983       1128.055        -999.25       144.1348        63.9174        69.7393         0.8599       -59.5151      -6.843006      0.7816873       0.894723
      2872.5000         0.8997       1143.465        -999.25       145.5481        64.0222       69.84315         0.8511        -59.986      -7.319363      0.7838967      0.8873944
      2873.0000         0.9012       1158.881        -999.25       146.6758        65.0426       70.85433         0.8422       -60.2993      -7.638115      0.8054113      0.8824905
      2873.5000         0.9055       1174.297        -999.25        147.573         66.153       71.95466         0.8333        -60.501      -7.845264      0.8288225      0.8793036
      2874.0000         0.9093       1189.713        -999.25       147.0911        67.2634         73.055         0.8245       -60.7026      -8.052319      0.8522341      0.8761182
      2874.5000         0.9004       1202.537        -999.25       146.5068        68.3732       74.15475         0.8156       -60.6302      -7.985371      0.8756331      0.8771482
      2875.0000         0.8914       1208.939        -999.25       145.6218        69.6372       75.40732         0.8067       -60.5006      -7.861225      0.9022834      0.8790581
      2875.5000         0.8825       1215.346        -999.25       145.5769        70.9266       76.68504         0.7979       -60.3842      -7.750278      0.9294689       0.880765
      2876.0000         0.8745       1221.748        -999.25       145.1643        72.2162       77.96297         0.7919       -60.2678      -7.639332      0.9566589      0.8824718
      2876.5000         0.8681       1228.152        -999.25       145.5461        73.5056       79.24069         0.7874       -60.1514      -7.528385      0.9838445      0.8841787
      2877.0000          0.873       1234.555        -999.25       146.8594        74.4779       80.20419          0.783       -60.3444      -7.726837              1      0.8811256
      2877.5000         0.8779       1240.961        -999.25       147.7378        75.2642       80.98337         0.7785       -60.5866      -7.974491              1      0.8773155
      2878.0000         0.8828       1247.363        -999.25       148.1958        76.0505       81.76255         0.7741       -60.8286      -8.221947              1      0.8735085
      2878.5000         0.8877       1242.424        -999.25       148.6829        76.8337       82.53867         0.7696       -61.0708      -8.469597              1      0.8696985
      2879.0000         0.8926       1227.328        -999.25       149.2957         77.598       83.29604         0.7651       -61.2016      -8.605846              1      0.8676023
      2879.5000         0.8945       1212.238        -999.25       149.5688        78.3624       84.05353         0.7607       -61.1918      -8.601501              1      0.8676692
